{"features": [{"geometry": {"coordinates": [8.540062, 47.374392], "type": "Point"}, "properties": {"address": "Uraniastrasse 7", "electric": 2, "id": "pb_60", "manual": 4, "name": "Demo Station Werdm\u00fchleplatz", "provider": "publibike", "timeStamp": "02/03/2020, 22:08:48", "zip": 8001}, "type": "Feature"}, {"geometry": {"coordinates": [8.5452956, 47.4099615], "type": "Point"}, "properties": {"address": "Querstrasse 8", "electric": 5, "id": "pb_61", "manual": 3, "name": "Marktplatz", "provider": "publibike", "timeStamp": "02/03/2020, 22:08:48", "zip": 8050}, "type": "Feature"}, {"geometry": {"coordinates": [8.5156327, 47.3795837], "type": "Point"}, "properties": {"address": "Bullingerstrasse 5", "electric": 4, "id": "pb_80", "manual": 5, "name": "Bullingerplatz", "provider": "publibike", "timeStamp": "02/03/2020, 22:08:48", "zip": 8004}, "type": "Feature"}, {"geometry": {"coordinates": [8.5104051, 47.3899342], "type": "Point"}, "properties": {"address": "Pfingstweidstrasse 96e", "electric": 0, "id": "pb_81", "manual": 5, "name": "Herdern", "provider": "publibike", "timeStamp": "02/03/2020, 22:08:48", "zip": 8001}, "type": "Feature"}, {"geometry": {"coordinates": [8.535718, 47.359675], "type": "Point"}, "properties": {"address": "Mythenquai 50", "electric": 0, "id": "pb_82", "manual": 0, "name": "Hafen Enge", "provider": "publibike", "timeStamp": "02/03/2020, 22:08:48", "zip": 8002}, "type": "Feature"}, {"geometry": {"coordinates": [8.520370505, 47.358663827], "type": "Point"}, "properties": {"address": "Bubenbergstrasse 1", "electric": 4, "id": "pb_83", "manual": 5, "name": "Comerge", "provider": "publibike", "timeStamp": "02/03/2020, 22:08:48", "zip": 8045}, "type": "Feature"}, {"geometry": {"coordinates": [8.5412505, 47.3789825], "type": "Point"}, "properties": {"address": "Museumstrasse 2", "electric": 3, "id": "pb_84", "manual": 18, "name": "Landesmuseum", "provider": "publibike", "timeStamp": "02/03/2020, 22:08:48", "zip": 8001}, "type": "Feature"}, {"geometry": {"coordinates": [8.5235479, 47.3716661], "type": "Point"}, "properties": {"address": "Birmensdorferstrasse 80", "electric": 3, "id": "pb_85", "manual": 2, "name": "Bahnhof Wiedikon", "provider": "publibike", "timeStamp": "02/03/2020, 22:08:48", "zip": 8003}, "type": "Feature"}, {"geometry": {"coordinates": [8.506822854, 47.40781197], "type": "Point"}, "properties": {"address": "Stefano-Franscini-Platz 5", "electric": 2, "id": "pb_86", "manual": 0, "name": "ETH H\u00f6nggerberg", "provider": "publibike", "timeStamp": "02/03/2020, 22:08:48", "zip": 8093}, "type": "Feature"}, {"geometry": {"coordinates": [8.536101, 47.371083], "type": "Point"}, "properties": {"address": "Pelikanplatz 5", "electric": 1, "id": "pb_87", "manual": 10, "name": "Pelikanplatz", "provider": "publibike", "timeStamp": "02/03/2020, 22:08:48", "zip": 8001}, "type": "Feature"}, {"geometry": {"coordinates": [8.5257822, 47.3651936], "type": "Point"}, "properties": {"address": "H\u00fcrlimannplatz 90", "electric": 0, "id": "pb_88", "manual": 0, "name": "H\u00fcrlimannplatz", "provider": "publibike", "timeStamp": "02/03/2020, 22:08:48", "zip": 8002}, "type": "Feature"}, {"geometry": {"coordinates": [8.5313344, 47.3713591], "type": "Point"}, "properties": {"address": "Selnaustrasse 32", "electric": 1, "id": "pb_89", "manual": 8, "name": "Stauffacherbr\u00fccke", "provider": "publibike", "timeStamp": "02/03/2020, 22:08:48", "zip": 8001}, "type": "Feature"}, {"geometry": {"coordinates": [8.5056978, 47.3917964], "type": "Point"}, "properties": {"address": "Sportweg 25", "electric": 0, "id": "pb_90", "manual": 4, "name": "Sportweg", "provider": "publibike", "timeStamp": "02/03/2020, 22:08:48", "zip": 8005}, "type": "Feature"}, {"geometry": {"coordinates": [8.5181701, 47.3917837], "type": "Point"}, "properties": {"address": "Hardturmstrasse 11", "electric": 1, "id": "pb_91", "manual": 1, "name": "Puls 5", "provider": "publibike", "timeStamp": "02/03/2020, 22:08:48", "zip": 8005}, "type": "Feature"}, {"geometry": {"coordinates": [8.5286468, 47.3820827], "type": "Point"}, "properties": {"address": "R\u00f6ntgenstrasse 6", "electric": 2, "id": "pb_92", "manual": 8, "name": "R\u00f6ntgenstrasse", "provider": "publibike", "timeStamp": "02/03/2020, 22:08:48", "zip": 8005}, "type": "Feature"}, {"geometry": {"coordinates": [8.531935, 47.384918], "type": "Point"}, "properties": {"address": "Kornhausbr\u00fccke 1", "electric": 2, "id": "pb_93", "manual": 0, "name": "Limmatplatz", "provider": "publibike", "timeStamp": "02/03/2020, 22:08:48", "zip": 8005}, "type": "Feature"}, {"geometry": {"coordinates": [8.5354006, 47.3758639], "type": "Point"}, "properties": {"address": "Gessnerallee 15", "electric": 4, "id": "pb_94", "manual": 2, "name": "Gessnerallee", "provider": "publibike", "timeStamp": "02/03/2020, 22:08:48", "zip": 8001}, "type": "Feature"}, {"geometry": {"coordinates": [8.523818, 47.377148], "type": "Point"}, "properties": {"address": "Stauffacherstrasse 127", "electric": 3, "id": "pb_95", "manual": 5, "name": "B\u00e4ckeranlage", "provider": "publibike", "timeStamp": "02/03/2020, 22:08:48", "zip": 8004}, "type": "Feature"}, {"geometry": {"coordinates": [8.531836, 47.378548], "type": "Point"}, "properties": {"address": "Lagerstrasse 44", "electric": 0, "id": "pb_96", "manual": 0, "name": "Gustav-Gull-Platz", "provider": "publibike", "timeStamp": "02/03/2020, 22:08:48", "zip": 8004}, "type": "Feature"}, {"geometry": {"coordinates": [8.5104883, 47.3771535], "type": "Point"}, "properties": {"address": "Zurlindenstrasse 291", "electric": 3, "id": "pb_97", "manual": 5, "name": "Zurlindenstrasse", "provider": "publibike", "timeStamp": "02/03/2020, 22:08:48", "zip": 8003}, "type": "Feature"}, {"geometry": {"coordinates": [8.5333139, 47.3731102], "type": "Point"}, "properties": {"address": "Sihlstrasse 81", "electric": 1, "id": "pb_98", "manual": 0, "name": "Sihlstrasse", "provider": "publibike", "timeStamp": "02/03/2020, 22:08:48", "zip": 8001}, "type": "Feature"}, {"geometry": {"coordinates": [8.520532, 47.374951], "type": "Point"}, "properties": {"address": "Feldstrasse 24", "electric": 0, "id": "pb_99", "manual": 2, "name": "Kalkbreite", "provider": "publibike", "timeStamp": "02/03/2020, 22:08:48", "zip": 8004}, "type": "Feature"}, {"geometry": {"coordinates": [8.539046, 47.368064], "type": "Point"}, "properties": {"address": "Talstrasse 12", "electric": 2, "id": "pb_100", "manual": 8, "name": "Z\u00fcrcher Kantonalbank", "provider": "publibike", "timeStamp": "02/03/2020, 22:08:48", "zip": 8001}, "type": "Feature"}, {"geometry": {"coordinates": [8.5348427, 47.3625938], "type": "Point"}, "properties": {"address": "Breitingerstrasse 5", "electric": 0, "id": "pb_101", "manual": 0, "name": "Rentenanstalt", "provider": "publibike", "timeStamp": "02/03/2020, 22:08:48", "zip": 8002}, "type": "Feature"}, {"geometry": {"coordinates": [8.5166922, 47.3897772], "type": "Point"}, "properties": {"address": "Technoparkstrasse 4", "electric": 0, "id": "pb_102", "manual": 0, "name": "Turbinenplatz", "provider": "publibike", "timeStamp": "02/03/2020, 22:08:48", "zip": 8005}, "type": "Feature"}, {"geometry": {"coordinates": [8.539312, 47.3739964], "type": "Point"}, "properties": {"address": "Oetenbachgasse 14", "electric": 2, "id": "pb_104", "manual": 10, "name": "Rennweg", "provider": "publibike", "timeStamp": "02/03/2020, 22:08:48", "zip": 8001}, "type": "Feature"}, {"geometry": {"coordinates": [8.5360685, 47.3775022], "type": "Point"}, "properties": {"address": "Kasernenstrasse 101", "electric": 3, "id": "pb_105", "manual": 32, "name": "Sihlpost", "provider": "publibike", "timeStamp": "02/03/2020, 22:08:48", "zip": 8004}, "type": "Feature"}, {"geometry": {"coordinates": [8.53545, 47.382798], "type": "Point"}, "properties": {"address": "Ausstellungsstrasse 44", "electric": 9, "id": "pb_106", "manual": 2, "name": "Museum f\u00fcr Gestaltung", "provider": "publibike", "timeStamp": "02/03/2020, 22:08:48", "zip": 8005}, "type": "Feature"}, {"geometry": {"coordinates": [8.5306155, 47.3647902], "type": "Point"}, "properties": {"address": "Gutenbergstrasse 1", "electric": 0, "id": "pb_107", "manual": 5, "name": "Bederbr\u00fccke", "provider": "publibike", "timeStamp": "02/03/2020, 22:08:48", "zip": 8002}, "type": "Feature"}, {"geometry": {"coordinates": [8.518982, 47.386741], "type": "Point"}, "properties": {"address": "Geroldstrasse 4", "electric": 5, "id": "pb_108", "manual": 5, "name": "Bahnhof Hardbr\u00fccke", "provider": "publibike", "timeStamp": "02/03/2020, 22:08:48", "zip": 8005}, "type": "Feature"}, {"geometry": {"coordinates": [8.53001018, 47.37247535], "type": "Point"}, "properties": {"address": "Werdstrasse 21", "electric": 0, "id": "pb_109", "manual": 0, "name": "Tamedia", "provider": "publibike", "timeStamp": "02/03/2020, 22:08:48", "zip": 8004}, "type": "Feature"}, {"geometry": {"coordinates": [8.4860017, 47.396401], "type": "Point"}, "properties": {"address": "Gr\u00fcnauring 37", "electric": 4, "id": "pb_110", "manual": 2, "name": "Gr\u00fcnau", "provider": "publibike", "timeStamp": "02/03/2020, 22:08:48", "zip": 8064}, "type": "Feature"}, {"geometry": {"coordinates": [8.548519, 47.376756], "type": "Point"}, "properties": {"address": "R\u00e4mistrasse 101", "electric": 0, "id": "pb_111", "manual": 0, "name": "ETH Zentrum", "provider": "publibike", "timeStamp": "02/03/2020, 22:08:48", "zip": 8006}, "type": "Feature"}, {"geometry": {"coordinates": [8.520449, 47.388151], "type": "Point"}, "properties": {"address": "Josefstrasse 224", "electric": 3, "id": "pb_112", "manual": 0, "name": "Steinfelsareal", "provider": "publibike", "timeStamp": "02/03/2020, 22:08:48", "zip": 8005}, "type": "Feature"}, {"geometry": {"coordinates": [8.520482, 47.37209], "type": "Point"}, "properties": {"address": "Weststrasse 115", "electric": 10, "id": "pb_124", "manual": 2, "name": "Weststrasse", "provider": "publibike", "timeStamp": "02/03/2020, 22:08:48", "zip": 8003}, "type": "Feature"}, {"geometry": {"coordinates": [8.496727, 47.378521], "type": "Point"}, "properties": {"address": "Albisriederstrasse 200", "electric": 2, "id": "pb_125", "manual": 1, "name": "Utogrund", "provider": "publibike", "timeStamp": "02/03/2020, 22:08:48", "zip": 8047}, "type": "Feature"}, {"geometry": {"coordinates": [8.510418, 47.381356], "type": "Point"}, "properties": {"address": "Bullingerstrasse 73", "electric": 4, "id": "pb_126", "manual": 12, "name": "Hardau", "provider": "publibike", "timeStamp": "02/03/2020, 22:08:48", "zip": 8004}, "type": "Feature"}, {"geometry": {"coordinates": [8.525525, 47.361567], "type": "Point"}, "properties": {"address": "Klopstockstrasse 23", "electric": 6, "id": "pb_127", "manual": 0, "name": "Klopstockwiese", "provider": "publibike", "timeStamp": "02/03/2020, 22:08:48", "zip": 8002}, "type": "Feature"}, {"geometry": {"coordinates": [8.518143, 47.363148], "type": "Point"}, "properties": {"address": "Haldenstrasse 8", "electric": 1, "id": "pb_128", "manual": 5, "name": "Binz", "provider": "publibike", "timeStamp": "02/03/2020, 22:08:48", "zip": 8045}, "type": "Feature"}, {"geometry": {"coordinates": [8.542726, 47.379952], "type": "Point"}, "properties": {"address": "Walchestrasse 11", "electric": 0, "id": "pb_129", "manual": 3, "name": "Stampfenbachplatz", "provider": "publibike", "timeStamp": "02/03/2020, 22:08:48", "zip": 8006}, "type": "Feature"}, {"geometry": {"coordinates": [8.488108, 47.391366], "type": "Point"}, "properties": {"address": "Altstetterplatz 1", "electric": 11, "id": "pb_130", "manual": 8, "name": "Bahnhof Altstetten", "provider": "publibike", "timeStamp": "02/03/2020, 22:08:48", "zip": 8048}, "type": "Feature"}, {"geometry": {"coordinates": [8.554114, 47.365119], "type": "Point"}, "properties": {"address": "Kreuzplatz 2", "electric": 2, "id": "pb_131", "manual": 4, "name": "Kreuzplatz", "provider": "publibike", "timeStamp": "02/03/2020, 22:08:48", "zip": 8032}, "type": "Feature"}, {"geometry": {"coordinates": [8.549852, 47.35594], "type": "Point"}, "properties": {"address": "H\u00f6schgasse 3", "electric": 3, "id": "pb_132", "manual": 8, "name": "Blatterwiese", "provider": "publibike", "timeStamp": "02/03/2020, 22:08:48", "zip": 8008}, "type": "Feature"}, {"geometry": {"coordinates": [8.554501, 47.36162], "type": "Point"}, "properties": {"address": "Feldeggstrasse 80", "electric": 5, "id": "pb_133", "manual": 5, "name": "Villa Bleuler", "provider": "publibike", "timeStamp": "02/03/2020, 22:08:48", "zip": 8008}, "type": "Feature"}, {"geometry": {"coordinates": [8.557088, 47.358557], "type": "Point"}, "properties": {"address": "M\u00fchlebachstrasse 131", "electric": 9, "id": "pb_134", "manual": 2, "name": "M\u00fchlebachstrasse", "provider": "publibike", "timeStamp": "02/03/2020, 22:08:48", "zip": 8008}, "type": "Feature"}, {"geometry": {"coordinates": [8.547639, 47.361266], "type": "Point"}, "properties": {"address": "Utoquai 50", "electric": 5, "id": "pb_135", "manual": 7, "name": "Seebad Utoquai", "provider": "publibike", "timeStamp": "02/03/2020, 22:08:48", "zip": 8008}, "type": "Feature"}, {"geometry": {"coordinates": [8.548045, 47.370869], "type": "Point"}, "properties": {"address": "Heimplatz 1", "electric": 0, "id": "pb_137", "manual": 3, "name": "Kunsthaus", "provider": "publibike", "timeStamp": "02/03/2020, 22:08:48", "zip": 8001}, "type": "Feature"}, {"geometry": {"coordinates": [8.543447, 47.375933], "type": "Point"}, "properties": {"address": "Limmatquai 138", "electric": 1, "id": "pb_138", "manual": 3, "name": "Central", "provider": "publibike", "timeStamp": "02/03/2020, 22:08:48", "zip": 8001}, "type": "Feature"}, {"geometry": {"coordinates": [8.549356, 47.408827], "type": "Point"}, "properties": {"address": "Tramstrasse 35", "electric": 0, "id": "pb_139", "manual": 3, "name": "ewz Tramstrasse", "provider": "publibike", "timeStamp": "02/03/2020, 22:08:48", "zip": 8050}, "type": "Feature"}, {"geometry": {"coordinates": [8.533736, 47.366904], "type": "Point"}, "properties": {"address": "Bleicherweg 33", "electric": 2, "id": "pb_140", "manual": 12, "name": "Bleicherweg", "provider": "publibike", "timeStamp": "02/03/2020, 22:08:48", "zip": 8002}, "type": "Feature"}, {"geometry": {"coordinates": [8.544935, 47.366752], "type": "Point"}, "properties": {"address": "Bellevueplatz 2", "electric": 18, "id": "pb_141", "manual": 27, "name": "Bellevue", "provider": "publibike", "timeStamp": "02/03/2020, 22:08:48", "zip": 8001}, "type": "Feature"}, {"geometry": {"coordinates": [8.5285533, 47.3742296], "type": "Point"}, "properties": {"address": "Stauffacherstrasse 41", "electric": 5, "id": "pb_142", "manual": 2, "name": "Stauffacher", "provider": "publibike", "timeStamp": "02/03/2020, 22:08:48", "zip": 8004}, "type": "Feature"}, {"geometry": {"coordinates": [8.523722, 47.3899], "type": "Point"}, "properties": {"address": "Limmatstrasse 310", "electric": 2, "id": "pb_143", "manual": 3, "name": "Escher-Wyss-Platz", "provider": "publibike", "timeStamp": "02/03/2020, 22:08:48", "zip": 8005}, "type": "Feature"}, {"geometry": {"coordinates": [8.491061, 47.392336], "type": "Point"}, "properties": {"address": "Vulkanplatz 1", "electric": 3, "id": "pb_149", "manual": 4, "name": "Vulkanplatz", "provider": "publibike", "timeStamp": "02/03/2020, 22:08:48", "zip": 8048}, "type": "Feature"}, {"geometry": {"coordinates": [8.52306, 47.359872], "type": "Point"}, "properties": {"address": "Giessh\u00fcbelstrasse 15", "electric": 7, "id": "pb_150", "manual": 9, "name": "Utoplatz", "provider": "publibike", "timeStamp": "02/03/2020, 22:08:48", "zip": 8045}, "type": "Feature"}, {"geometry": {"coordinates": [8.486284, 47.387685], "type": "Point"}, "properties": {"address": "Lindenplatz 1", "electric": 4, "id": "pb_151", "manual": 9, "name": "Lindenplatz", "provider": "publibike", "timeStamp": "02/03/2020, 22:08:48", "zip": 8048}, "type": "Feature"}, {"geometry": {"coordinates": [8.49163, 47.389823], "type": "Point"}, "properties": {"address": "Hohlstrasse 563", "electric": 1, "id": "pb_152", "manual": 5, "name": "Luggweg", "provider": "publibike", "timeStamp": "02/03/2020, 22:08:48", "zip": 8048}, "type": "Feature"}, {"geometry": {"coordinates": [8.52174, 47.365272], "type": "Point"}, "properties": {"address": "Manessestrasse 87", "electric": 8, "id": "pb_153", "manual": 4, "name": "Manesseplatz", "provider": "publibike", "timeStamp": "02/03/2020, 22:08:48", "zip": 8045}, "type": "Feature"}, {"geometry": {"coordinates": [8.52714, 47.372329], "type": "Point"}, "properties": {"address": "Werdstrasse 75", "electric": 1, "id": "pb_154", "manual": 1, "name": "Werd", "provider": "publibike", "timeStamp": "02/03/2020, 22:08:48", "zip": 8004}, "type": "Feature"}, {"geometry": {"coordinates": [8.543042, 47.374711], "type": "Point"}, "properties": {"address": "Limmatquai 100", "electric": 0, "id": "pb_155", "manual": 0, "name": "Rudolf-Brun-Br\u00fccke", "provider": "publibike", "timeStamp": "02/03/2020, 22:08:48", "zip": 8001}, "type": "Feature"}, {"geometry": {"coordinates": [8.490837, 47.386596], "type": "Point"}, "properties": {"address": "Badenerstrasse 627", "electric": 1, "id": "pb_156", "manual": 9, "name": "Luggwegstrasse VBZ", "provider": "publibike", "timeStamp": "02/03/2020, 22:08:48", "zip": 8048}, "type": "Feature"}, {"geometry": {"coordinates": [8.535119, 47.355189], "type": "Point"}, "properties": {"address": "Mythenquai 95", "electric": 1, "id": "pb_157", "manual": 3, "name": "Strandbad Mythenquai", "provider": "publibike", "timeStamp": "02/03/2020, 22:08:48", "zip": 8002}, "type": "Feature"}, {"geometry": {"coordinates": [8.545505, 47.373675], "type": "Point"}, "properties": {"address": "Predigerpatz 21", "electric": 1, "id": "pb_158", "manual": 5, "name": "Predigerplatz", "provider": "publibike", "timeStamp": "02/03/2020, 22:08:48", "zip": 8001}, "type": "Feature"}, {"geometry": {"coordinates": [8.515558, 47.371868], "type": "Point"}, "properties": {"address": "Aemtlerstrasse 23", "electric": 12, "id": "pb_159", "manual": 3, "name": "Zwinglihaus", "provider": "publibike", "timeStamp": "02/03/2020, 22:08:48", "zip": 8003}, "type": "Feature"}, {"geometry": {"coordinates": [8.524629, 47.386072], "type": "Point"}, "properties": {"address": "Josefstrasse 188", "electric": 0, "id": "pb_160", "manual": 8, "name": "Josefwiese", "provider": "publibike", "timeStamp": "02/03/2020, 22:08:48", "zip": 8005}, "type": "Feature"}, {"geometry": {"coordinates": [8.527138, 47.387531], "type": "Point"}, "properties": {"address": "R\u00f6ntgenstrasse 87", "electric": 5, "id": "pb_164", "manual": 7, "name": "Markthalle", "provider": "publibike", "timeStamp": "02/03/2020, 22:08:48", "zip": 8005}, "type": "Feature"}, {"geometry": {"coordinates": [8.552717, 47.359978], "type": "Point"}, "properties": {"address": "Seefeldstrasse 96", "electric": 2, "id": "pb_263", "manual": 17, "name": "Feldeggstrasse", "provider": "publibike", "timeStamp": "02/03/2020, 22:08:48", "zip": 8008}, "type": "Feature"}, {"geometry": {"coordinates": [8.553189, 47.353198], "type": "Point"}, "properties": {"address": "Bellerivestrasse 170", "electric": 6, "id": "pb_264", "manual": 0, "name": "Lake Side", "provider": "publibike", "timeStamp": "02/03/2020, 22:08:48", "zip": 8008}, "type": "Feature"}, {"geometry": {"coordinates": [8.543437, 47.369256], "type": "Point"}, "properties": {"address": "Limmatquai 18", "electric": 0, "id": "pb_265", "manual": 0, "name": "Helmhaus", "provider": "publibike", "timeStamp": "02/03/2020, 22:08:48", "zip": 8032}, "type": "Feature"}, {"geometry": {"coordinates": [8.516676, 47.375819], "type": "Point"}, "properties": {"address": "Badenerstrasse 246", "electric": 9, "id": "pb_266", "manual": 1, "name": "Lochergut", "provider": "publibike", "timeStamp": "02/03/2020, 22:08:48", "zip": 8004}, "type": "Feature"}, {"geometry": {"coordinates": [8.514605, 47.389862], "type": "Point"}, "properties": {"address": "Pfingstweidstrasse 60", "electric": 1, "id": "pb_273", "manual": 2, "name": "Westpark", "provider": "publibike", "timeStamp": "02/03/2020, 22:08:48", "zip": 8005}, "type": "Feature"}, {"geometry": {"coordinates": [8.541239126, 47.375991201], "type": "Point"}, "properties": {"address": "Beatenplatz 1", "electric": 9, "id": "pb_274", "manual": 11, "name": "Beatenplatz", "provider": "publibike", "timeStamp": "02/03/2020, 22:08:48", "zip": 8001}, "type": "Feature"}, {"geometry": {"coordinates": [8.5417135, 47.3942197], "type": "Point"}, "properties": {"address": "Scheuchzerstrasse 181", "electric": 4, "id": "pb_275", "manual": 3, "name": "Pauluskirche", "provider": "publibike", "timeStamp": "02/03/2020, 22:08:48", "zip": 8057}, "type": "Feature"}, {"geometry": {"coordinates": [8.5528182, 47.414558], "type": "Point"}, "properties": {"address": "Hagenholzstrasse 51", "electric": 3, "id": "pb_276", "manual": 4, "name": "Airgate", "provider": "publibike", "timeStamp": "02/03/2020, 22:08:48", "zip": 8050}, "type": "Feature"}, {"geometry": {"coordinates": [8.537816, 47.413514], "type": "Point"}, "properties": {"address": "Birchstrasse 183", "electric": 2, "id": "pb_277", "manual": 3, "name": "Lamprechtweg", "provider": "publibike", "timeStamp": "02/03/2020, 22:08:48", "zip": 8050}, "type": "Feature"}, {"geometry": {"coordinates": [8.545602, 47.417701], "type": "Point"}, "properties": {"address": "Felsenrainstrasse 2", "electric": 5, "id": "pb_278", "manual": 4, "name": "Emil-Oberh\u00e4nsli", "provider": "publibike", "timeStamp": "02/03/2020, 22:08:48", "zip": 8050}, "type": "Feature"}, {"geometry": {"coordinates": [8.533647, 47.39808], "type": "Point"}, "properties": {"address": "Bucheggplatz 2", "electric": 12, "id": "pb_279", "manual": 0, "name": "Bucheggplatz", "provider": "publibike", "timeStamp": "02/03/2020, 22:08:48", "zip": 8057}, "type": "Feature"}, {"geometry": {"coordinates": [8.523549, 47.392347], "type": "Point"}, "properties": {"address": "Wipkingerplatz 4", "electric": 8, "id": "pb_280", "manual": 8, "name": "Wipkingerplatz", "provider": "publibike", "timeStamp": "02/03/2020, 22:08:48", "zip": 8037}, "type": "Feature"}, {"geometry": {"coordinates": [8.548562, 47.36691], "type": "Point"}, "properties": {"address": "Galerie \u00fcber Gleis 2/3", "electric": 25, "id": "pb_285", "manual": 5, "name": "Bahnhof Stadelhofen", "provider": "publibike", "timeStamp": "02/03/2020, 22:08:48", "zip": 8001}, "type": "Feature"}, {"geometry": {"coordinates": [8.493822, 47.3985553], "type": "Point"}, "properties": {"address": "Meierwiesenstrasse 12-4", "electric": 3, "id": "pb_286", "manual": 3, "name": "T\u00fcffenwies", "provider": "publibike", "timeStamp": "02/03/2020, 22:08:48", "zip": 8064}, "type": "Feature"}, {"geometry": {"coordinates": [8.552432, 47.3801757], "type": "Point"}, "properties": {"address": "Hochstrasse 34", "electric": 7, "id": "pb_356", "manual": 0, "name": "Siriuswiese", "provider": "publibike", "timeStamp": "02/03/2020, 22:08:48", "zip": 8044}, "type": "Feature"}, {"geometry": {"coordinates": [8.527298, 47.370141], "type": "Point"}, "properties": {"address": "Hallwylstrasse 71", "electric": 3, "id": "pb_357", "manual": 3, "name": "Hallwylstrasse", "provider": "publibike", "timeStamp": "02/03/2020, 22:08:48", "zip": 8004}, "type": "Feature"}, {"geometry": {"coordinates": [8.5414185, 47.3972455], "type": "Point"}, "properties": {"address": "Schaffhauserstrasse 137", "electric": 9, "id": "pb_358", "manual": 1, "name": "Milchbuck", "provider": "publibike", "timeStamp": "02/03/2020, 22:08:48", "zip": 8057}, "type": "Feature"}, {"geometry": {"coordinates": [8.512381, 47.393409], "type": "Point"}, "properties": {"address": "Hardturmstrasse 161", "electric": 3, "id": "pb_359", "manual": 0, "name": "Fischerweg", "provider": "publibike", "timeStamp": "02/03/2020, 22:08:48", "zip": 8005}, "type": "Feature"}, {"geometry": {"coordinates": [8.5421457, 47.3876979], "type": "Point"}, "properties": {"address": "Turnerstrasse 47", "electric": 5, "id": "pb_360", "manual": 3, "name": "Kirche Unterstrass", "provider": "publibike", "timeStamp": "02/03/2020, 22:08:48", "zip": 8006}, "type": "Feature"}, {"geometry": {"coordinates": [8.522117, 47.394554], "type": "Point"}, "properties": {"address": "Dorfstrasse 40", "electric": 6, "id": "pb_361", "manual": 2, "name": "Dorfstrasse", "provider": "publibike", "timeStamp": "02/03/2020, 22:08:48", "zip": 8037}, "type": "Feature"}, {"geometry": {"coordinates": [8.530437, 47.37271], "type": "Point"}, "properties": {"address": "Werdstrasse 25", "electric": 0, "id": "pb_362", "manual": 0, "name": "Stauffachertor", "provider": "publibike", "timeStamp": "02/03/2020, 22:08:48", "zip": 8004}, "type": "Feature"}, {"geometry": {"coordinates": [8.541712, 47.416155], "type": "Point"}, "properties": {"address": "Eggb\u00fchlstrasse 21", "electric": 2, "id": "pb_363", "manual": 3, "name": "Wahlenpark", "provider": "publibike", "timeStamp": "02/03/2020, 22:08:48", "zip": 8050}, "type": "Feature"}, {"geometry": {"coordinates": [8.5595335, 47.3708387], "type": "Point"}, "properties": {"address": "Dolderstrasse 32", "electric": 8, "id": "pb_364", "manual": 2, "name": "Kinderspital", "provider": "publibike", "timeStamp": "02/03/2020, 22:08:48", "zip": 8032}, "type": "Feature"}, {"geometry": {"coordinates": [8.536433, 47.388689], "type": "Point"}, "properties": {"address": "Kornhausstrasse 30", "electric": 9, "id": "pb_365", "manual": 4, "name": "Kornhausstrasse", "provider": "publibike", "timeStamp": "02/03/2020, 22:08:48", "zip": 8006}, "type": "Feature"}, {"geometry": {"coordinates": [8.55033, 47.407098], "type": "Point"}, "properties": {"address": "Schwamendingenstrasse 41", "electric": 5, "id": "pb_366", "manual": 8, "name": "Dorflinde", "provider": "publibike", "timeStamp": "02/03/2020, 22:08:48", "zip": 8050}, "type": "Feature"}, {"geometry": {"coordinates": [8.560476, 47.368199], "type": "Point"}, "properties": {"address": "R\u00f6merhofplatz 5", "electric": 10, "id": "pb_367", "manual": 3, "name": "R\u00f6merhof", "provider": "publibike", "timeStamp": "02/03/2020, 22:08:48", "zip": 8032}, "type": "Feature"}, {"geometry": {"coordinates": [8.5609218, 47.3619068], "type": "Point"}, "properties": {"address": "Forchstrasse 99", "electric": 12, "id": "pb_368", "manual": 2, "name": "Hegibachplatz", "provider": "publibike", "timeStamp": "02/03/2020, 22:08:48", "zip": 8032}, "type": "Feature"}, {"geometry": {"coordinates": [8.5721264, 47.4039985], "type": "Point"}, "properties": {"address": "Winterthurerstrasse 519", "electric": 11, "id": "pb_370", "manual": 4, "name": "Schwamendingerplatz", "provider": "publibike", "timeStamp": "02/03/2020, 22:08:48", "zip": 8051}, "type": "Feature"}, {"geometry": {"coordinates": [8.520168, 47.378556], "type": "Point"}, "properties": {"address": "Herman-Greulich-Strasse 56", "electric": 5, "id": "pb_384", "manual": 7, "name": "Hermann-Greulich-Weg", "provider": "publibike", "timeStamp": "02/03/2020, 22:08:48", "zip": 8004}, "type": "Feature"}, {"geometry": {"coordinates": [8.547912, 47.384923], "type": "Point"}, "properties": {"address": "Culmannstrasse", "electric": 1, "id": "pb_386", "manual": 0, "name": "Rigiplatz", "provider": "publibike", "timeStamp": "02/03/2020, 22:08:48", "zip": 8006}, "type": "Feature"}, {"geometry": {"coordinates": [8.543768, 47.411057], "type": "Point"}, "properties": {"address": "Hofwiesenstrasse 369", "electric": 0, "id": "pb_387", "manual": 1, "name": "Bahnhof Oerlikon S\u00fcd", "provider": "publibike", "timeStamp": "02/03/2020, 22:08:48", "zip": 8050}, "type": "Feature"}, {"geometry": {"coordinates": [8.544185, 47.412732], "type": "Point"}, "properties": {"address": "Jungholzstrasse 6", "electric": 1, "id": "pb_388", "manual": 3, "name": "Max-Frisch-Platz", "provider": "publibike", "timeStamp": "02/03/2020, 22:08:48", "zip": 8050}, "type": "Feature"}, {"geometry": {"coordinates": [8.558096, 47.413032], "type": "Point"}, "properties": {"address": "Andreasstrasse", "electric": 12, "id": "pb_389", "manual": 9, "name": "Hunziker-Areal", "provider": "publibike", "timeStamp": "02/03/2020, 22:08:48", "zip": 8050}, "type": "Feature"}, {"geometry": {"coordinates": [8.533265, 47.412873], "type": "Point"}, "properties": {"address": "Regina-K\u00e4gi-Strasse 1", "electric": 5, "id": "pb_390", "manual": 4, "name": "Luis-H\u00e4fliger-Park", "provider": "publibike", "timeStamp": "02/03/2020, 22:08:48", "zip": 8050}, "type": "Feature"}, {"geometry": {"coordinates": [8.499265, 47.401852], "type": "Point"}, "properties": {"address": "Limmattalstrasse 177", "electric": 3, "id": "pb_391", "manual": 1, "name": "Meierhofplatz", "provider": "publibike", "timeStamp": "02/03/2020, 22:08:48", "zip": 8049}, "type": "Feature"}, {"geometry": {"coordinates": [8.528356, 47.393255], "type": "Point"}, "properties": {"address": "R\u00f6schibachstrasse 73", "electric": 8, "id": "pb_392", "manual": 12, "name": "R\u00f6schibachplatz", "provider": "publibike", "timeStamp": "02/03/2020, 22:08:48", "zip": 8037}, "type": "Feature"}, {"geometry": {"coordinates": [8.538067, 47.415721], "type": "Point"}, "properties": {"address": "Birchstrasse 191", "electric": 8, "id": "pb_393", "manual": 1, "name": "Oerliker Park", "provider": "publibike", "timeStamp": "02/03/2020, 22:08:48", "zip": 8050}, "type": "Feature"}, {"geometry": {"coordinates": [8.5420304, 47.3669233], "type": "Point"}, "properties": {"address": "Stadthausquai 1", "electric": 0, "id": "pb_395", "manual": 3, "name": "B\u00fcrkliplatz", "provider": "publibike", "timeStamp": "02/03/2020, 22:08:48", "zip": 8001}, "type": "Feature"}, {"geometry": {"coordinates": [8.535767, 47.409881], "type": "Point"}, "properties": {"address": "Regensbergstrasse 195", "electric": 4, "id": "pb_396", "manual": 2, "name": "Holunderhof", "provider": "publibike", "timeStamp": "02/03/2020, 22:08:48", "zip": 8050}, "type": "Feature"}, {"geometry": {"coordinates": [8.5116245, 47.3616199], "type": "Point"}, "properties": {"address": "Grubenstrasse 42", "electric": 0, "id": "pb_431", "manual": 0, "name": "Binz Center", "provider": "publibike", "timeStamp": "02/03/2020, 22:08:48", "zip": 8045}, "type": "Feature"}, {"geometry": {"coordinates": [8.547195, 47.382089], "type": "Point"}, "properties": {"address": "Nelkenstrasse 24", "electric": 2, "id": "pb_430", "manual": 0, "name": "Stapferstube", "provider": "publibike", "timeStamp": "02/03/2020, 22:08:48", "zip": 8006}, "type": "Feature"}, {"geometry": {"coordinates": [8.5787183, 47.4039845], "type": "Point"}, "properties": {"address": "Kronwiesenstrasse 35", "electric": 3, "id": "pb_426", "manual": 3, "name": "Kronwiesen", "provider": "publibike", "timeStamp": "02/03/2020, 22:08:48", "zip": 8051}, "type": "Feature"}, {"geometry": {"coordinates": [8.508131, 47.420757], "type": "Point"}, "properties": {"address": "Riedenhaldenstrasse 20-18", "electric": 13, "id": "pb_425", "manual": 0, "name": "Bahnhof Affoltern", "provider": "publibike", "timeStamp": "02/03/2020, 22:08:48", "zip": 8046}, "type": "Feature"}, {"geometry": {"coordinates": [8.532464, 47.406988], "type": "Point"}, "properties": {"address": "K\u00fcnzlistrasse 41", "electric": 5, "id": "pb_424", "manual": 1, "name": "Birchd\u00f6rfli", "provider": "publibike", "timeStamp": "02/03/2020, 22:08:48", "zip": 8057}, "type": "Feature"}, {"geometry": {"coordinates": [8.5777038, 47.4080095], "type": "Point"}, "properties": {"address": "Luegislandstrasse 412", "electric": 7, "id": "pb_429", "manual": 4, "name": "Luegisland", "provider": "publibike", "timeStamp": "02/03/2020, 22:08:48", "zip": 8051}, "type": "Feature"}, {"geometry": {"coordinates": [8.58841, 47.40158], "type": "Point"}, "properties": {"address": "Hirzenbachstrasse 2-4", "electric": 6, "id": "pb_428", "manual": 3, "name": "Hirzenbachstrasse", "provider": "publibike", "timeStamp": "02/03/2020, 22:08:48", "zip": 8051}, "type": "Feature"}, {"geometry": {"coordinates": [8.5563463, 47.4095467], "type": "Point"}, "properties": {"address": "K\u00fchriedweg", "electric": 8, "id": "pb_445", "manual": 14, "name": "Hallenbad Oerlikon", "provider": "publibike", "timeStamp": "02/03/2020, 22:08:48", "zip": 8050}, "type": "Feature"}, {"geometry": {"coordinates": [8.537971, 47.364871], "type": "Point"}, "properties": {"address": "General-Guisan-Quai 17", "electric": 0, "id": "pb_454", "manual": 1, "name": "General-Guisan-Quai", "provider": "publibike", "timeStamp": "02/03/2020, 22:08:48", "zip": 8002}, "type": "Feature"}, {"geometry": {"coordinates": [8.560587, 47.350578], "type": "Point"}, "properties": {"address": "Bellerivestrasse 245", "electric": 9, "id": "pb_450", "manual": 5, "name": "Bahnhof Tiefenbrunnen", "provider": "publibike", "timeStamp": "02/03/2020, 22:08:48", "zip": 8008}, "type": "Feature"}, {"geometry": {"coordinates": [8.5269416, 47.3563719], "type": "Point"}, "properties": {"address": "Waffenplatzstrasse 89", "electric": 3, "id": "pb_452", "manual": 6, "name": "Rieterplatz", "provider": "publibike", "timeStamp": "02/03/2020, 22:08:48", "zip": 8002}, "type": "Feature"}, {"geometry": {"coordinates": [8.514176, 47.3663708], "type": "Point"}, "properties": {"address": "Talwiesenstrasse 92", "electric": 10, "id": "pb_446", "manual": 3, "name": "Binzallee", "provider": "publibike", "timeStamp": "02/03/2020, 22:08:48", "zip": 8055}, "type": "Feature"}, {"geometry": {"coordinates": [8.5070564, 47.371455], "type": "Point"}, "properties": {"address": "Gutstrasse 87", "electric": 6, "id": "pb_447", "manual": 3, "name": "Gutstrasse", "provider": "publibike", "timeStamp": "02/03/2020, 22:08:48", "zip": 8055}, "type": "Feature"}, {"geometry": {"coordinates": [8.4941268, 47.3836391], "type": "Point"}, "properties": {"address": "Flurstrasse 62", "electric": 2, "id": "pb_453", "manual": 2, "name": "Flurpark", "provider": "publibike", "timeStamp": "02/03/2020, 22:08:48", "zip": 8048}, "type": "Feature"}, {"geometry": {"coordinates": [8.500343, 47.380778], "type": "Point"}, "properties": {"address": "Edelweissstrasse 32", "electric": 11, "id": "pb_448", "manual": 3, "name": "Bl\u00fcemliquartier", "provider": "publibike", "timeStamp": "02/03/2020, 22:08:48", "zip": 8048}, "type": "Feature"}, {"geometry": {"coordinates": [8.528796, 47.383858], "type": "Point"}, "properties": {"address": "Gasometerstrasse 24", "electric": 3, "id": "pb_449", "manual": 6, "name": "Gasometerstrasse", "provider": "publibike", "timeStamp": "02/03/2020, 22:08:48", "zip": 8005}, "type": "Feature"}, {"geometry": {"coordinates": [8.4981964, 47.3859194], "type": "Point"}, "properties": {"address": "Baslerstrasse 57", "electric": 9, "id": "pb_455", "manual": 4, "name": "Letzipark", "provider": "publibike", "timeStamp": "02/03/2020, 22:08:48", "zip": 8048}, "type": "Feature"}, {"geometry": {"coordinates": [8.515252, 47.381915], "type": "Point"}, "properties": {"address": "Sihlfeldstrasse 175", "electric": 1, "id": "pb_451", "manual": 6, "name": "Hardplatz", "provider": "publibike", "timeStamp": "02/03/2020, 22:08:48", "zip": 8004}, "type": "Feature"}, {"geometry": {"coordinates": [8.5064743, 47.4188324], "type": "Point"}, "properties": {"address": "Wehntalerstrasse 541", "electric": 5, "id": "pb_427", "manual": 5, "name": "Zehntenhausplatz", "provider": "publibike", "timeStamp": "02/03/2020, 22:08:48", "zip": 8046}, "type": "Feature"}, {"geometry": {"coordinates": [8.537729, 47.379719], "type": "Point"}, "properties": {"address": "Sihlquai/HB", "electric": 1, "id": "pb_513", "manual": 14, "name": "Sihlquai", "provider": "publibike", "timeStamp": "02/03/2020, 22:08:48", "zip": 8005}, "type": "Feature"}, {"geometry": {"coordinates": [8.596202, 47.397885], "type": "Point"}, "properties": {"address": "Bahnhof Stettbach", "electric": 0, "id": "pb_514", "manual": 2, "name": "Bahnhof Stettbach", "provider": "publibike", "timeStamp": "02/03/2020, 22:08:48", "zip": 8051}, "type": "Feature"}, {"geometry": {"coordinates": [8.5543974, 47.3690153], "type": "Point"}, "properties": {"address": "Kasinostrasse 10", "electric": 8, "id": "pb_515", "manual": 0, "name": "Hottingerplatz", "provider": "publibike", "timeStamp": "02/03/2020, 22:08:48", "zip": 8032}, "type": "Feature"}, {"geometry": {"coordinates": [8.534444, 47.351525], "type": "Point"}, "properties": {"address": "Mobile Station Z\u00fcrich 1", "electric": 0, "id": "pb_282", "manual": 0, "name": "Theaterspektakel", "provider": "publibike", "timeStamp": "02/03/2020, 22:08:48", "zip": 8002}, "type": "Feature"}, {"geometry": {"coordinates": [8.516257, 47.367656], "type": "Point"}, "properties": {"address": "Goldbrunnenstrasse 54", "electric": 4, "id": "pb_538", "manual": 0, "name": "Kirche B\u00fchl", "provider": "publibike", "timeStamp": "02/03/2020, 22:08:48", "zip": 8055}, "type": "Feature"}, {"geometry": {"coordinates": [8.555639, 47.416873], "type": "Point"}, "properties": {"address": "Leutschenbachstrasse 50", "electric": 0, "id": "pb_537", "manual": 4, "name": "Leutschenpark", "provider": "publibike", "timeStamp": "02/03/2020, 22:08:48", "zip": 8050}, "type": "Feature"}, {"geometry": {"coordinates": [8.546464, 47.403822], "type": "Point"}, "properties": {"address": "Berninastrasse 45", "electric": 6, "id": "pb_540", "manual": 2, "name": "Berninaplatz", "provider": "publibike", "timeStamp": "02/03/2020, 22:08:48", "zip": 8057}, "type": "Feature"}, {"geometry": {"coordinates": [8.523134, 47.369004], "type": "Point"}, "properties": {"address": "Erlachstrasse 3", "electric": 3, "id": "pb_385", "manual": 6, "name": "Aegerten", "provider": "publibike", "timeStamp": "02/03/2020, 22:08:48", "zip": 8003}, "type": "Feature"}, {"geometry": {"coordinates": [8.49038, 47.381591], "type": "Point"}, "properties": {"address": "Rautistrasse 60", "electric": 10, "id": "pb_536", "manual": 7, "name": "Freilager", "provider": "publibike", "timeStamp": "02/03/2020, 22:08:48", "zip": 8048}, "type": "Feature"}, {"geometry": {"coordinates": [8.496511, 47.375247], "type": "Point"}, "properties": {"address": "Letzigraben 139", "electric": 3, "id": "pb_444", "manual": 2, "name": "Sackzelg", "provider": "publibike", "timeStamp": "02/03/2020, 22:08:48", "zip": 8047}, "type": "Feature"}, {"geometry": {"coordinates": [8.58131, 47.402801], "type": "Point"}, "properties": {"address": "Altwiesenstrasse 104", "electric": 0, "id": "pb_539", "manual": 6, "name": "Glattwiesen", "provider": "publibike", "timeStamp": "02/03/2020, 22:08:48", "zip": 8051}, "type": "Feature"}, {"geometry": {"coordinates": [8.52689, 47.3767], "type": "Point"}, "properties": {"address": "Molkenstrasse 5", "electric": 4, "id": "pb_560", "manual": 12, "name": "Helvetiaplatz", "provider": "publibike", "timeStamp": "02/03/2020, 22:08:48", "zip": 8004}, "type": "Feature"}, {"geometry": {"coordinates": [8.525602, 47.374241], "type": "Point"}, "properties": {"address": "Badenerstrasse 90", "electric": 2, "id": "pb_559", "manual": 6, "name": "Bezirksgeb\u00e4ude", "provider": "publibike", "timeStamp": "02/03/2020, 22:08:48", "zip": 8004}, "type": "Feature"}, {"geometry": {"coordinates": [8.535082, 47.345248], "type": "Point"}, "properties": {"address": "Bachstrasse 15", "electric": 7, "id": "pb_564", "manual": 4, "name": "GZ Wollishofen", "provider": "publibike", "timeStamp": "02/03/2020, 22:08:48", "zip": 8038}, "type": "Feature"}, {"geometry": {"coordinates": [8.514841, 47.370238], "type": "Point"}, "properties": {"address": "Schrennengasse 37", "electric": 3, "id": "pb_562", "manual": 3, "name": "Goldbrunnenplatz", "provider": "publibike", "timeStamp": "02/03/2020, 22:08:48", "zip": 8003}, "type": "Feature"}, {"geometry": {"coordinates": [8.514138, 47.374206], "type": "Point"}, "properties": {"address": "Idaplatz 4", "electric": 2, "id": "pb_557", "manual": 6, "name": "Idaplatz", "provider": "publibike", "timeStamp": "02/03/2020, 22:08:48", "zip": 8003}, "type": "Feature"}, {"geometry": {"coordinates": [8.518432, 47.369549], "type": "Point"}, "properties": {"address": "Brinerstrasse 2", "electric": 1, "id": "pb_558", "manual": 11, "name": "Schmiede Wiedikon", "provider": "publibike", "timeStamp": "02/03/2020, 22:08:48", "zip": 8003}, "type": "Feature"}, {"geometry": {"coordinates": [8.537546, 47.391289], "type": "Point"}, "properties": {"address": "Rotbuchstrasse 15", "electric": 12, "id": "pb_556", "manual": 1, "name": "Schaffhauserplatz", "provider": "publibike", "timeStamp": "02/03/2020, 22:08:48", "zip": 8006}, "type": "Feature"}, {"geometry": {"coordinates": [8.541541, 47.413733], "type": "Point"}, "properties": {"address": "Therese-Giehse-Strasse 11", "electric": 3, "id": "pb_561", "manual": 1, "name": "Center Eleven", "provider": "publibike", "timeStamp": "02/03/2020, 22:08:48", "zip": 8050}, "type": "Feature"}, {"geometry": {"coordinates": [8.534227, 47.360004], "type": "Point"}, "properties": {"address": "Alfred Escher-Strasse 76", "electric": 1, "id": "pb_563", "manual": 1, "name": "Mythenschloss", "provider": "publibike", "timeStamp": "02/03/2020, 22:08:48", "zip": 8002}, "type": "Feature"}, {"geometry": {"coordinates": [8.50373, 47.396172], "type": "Point"}, "properties": {"address": "Hardeggstrasse 6", "electric": 3, "id": "pb_566", "manual": 3, "name": "Am Wasser", "provider": "publibike", "timeStamp": "02/03/2020, 22:08:48", "zip": 8049}, "type": "Feature"}, {"geometry": {"coordinates": [8.532432, 47.381174], "type": "Point"}, "properties": {"address": "Klingenstrasse 9", "electric": 1, "id": "pb_565", "manual": 5, "name": "Zollstrasse", "provider": "publibike", "timeStamp": "02/03/2020, 22:08:48", "zip": 8005}, "type": "Feature"}, {"geometry": {"coordinates": [8.497982, 47.381447], "type": "Point"}, "properties": {"address": "Dennlerstrasse 23", "electric": 13, "id": "pb_567", "manual": 1, "name": "Dennlerstrasse", "provider": "publibike", "timeStamp": "02/03/2020, 22:08:48", "zip": 8047}, "type": "Feature"}, {"geometry": {"coordinates": [8.528049, 47.347701], "type": "Point"}, "properties": {"address": "Mutschellenstrasse 114", "electric": 9, "id": "pb_568", "manual": 10, "name": "Jugendherberge", "provider": "publibike", "timeStamp": "02/03/2020, 22:08:48", "zip": 8038}, "type": "Feature"}, {"geometry": {"coordinates": [8.539016, 47.405751], "type": "Point"}, "properties": {"address": "Ringstrasse 82", "electric": 2, "id": "pb_569", "manual": 4, "name": "Freibad Allenmoos", "provider": "publibike", "timeStamp": "02/03/2020, 22:08:48", "zip": 8057}, "type": "Feature"}, {"geometry": {"coordinates": [8.534974, 47.402164], "type": "Point"}, "properties": {"address": "Brache Guggach", "electric": 7, "id": "pb_572", "manual": 3, "name": "Radiostudio", "provider": "publibike", "timeStamp": "02/03/2020, 22:08:48", "zip": 8057}, "type": "Feature"}, {"geometry": {"coordinates": [8.547901, 47.375556], "type": "Point"}, "properties": {"address": "Karl-Schmid-Strasse 4", "electric": 0, "id": "pb_571", "manual": 0, "name": "ETH/Zoologisches Museum", "provider": "publibike", "timeStamp": "02/03/2020, 22:08:48", "zip": 8006}, "type": "Feature"}, {"geometry": {"coordinates": [8.542575, 47.36877], "type": "Point"}, "properties": {"charge": 55, "id": "smide_2901", "name": "ZH 267278", "provider": "smide", "range": 27.0, "size": 20, "time": "02/03/2020, 22:08:24"}, "type": "Feature"}, {"geometry": {"coordinates": [8.4869, 47.388515], "type": "Point"}, "properties": {"charge": 100, "id": "smide_2880", "name": "ZH267289", "provider": "smide", "range": 50.0, "size": 17, "time": "02/03/2020, 22:08:24"}, "type": "Feature"}, {"geometry": {"coordinates": [8.519336, 47.337228], "type": "Point"}, "properties": {"charge": 46, "id": "smide_2871", "name": "ZH 267086", "provider": "smide", "range": 23.0, "size": 20, "time": "02/03/2020, 22:08:24"}, "type": "Feature"}, {"geometry": {"coordinates": [8.518301, 47.398678], "type": "Point"}, "properties": {"charge": 100, "id": "smide_2867", "name": "ZH 267090", "provider": "smide", "range": 50.0, "size": 20, "time": "02/03/2020, 22:08:24"}, "type": "Feature"}, {"geometry": {"coordinates": [8.55412, 47.357143], "type": "Point"}, "properties": {"charge": 83, "id": "smide_2861", "name": "ZH 267096", "provider": "smide", "range": 41.0, "size": 17, "time": "02/03/2020, 22:08:24"}, "type": "Feature"}, {"geometry": {"coordinates": [8.57607, 47.349715], "type": "Point"}, "properties": {"charge": 78, "id": "smide_2860", "name": "ZH 267097", "provider": "smide", "range": 39.0, "size": 17, "time": "02/03/2020, 22:08:24"}, "type": "Feature"}, {"geometry": {"coordinates": [8.510716, 47.372346], "type": "Point"}, "properties": {"charge": 71, "id": "smide_2859", "name": "ZH 267098", "provider": "smide", "range": 35.0, "size": 17, "time": "02/03/2020, 22:08:24"}, "type": "Feature"}, {"geometry": {"coordinates": [8.514461, 47.39049], "type": "Point"}, "properties": {"charge": 23, "id": "smide_2856", "name": "ZH 267101", "provider": "smide", "range": 11.0, "size": 17, "time": "02/03/2020, 22:08:24"}, "type": "Feature"}, {"geometry": {"coordinates": [8.569065, 47.372631], "type": "Point"}, "properties": {"charge": 43, "id": "smide_2855", "name": "ZH 267102", "provider": "smide", "range": 21.0, "size": 17, "time": "02/03/2020, 22:08:24"}, "type": "Feature"}, {"geometry": {"coordinates": [8.507315, 47.399825], "type": "Point"}, "properties": {"charge": 94, "id": "smide_2854", "name": "ZH 267103", "provider": "smide", "range": 47.0, "size": 17, "time": "02/03/2020, 22:08:24"}, "type": "Feature"}, {"geometry": {"coordinates": [8.570161, 47.352433], "type": "Point"}, "properties": {"charge": 43, "id": "smide_2831", "name": "ZH 267180", "provider": "smide", "range": 21.0, "size": 20, "time": "02/03/2020, 22:08:24"}, "type": "Feature"}, {"geometry": {"coordinates": [8.569518, 47.352183], "type": "Point"}, "properties": {"charge": 42, "id": "smide_2829", "name": "ZH 267049", "provider": "smide", "range": 21.0, "size": 20, "time": "02/03/2020, 22:08:24"}, "type": "Feature"}, {"geometry": {"coordinates": [8.554075, 47.412206], "type": "Point"}, "properties": {"charge": 72, "id": "smide_2804", "name": "ZH266903", "provider": "smide", "range": 36.0, "size": 20, "time": "02/03/2020, 22:08:24"}, "type": "Feature"}, {"geometry": {"coordinates": [8.553646, 47.397631], "type": "Point"}, "properties": {"charge": 84, "id": "smide_2798", "name": "ZH266888", "provider": "smide", "range": 42.0, "size": 17, "time": "02/03/2020, 22:08:24"}, "type": "Feature"}, {"geometry": {"coordinates": [8.520198, 47.339633], "type": "Point"}, "properties": {"charge": 23, "id": "smide_2793", "name": "ZH266883", "provider": "smide", "range": 11.0, "size": 17, "time": "02/03/2020, 22:08:24"}, "type": "Feature"}, {"geometry": {"coordinates": [8.512781, 47.391225], "type": "Point"}, "properties": {"charge": 87, "id": "smide_2790", "name": "ZH266880", "provider": "smide", "range": 43.0, "size": 17, "time": "02/03/2020, 22:08:24"}, "type": "Feature"}, {"geometry": {"coordinates": [8.527663, 47.338648], "type": "Point"}, "properties": {"charge": 20, "id": "smide_2785", "name": "ZH266875", "provider": "smide", "range": 10.0, "size": 17, "time": "02/03/2020, 22:08:24"}, "type": "Feature"}, {"geometry": {"coordinates": [8.564103, 47.348015], "type": "Point"}, "properties": {"charge": 72, "id": "smide_2781", "name": "ZH 266871", "provider": "smide", "range": 36.0, "size": 17, "time": "02/03/2020, 22:08:24"}, "type": "Feature"}, {"geometry": {"coordinates": [8.515453, 47.398235], "type": "Point"}, "properties": {"charge": 85, "id": "smide_2780", "name": "ST1 X #1", "provider": "smide", "range": 42.0, "size": 17, "time": "02/03/2020, 22:08:24"}, "type": "Feature"}, {"geometry": {"coordinates": [8.540273, 47.378908], "type": "Point"}, "properties": {"charge": 91, "id": "smide_2775", "name": "ZH267283", "provider": "smide", "range": 45.0, "size": 20, "time": "02/03/2020, 22:08:24"}, "type": "Feature"}, {"geometry": {"coordinates": [8.569019, 47.410672], "type": "Point"}, "properties": {"charge": 28, "id": "smide_2773", "name": "ZH266561", "provider": "smide", "range": 14.0, "size": 17, "time": "02/03/2020, 22:08:24"}, "type": "Feature"}, {"geometry": {"coordinates": [8.483646, 47.38196], "type": "Point"}, "properties": {"charge": 34, "id": "smide_2763", "name": "ZH266641", "provider": "smide", "range": 17.0, "size": 17, "time": "02/03/2020, 22:08:24"}, "type": "Feature"}, {"geometry": {"coordinates": [8.560405, 47.382053], "type": "Point"}, "properties": {"charge": 100, "id": "smide_2761", "name": "ZH266642", "provider": "smide", "range": 50.0, "size": 20, "time": "02/03/2020, 22:08:24"}, "type": "Feature"}, {"geometry": {"coordinates": [8.529478, 47.3938], "type": "Point"}, "properties": {"charge": 69, "id": "smide_2758", "name": "ZH266638 M", "provider": "smide", "range": 34.0, "size": 17, "time": "02/03/2020, 22:08:24"}, "type": "Feature"}, {"geometry": {"coordinates": [8.510014, 47.384168], "type": "Point"}, "properties": {"charge": 61, "id": "smide_2752", "name": "BE343856", "provider": "smide", "range": 30.0, "size": 17, "time": "02/03/2020, 22:08:24"}, "type": "Feature"}, {"geometry": {"coordinates": [8.518303, 47.380152], "type": "Point"}, "properties": {"charge": 20, "id": "smide_2751", "name": "BE343857", "provider": "smide", "range": 10.0, "size": 17, "time": "02/03/2020, 22:08:24"}, "type": "Feature"}, {"geometry": {"coordinates": [8.553758, 47.374576], "type": "Point"}, "properties": {"charge": 95, "id": "smide_2749", "name": "BE343867", "provider": "smide", "range": 47.0, "size": 17, "time": "02/03/2020, 22:08:24"}, "type": "Feature"}, {"geometry": {"coordinates": [8.474298, 47.386144], "type": "Point"}, "properties": {"charge": 62, "id": "smide_2748", "name": "BE335758", "provider": "smide", "range": 31.0, "size": 17, "time": "02/03/2020, 22:08:24"}, "type": "Feature"}, {"geometry": {"coordinates": [8.562523, 47.382948], "type": "Point"}, "properties": {"charge": 53, "id": "smide_2746", "name": "BE335817", "provider": "smide", "range": 26.0, "size": 17, "time": "02/03/2020, 22:08:24"}, "type": "Feature"}, {"geometry": {"coordinates": [8.553908, 47.398884], "type": "Point"}, "properties": {"charge": 83, "id": "smide_2747", "name": "BE335820", "provider": "smide", "range": 41.0, "size": 17, "time": "02/03/2020, 22:08:24"}, "type": "Feature"}, {"geometry": {"coordinates": [8.524209, 47.378684], "type": "Point"}, "properties": {"charge": 61, "id": "smide_2745", "name": "BE335818", "provider": "smide", "range": 30.0, "size": 17, "time": "02/03/2020, 22:08:24"}, "type": "Feature"}, {"geometry": {"coordinates": [8.49917, 47.401792], "type": "Point"}, "properties": {"charge": 84, "id": "smide_2743", "name": "BE343864", "provider": "smide", "range": 42.0, "size": 17, "time": "02/03/2020, 22:08:24"}, "type": "Feature"}, {"geometry": {"coordinates": [8.519142, 47.3374], "type": "Point"}, "properties": {"charge": 44, "id": "smide_2742", "name": "BE343866", "provider": "smide", "range": 22.0, "size": 17, "time": "02/03/2020, 22:08:24"}, "type": "Feature"}, {"geometry": {"coordinates": [8.536795, 47.378008], "type": "Point"}, "properties": {"charge": 86, "id": "smide_2741", "name": "BE343874", "provider": "smide", "range": 43.0, "size": 17, "time": "02/03/2020, 22:08:24"}, "type": "Feature"}, {"geometry": {"coordinates": [8.508239, 47.400568], "type": "Point"}, "properties": {"charge": 90, "id": "smide_2740", "name": "BE343875", "provider": "smide", "range": 45.0, "size": 17, "time": "02/03/2020, 22:08:24"}, "type": "Feature"}, {"geometry": {"coordinates": [8.486948, 47.388711], "type": "Point"}, "properties": {"charge": 100, "id": "smide_2738", "name": "BE343865", "provider": "smide", "range": 50.0, "size": 17, "time": "02/03/2020, 22:08:24"}, "type": "Feature"}, {"geometry": {"coordinates": [8.48464, 47.394392], "type": "Point"}, "properties": {"charge": 94, "id": "smide_2737", "name": "BE336149", "provider": "smide", "range": 47.0, "size": 17, "time": "02/03/2020, 22:08:24"}, "type": "Feature"}, {"geometry": {"coordinates": [8.535915, 47.377456], "type": "Point"}, "properties": {"charge": 93, "id": "smide_2736", "name": "BE346639", "provider": "smide", "range": 46.0, "size": 17, "time": "02/03/2020, 22:08:24"}, "type": "Feature"}, {"geometry": {"coordinates": [8.55459, 47.402948], "type": "Point"}, "properties": {"charge": 24, "id": "smide_2734", "name": "BE343876", "provider": "smide", "range": 12.0, "size": 17, "time": "02/03/2020, 22:08:24"}, "type": "Feature"}, {"geometry": {"coordinates": [8.566484, 47.35182], "type": "Point"}, "properties": {"charge": 89, "id": "smide_2733", "name": "BE343873", "provider": "smide", "range": 44.0, "size": 17, "time": "02/03/2020, 22:08:24"}, "type": "Feature"}, {"geometry": {"coordinates": [8.502684, 47.384744], "type": "Point"}, "properties": {"charge": 58, "id": "smide_2732", "name": "BE343870", "provider": "smide", "range": 28.0, "size": 17, "time": "02/03/2020, 22:08:24"}, "type": "Feature"}, {"geometry": {"coordinates": [8.528708, 47.371372], "type": "Point"}, "properties": {"charge": 29, "id": "smide_2729", "name": "BE343878", "provider": "smide", "range": 14.0, "size": 17, "time": "02/03/2020, 22:08:24"}, "type": "Feature"}, {"geometry": {"coordinates": [8.542015, 47.424696], "type": "Point"}, "properties": {"charge": 79, "id": "smide_2725", "name": "ZH261545", "provider": "smide", "range": 39.0, "size": 0, "time": "02/03/2020, 22:08:24"}, "type": "Feature"}, {"geometry": {"coordinates": [8.562911, 47.382655], "type": "Point"}, "properties": {"charge": 38, "id": "smide_2718", "name": "ZH259019", "provider": "smide", "range": 19.0, "size": 20, "time": "02/03/2020, 22:08:24"}, "type": "Feature"}, {"geometry": {"coordinates": [8.544071, 47.39196], "type": "Point"}, "properties": {"charge": 98, "id": "smide_2717", "name": "ZH263287", "provider": "smide", "range": 49.0, "size": 17, "time": "02/03/2020, 22:08:24"}, "type": "Feature"}, {"geometry": {"coordinates": [8.530193, 47.390461], "type": "Point"}, "properties": {"charge": 75, "id": "smide_2716", "name": "ZH254606", "provider": "smide", "range": 37.0, "size": 17, "time": "02/03/2020, 22:08:24"}, "type": "Feature"}, {"geometry": {"coordinates": [8.516489, 47.398228], "type": "Point"}, "properties": {"charge": 98, "id": "smide_2715", "name": "ZH254605", "provider": "smide", "range": 49.0, "size": 17, "time": "02/03/2020, 22:08:24"}, "type": "Feature"}, {"geometry": {"coordinates": [8.568392, 47.367652], "type": "Point"}, "properties": {"charge": 73, "id": "smide_2710", "name": "ZH256460", "provider": "smide", "range": 36.0, "size": 17, "time": "02/03/2020, 22:08:24"}, "type": "Feature"}, {"geometry": {"coordinates": [8.520757, 47.38844], "type": "Point"}, "properties": {"charge": 71, "id": "smide_2712", "name": "ZH256462", "provider": "smide", "range": 35.0, "size": 17, "time": "02/03/2020, 22:08:24"}, "type": "Feature"}, {"geometry": {"coordinates": [8.534237, 47.369376], "type": "Point"}, "properties": {"charge": 90, "id": "smide_2711", "name": "ZH256463", "provider": "smide", "range": 45.0, "size": 17, "time": "02/03/2020, 22:08:24"}, "type": "Feature"}, {"geometry": {"coordinates": [8.563776, 47.348128], "type": "Point"}, "properties": {"charge": 74, "id": "smide_2709", "name": "ZH256466", "provider": "smide", "range": 37.0, "size": 20, "time": "02/03/2020, 22:08:24"}, "type": "Feature"}, {"geometry": {"coordinates": [8.556272, 47.414], "type": "Point"}, "properties": {"charge": 55, "id": "smide_2707", "name": "ZH256467", "provider": "smide", "range": 27.0, "size": 20, "time": "02/03/2020, 22:08:24"}, "type": "Feature"}, {"geometry": {"coordinates": [8.539613, 47.399716], "type": "Point"}, "properties": {"charge": 70, "id": "smide_2708", "name": "ZH256464", "provider": "smide", "range": 35.0, "size": 17, "time": "02/03/2020, 22:08:24"}, "type": "Feature"}, {"geometry": {"coordinates": [8.513535, 47.367744], "type": "Point"}, "properties": {"charge": 71, "id": "smide_2706", "name": "ZH256322", "provider": "smide", "range": 35.0, "size": 20, "time": "02/03/2020, 22:08:24"}, "type": "Feature"}, {"geometry": {"coordinates": [8.531166, 47.395708], "type": "Point"}, "properties": {"charge": 67, "id": "smide_2701", "name": "ZH256468", "provider": "smide", "range": 33.0, "size": 20, "time": "02/03/2020, 22:08:24"}, "type": "Feature"}, {"geometry": {"coordinates": [8.543802, 47.371944], "type": "Point"}, "properties": {"charge": 83, "id": "smide_2700", "name": "ZH256470", "provider": "smide", "range": 41.0, "size": 20, "time": "02/03/2020, 22:08:24"}, "type": "Feature"}, {"geometry": {"coordinates": [8.572767, 47.38056], "type": "Point"}, "properties": {"charge": 95, "id": "smide_2699", "name": "ZH254611", "provider": "smide", "range": 47.0, "size": 20, "time": "02/03/2020, 22:08:24"}, "type": "Feature"}, {"geometry": {"coordinates": [8.569437, 47.359276], "type": "Point"}, "properties": {"charge": 85, "id": "smide_2697", "name": "ZH254629", "provider": "smide", "range": 42.0, "size": 20, "time": "02/03/2020, 22:08:24"}, "type": "Feature"}, {"geometry": {"coordinates": [8.537798, 47.403232], "type": "Point"}, "properties": {"charge": 60, "id": "smide_2696", "name": "ZH254616", "provider": "smide", "range": 30.0, "size": 20, "time": "02/03/2020, 22:08:24"}, "type": "Feature"}, {"geometry": {"coordinates": [8.551808, 47.389148], "type": "Point"}, "properties": {"charge": 80, "id": "smide_2694", "name": "ZH254610", "provider": "smide", "range": 40.0, "size": 20, "time": "02/03/2020, 22:08:24"}, "type": "Feature"}, {"geometry": {"coordinates": [8.558533, 47.403941], "type": "Point"}, "properties": {"charge": 100, "id": "smide_2691", "name": "ZH254622", "provider": "smide", "range": 50.0, "size": 20, "time": "02/03/2020, 22:08:24"}, "type": "Feature"}, {"geometry": {"coordinates": [8.556233, 47.41073], "type": "Point"}, "properties": {"charge": 55, "id": "smide_2690", "name": "ZH254625", "provider": "smide", "range": 27.0, "size": 20, "time": "02/03/2020, 22:08:24"}, "type": "Feature"}, {"geometry": {"coordinates": [8.555579, 47.384368], "type": "Point"}, "properties": {"charge": 10, "id": "smide_2689", "name": "ZH254623", "provider": "smide", "range": 5.0, "size": 20, "time": "02/03/2020, 22:08:24"}, "type": "Feature"}, {"geometry": {"coordinates": [8.560505, 47.372284], "type": "Point"}, "properties": {"charge": 59, "id": "smide_2687", "name": "ZH263529", "provider": "smide", "range": 29.0, "size": 20, "time": "02/03/2020, 22:08:24"}, "type": "Feature"}, {"geometry": {"coordinates": [8.563409, 47.382368], "type": "Point"}, "properties": {"charge": 69, "id": "smide_2684", "name": "ZH254626", "provider": "smide", "range": 34.0, "size": 20, "time": "02/03/2020, 22:08:24"}, "type": "Feature"}, {"geometry": {"coordinates": [8.56838, 47.351465], "type": "Point"}, "properties": {"charge": 80, "id": "smide_2683", "name": "ZH254620", "provider": "smide", "range": 40.0, "size": 20, "time": "02/03/2020, 22:08:24"}, "type": "Feature"}, {"geometry": {"coordinates": [8.541584, 47.382708], "type": "Point"}, "properties": {"charge": 51, "id": "smide_2680", "name": "ZH254619", "provider": "smide", "range": 25.0, "size": 20, "time": "02/03/2020, 22:08:24"}, "type": "Feature"}, {"geometry": {"coordinates": [8.576447, 47.351268], "type": "Point"}, "properties": {"charge": 83, "id": "smide_2679", "name": "ZH258489", "provider": "smide", "range": 41.0, "size": 17, "time": "02/03/2020, 22:08:24"}, "type": "Feature"}, {"geometry": {"coordinates": [8.502151, 47.368964], "type": "Point"}, "properties": {"charge": 90, "id": "smide_2677", "name": "ZH258487", "provider": "smide", "range": 45.0, "size": 17, "time": "02/03/2020, 22:08:24"}, "type": "Feature"}, {"geometry": {"coordinates": [8.533113, 47.336744], "type": "Point"}, "properties": {"charge": 71, "id": "smide_2674", "name": "ZH258654", "provider": "smide", "range": 35.0, "size": 17, "time": "02/03/2020, 22:08:24"}, "type": "Feature"}, {"geometry": {"coordinates": [8.535563, 47.406], "type": "Point"}, "properties": {"charge": 59, "id": "smide_2671", "name": "ZH258645", "provider": "smide", "range": 29.0, "size": 17, "time": "02/03/2020, 22:08:24"}, "type": "Feature"}, {"geometry": {"coordinates": [8.544575, 47.374368], "type": "Point"}, "properties": {"charge": 92, "id": "smide_2669", "name": "ZH263294", "provider": "smide", "range": 46.0, "size": 17, "time": "02/03/2020, 22:08:24"}, "type": "Feature"}, {"geometry": {"coordinates": [8.542186, 47.36688], "type": "Point"}, "properties": {"charge": 47, "id": "smide_2666", "name": "ZH258653", "provider": "smide", "range": 23.0, "size": 17, "time": "02/03/2020, 22:08:24"}, "type": "Feature"}, {"geometry": {"coordinates": [8.54697, 47.407572], "type": "Point"}, "properties": {"charge": 97, "id": "smide_2665", "name": "ZH258644", "provider": "smide", "range": 48.0, "size": 17, "time": "02/03/2020, 22:08:24"}, "type": "Feature"}, {"geometry": {"coordinates": [8.553832, 47.38196], "type": "Point"}, "properties": {"charge": 40, "id": "smide_2664", "name": "ZH258652", "provider": "smide", "range": 20.0, "size": 17, "time": "02/03/2020, 22:08:24"}, "type": "Feature"}, {"geometry": {"coordinates": [8.516539, 47.39818], "type": "Point"}, "properties": {"charge": 79, "id": "smide_2663", "name": "ZH258649", "provider": "smide", "range": 39.0, "size": 17, "time": "02/03/2020, 22:08:24"}, "type": "Feature"}, {"geometry": {"coordinates": [8.568419, 47.366848], "type": "Point"}, "properties": {"charge": 35, "id": "smide_2662", "name": "ZH258643", "provider": "smide", "range": 17.0, "size": 17, "time": "02/03/2020, 22:08:24"}, "type": "Feature"}, {"geometry": {"coordinates": [8.536344, 47.377788], "type": "Point"}, "properties": {"charge": 87, "id": "smide_2648", "name": "ZH257930", "provider": "smide", "range": 43.0, "size": 20, "time": "02/03/2020, 22:08:24"}, "type": "Feature"}, {"geometry": {"coordinates": [8.570216, 47.352275], "type": "Point"}, "properties": {"charge": 40, "id": "smide_2657", "name": "ZH257936", "provider": "smide", "range": 20.0, "size": 17, "time": "02/03/2020, 22:08:24"}, "type": "Feature"}, {"geometry": {"coordinates": [8.516932, 47.38476], "type": "Point"}, "properties": {"charge": 27, "id": "smide_2647", "name": "ZH257932", "provider": "smide", "range": 13.0, "size": 20, "time": "02/03/2020, 22:08:24"}, "type": "Feature"}, {"geometry": {"coordinates": [8.569706, 47.372984], "type": "Point"}, "properties": {"charge": 98, "id": "smide_2645", "name": "ZH257933", "provider": "smide", "range": 49.0, "size": 20, "time": "02/03/2020, 22:08:24"}, "type": "Feature"}, {"geometry": {"coordinates": [8.53221, 47.382386], "type": "Point"}, "properties": {"charge": 56, "id": "smide_3", "name": "ZH253765", "provider": "smide", "range": 28.0, "size": 20, "time": "02/03/2020, 22:08:24"}, "type": "Feature"}, {"geometry": {"coordinates": [8.526136, 47.408525], "type": "Point"}, "properties": {"charge": 62, "id": "smide_105", "name": "ZH253804", "provider": "smide", "range": 31.0, "size": 17, "time": "02/03/2020, 22:08:24"}, "type": "Feature"}, {"geometry": {"coordinates": [8.542099, 47.407544], "type": "Point"}, "properties": {"charge": 91, "id": "smide_186", "name": "ZH253751", "provider": "smide", "range": 45.0, "size": 20, "time": "02/03/2020, 22:08:24"}, "type": "Feature"}, {"geometry": {"coordinates": [8.571153, 47.352556], "type": "Point"}, "properties": {"charge": 83, "id": "smide_173", "name": "ZH258501", "provider": "smide", "range": 41.0, "size": 17, "time": "02/03/2020, 22:08:24"}, "type": "Feature"}, {"geometry": {"coordinates": [8.559309, 47.406112], "type": "Point"}, "properties": {"charge": 73, "id": "smide_77", "name": "ZH261548", "provider": "smide", "range": 36.0, "size": 20, "time": "02/03/2020, 22:08:24"}, "type": "Feature"}, {"geometry": {"coordinates": [8.563059, 47.382544], "type": "Point"}, "properties": {"charge": 42, "id": "smide_200", "name": "ZH253801", "provider": "smide", "range": 21.0, "size": 20, "time": "02/03/2020, 22:08:24"}, "type": "Feature"}, {"geometry": {"coordinates": [8.520725, 47.375016], "type": "Point"}, "properties": {"charge": 79, "id": "smide_8", "name": "ZH253861", "provider": "smide", "range": 39.0, "size": 17, "time": "02/03/2020, 22:08:24"}, "type": "Feature"}, {"geometry": {"coordinates": [8.55022, 47.362315], "type": "Point"}, "properties": {"charge": 24, "id": "smide_45", "name": "ZH253716", "provider": "smide", "range": 12.0, "size": 17, "time": "02/03/2020, 22:08:24"}, "type": "Feature"}, {"geometry": {"coordinates": [8.516556, 47.39746], "type": "Point"}, "properties": {"charge": 100, "id": "smide_188", "name": "ZH261543", "provider": "smide", "range": 50.0, "size": 20, "time": "02/03/2020, 22:08:24"}, "type": "Feature"}, {"geometry": {"coordinates": [8.502212, 47.36908], "type": "Point"}, "properties": {"charge": 94, "id": "smide_71", "name": "ZH253742", "provider": "smide", "range": 47.0, "size": 20, "time": "02/03/2020, 22:08:24"}, "type": "Feature"}, {"geometry": {"coordinates": [8.44991, 47.397768], "type": "Point"}, "properties": {"charge": 49, "id": "smide_9", "name": "ZH253796", "provider": "smide", "range": 24.0, "size": 17, "time": "02/03/2020, 22:08:24"}, "type": "Feature"}, {"geometry": {"coordinates": [8.563407, 47.409392], "type": "Point"}, "properties": {"charge": 71, "id": "smide_143", "name": "ZH253778", "provider": "smide", "range": 35.0, "size": 17, "time": "02/03/2020, 22:08:24"}, "type": "Feature"}, {"geometry": {"coordinates": [8.544211, 47.416535], "type": "Point"}, "properties": {"charge": 85, "id": "smide_180", "name": "ZH253824", "provider": "smide", "range": 42.0, "size": 20, "time": "02/03/2020, 22:08:24"}, "type": "Feature"}, {"geometry": {"coordinates": [8.544639, 47.374128], "type": "Point"}, "properties": {"charge": 22, "id": "smide_20", "name": "ZH253770", "provider": "smide", "range": 11.0, "size": 20, "time": "02/03/2020, 22:08:24"}, "type": "Feature"}, {"geometry": {"coordinates": [8.55702, 47.376996], "type": "Point"}, "properties": {"charge": 100, "id": "smide_50", "name": "ZH253853", "provider": "smide", "range": 50.0, "size": 17, "time": "02/03/2020, 22:08:24"}, "type": "Feature"}, {"geometry": {"coordinates": [8.550246, 47.386071], "type": "Point"}, "properties": {"charge": 59, "id": "smide_30", "name": "ZH253813", "provider": "smide", "range": 29.0, "size": 20, "time": "02/03/2020, 22:08:24"}, "type": "Feature"}, {"geometry": {"coordinates": [8.52601, 47.397021], "type": "Point"}, "properties": {"charge": 59, "id": "smide_10", "name": "ZH253855", "provider": "smide", "range": 29.0, "size": 17, "time": "02/03/2020, 22:08:24"}, "type": "Feature"}, {"geometry": {"coordinates": [8.560295, 47.382156], "type": "Point"}, "properties": {"charge": 80, "id": "smide_84", "name": "ZH253733", "provider": "smide", "range": 40.0, "size": 17, "time": "02/03/2020, 22:08:24"}, "type": "Feature"}, {"geometry": {"coordinates": [8.539947, 47.379192], "type": "Point"}, "properties": {"charge": 100, "id": "smide_165", "name": "ZH253752", "provider": "smide", "range": 50.0, "size": 17, "time": "02/03/2020, 22:08:24"}, "type": "Feature"}, {"geometry": {"coordinates": [8.555713, 47.379648], "type": "Point"}, "properties": {"charge": 53, "id": "smide_35", "name": "ZH253755", "provider": "smide", "range": 26.0, "size": 20, "time": "02/03/2020, 22:08:24"}, "type": "Feature"}, {"geometry": {"coordinates": [8.56074, 47.350468], "type": "Point"}, "properties": {"charge": 86, "id": "smide_119", "name": "ZH253686", "provider": "smide", "range": 43.0, "size": 20, "time": "02/03/2020, 22:08:24"}, "type": "Feature"}, {"geometry": {"coordinates": [8.566604, 47.364088], "type": "Point"}, "properties": {"charge": 93, "id": "smide_76", "name": "ZH253764", "provider": "smide", "range": 46.0, "size": 17, "time": "02/03/2020, 22:08:24"}, "type": "Feature"}, {"geometry": {"coordinates": [8.553868, 47.3819], "type": "Point"}, "properties": {"charge": 65, "id": "smide_129", "name": "ZH261378", "provider": "smide", "range": 32.0, "size": 17, "time": "02/03/2020, 22:08:24"}, "type": "Feature"}, {"geometry": {"coordinates": [8.558766, 47.382315], "type": "Point"}, "properties": {"charge": 97, "id": "smide_49", "name": "ZH253873", "provider": "smide", "range": 48.0, "size": 17, "time": "02/03/2020, 22:08:24"}, "type": "Feature"}, {"geometry": {"coordinates": [8.563066, 47.382512], "type": "Point"}, "properties": {"charge": 66, "id": "smide_94", "name": "ZH253754", "provider": "smide", "range": 33.0, "size": 17, "time": "02/03/2020, 22:08:24"}, "type": "Feature"}, {"geometry": {"coordinates": [8.532434, 47.397404], "type": "Point"}, "properties": {"charge": 42, "id": "smide_37", "name": "ZH261377", "provider": "smide", "range": 21.0, "size": 20, "time": "02/03/2020, 22:08:24"}, "type": "Feature"}, {"geometry": {"coordinates": [8.544415, 47.369113], "type": "Point"}, "properties": {"charge": 75, "id": "smide_191", "name": "ZH253762", "provider": "smide", "range": 37.0, "size": 17, "time": "02/03/2020, 22:08:24"}, "type": "Feature"}, {"geometry": {"coordinates": [8.527035, 47.376146], "type": "Point"}, "properties": {"charge": 100, "id": "smide_202", "name": "ZH253830", "provider": "smide", "range": 50.0, "size": 17, "time": "02/03/2020, 22:08:24"}, "type": "Feature"}, {"geometry": {"coordinates": [8.526648, 47.351704], "type": "Point"}, "properties": {"charge": 24, "id": "smide_56", "name": "ZH261442", "provider": "smide", "range": 12.0, "size": 20, "time": "02/03/2020, 22:08:24"}, "type": "Feature"}, {"geometry": {"coordinates": [8.482968, 47.384831], "type": "Point"}, "properties": {"charge": 26, "id": "smide_47", "name": "ZH253858", "provider": "smide", "range": 13.0, "size": 17, "time": "02/03/2020, 22:08:24"}, "type": "Feature"}, {"geometry": {"coordinates": [8.545444, 47.411956], "type": "Point"}, "properties": {"charge": 33, "id": "smide_23", "name": "ZH253704", "provider": "smide", "range": 16.0, "size": 17, "time": "02/03/2020, 22:08:24"}, "type": "Feature"}, {"geometry": {"coordinates": [8.558459, 47.403868], "type": "Point"}, "properties": {"charge": 90, "id": "smide_66", "name": "ZH253818", "provider": "smide", "range": 45.0, "size": 20, "time": "02/03/2020, 22:08:24"}, "type": "Feature"}, {"geometry": {"coordinates": [8.508218, 47.400566], "type": "Point"}, "properties": {"charge": 76, "id": "smide_17", "name": "ZH253793", "provider": "smide", "range": 38.0, "size": 17, "time": "02/03/2020, 22:08:24"}, "type": "Feature"}, {"geometry": {"coordinates": [8.564067, 47.366352], "type": "Point"}, "properties": {"charge": 52, "id": "smide_127", "name": "ZH253808", "provider": "smide", "range": 26.0, "size": 20, "time": "02/03/2020, 22:08:24"}, "type": "Feature"}, {"geometry": {"coordinates": [8.53927, 47.415283], "type": "Point"}, "properties": {"charge": 69, "id": "smide_145", "name": "ZH253780", "provider": "smide", "range": 34.0, "size": 20, "time": "02/03/2020, 22:08:24"}, "type": "Feature"}, {"geometry": {"coordinates": [8.564275, 47.369384], "type": "Point"}, "properties": {"charge": 61, "id": "smide_114", "name": "ZH253878", "provider": "smide", "range": 30.0, "size": 20, "time": "02/03/2020, 22:08:24"}, "type": "Feature"}, {"geometry": {"coordinates": [8.548851, 47.4216], "type": "Point"}, "properties": {"charge": 58, "id": "smide_203", "name": "ZH261547", "provider": "smide", "range": 28.0, "size": 17, "time": "02/03/2020, 22:08:24"}, "type": "Feature"}, {"geometry": {"coordinates": [8.520167, 47.337068], "type": "Point"}, "properties": {"charge": 52, "id": "smide_21", "name": "ZH253841", "provider": "smide", "range": 26.0, "size": 17, "time": "02/03/2020, 22:08:24"}, "type": "Feature"}, {"geometry": {"coordinates": [8.524036, 47.364908], "type": "Point"}, "properties": {"charge": 100, "id": "smide_164", "name": "ZH253775", "provider": "smide", "range": 50.0, "size": 17, "time": "02/03/2020, 22:08:24"}, "type": "Feature"}, {"geometry": {"coordinates": [8.48738, 47.367596], "type": "Point"}, "properties": {"charge": 93, "id": "smide_189", "name": "ZH253845", "provider": "smide", "range": 46.0, "size": 20, "time": "02/03/2020, 22:08:24"}, "type": "Feature"}, {"geometry": {"coordinates": [8.546506, 47.397776], "type": "Point"}, "properties": {"charge": 81, "id": "smide_81", "name": "ZH253753", "provider": "smide", "range": 40.0, "size": 17, "time": "02/03/2020, 22:08:24"}, "type": "Feature"}, {"geometry": {"coordinates": [8.571694, 47.381552], "type": "Point"}, "properties": {"charge": 83, "id": "smide_171", "name": "ZH253689", "provider": "smide", "range": 41.0, "size": 20, "time": "02/03/2020, 22:08:24"}, "type": "Feature"}, {"geometry": {"coordinates": [8.523443, 47.410212], "type": "Point"}, "properties": {"charge": 33, "id": "smide_93", "name": "ZH253681", "provider": "smide", "range": 16.0, "size": 17, "time": "02/03/2020, 22:08:24"}, "type": "Feature"}, {"geometry": {"coordinates": [8.573387, 47.352872], "type": "Point"}, "properties": {"charge": 88, "id": "smide_67", "name": "ZH253779", "provider": "smide", "range": 44.0, "size": 17, "time": "02/03/2020, 22:08:24"}, "type": "Feature"}, {"geometry": {"coordinates": [8.536082, 47.377644], "type": "Point"}, "properties": {"charge": 43, "id": "smide_133", "name": "ZH253848", "provider": "smide", "range": 21.0, "size": 20, "time": "02/03/2020, 22:08:24"}, "type": "Feature"}, {"geometry": {"coordinates": [8.482513, 47.385646], "type": "Point"}, "properties": {"charge": 90, "id": "smide_118", "name": "ZH253759", "provider": "smide", "range": 45.0, "size": 20, "time": "02/03/2020, 22:08:24"}, "type": "Feature"}, {"geometry": {"coordinates": [8.56468, 47.37284], "type": "Point"}, "properties": {"charge": 62, "id": "smide_142", "name": "ZH258745", "provider": "smide", "range": 31.0, "size": 17, "time": "02/03/2020, 22:08:24"}, "type": "Feature"}, {"geometry": {"coordinates": [8.50272, 47.369055], "type": "Point"}, "properties": {"charge": 19, "id": "smide_166", "name": "ZH253728", "provider": "smide", "range": 9.0, "size": 17, "time": "02/03/2020, 22:08:24"}, "type": "Feature"}, {"geometry": {"coordinates": [8.537383, 47.386924], "type": "Point"}, "properties": {"charge": 41, "id": "smide_126", "name": "ZH268400", "provider": "smide", "range": 20.0, "size": 17, "time": "02/03/2020, 22:08:24"}, "type": "Feature"}, {"geometry": {"coordinates": [8.518841, 47.369028], "type": "Point"}, "properties": {"charge": 86, "id": "smide_98", "name": "ZH256321", "provider": "smide", "range": 43.0, "size": 17, "time": "02/03/2020, 22:08:24"}, "type": "Feature"}, {"geometry": {"coordinates": [8.548179, 47.383276], "type": "Point"}, "properties": {"charge": 56, "id": "smide_154", "name": "ZH253744", "provider": "smide", "range": 28.0, "size": 20, "time": "02/03/2020, 22:08:24"}, "type": "Feature"}, {"geometry": {"coordinates": [8.533158, 47.417156], "type": "Point"}, "properties": {"charge": 16, "id": "smide_7", "name": "ZH256289", "provider": "smide", "range": 8.0, "size": 20, "time": "02/03/2020, 22:08:24"}, "type": "Feature"}, {"geometry": {"coordinates": [8.515039, 47.414556], "type": "Point"}, "properties": {"charge": 52, "id": "smide_92", "name": "ZH253798", "provider": "smide", "range": 26.0, "size": 17, "time": "02/03/2020, 22:08:24"}, "type": "Feature"}, {"geometry": {"coordinates": [8.548206, 47.413046], "type": "Point"}, "properties": {"charge": 40, "id": "smide_167", "name": "ZH253854", "provider": "smide", "range": 20.0, "size": 17, "time": "02/03/2020, 22:08:24"}, "type": "Feature"}, {"geometry": {"coordinates": [8.502173, 47.370272], "type": "Point"}, "properties": {"charge": 100, "id": "smide_65", "name": "ZH253810", "provider": "smide", "range": 50.0, "size": 17, "time": "02/03/2020, 22:08:24"}, "type": "Feature"}, {"geometry": {"coordinates": [8.555367, 47.360068], "type": "Point"}, "properties": {"charge": 35, "id": "smide_111", "name": "ZH253763", "provider": "smide", "range": 17.0, "size": 17, "time": "02/03/2020, 22:08:24"}, "type": "Feature"}, {"geometry": {"coordinates": [8.561978, 47.41516], "type": "Point"}, "properties": {"charge": 64, "id": "smide_40", "name": "ZH253690", "provider": "smide", "range": 32.0, "size": 20, "time": "02/03/2020, 22:08:24"}, "type": "Feature"}, {"geometry": {"coordinates": [8.563345, 47.348772], "type": "Point"}, "properties": {"charge": 87, "id": "smide_1", "name": "ZH253776", "provider": "smide", "range": 43.0, "size": 17, "time": "02/03/2020, 22:08:24"}, "type": "Feature"}, {"geometry": {"coordinates": [8.535868, 47.399744], "type": "Point"}, "properties": {"charge": 100, "id": "smide_28", "name": "ZH253831", "provider": "smide", "range": 50.0, "size": 17, "time": "02/03/2020, 22:08:24"}, "type": "Feature"}, {"geometry": {"coordinates": [8.519873, 47.340293], "type": "Point"}, "properties": {"charge": 75, "id": "smide_14", "name": "ZH253749", "provider": "smide", "range": 37.0, "size": 20, "time": "02/03/2020, 22:08:24"}, "type": "Feature"}, {"geometry": {"coordinates": [8.493004, 47.368768], "type": "Point"}, "properties": {"charge": 100, "id": "smide_130", "name": "ZH253847", "provider": "smide", "range": 50.0, "size": 20, "time": "02/03/2020, 22:08:24"}, "type": "Feature"}, {"geometry": {"coordinates": [8.54008, 47.378972], "type": "Point"}, "properties": {"charge": 100, "id": "smide_24", "name": "ZH253696", "provider": "smide", "range": 50.0, "size": 20, "time": "02/03/2020, 22:08:24"}, "type": "Feature"}, {"geometry": {"coordinates": [8.495515, 47.36764], "type": "Point"}, "properties": {"charge": 71, "id": "smide_107", "name": "ZH253819", "provider": "smide", "range": 35.0, "size": 17, "time": "02/03/2020, 22:08:24"}, "type": "Feature"}, {"geometry": {"coordinates": [8.533612, 47.376004], "type": "Point"}, "properties": {"charge": 79, "id": "smide_136", "name": "ZH253682", "provider": "smide", "range": 39.0, "size": 17, "time": "02/03/2020, 22:08:24"}, "type": "Feature"}, {"geometry": {"coordinates": [8.559661, 47.413448], "type": "Point"}, "properties": {"charge": 92, "id": "smide_83", "name": "ZH253869", "provider": "smide", "range": 46.0, "size": 20, "time": "02/03/2020, 22:08:24"}, "type": "Feature"}, {"geometry": {"coordinates": [8.532916, 47.347396], "type": "Point"}, "properties": {"charge": 99, "id": "smide_193", "name": "ZH253738", "provider": "smide", "range": 49.0, "size": 20, "time": "02/03/2020, 22:08:24"}, "type": "Feature"}, {"geometry": {"coordinates": [8.545181, 47.412256], "type": "Point"}, "properties": {"charge": 90, "id": "smide_73", "name": "ZH261379", "provider": "smide", "range": 45.0, "size": 20, "time": "02/03/2020, 22:08:24"}, "type": "Feature"}, {"geometry": {"coordinates": [8.487381, 47.367625], "type": "Point"}, "properties": {"charge": 100, "id": "smide_158", "name": "ZH253870", "provider": "smide", "range": 50.0, "size": 20, "time": "02/03/2020, 22:08:24"}, "type": "Feature"}, {"geometry": {"coordinates": [8.534164, 47.404536], "type": "Point"}, "properties": {"charge": 87, "id": "smide_100", "name": "ZH253862", "provider": "smide", "range": 43.0, "size": 20, "time": "02/03/2020, 22:08:24"}, "type": "Feature"}, {"geometry": {"coordinates": [8.533913, 47.405465], "type": "Point"}, "properties": {"charge": 70, "id": "smide_134", "name": "ZH253741", "provider": "smide", "range": 35.0, "size": 20, "time": "02/03/2020, 22:08:24"}, "type": "Feature"}, {"geometry": {"coordinates": [8.521753, 47.365765], "type": "Point"}, "properties": {"charge": 67, "id": "smide_141", "name": "ZH253800", "provider": "smide", "range": 33.0, "size": 20, "time": "02/03/2020, 22:08:24"}, "type": "Feature"}, {"geometry": {"coordinates": [8.486835, 47.375676], "type": "Point"}, "properties": {"charge": 93, "id": "smide_149", "name": "ZH253743", "provider": "smide", "range": 46.0, "size": 20, "time": "02/03/2020, 22:08:24"}, "type": "Feature"}, {"geometry": {"coordinates": [8.582206, 47.351888], "type": "Point"}, "properties": {"charge": 79, "id": "smide_16", "name": "ZH253713", "provider": "smide", "range": 39.0, "size": 20, "time": "02/03/2020, 22:08:24"}, "type": "Feature"}, {"geometry": {"coordinates": [8.562892, 47.366096], "type": "Point"}, "properties": {"charge": 49, "id": "smide_74", "name": "ZH253693", "provider": "smide", "range": 24.0, "size": 20, "time": "02/03/2020, 22:08:24"}, "type": "Feature"}, {"geometry": {"coordinates": [8.561138, 47.362718], "type": "Point"}, "properties": {"charge": 52, "id": "smide_33", "name": "ZH253782", "provider": "smide", "range": 26.0, "size": 20, "time": "02/03/2020, 22:08:24"}, "type": "Feature"}, {"geometry": {"coordinates": [8.523331, 47.362831], "type": "Point"}, "properties": {"charge": 41, "id": "smide_183", "name": "ZH253868", "provider": "smide", "range": 20.0, "size": 17, "time": "02/03/2020, 22:08:24"}, "type": "Feature"}, {"geometry": {"coordinates": [8.562384, 47.367204], "type": "Point"}, "properties": {"charge": 36, "id": "smide_42", "name": "ZH253846", "provider": "smide", "range": 18.0, "size": 20, "time": "02/03/2020, 22:08:24"}, "type": "Feature"}, {"geometry": {"coordinates": [8.499394, 47.402308], "type": "Point"}, "properties": {"charge": 69, "id": "smide_4", "name": "ZH253740", "provider": "smide", "range": 34.0, "size": 20, "time": "02/03/2020, 22:08:24"}, "type": "Feature"}, {"geometry": {"coordinates": [8.559745, 47.3833], "type": "Point"}, "properties": {"charge": 75, "id": "smide_160", "name": "ZH253722", "provider": "smide", "range": 37.0, "size": 17, "time": "02/03/2020, 22:08:24"}, "type": "Feature"}, {"geometry": {"coordinates": [8.575191, 47.348885], "type": "Point"}, "properties": {"charge": 79, "id": "smide_137", "name": "ZH258502", "provider": "smide", "range": 39.0, "size": 17, "time": "02/03/2020, 22:08:24"}, "type": "Feature"}, {"geometry": {"coordinates": [8.577159, 47.352968], "type": "Point"}, "properties": {"charge": 95, "id": "smide_178", "name": "ZH253803", "provider": "smide", "range": 47.0, "size": 17, "time": "02/03/2020, 22:08:24"}, "type": "Feature"}, {"geometry": {"coordinates": [8.528548, 47.394472], "type": "Point"}, "properties": {"charge": 99, "id": "smide_96", "name": "ZH256146", "provider": "smide", "range": 49.0, "size": 20, "time": "02/03/2020, 22:08:24"}, "type": "Feature"}, {"geometry": {"coordinates": [8.509398, 47.39524], "type": "Point"}, "properties": {"charge": 99, "id": "smide_58", "name": "ZH259246", "provider": "smide", "range": 49.0, "size": 20, "time": "02/03/2020, 22:08:24"}, "type": "Feature"}, {"geometry": {"coordinates": [8.510824, 47.366944], "type": "Point"}, "properties": {"charge": 92, "id": "smide_54", "name": "ZH253874", "provider": "smide", "range": 46.0, "size": 20, "time": "02/03/2020, 22:08:24"}, "type": "Feature"}, {"geometry": {"coordinates": [8.551898, 47.389328], "type": "Point"}, "properties": {"charge": 89, "id": "smide_175", "name": "ZH253730", "provider": "smide", "range": 44.0, "size": 17, "time": "02/03/2020, 22:08:24"}, "type": "Feature"}, {"geometry": {"coordinates": [8.510842, 47.366904], "type": "Point"}, "properties": {"charge": 73, "id": "smide_95", "name": "ZH253773", "provider": "smide", "range": 36.0, "size": 17, "time": "02/03/2020, 22:08:24"}, "type": "Feature"}, {"geometry": {"coordinates": [8.527647, 47.415124], "type": "Point"}, "properties": {"charge": 51, "id": "smide_112", "name": "ZH263530", "provider": "smide", "range": 25.0, "size": 20, "time": "02/03/2020, 22:08:24"}, "type": "Feature"}, {"geometry": {"coordinates": [8.572608, 47.35738], "type": "Point"}, "properties": {"charge": 100, "id": "smide_122", "name": "ZH253850", "provider": "smide", "range": 50.0, "size": 20, "time": "02/03/2020, 22:08:24"}, "type": "Feature"}, {"geometry": {"coordinates": [8.530581, 47.33478], "type": "Point"}, "properties": {"charge": 62, "id": "smide_38", "name": "ZH253851", "provider": "smide", "range": 31.0, "size": 20, "time": "02/03/2020, 22:08:24"}, "type": "Feature"}, {"geometry": {"coordinates": [8.557654, 47.404364], "type": "Point"}, "properties": {"charge": 89, "id": "smide_6", "name": "ZH253787", "provider": "smide", "range": 44.0, "size": 17, "time": "02/03/2020, 22:08:24"}, "type": "Feature"}, {"geometry": {"coordinates": [8.556858, 47.403792], "type": "Point"}, "properties": {"charge": 85, "id": "smide_18", "name": "ZH253859", "provider": "smide", "range": 42.0, "size": 17, "time": "02/03/2020, 22:08:24"}, "type": "Feature"}, {"geometry": {"coordinates": [8.498192, 47.399236], "type": "Point"}, "properties": {"charge": 57, "id": "smide_12", "name": "ZH253685", "provider": "smide", "range": 28.0, "size": 17, "time": "02/03/2020, 22:08:24"}, "type": "Feature"}, {"geometry": {"coordinates": [8.57628, 47.34874], "type": "Point"}, "properties": {"charge": 95, "id": "smide_192", "name": "ZH253706", "provider": "smide", "range": 47.0, "size": 20, "time": "02/03/2020, 22:08:24"}, "type": "Feature"}, {"geometry": {"coordinates": [8.549191, 47.361708], "type": "Point"}, "properties": {"charge": 53, "id": "smide_39", "name": "ZH253714", "provider": "smide", "range": 26.0, "size": 20, "time": "02/03/2020, 22:08:24"}, "type": "Feature"}, {"geometry": {"coordinates": [8.5193, 47.337196], "type": "Point"}, "properties": {"charge": 51, "id": "smide_5", "name": "ZH261443", "provider": "smide", "range": 25.0, "size": 20, "time": "02/03/2020, 22:08:24"}, "type": "Feature"}, {"geometry": {"coordinates": [8.541685, 47.400061], "type": "Point"}, "properties": {"charge": 85, "id": "smide_85", "name": "ZH253729", "provider": "smide", "range": 42.0, "size": 17, "time": "02/03/2020, 22:08:24"}, "type": "Feature"}, {"geometry": {"coordinates": [8.530107, 47.39364], "type": "Point"}, "properties": {"charge": 67, "id": "smide_29", "name": "ZH253723", "provider": "smide", "range": 33.0, "size": 17, "time": "02/03/2020, 22:08:24"}, "type": "Feature"}, {"geometry": {"coordinates": [8.531594, 47.385252], "type": "Point"}, "properties": {"charge": 22, "id": "smide_48", "name": "ZH253849", "provider": "smide", "range": 11.0, "size": 20, "time": "02/03/2020, 22:08:24"}, "type": "Feature"}, {"geometry": {"coordinates": [8.559404, 47.360056], "type": "Point"}, "properties": {"charge": 78, "id": "smide_46", "name": "ZH253843", "provider": "smide", "range": 39.0, "size": 20, "time": "02/03/2020, 22:08:24"}, "type": "Feature"}, {"geometry": {"coordinates": [8.51166, 47.372925], "type": "Point"}, "properties": {"charge": 57, "id": "bird_52db6032-5e66-4e4a-a165-5a182caa43e6", "provider": "bird", "timeStamp": "02/03/2020, 22:08:24"}, "type": "Feature"}, {"geometry": {"coordinates": [8.50926833333333, 47.3774866666667], "type": "Point"}, "properties": {"charge": 40, "id": "bird_888fa346-4d2e-4b95-a6bc-e032f984f6f7", "provider": "bird", "timeStamp": "02/03/2020, 22:08:24"}, "type": "Feature"}, {"geometry": {"coordinates": [8.54862833333333, 47.3858566666667], "type": "Point"}, "properties": {"charge": 60, "id": "bird_dced39ad-18da-4914-abd7-9a1773523257", "provider": "bird", "timeStamp": "02/03/2020, 22:08:24"}, "type": "Feature"}, {"geometry": {"coordinates": [8.529445, 47.3938983333333], "type": "Point"}, "properties": {"charge": 35, "id": "bird_8a5a106c-6d8d-4e6d-9099-dc7a862509ec", "provider": "bird", "timeStamp": "02/03/2020, 22:08:24"}, "type": "Feature"}, {"geometry": {"coordinates": [8.54853333333333, 47.38578], "type": "Point"}, "properties": {"charge": 62, "id": "bird_9947589e-9d79-4702-a49f-83f26d69dcf7", "provider": "bird", "timeStamp": "02/03/2020, 22:08:24"}, "type": "Feature"}, {"geometry": {"coordinates": [8.51014666666667, 47.3830416666667], "type": "Point"}, "properties": {"charge": 52, "id": "bird_0d6edf4f-f14c-40e3-a179-6896289ba9b5", "provider": "bird", "timeStamp": "02/03/2020, 22:08:24"}, "type": "Feature"}, {"geometry": {"coordinates": [8.53481666666667, 47.3666383333333], "type": "Point"}, "properties": {"charge": 74, "id": "bird_fa5969b3-15b4-468c-b0bc-2fa9e9604c7c", "provider": "bird", "timeStamp": "02/03/2020, 22:08:24"}, "type": "Feature"}, {"geometry": {"coordinates": [8.54844666666667, 47.38549], "type": "Point"}, "properties": {"charge": 37, "id": "bird_d068bd1f-ae9e-4499-8006-cb0a89aa75fa", "provider": "bird", "timeStamp": "02/03/2020, 22:08:24"}, "type": "Feature"}, {"geometry": {"coordinates": [8.51329333333333, 47.3724166666667], "type": "Point"}, "properties": {"charge": 61, "id": "bird_5dad94a9-4701-42cf-a8ca-7d6272eae0e7", "provider": "bird", "timeStamp": "02/03/2020, 22:08:24"}, "type": "Feature"}, {"geometry": {"coordinates": [8.54438166666667, 47.370495], "type": "Point"}, "properties": {"charge": 22, "id": "bird_ed495f74-adf0-47c3-9527-933f4d8e299d", "provider": "bird", "timeStamp": "02/03/2020, 22:08:24"}, "type": "Feature"}, {"geometry": {"coordinates": [8.53891333333333, 47.3921966666667], "type": "Point"}, "properties": {"charge": 73, "id": "bird_7d37d55a-1d28-41de-a72b-d47c6d581ff8", "provider": "bird", "timeStamp": "02/03/2020, 22:08:24"}, "type": "Feature"}, {"geometry": {"coordinates": [8.51337333333333, 47.3724716666667], "type": "Point"}, "properties": {"charge": 12, "id": "bird_69111269-7e6b-422a-a3cc-be06c038f008", "provider": "bird", "timeStamp": "02/03/2020, 22:08:24"}, "type": "Feature"}, {"geometry": {"coordinates": [8.510125, 47.3802333333333], "type": "Point"}, "properties": {"charge": 30, "id": "bird_a64618a4-f71d-47e2-ae59-5d11e1061b5e", "provider": "bird", "timeStamp": "02/03/2020, 22:08:24"}, "type": "Feature"}, {"geometry": {"coordinates": [8.53892333333333, 47.3680033333333], "type": "Point"}, "properties": {"charge": 19, "id": "bird_7da355ae-0a3f-47df-9e0e-065a9a1fb21d", "provider": "bird", "timeStamp": "02/03/2020, 22:08:24"}, "type": "Feature"}, {"geometry": {"coordinates": [8.52929833333333, 47.3934133333333], "type": "Point"}, "properties": {"charge": 62, "id": "bird_f57c74c8-31a1-4c98-915e-183b6d2af9e0", "provider": "bird", "timeStamp": "02/03/2020, 22:08:24"}, "type": "Feature"}, {"geometry": {"coordinates": [8.5293, 47.39338], "type": "Point"}, "properties": {"charge": 42, "id": "bird_cb733e2d-c75e-40b9-93a8-f1c7ff4a401a", "provider": "bird", "timeStamp": "02/03/2020, 22:08:24"}, "type": "Feature"}, {"geometry": {"coordinates": [8.51032166666667, 47.3802983333333], "type": "Point"}, "properties": {"charge": 31, "id": "bird_3ca9900f-602f-433b-9069-8f2098b1554b", "provider": "bird", "timeStamp": "02/03/2020, 22:08:24"}, "type": "Feature"}, {"geometry": {"coordinates": [8.54884833333333, 47.3762166666667], "type": "Point"}, "properties": {"charge": 61, "id": "bird_eaccb102-5ee6-44d4-acb7-48f47c765cbb", "provider": "bird", "timeStamp": "02/03/2020, 22:08:24"}, "type": "Feature"}, {"geometry": {"coordinates": [8.53378333333333, 47.36694], "type": "Point"}, "properties": {"charge": 92, "id": "bird_b917ae53-bf41-4c74-bc24-31b25d15c243", "provider": "bird", "timeStamp": "02/03/2020, 22:08:24"}, "type": "Feature"}, {"geometry": {"coordinates": [8.52855666666667, 47.3932716666667], "type": "Point"}, "properties": {"charge": 62, "id": "bird_9d8ad0e4-e3fc-4e04-8532-ec1ccd210e16", "provider": "bird", "timeStamp": "02/03/2020, 22:08:24"}, "type": "Feature"}, {"geometry": {"coordinates": [8.528535, 47.3932533333333], "type": "Point"}, "properties": {"charge": 39, "id": "bird_7d744469-625d-4fd5-8c2d-4567ed2b17f9", "provider": "bird", "timeStamp": "02/03/2020, 22:08:24"}, "type": "Feature"}, {"geometry": {"coordinates": [8.54442333333333, 47.37099], "type": "Point"}, "properties": {"charge": 36, "id": "bird_9b554a85-8ec5-472c-a23f-bcb1186794a2", "provider": "bird", "timeStamp": "02/03/2020, 22:08:24"}, "type": "Feature"}, {"geometry": {"coordinates": [8.51310666666667, 47.3867183333333], "type": "Point"}, "properties": {"charge": 34, "id": "bird_b2c43b59-85ed-4653-9367-d6e5f83e2adf", "provider": "bird", "timeStamp": "02/03/2020, 22:08:24"}, "type": "Feature"}, {"geometry": {"coordinates": [8.52853833333333, 47.3932266666667], "type": "Point"}, "properties": {"charge": 62, "id": "bird_c0a6c764-8edc-4a54-b76d-d3920a4d42bc", "provider": "bird", "timeStamp": "02/03/2020, 22:08:24"}, "type": "Feature"}, {"geometry": {"coordinates": [8.53386333333333, 47.3670383333333], "type": "Point"}, "properties": {"charge": 30, "id": "bird_31a13623-a1c4-4bb2-bb5e-92a5eb9ebce2", "provider": "bird", "timeStamp": "02/03/2020, 22:08:24"}, "type": "Feature"}, {"geometry": {"coordinates": [8.53519166666667, 47.3926466666667], "type": "Point"}, "properties": {"charge": 57, "id": "bird_2ce31a41-4d0a-4f5c-921f-a8f2f113a5a9", "provider": "bird", "timeStamp": "02/03/2020, 22:08:24"}, "type": "Feature"}, {"geometry": {"coordinates": [8.513045, 47.3736416666667], "type": "Point"}, "properties": {"charge": 57, "id": "bird_f9c7de13-cf8b-48ac-8e67-d7046d913153", "provider": "bird", "timeStamp": "02/03/2020, 22:08:24"}, "type": "Feature"}, {"geometry": {"coordinates": [8.51128666666667, 47.37664], "type": "Point"}, "properties": {"charge": 36, "id": "bird_7cafe21b-2db5-4f69-b927-5c569fd6fb54", "provider": "bird", "timeStamp": "02/03/2020, 22:08:24"}, "type": "Feature"}, {"geometry": {"coordinates": [8.548205, 47.3843233333333], "type": "Point"}, "properties": {"charge": 64, "id": "bird_f37e70c7-68f3-4839-8088-28b750377278", "provider": "bird", "timeStamp": "02/03/2020, 22:08:24"}, "type": "Feature"}, {"geometry": {"coordinates": [8.548795, 47.382915], "type": "Point"}, "properties": {"charge": 36, "id": "bird_cca20380-889c-45ca-aae2-a7edf31a3672", "provider": "bird", "timeStamp": "02/03/2020, 22:08:24"}, "type": "Feature"}, {"geometry": {"coordinates": [8.54568, 47.3875766666667], "type": "Point"}, "properties": {"charge": 29, "id": "bird_89c7b832-7be5-4060-bc5c-6d950add268f", "provider": "bird", "timeStamp": "02/03/2020, 22:08:24"}, "type": "Feature"}, {"geometry": {"coordinates": [8.51086, 47.3788416666667], "type": "Point"}, "properties": {"charge": 35, "id": "bird_69f11b62-138c-42b1-8fce-04583d53ed08", "provider": "bird", "timeStamp": "02/03/2020, 22:08:24"}, "type": "Feature"}, {"geometry": {"coordinates": [8.54561, 47.37246], "type": "Point"}, "properties": {"charge": 53, "id": "bird_2a9b5f64-72ea-470f-b364-700d305c6d67", "provider": "bird", "timeStamp": "02/03/2020, 22:08:24"}, "type": "Feature"}, {"geometry": {"coordinates": [8.54428, 47.371445], "type": "Point"}, "properties": {"charge": 71, "id": "bird_f0f98d70-437c-40ac-8185-1407b35c6f3f", "provider": "bird", "timeStamp": "02/03/2020, 22:08:24"}, "type": "Feature"}, {"geometry": {"coordinates": [8.542915, 47.370575], "type": "Point"}, "properties": {"charge": 27, "id": "bird_4147f791-2a56-43f5-8794-e18d8ae68dee", "provider": "bird", "timeStamp": "02/03/2020, 22:08:24"}, "type": "Feature"}, {"geometry": {"coordinates": [8.54806666666667, 47.3837883333333], "type": "Point"}, "properties": {"charge": 55, "id": "bird_f4e89722-ec2b-487c-a62e-fb5520f2688e", "provider": "bird", "timeStamp": "02/03/2020, 22:08:24"}, "type": "Feature"}, {"geometry": {"coordinates": [8.52175333333333, 47.3684766666667], "type": "Point"}, "properties": {"charge": 22, "id": "bird_e74f0ae6-0b2b-445a-9fda-2de067a2ddd1", "provider": "bird", "timeStamp": "02/03/2020, 22:08:24"}, "type": "Feature"}, {"geometry": {"coordinates": [8.52555, 47.39241], "type": "Point"}, "properties": {"charge": 62, "id": "bird_35f271b5-9608-44d5-96a5-d9bdcbdcc1e9", "provider": "bird", "timeStamp": "02/03/2020, 22:08:24"}, "type": "Feature"}, {"geometry": {"coordinates": [8.52562833333333, 47.39241], "type": "Point"}, "properties": {"charge": 64, "id": "bird_1b988910-e478-4678-b5bf-5c5eda0e5b91", "provider": "bird", "timeStamp": "02/03/2020, 22:08:24"}, "type": "Feature"}, {"geometry": {"coordinates": [8.52188166666667, 47.3685416666667], "type": "Point"}, "properties": {"charge": 39, "id": "bird_111e9bb5-cff9-4982-ac00-e7b64da66e7e", "provider": "bird", "timeStamp": "02/03/2020, 22:08:24"}, "type": "Feature"}, {"geometry": {"coordinates": [8.536705, 47.3681533333333], "type": "Point"}, "properties": {"charge": 35, "id": "bird_3873a2b3-f41b-48bb-8f89-659ed085cf30", "provider": "bird", "timeStamp": "02/03/2020, 22:08:24"}, "type": "Feature"}, {"geometry": {"coordinates": [8.54790833333333, 47.38369], "type": "Point"}, "properties": {"charge": 62, "id": "bird_20075318-0504-4d8c-8521-80cb08be83e3", "provider": "bird", "timeStamp": "02/03/2020, 22:08:24"}, "type": "Feature"}, {"geometry": {"coordinates": [8.54620666666667, 47.3863366666667], "type": "Point"}, "properties": {"charge": 40, "id": "bird_6784c22b-bf72-4584-9450-0b23e80571da", "provider": "bird", "timeStamp": "02/03/2020, 22:08:24"}, "type": "Feature"}, {"geometry": {"coordinates": [8.53669, 47.368175], "type": "Point"}, "properties": {"charge": 93, "id": "bird_b3c2806a-04c7-4a2c-8568-28dbf1465895", "provider": "bird", "timeStamp": "02/03/2020, 22:08:24"}, "type": "Feature"}, {"geometry": {"coordinates": [8.52553666666667, 47.3922916666667], "type": "Point"}, "properties": {"charge": 27, "id": "bird_4c8953dc-83fa-4fcf-b75c-1841dc3f0986", "provider": "bird", "timeStamp": "02/03/2020, 22:08:24"}, "type": "Feature"}, {"geometry": {"coordinates": [8.53891833333333, 47.3910716666667], "type": "Point"}, "properties": {"charge": 44, "id": "bird_ddee5d92-16f2-49c2-8061-6585e67f89f0", "provider": "bird", "timeStamp": "02/03/2020, 22:08:24"}, "type": "Feature"}, {"geometry": {"coordinates": [8.53536833333333, 47.3679316666667], "type": "Point"}, "properties": {"charge": 46, "id": "bird_126e1a70-c555-4d96-bde5-5c2aa9ec6731", "provider": "bird", "timeStamp": "02/03/2020, 22:08:24"}, "type": "Feature"}, {"geometry": {"coordinates": [8.53625333333333, 47.36819], "type": "Point"}, "properties": {"charge": 78, "id": "bird_4faa1086-c7f0-4147-8ac9-5d762141bddb", "provider": "bird", "timeStamp": "02/03/2020, 22:08:24"}, "type": "Feature"}, {"geometry": {"coordinates": [8.54638833333333, 47.374165], "type": "Point"}, "properties": {"charge": 31, "id": "bird_c5fc56ee-b2e7-4182-bb9d-602c5aad1b6a", "provider": "bird", "timeStamp": "02/03/2020, 22:08:24"}, "type": "Feature"}, {"geometry": {"coordinates": [8.53648166666667, 47.3682633333333], "type": "Point"}, "properties": {"charge": 91, "id": "bird_8ff3ba24-aeff-4f9e-88fa-3178139d3d4a", "provider": "bird", "timeStamp": "02/03/2020, 22:08:24"}, "type": "Feature"}, {"geometry": {"coordinates": [8.51367166666667, 47.3741066666667], "type": "Point"}, "properties": {"charge": 42, "id": "bird_d3cc1ef7-f5a4-45b1-9ba0-ba808828ca1f", "provider": "bird", "timeStamp": "02/03/2020, 22:08:24"}, "type": "Feature"}, {"geometry": {"coordinates": [8.53642333333333, 47.368255], "type": "Point"}, "properties": {"charge": 91, "id": "bird_6ae04d24-9957-4f58-9600-5da3a310f311", "provider": "bird", "timeStamp": "02/03/2020, 22:08:24"}, "type": "Feature"}, {"geometry": {"coordinates": [8.53692666666667, 47.3683883333333], "type": "Point"}, "properties": {"charge": 93, "id": "bird_77bf8646-9764-41aa-9bc4-bc7a12c01214", "provider": "bird", "timeStamp": "02/03/2020, 22:08:24"}, "type": "Feature"}, {"geometry": {"coordinates": [8.54138333333333, 47.38987], "type": "Point"}, "properties": {"charge": 63, "id": "bird_42a508ee-b653-48ea-ba06-68a6b21636a0", "provider": "bird", "timeStamp": "02/03/2020, 22:08:24"}, "type": "Feature"}, {"geometry": {"coordinates": [8.5163, 47.3716016666667], "type": "Point"}, "properties": {"charge": 47, "id": "bird_547e54d5-6565-4324-916d-41e27f247e09", "provider": "bird", "timeStamp": "02/03/2020, 22:08:24"}, "type": "Feature"}, {"geometry": {"coordinates": [8.536925, 47.3684266666667], "type": "Point"}, "properties": {"charge": 89, "id": "bird_d3fca132-8a6f-488d-b25f-530990395c80", "provider": "bird", "timeStamp": "02/03/2020, 22:08:24"}, "type": "Feature"}, {"geometry": {"coordinates": [8.53102833333333, 47.3924183333333], "type": "Point"}, "properties": {"charge": 10, "id": "bird_b8339469-e1a3-4562-ba8c-3e133419b163", "provider": "bird", "timeStamp": "02/03/2020, 22:08:24"}, "type": "Feature"}, {"geometry": {"coordinates": [8.54293, 47.3711666666667], "type": "Point"}, "properties": {"charge": 73, "id": "bird_0bbf78d7-54e5-4aee-aabb-c0aaedbda00d", "provider": "bird", "timeStamp": "02/03/2020, 22:08:24"}, "type": "Feature"}, {"geometry": {"coordinates": [8.54291166666667, 47.3711883333333], "type": "Point"}, "properties": {"charge": 74, "id": "bird_53aba6ea-724f-4434-a37a-d573da5808d3", "provider": "bird", "timeStamp": "02/03/2020, 22:08:24"}, "type": "Feature"}, {"geometry": {"coordinates": [8.51228833333333, 47.3768316666667], "type": "Point"},