{"features": [{"geometry": {"coordinates": [8.540062, 47.374392], "type": "Point"}, "properties": {"address": "Uraniastrasse 7", "electric": 7, "id": "pb_60", "manual": 8, "name": "Demo Station Werdm\u00fchleplatz", "provider": "publibike", "timeStamp": "01/27/2020, 08:28:40", "zip": 8001}, "type": "Feature"}, {"geometry": {"coordinates": [8.5452956, 47.4099615], "type": "Point"}, "properties": {"address": "Querstrasse 8", "electric": 1, "id": "pb_61", "manual": 2, "name": "Marktplatz", "provider": "publibike", "timeStamp": "01/27/2020, 08:28:40", "zip": 8050}, "type": "Feature"}, {"geometry": {"coordinates": [8.5156327, 47.3795837], "type": "Point"}, "properties": {"address": "Bullingerstrasse 5", "electric": 4, "id": "pb_80", "manual": 11, "name": "Bullingerplatz", "provider": "publibike", "timeStamp": "01/27/2020, 08:28:40", "zip": 8004}, "type": "Feature"}, {"geometry": {"coordinates": [8.5104051, 47.3899342], "type": "Point"}, "properties": {"address": "Pfingstweidstrasse 96e", "electric": 3, "id": "pb_81", "manual": 7, "name": "Herdern", "provider": "publibike", "timeStamp": "01/27/2020, 08:28:40", "zip": 8001}, "type": "Feature"}, {"geometry": {"coordinates": [8.535718, 47.359675], "type": "Point"}, "properties": {"address": "Mythenquai 50", "electric": 15, "id": "pb_82", "manual": 4, "name": "Hafen Enge", "provider": "publibike", "timeStamp": "01/27/2020, 08:28:40", "zip": 8002}, "type": "Feature"}, {"geometry": {"coordinates": [8.520370505, 47.358663827], "type": "Point"}, "properties": {"address": "Bubenbergstrasse 1", "electric": 1, "id": "pb_83", "manual": 1, "name": "Comerge", "provider": "publibike", "timeStamp": "01/27/2020, 08:28:40", "zip": 8045}, "type": "Feature"}, {"geometry": {"coordinates": [8.5412505, 47.3789825], "type": "Point"}, "properties": {"address": "Museumstrasse 2", "electric": 11, "id": "pb_84", "manual": 31, "name": "Landesmuseum", "provider": "publibike", "timeStamp": "01/27/2020, 08:28:40", "zip": 8001}, "type": "Feature"}, {"geometry": {"coordinates": [8.5235479, 47.3716661], "type": "Point"}, "properties": {"address": "Birmensdorferstrasse 80", "electric": 1, "id": "pb_85", "manual": 6, "name": "Bahnhof Wiedikon", "provider": "publibike", "timeStamp": "01/27/2020, 08:28:40", "zip": 8003}, "type": "Feature"}, {"geometry": {"coordinates": [8.506822854, 47.40781197], "type": "Point"}, "properties": {"address": "Stefano-Franscini-Platz 5", "electric": 6, "id": "pb_86", "manual": 0, "name": "ETH H\u00f6nggerberg", "provider": "publibike", "timeStamp": "01/27/2020, 08:28:40", "zip": 8093}, "type": "Feature"}, {"geometry": {"coordinates": [8.536101, 47.371083], "type": "Point"}, "properties": {"address": "Pelikanplatz 5", "electric": 2, "id": "pb_87", "manual": 3, "name": "Pelikanplatz", "provider": "publibike", "timeStamp": "01/27/2020, 08:28:40", "zip": 8001}, "type": "Feature"}, {"geometry": {"coordinates": [8.5257822, 47.3651936], "type": "Point"}, "properties": {"address": "H\u00fcrlimannplatz 90", "electric": 4, "id": "pb_88", "manual": 2, "name": "H\u00fcrlimannplatz", "provider": "publibike", "timeStamp": "01/27/2020, 08:28:40", "zip": 8002}, "type": "Feature"}, {"geometry": {"coordinates": [8.5313344, 47.3713591], "type": "Point"}, "properties": {"address": "Selnaustrasse 32", "electric": 2, "id": "pb_89", "manual": 3, "name": "Stauffacherbr\u00fccke", "provider": "publibike", "timeStamp": "01/27/2020, 08:28:40", "zip": 8001}, "type": "Feature"}, {"geometry": {"coordinates": [8.5056978, 47.3917964], "type": "Point"}, "properties": {"address": "Sportweg 25", "electric": 9, "id": "pb_90", "manual": 5, "name": "Sportweg", "provider": "publibike", "timeStamp": "01/27/2020, 08:28:40", "zip": 8005}, "type": "Feature"}, {"geometry": {"coordinates": [8.5181701, 47.3917837], "type": "Point"}, "properties": {"address": "Hardturmstrasse 11", "electric": 2, "id": "pb_91", "manual": 8, "name": "Puls 5", "provider": "publibike", "timeStamp": "01/27/2020, 08:28:40", "zip": 8005}, "type": "Feature"}, {"geometry": {"coordinates": [8.5286468, 47.3820827], "type": "Point"}, "properties": {"address": "R\u00f6ntgenstrasse 6", "electric": 2, "id": "pb_92", "manual": 2, "name": "R\u00f6ntgenstrasse", "provider": "publibike", "timeStamp": "01/27/2020, 08:28:40", "zip": 8005}, "type": "Feature"}, {"geometry": {"coordinates": [8.531935, 47.384918], "type": "Point"}, "properties": {"address": "Kornhausbr\u00fccke 1", "electric": 3, "id": "pb_93", "manual": 3, "name": "Limmatplatz", "provider": "publibike", "timeStamp": "01/27/2020, 08:28:40", "zip": 8005}, "type": "Feature"}, {"geometry": {"coordinates": [8.5354006, 47.3758639], "type": "Point"}, "properties": {"address": "Gessnerallee 15", "electric": 6, "id": "pb_94", "manual": 8, "name": "Gessnerallee", "provider": "publibike", "timeStamp": "01/27/2020, 08:28:40", "zip": 8001}, "type": "Feature"}, {"geometry": {"coordinates": [8.523818, 47.377148], "type": "Point"}, "properties": {"address": "Stauffacherstrasse 127", "electric": 1, "id": "pb_95", "manual": 0, "name": "B\u00e4ckeranlage", "provider": "publibike", "timeStamp": "01/27/2020, 08:28:40", "zip": 8004}, "type": "Feature"}, {"geometry": {"coordinates": [8.531836, 47.378548], "type": "Point"}, "properties": {"address": "Lagerstrasse 44", "electric": 1, "id": "pb_96", "manual": 8, "name": "Gustav-Gull-Platz", "provider": "publibike", "timeStamp": "01/27/2020, 08:28:40", "zip": 8004}, "type": "Feature"}, {"geometry": {"coordinates": [8.5104883, 47.3771535], "type": "Point"}, "properties": {"address": "Zurlindenstrasse 291", "electric": 9, "id": "pb_97", "manual": 3, "name": "Zurlindenstrasse", "provider": "publibike", "timeStamp": "01/27/2020, 08:28:40", "zip": 8003}, "type": "Feature"}, {"geometry": {"coordinates": [8.5333139, 47.3731102], "type": "Point"}, "properties": {"address": "Sihlstrasse 81", "electric": 3, "id": "pb_98", "manual": 3, "name": "Sihlstrasse", "provider": "publibike", "timeStamp": "01/27/2020, 08:28:40", "zip": 8001}, "type": "Feature"}, {"geometry": {"coordinates": [8.520532, 47.374951], "type": "Point"}, "properties": {"address": "Feldstrasse 24", "electric": 2, "id": "pb_99", "manual": 1, "name": "Kalkbreite", "provider": "publibike", "timeStamp": "01/27/2020, 08:28:40", "zip": 8004}, "type": "Feature"}, {"geometry": {"coordinates": [8.539046, 47.368064], "type": "Point"}, "properties": {"address": "Talstrasse 12", "electric": 3, "id": "pb_100", "manual": 0, "name": "Z\u00fcrcher Kantonalbank", "provider": "publibike", "timeStamp": "01/27/2020, 08:28:40", "zip": 8001}, "type": "Feature"}, {"geometry": {"coordinates": [8.5348427, 47.3625938], "type": "Point"}, "properties": {"address": "Breitingerstrasse 5", "electric": 4, "id": "pb_101", "manual": 2, "name": "Rentenanstalt", "provider": "publibike", "timeStamp": "01/27/2020, 08:28:40", "zip": 8002}, "type": "Feature"}, {"geometry": {"coordinates": [8.5166922, 47.3897772], "type": "Point"}, "properties": {"address": "Technoparkstrasse 4", "electric": 2, "id": "pb_102", "manual": 1, "name": "Turbinenplatz", "provider": "publibike", "timeStamp": "01/27/2020, 08:28:40", "zip": 8005}, "type": "Feature"}, {"geometry": {"coordinates": [8.539312, 47.3739964], "type": "Point"}, "properties": {"address": "Oetenbachgasse 14", "electric": 3, "id": "pb_104", "manual": 9, "name": "Rennweg", "provider": "publibike", "timeStamp": "01/27/2020, 08:28:40", "zip": 8001}, "type": "Feature"}, {"geometry": {"coordinates": [8.5360685, 47.3775022], "type": "Point"}, "properties": {"address": "Kasernenstrasse 101", "electric": 17, "id": "pb_105", "manual": 23, "name": "Sihlpost", "provider": "publibike", "timeStamp": "01/27/2020, 08:28:40", "zip": 8004}, "type": "Feature"}, {"geometry": {"coordinates": [8.53545, 47.382798], "type": "Point"}, "properties": {"address": "Ausstellungsstrasse 44", "electric": 3, "id": "pb_106", "manual": 8, "name": "Museum f\u00fcr Gestaltung", "provider": "publibike", "timeStamp": "01/27/2020, 08:28:40", "zip": 8005}, "type": "Feature"}, {"geometry": {"coordinates": [8.5306155, 47.3647902], "type": "Point"}, "properties": {"address": "Gutenbergstrasse 1", "electric": 0, "id": "pb_107", "manual": 0, "name": "Bederbr\u00fccke", "provider": "publibike", "timeStamp": "01/27/2020, 08:28:40", "zip": 8002}, "type": "Feature"}, {"geometry": {"coordinates": [8.518982, 47.386741], "type": "Point"}, "properties": {"address": "Geroldstrasse 4", "electric": 0, "id": "pb_108", "manual": 1, "name": "Bahnhof Hardbr\u00fccke", "provider": "publibike", "timeStamp": "01/27/2020, 08:28:40", "zip": 8005}, "type": "Feature"}, {"geometry": {"coordinates": [8.53001018, 47.37247535], "type": "Point"}, "properties": {"address": "Werdstrasse 21", "electric": 4, "id": "pb_109", "manual": 1, "name": "Tamedia", "provider": "publibike", "timeStamp": "01/27/2020, 08:28:40", "zip": 8004}, "type": "Feature"}, {"geometry": {"coordinates": [8.4860017, 47.396401], "type": "Point"}, "properties": {"address": "Gr\u00fcnauring 37", "electric": 5, "id": "pb_110", "manual": 7, "name": "Gr\u00fcnau", "provider": "publibike", "timeStamp": "01/27/2020, 08:28:40", "zip": 8064}, "type": "Feature"}, {"geometry": {"coordinates": [8.548519, 47.376756], "type": "Point"}, "properties": {"address": "R\u00e4mistrasse 101", "electric": 12, "id": "pb_111", "manual": 0, "name": "ETH Zentrum", "provider": "publibike", "timeStamp": "01/27/2020, 08:28:40", "zip": 8006}, "type": "Feature"}, {"geometry": {"coordinates": [8.520449, 47.388151], "type": "Point"}, "properties": {"address": "Josefstrasse 224", "electric": 3, "id": "pb_112", "manual": 4, "name": "Steinfelsareal", "provider": "publibike", "timeStamp": "01/27/2020, 08:28:40", "zip": 8005}, "type": "Feature"}, {"geometry": {"coordinates": [8.520482, 47.37209], "type": "Point"}, "properties": {"address": "Weststrasse 115", "electric": 0, "id": "pb_124", "manual": 3, "name": "Weststrasse", "provider": "publibike", "timeStamp": "01/27/2020, 08:28:40", "zip": 8003}, "type": "Feature"}, {"geometry": {"coordinates": [8.496727, 47.378521], "type": "Point"}, "properties": {"address": "Albisriederstrasse 200", "electric": 3, "id": "pb_125", "manual": 1, "name": "Utogrund", "provider": "publibike", "timeStamp": "01/27/2020, 08:28:40", "zip": 8047}, "type": "Feature"}, {"geometry": {"coordinates": [8.510418, 47.381356], "type": "Point"}, "properties": {"address": "Bullingerstrasse 73", "electric": 4, "id": "pb_126", "manual": 3, "name": "Hardau", "provider": "publibike", "timeStamp": "01/27/2020, 08:28:40", "zip": 8004}, "type": "Feature"}, {"geometry": {"coordinates": [8.525525, 47.361567], "type": "Point"}, "properties": {"address": "Klopstockstrasse 23", "electric": 4, "id": "pb_127", "manual": 0, "name": "Klopstockwiese", "provider": "publibike", "timeStamp": "01/27/2020, 08:28:40", "zip": 8002}, "type": "Feature"}, {"geometry": {"coordinates": [8.518143, 47.363148], "type": "Point"}, "properties": {"address": "Haldenstrasse 8", "electric": 6, "id": "pb_128", "manual": 6, "name": "Binz", "provider": "publibike", "timeStamp": "01/27/2020, 08:28:40", "zip": 8045}, "type": "Feature"}, {"geometry": {"coordinates": [8.542726, 47.379952], "type": "Point"}, "properties": {"address": "Walchestrasse 11", "electric": 3, "id": "pb_129", "manual": 1, "name": "Stampfenbachplatz", "provider": "publibike", "timeStamp": "01/27/2020, 08:28:40", "zip": 8006}, "type": "Feature"}, {"geometry": {"coordinates": [8.488108, 47.391366], "type": "Point"}, "properties": {"address": "Altstetterplatz 1", "electric": 6, "id": "pb_130", "manual": 8, "name": "Bahnhof Altstetten", "provider": "publibike", "timeStamp": "01/27/2020, 08:28:40", "zip": 8048}, "type": "Feature"}, {"geometry": {"coordinates": [8.554114, 47.365119], "type": "Point"}, "properties": {"address": "Kreuzplatz 2", "electric": 0, "id": "pb_131", "manual": 0, "name": "Kreuzplatz", "provider": "publibike", "timeStamp": "01/27/2020, 08:28:40", "zip": 8032}, "type": "Feature"}, {"geometry": {"coordinates": [8.549852, 47.35594], "type": "Point"}, "properties": {"address": "H\u00f6schgasse 3", "electric": 2, "id": "pb_132", "manual": 4, "name": "Blatterwiese", "provider": "publibike", "timeStamp": "01/27/2020, 08:28:40", "zip": 8008}, "type": "Feature"}, {"geometry": {"coordinates": [8.554501, 47.36162], "type": "Point"}, "properties": {"address": "Feldeggstrasse 80", "electric": 3, "id": "pb_133", "manual": 4, "name": "Villa Bleuler", "provider": "publibike", "timeStamp": "01/27/2020, 08:28:40", "zip": 8008}, "type": "Feature"}, {"geometry": {"coordinates": [8.557088, 47.358557], "type": "Point"}, "properties": {"address": "M\u00fchlebachstrasse 131", "electric": 6, "id": "pb_134", "manual": 2, "name": "M\u00fchlebachstrasse", "provider": "publibike", "timeStamp": "01/27/2020, 08:28:40", "zip": 8008}, "type": "Feature"}, {"geometry": {"coordinates": [8.547639, 47.361266], "type": "Point"}, "properties": {"address": "Utoquai 50", "electric": 1, "id": "pb_135", "manual": 6, "name": "Seebad Utoquai", "provider": "publibike", "timeStamp": "01/27/2020, 08:28:40", "zip": 8008}, "type": "Feature"}, {"geometry": {"coordinates": [8.548045, 47.370869], "type": "Point"}, "properties": {"address": "Heimplatz 1", "electric": 4, "id": "pb_137", "manual": 1, "name": "Kunsthaus", "provider": "publibike", "timeStamp": "01/27/2020, 08:28:40", "zip": 8001}, "type": "Feature"}, {"geometry": {"coordinates": [8.543447, 47.375933], "type": "Point"}, "properties": {"address": "Limmatquai 138", "electric": 0, "id": "pb_138", "manual": 28, "name": "Central", "provider": "publibike", "timeStamp": "01/27/2020, 08:28:40", "zip": 8001}, "type": "Feature"}, {"geometry": {"coordinates": [8.549356, 47.408827], "type": "Point"}, "properties": {"address": "Tramstrasse 35", "electric": 3, "id": "pb_139", "manual": 4, "name": "ewz Tramstrasse", "provider": "publibike", "timeStamp": "01/27/2020, 08:28:40", "zip": 8050}, "type": "Feature"}, {"geometry": {"coordinates": [8.533736, 47.366904], "type": "Point"}, "properties": {"address": "Bleicherweg 33", "electric": 2, "id": "pb_140", "manual": 4, "name": "Bleicherweg", "provider": "publibike", "timeStamp": "01/27/2020, 08:28:40", "zip": 8002}, "type": "Feature"}, {"geometry": {"coordinates": [8.544935, 47.366752], "type": "Point"}, "properties": {"address": "Bellevueplatz 2", "electric": 33, "id": "pb_141", "manual": 31, "name": "Bellevue", "provider": "publibike", "timeStamp": "01/27/2020, 08:28:40", "zip": 8001}, "type": "Feature"}, {"geometry": {"coordinates": [8.5285533, 47.3742296], "type": "Point"}, "properties": {"address": "Stauffacherstrasse 41", "electric": 2, "id": "pb_142", "manual": 1, "name": "Stauffacher", "provider": "publibike", "timeStamp": "01/27/2020, 08:28:40", "zip": 8004}, "type": "Feature"}, {"geometry": {"coordinates": [8.523722, 47.3899], "type": "Point"}, "properties": {"address": "Limmatstrasse 310", "electric": 5, "id": "pb_143", "manual": 1, "name": "Escher-Wyss-Platz", "provider": "publibike", "timeStamp": "01/27/2020, 08:28:40", "zip": 8005}, "type": "Feature"}, {"geometry": {"coordinates": [8.491061, 47.392336], "type": "Point"}, "properties": {"address": "Vulkanplatz 1", "electric": 2, "id": "pb_149", "manual": 11, "name": "Vulkanplatz", "provider": "publibike", "timeStamp": "01/27/2020, 08:28:40", "zip": 8048}, "type": "Feature"}, {"geometry": {"coordinates": [8.52306, 47.359872], "type": "Point"}, "properties": {"address": "Giessh\u00fcbelstrasse 15", "electric": 10, "id": "pb_150", "manual": 6, "name": "Utoplatz", "provider": "publibike", "timeStamp": "01/27/2020, 08:28:40", "zip": 8045}, "type": "Feature"}, {"geometry": {"coordinates": [8.486284, 47.387685], "type": "Point"}, "properties": {"address": "Lindenplatz 1", "electric": 15, "id": "pb_151", "manual": 11, "name": "Lindenplatz", "provider": "publibike", "timeStamp": "01/27/2020, 08:28:40", "zip": 8048}, "type": "Feature"}, {"geometry": {"coordinates": [8.49163, 47.389823], "type": "Point"}, "properties": {"address": "Hohlstrasse 563", "electric": 3, "id": "pb_152", "manual": 7, "name": "Luggweg", "provider": "publibike", "timeStamp": "01/27/2020, 08:28:40", "zip": 8048}, "type": "Feature"}, {"geometry": {"coordinates": [8.52174, 47.365272], "type": "Point"}, "properties": {"address": "Manessestrasse 87", "electric": 3, "id": "pb_153", "manual": 3, "name": "Manesseplatz", "provider": "publibike", "timeStamp": "01/27/2020, 08:28:40", "zip": 8045}, "type": "Feature"}, {"geometry": {"coordinates": [8.52714, 47.372329], "type": "Point"}, "properties": {"address": "Werdstrasse 75", "electric": 5, "id": "pb_154", "manual": 2, "name": "Werd", "provider": "publibike", "timeStamp": "01/27/2020, 08:28:40", "zip": 8004}, "type": "Feature"}, {"geometry": {"coordinates": [8.543042, 47.374711], "type": "Point"}, "properties": {"address": "Limmatquai 100", "electric": 0, "id": "pb_155", "manual": 0, "name": "Rudolf-Brun-Br\u00fccke", "provider": "publibike", "timeStamp": "01/27/2020, 08:28:40", "zip": 8001}, "type": "Feature"}, {"geometry": {"coordinates": [8.490837, 47.386596], "type": "Point"}, "properties": {"address": "Badenerstrasse 627", "electric": 3, "id": "pb_156", "manual": 5, "name": "Luggwegstrasse VBZ", "provider": "publibike", "timeStamp": "01/27/2020, 08:28:40", "zip": 8048}, "type": "Feature"}, {"geometry": {"coordinates": [8.535119, 47.355189], "type": "Point"}, "properties": {"address": "Mythenquai 95", "electric": 2, "id": "pb_157", "manual": 2, "name": "Strandbad Mythenquai", "provider": "publibike", "timeStamp": "01/27/2020, 08:28:40", "zip": 8002}, "type": "Feature"}, {"geometry": {"coordinates": [8.545505, 47.373675], "type": "Point"}, "properties": {"address": "Predigerpatz 21", "electric": 7, "id": "pb_158", "manual": 5, "name": "Predigerplatz", "provider": "publibike", "timeStamp": "01/27/2020, 08:28:40", "zip": 8001}, "type": "Feature"}, {"geometry": {"coordinates": [8.515558, 47.371868], "type": "Point"}, "properties": {"address": "Aemtlerstrasse 23", "electric": 4, "id": "pb_159", "manual": 2, "name": "Zwinglihaus", "provider": "publibike", "timeStamp": "01/27/2020, 08:28:40", "zip": 8003}, "type": "Feature"}, {"geometry": {"coordinates": [8.524629, 47.386072], "type": "Point"}, "properties": {"address": "Josefstrasse 188", "electric": 2, "id": "pb_160", "manual": 2, "name": "Josefwiese", "provider": "publibike", "timeStamp": "01/27/2020, 08:28:40", "zip": 8005}, "type": "Feature"}, {"geometry": {"coordinates": [8.527138, 47.387531], "type": "Point"}, "properties": {"address": "R\u00f6ntgenstrasse 87", "electric": 6, "id": "pb_164", "manual": 5, "name": "Markthalle", "provider": "publibike", "timeStamp": "01/27/2020, 08:28:40", "zip": 8005}, "type": "Feature"}, {"geometry": {"coordinates": [8.552717, 47.359978], "type": "Point"}, "properties": {"address": "Seefeldstrasse 96", "electric": 4, "id": "pb_263", "manual": 14, "name": "Feldeggstrasse", "provider": "publibike", "timeStamp": "01/27/2020, 08:28:40", "zip": 8008}, "type": "Feature"}, {"geometry": {"coordinates": [8.553189, 47.353198], "type": "Point"}, "properties": {"address": "Bellerivestrasse 170", "electric": 3, "id": "pb_264", "manual": 3, "name": "Lake Side", "provider": "publibike", "timeStamp": "01/27/2020, 08:28:40", "zip": 8008}, "type": "Feature"}, {"geometry": {"coordinates": [8.543437, 47.369256], "type": "Point"}, "properties": {"address": "Limmatquai 18", "electric": 0, "id": "pb_265", "manual": 0, "name": "Helmhaus", "provider": "publibike", "timeStamp": "01/27/2020, 08:28:40", "zip": 8032}, "type": "Feature"}, {"geometry": {"coordinates": [8.516676, 47.375819], "type": "Point"}, "properties": {"address": "Badenerstrasse 246", "electric": 2, "id": "pb_266", "manual": 0, "name": "Lochergut", "provider": "publibike", "timeStamp": "01/27/2020, 08:28:40", "zip": 8004}, "type": "Feature"}, {"geometry": {"coordinates": [8.514605, 47.389862], "type": "Point"}, "properties": {"address": "Pfingstweidstrasse 60", "electric": 2, "id": "pb_273", "manual": 6, "name": "Westpark", "provider": "publibike", "timeStamp": "01/27/2020, 08:28:40", "zip": 8005}, "type": "Feature"}, {"geometry": {"coordinates": [8.541239126, 47.375991201], "type": "Point"}, "properties": {"address": "Beatenplatz 1", "electric": 12, "id": "pb_274", "manual": 9, "name": "Beatenplatz", "provider": "publibike", "timeStamp": "01/27/2020, 08:28:40", "zip": 8001}, "type": "Feature"}, {"geometry": {"coordinates": [8.5417135, 47.3942197], "type": "Point"}, "properties": {"address": "Scheuchzerstrasse 181", "electric": 3, "id": "pb_275", "manual": 0, "name": "Pauluskirche", "provider": "publibike", "timeStamp": "01/27/2020, 08:28:40", "zip": 8057}, "type": "Feature"}, {"geometry": {"coordinates": [8.5528182, 47.414558], "type": "Point"}, "properties": {"address": "Hagenholzstrasse 51", "electric": 1, "id": "pb_276", "manual": 8, "name": "Airgate", "provider": "publibike", "timeStamp": "01/27/2020, 08:28:40", "zip": 8050}, "type": "Feature"}, {"geometry": {"coordinates": [8.537816, 47.413514], "type": "Point"}, "properties": {"address": "Birchstrasse 183", "electric": 4, "id": "pb_277", "manual": 4, "name": "Lamprechtweg", "provider": "publibike", "timeStamp": "01/27/2020, 08:28:40", "zip": 8050}, "type": "Feature"}, {"geometry": {"coordinates": [8.545602, 47.417701], "type": "Point"}, "properties": {"address": "Felsenrainstrasse 2", "electric": 8, "id": "pb_278", "manual": 9, "name": "Emil-Oberh\u00e4nsli", "provider": "publibike", "timeStamp": "01/27/2020, 08:28:40", "zip": 8050}, "type": "Feature"}, {"geometry": {"coordinates": [8.533647, 47.39808], "type": "Point"}, "properties": {"address": "Bucheggplatz 2", "electric": 0, "id": "pb_279", "manual": 0, "name": "Bucheggplatz", "provider": "publibike", "timeStamp": "01/27/2020, 08:28:40", "zip": 8057}, "type": "Feature"}, {"geometry": {"coordinates": [8.523549, 47.392347], "type": "Point"}, "properties": {"address": "Wipkingerplatz 4", "electric": 2, "id": "pb_280", "manual": 4, "name": "Wipkingerplatz", "provider": "publibike", "timeStamp": "01/27/2020, 08:28:40", "zip": 8037}, "type": "Feature"}, {"geometry": {"coordinates": [8.548562, 47.36691], "type": "Point"}, "properties": {"address": "Galerie \u00fcber Gleis 2/3", "electric": 10, "id": "pb_285", "manual": 1, "name": "Bahnhof Stadelhofen", "provider": "publibike", "timeStamp": "01/27/2020, 08:28:40", "zip": 8001}, "type": "Feature"}, {"geometry": {"coordinates": [8.493822, 47.3985553], "type": "Point"}, "properties": {"address": "Meierwiesenstrasse 12-4", "electric": 1, "id": "pb_286", "manual": 1, "name": "T\u00fcffenwies", "provider": "publibike", "timeStamp": "01/27/2020, 08:28:40", "zip": 8064}, "type": "Feature"}, {"geometry": {"coordinates": [8.552432, 47.3801757], "type": "Point"}, "properties": {"address": "Hochstrasse 34", "electric": 3, "id": "pb_356", "manual": 1, "name": "Siriuswiese", "provider": "publibike", "timeStamp": "01/27/2020, 08:28:40", "zip": 8044}, "type": "Feature"}, {"geometry": {"coordinates": [8.527298, 47.370141], "type": "Point"}, "properties": {"address": "Hallwylstrasse 71", "electric": 3, "id": "pb_357", "manual": 3, "name": "Hallwylstrasse", "provider": "publibike", "timeStamp": "01/27/2020, 08:28:40", "zip": 8004}, "type": "Feature"}, {"geometry": {"coordinates": [8.5414185, 47.3972455], "type": "Point"}, "properties": {"address": "Schaffhauserstrasse 137", "electric": 2, "id": "pb_358", "manual": 0, "name": "Milchbuck", "provider": "publibike", "timeStamp": "01/27/2020, 08:28:40", "zip": 8057}, "type": "Feature"}, {"geometry": {"coordinates": [8.512381, 47.393409], "type": "Point"}, "properties": {"address": "Hardturmstrasse 161", "electric": 5, "id": "pb_359", "manual": 3, "name": "Fischerweg", "provider": "publibike", "timeStamp": "01/27/2020, 08:28:40", "zip": 8005}, "type": "Feature"}, {"geometry": {"coordinates": [8.5421457, 47.3876979], "type": "Point"}, "properties": {"address": "Turnerstrasse 47", "electric": 0, "id": "pb_360", "manual": 0, "name": "Kirche Unterstrass", "provider": "publibike", "timeStamp": "01/27/2020, 08:28:40", "zip": 8006}, "type": "Feature"}, {"geometry": {"coordinates": [8.522117, 47.394554], "type": "Point"}, "properties": {"address": "Dorfstrasse 40", "electric": 1, "id": "pb_361", "manual": 3, "name": "Dorfstrasse", "provider": "publibike", "timeStamp": "01/27/2020, 08:28:40", "zip": 8037}, "type": "Feature"}, {"geometry": {"coordinates": [8.530437, 47.37271], "type": "Point"}, "properties": {"address": "Werdstrasse 25", "electric": 3, "id": "pb_362", "manual": 7, "name": "Stauffachertor", "provider": "publibike", "timeStamp": "01/27/2020, 08:28:40", "zip": 8004}, "type": "Feature"}, {"geometry": {"coordinates": [8.541712, 47.416155], "type": "Point"}, "properties": {"address": "Eggb\u00fchlstrasse 21", "electric": 1, "id": "pb_363", "manual": 1, "name": "Wahlenpark", "provider": "publibike", "timeStamp": "01/27/2020, 08:28:40", "zip": 8050}, "type": "Feature"}, {"geometry": {"coordinates": [8.5595335, 47.3708387], "type": "Point"}, "properties": {"address": "Dolderstrasse 32", "electric": 8, "id": "pb_364", "manual": 1, "name": "Kinderspital", "provider": "publibike", "timeStamp": "01/27/2020, 08:28:40", "zip": 8032}, "type": "Feature"}, {"geometry": {"coordinates": [8.536433, 47.388689], "type": "Point"}, "properties": {"address": "Kornhausstrasse 30", "electric": 3, "id": "pb_365", "manual": 0, "name": "Kornhausstrasse", "provider": "publibike", "timeStamp": "01/27/2020, 08:28:40", "zip": 8006}, "type": "Feature"}, {"geometry": {"coordinates": [8.55033, 47.407098], "type": "Point"}, "properties": {"address": "Schwamendingenstrasse 41", "electric": 0, "id": "pb_366", "manual": 3, "name": "Dorflinde", "provider": "publibike", "timeStamp": "01/27/2020, 08:28:40", "zip": 8050}, "type": "Feature"}, {"geometry": {"coordinates": [8.560476, 47.368199], "type": "Point"}, "properties": {"address": "R\u00f6merhofplatz 5", "electric": 3, "id": "pb_367", "manual": 0, "name": "R\u00f6merhof", "provider": "publibike", "timeStamp": "01/27/2020, 08:28:40", "zip": 8032}, "type": "Feature"}, {"geometry": {"coordinates": [8.5609218, 47.3619068], "type": "Point"}, "properties": {"address": "Forchstrasse 99", "electric": 1, "id": "pb_368", "manual": 3, "name": "Hegibachplatz", "provider": "publibike", "timeStamp": "01/27/2020, 08:28:40", "zip": 8032}, "type": "Feature"}, {"geometry": {"coordinates": [8.5721264, 47.4039985], "type": "Point"}, "properties": {"address": "Winterthurerstrasse 519", "electric": 0, "id": "pb_370", "manual": 6, "name": "Schwamendingerplatz", "provider": "publibike", "timeStamp": "01/27/2020, 08:28:40", "zip": 8051}, "type": "Feature"}, {"geometry": {"coordinates": [8.520168, 47.378556], "type": "Point"}, "properties": {"address": "Herman-Greulich-Strasse 56", "electric": 7, "id": "pb_384", "manual": 7, "name": "Hermann-Greulich-Weg", "provider": "publibike", "timeStamp": "01/27/2020, 08:28:40", "zip": 8004}, "type": "Feature"}, {"geometry": {"coordinates": [8.547912, 47.384923], "type": "Point"}, "properties": {"address": "Culmannstrasse", "electric": 2, "id": "pb_386", "manual": 1, "name": "Rigiplatz", "provider": "publibike", "timeStamp": "01/27/2020, 08:28:40", "zip": 8006}, "type": "Feature"}, {"geometry": {"coordinates": [8.543768, 47.411057], "type": "Point"}, "properties": {"address": "Hofwiesenstrasse 369", "electric": 2, "id": "pb_387", "manual": 5, "name": "Bahnhof Oerlikon S\u00fcd", "provider": "publibike", "timeStamp": "01/27/2020, 08:28:40", "zip": 8050}, "type": "Feature"}, {"geometry": {"coordinates": [8.544185, 47.412732], "type": "Point"}, "properties": {"address": "Jungholzstrasse 6", "electric": 2, "id": "pb_388", "manual": 4, "name": "Max-Frisch-Platz", "provider": "publibike", "timeStamp": "01/27/2020, 08:28:40", "zip": 8050}, "type": "Feature"}, {"geometry": {"coordinates": [8.558096, 47.413032], "type": "Point"}, "properties": {"address": "Andreasstrasse", "electric": 1, "id": "pb_389", "manual": 10, "name": "Hunziker-Areal", "provider": "publibike", "timeStamp": "01/27/2020, 08:28:40", "zip": 8050}, "type": "Feature"}, {"geometry": {"coordinates": [8.533265, 47.412873], "type": "Point"}, "properties": {"address": "Regina-K\u00e4gi-Strasse 1", "electric": 1, "id": "pb_390", "manual": 3, "name": "Luis-H\u00e4fliger-Park", "provider": "publibike", "timeStamp": "01/27/2020, 08:28:40", "zip": 8050}, "type": "Feature"}, {"geometry": {"coordinates": [8.499265, 47.401852], "type": "Point"}, "properties": {"address": "Limmattalstrasse 177", "electric": 1, "id": "pb_391", "manual": 0, "name": "Meierhofplatz", "provider": "publibike", "timeStamp": "01/27/2020, 08:28:40", "zip": 8049}, "type": "Feature"}, {"geometry": {"coordinates": [8.528356, 47.393255], "type": "Point"}, "properties": {"address": "R\u00f6schibachstrasse 73", "electric": 3, "id": "pb_392", "manual": 0, "name": "R\u00f6schibachplatz", "provider": "publibike", "timeStamp": "01/27/2020, 08:28:40", "zip": 8037}, "type": "Feature"}, {"geometry": {"coordinates": [8.538067, 47.415721], "type": "Point"}, "properties": {"address": "Birchstrasse 191", "electric": 7, "id": "pb_393", "manual": 2, "name": "Oerliker Park", "provider": "publibike", "timeStamp": "01/27/2020, 08:28:40", "zip": 8050}, "type": "Feature"}, {"geometry": {"coordinates": [8.5420304, 47.3669233], "type": "Point"}, "properties": {"address": "Stadthausquai 1", "electric": 2, "id": "pb_395", "manual": 13, "name": "B\u00fcrkliplatz", "provider": "publibike", "timeStamp": "01/27/2020, 08:28:40", "zip": 8001}, "type": "Feature"}, {"geometry": {"coordinates": [8.535767, 47.409881], "type": "Point"}, "properties": {"address": "Regensbergstrasse 195", "electric": 1, "id": "pb_396", "manual": 1, "name": "Holunderhof", "provider": "publibike", "timeStamp": "01/27/2020, 08:28:40", "zip": 8050}, "type": "Feature"}, {"geometry": {"coordinates": [8.5116245, 47.3616199], "type": "Point"}, "properties": {"address": "Grubenstrasse 42", "electric": 3, "id": "pb_431", "manual": 0, "name": "Binz Center", "provider": "publibike", "timeStamp": "01/27/2020, 08:28:40", "zip": 8045}, "type": "Feature"}, {"geometry": {"coordinates": [8.547195, 47.382089], "type": "Point"}, "properties": {"address": "Nelkenstrasse 24", "electric": 0, "id": "pb_430", "manual": 1, "name": "Stapferstube", "provider": "publibike", "timeStamp": "01/27/2020, 08:28:40", "zip": 8006}, "type": "Feature"}, {"geometry": {"coordinates": [8.5787183, 47.4039845], "type": "Point"}, "properties": {"address": "Kronwiesenstrasse 35", "electric": 0, "id": "pb_426", "manual": 3, "name": "Kronwiesen", "provider": "publibike", "timeStamp": "01/27/2020, 08:28:40", "zip": 8051}, "type": "Feature"}, {"geometry": {"coordinates": [8.508131, 47.420757], "type": "Point"}, "properties": {"address": "Riedenhaldenstrasse 20-18", "electric": 6, "id": "pb_425", "manual": 3, "name": "Bahnhof Affoltern", "provider": "publibike", "timeStamp": "01/27/2020, 08:28:40", "zip": 8046}, "type": "Feature"}, {"geometry": {"coordinates": [8.532464, 47.406988], "type": "Point"}, "properties": {"address": "K\u00fcnzlistrasse 41", "electric": 3, "id": "pb_424", "manual": 4, "name": "Birchd\u00f6rfli", "provider": "publibike", "timeStamp": "01/27/2020, 08:28:40", "zip": 8057}, "type": "Feature"}, {"geometry": {"coordinates": [8.5777038, 47.4080095], "type": "Point"}, "properties": {"address": "Luegislandstrasse 412", "electric": 2, "id": "pb_429", "manual": 5, "name": "Luegisland", "provider": "publibike", "timeStamp": "01/27/2020, 08:28:40", "zip": 8051}, "type": "Feature"}, {"geometry": {"coordinates": [8.58841, 47.40158], "type": "Point"}, "properties": {"address": "Hirzenbachstrasse 2-4", "electric": 2, "id": "pb_428", "manual": 3, "name": "Hirzenbachstrasse", "provider": "publibike", "timeStamp": "01/27/2020, 08:28:40", "zip": 8051}, "type": "Feature"}, {"geometry": {"coordinates": [8.5563463, 47.4095467], "type": "Point"}, "properties": {"address": "K\u00fchriedweg", "electric": 2, "id": "pb_445", "manual": 7, "name": "Hallenbad Oerlikon", "provider": "publibike", "timeStamp": "01/27/2020, 08:28:40", "zip": 8050}, "type": "Feature"}, {"geometry": {"coordinates": [8.537971, 47.364871], "type": "Point"}, "properties": {"address": "General-Guisan-Quai 17", "electric": 2, "id": "pb_454", "manual": 2, "name": "General-Guisan-Quai", "provider": "publibike", "timeStamp": "01/27/2020, 08:28:40", "zip": 8002}, "type": "Feature"}, {"geometry": {"coordinates": [8.560587, 47.350578], "type": "Point"}, "properties": {"address": "Bellerivestrasse 245", "electric": 6, "id": "pb_450", "manual": 5, "name": "Bahnhof Tiefenbrunnen", "provider": "publibike", "timeStamp": "01/27/2020, 08:28:40", "zip": 8008}, "type": "Feature"}, {"geometry": {"coordinates": [8.5269416, 47.3563719], "type": "Point"}, "properties": {"address": "Waffenplatzstrasse 89", "electric": 1, "id": "pb_452", "manual": 7, "name": "Rieterplatz", "provider": "publibike", "timeStamp": "01/27/2020, 08:28:40", "zip": 8002}, "type": "Feature"}, {"geometry": {"coordinates": [8.514176, 47.3663708], "type": "Point"}, "properties": {"address": "Talwiesenstrasse 92", "electric": 2, "id": "pb_446", "manual": 4, "name": "Binzallee", "provider": "publibike", "timeStamp": "01/27/2020, 08:28:40", "zip": 8055}, "type": "Feature"}, {"geometry": {"coordinates": [8.5070564, 47.371455], "type": "Point"}, "properties": {"address": "Gutstrasse 87", "electric": 5, "id": "pb_447", "manual": 8, "name": "Gutstrasse", "provider": "publibike", "timeStamp": "01/27/2020, 08:28:40", "zip": 8055}, "type": "Feature"}, {"geometry": {"coordinates": [8.4941268, 47.3836391], "type": "Point"}, "properties": {"address": "Flurstrasse 62", "electric": 6, "id": "pb_453", "manual": 7, "name": "Flurpark", "provider": "publibike", "timeStamp": "01/27/2020, 08:28:40", "zip": 8048}, "type": "Feature"}, {"geometry": {"coordinates": [8.500343, 47.380778], "type": "Point"}, "properties": {"address": "Edelweissstrasse 32", "electric": 1, "id": "pb_448", "manual": 0, "name": "Bl\u00fcemliquartier", "provider": "publibike", "timeStamp": "01/27/2020, 08:28:40", "zip": 8048}, "type": "Feature"}, {"geometry": {"coordinates": [8.528796, 47.383858], "type": "Point"}, "properties": {"address": "Gasometerstrasse 24", "electric": 0, "id": "pb_449", "manual": 5, "name": "Gasometerstrasse", "provider": "publibike", "timeStamp": "01/27/2020, 08:28:40", "zip": 8005}, "type": "Feature"}, {"geometry": {"coordinates": [8.4981964, 47.3859194], "type": "Point"}, "properties": {"address": "Baslerstrasse 57", "electric": 8, "id": "pb_455", "manual": 5, "name": "Letzipark", "provider": "publibike", "timeStamp": "01/27/2020, 08:28:40", "zip": 8048}, "type": "Feature"}, {"geometry": {"coordinates": [8.515252, 47.381915], "type": "Point"}, "properties": {"address": "Sihlfeldstrasse 175", "electric": 1, "id": "pb_451", "manual": 6, "name": "Hardplatz", "provider": "publibike", "timeStamp": "01/27/2020, 08:28:40", "zip": 8004}, "type": "Feature"}, {"geometry": {"coordinates": [8.5064743, 47.4188324], "type": "Point"}, "properties": {"address": "Wehntalerstrasse 541", "electric": 3, "id": "pb_427", "manual": 5, "name": "Zehntenhausplatz", "provider": "publibike", "timeStamp": "01/27/2020, 08:28:40", "zip": 8046}, "type": "Feature"}, {"geometry": {"coordinates": [8.537729, 47.379719], "type": "Point"}, "properties": {"address": "Sihlquai/HB", "electric": 13, "id": "pb_513", "manual": 3, "name": "Sihlquai", "provider": "publibike", "timeStamp": "01/27/2020, 08:28:40", "zip": 8005}, "type": "Feature"}, {"geometry": {"coordinates": [8.596202, 47.397885], "type": "Point"}, "properties": {"address": "Bahnhof Stettbach", "electric": 6, "id": "pb_514", "manual": 2, "name": "Bahnhof Stettbach", "provider": "publibike", "timeStamp": "01/27/2020, 08:28:40", "zip": 8051}, "type": "Feature"}, {"geometry": {"coordinates": [8.5543974, 47.3690153], "type": "Point"}, "properties": {"address": "Kasinostrasse 10", "electric": 6, "id": "pb_515", "manual": 0, "name": "Hottingerplatz", "provider": "publibike", "timeStamp": "01/27/2020, 08:28:40", "zip": 8032}, "type": "Feature"}, {"geometry": {"coordinates": [8.534444, 47.351525], "type": "Point"}, "properties": {"address": "Mobile Station Z\u00fcrich 1", "electric": 0, "id": "pb_282", "manual": 0, "name": "Theaterspektakel", "provider": "publibike", "timeStamp": "01/27/2020, 08:28:40", "zip": 8002}, "type": "Feature"}, {"geometry": {"coordinates": [8.516257, 47.367656], "type": "Point"}, "properties": {"address": "Goldbrunnenstrasse 54", "electric": 9, "id": "pb_538", "manual": 2, "name": "Kirche B\u00fchl", "provider": "publibike", "timeStamp": "01/27/2020, 08:28:40", "zip": 8055}, "type": "Feature"}, {"geometry": {"coordinates": [8.555639, 47.416873], "type": "Point"}, "properties": {"address": "Leutschenbachstrasse 50", "electric": 0, "id": "pb_537", "manual": 4, "name": "Leutschenpark", "provider": "publibike", "timeStamp": "01/27/2020, 08:28:40", "zip": 8050}, "type": "Feature"}, {"geometry": {"coordinates": [8.546464, 47.403822], "type": "Point"}, "properties": {"address": "Berninastrasse 45", "electric": 1, "id": "pb_540", "manual": 0, "name": "Berninaplatz", "provider": "publibike", "timeStamp": "01/27/2020, 08:28:40", "zip": 8057}, "type": "Feature"}, {"geometry": {"coordinates": [8.523134, 47.369004], "type": "Point"}, "properties": {"address": "Erlachstrasse 3", "electric": 0, "id": "pb_385", "manual": 1, "name": "Aegerten", "provider": "publibike", "timeStamp": "01/27/2020, 08:28:40", "zip": 8003}, "type": "Feature"}, {"geometry": {"coordinates": [8.49038, 47.381591], "type": "Point"}, "properties": {"address": "Rautistrasse 60", "electric": 4, "id": "pb_536", "manual": 7, "name": "Freilager", "provider": "publibike", "timeStamp": "01/27/2020, 08:28:40", "zip": 8048}, "type": "Feature"}, {"geometry": {"coordinates": [8.496511, 47.375247], "type": "Point"}, "properties": {"address": "Letzigraben 139", "electric": 0, "id": "pb_444", "manual": 5, "name": "Sackzelg", "provider": "publibike", "timeStamp": "01/27/2020, 08:28:40", "zip": 8047}, "type": "Feature"}, {"geometry": {"coordinates": [8.58131, 47.402801], "type": "Point"}, "properties": {"address": "Altwiesenstrasse 104", "electric": 0, "id": "pb_539", "manual": 5, "name": "Glattwiesen", "provider": "publibike", "timeStamp": "01/27/2020, 08:28:40", "zip": 8051}, "type": "Feature"}, {"geometry": {"coordinates": [8.52689, 47.3767], "type": "Point"}, "properties": {"address": "Molkenstrasse 5", "electric": 2, "id": "pb_560", "manual": 2, "name": "Helvetiaplatz", "provider": "publibike", "timeStamp": "01/27/2020, 08:28:40", "zip": 8004}, "type": "Feature"}, {"geometry": {"coordinates": [8.525602, 47.374241], "type": "Point"}, "properties": {"address": "Badenerstrasse 90", "electric": 2, "id": "pb_559", "manual": 1, "name": "Bezirksgeb\u00e4ude", "provider": "publibike", "timeStamp": "01/27/2020, 08:28:40", "zip": 8004}, "type": "Feature"}, {"geometry": {"coordinates": [8.535082, 47.345248], "type": "Point"}, "properties": {"address": "Bachstrasse 15", "electric": 12, "id": "pb_564", "manual": 0, "name": "GZ Wollishofen", "provider": "publibike", "timeStamp": "01/27/2020, 08:28:40", "zip": 8038}, "type": "Feature"}, {"geometry": {"coordinates": [8.514841, 47.370238], "type": "Point"}, "properties": {"address": "Schrennengasse 37", "electric": 5, "id": "pb_562", "manual": 1, "name": "Goldbrunnenplatz", "provider": "publibike", "timeStamp": "01/27/2020, 08:28:40", "zip": 8003}, "type": "Feature"}, {"geometry": {"coordinates": [8.514138, 47.374206], "type": "Point"}, "properties": {"address": "Idaplatz 4", "electric": 2, "id": "pb_557", "manual": 4, "name": "Idaplatz", "provider": "publibike", "timeStamp": "01/27/2020, 08:28:40", "zip": 8003}, "type": "Feature"}, {"geometry": {"coordinates": [8.518432, 47.369549], "type": "Point"}, "properties": {"address": "Brinerstrasse 2", "electric": 5, "id": "pb_558", "manual": 4, "name": "Schmiede Wiedikon", "provider": "publibike", "timeStamp": "01/27/2020, 08:28:40", "zip": 8003}, "type": "Feature"}, {"geometry": {"coordinates": [8.537546, 47.391289], "type": "Point"}, "properties": {"address": "Rotbuchstrasse 15", "electric": 5, "id": "pb_556", "manual": 0, "name": "Schaffhauserplatz", "provider": "publibike", "timeStamp": "01/27/2020, 08:28:40", "zip": 8006}, "type": "Feature"}, {"geometry": {"coordinates": [8.541541, 47.413733], "type": "Point"}, "properties": {"address": "Therese-Giehse-Strasse 11", "electric": 2, "id": "pb_561", "manual": 1, "name": "Center Eleven", "provider": "publibike", "timeStamp": "01/27/2020, 08:28:40", "zip": 8050}, "type": "Feature"}, {"geometry": {"coordinates": [8.534227, 47.360004], "type": "Point"}, "properties": {"address": "Alfred Escher-Strasse 76", "electric": 8, "id": "pb_563", "manual": 1, "name": "Mythenschloss", "provider": "publibike", "timeStamp": "01/27/2020, 08:28:40", "zip": 8002}, "type": "Feature"}, {"geometry": {"coordinates": [8.50373, 47.396172], "type": "Point"}, "properties": {"address": "Hardeggstrasse 6", "electric": 3, "id": "pb_566", "manual": 7, "name": "Am Wasser", "provider": "publibike", "timeStamp": "01/27/2020, 08:28:40", "zip": 8049}, "type": "Feature"}, {"geometry": {"coordinates": [8.532432, 47.381174], "type": "Point"}, "properties": {"address": "Klingenstrasse 9", "electric": 3, "id": "pb_565", "manual": 6, "name": "Zollstrasse", "provider": "publibike", "timeStamp": "01/27/2020, 08:28:40", "zip": 8005}, "type": "Feature"}, {"geometry": {"coordinates": [8.497982, 47.381447], "type": "Point"}, "properties": {"address": "Dennlerstrasse 23", "electric": 1, "id": "pb_567", "manual": 7, "name": "Dennlerstrasse", "provider": "publibike", "timeStamp": "01/27/2020, 08:28:40", "zip": 8047}, "type": "Feature"}, {"geometry": {"coordinates": [8.528049, 47.347701], "type": "Point"}, "properties": {"address": "Mutschellenstrasse 114", "electric": 3, "id": "pb_568", "manual": 6, "name": "Jugendherberge", "provider": "publibike", "timeStamp": "01/27/2020, 08:28:40", "zip": 8038}, "type": "Feature"}, {"geometry": {"coordinates": [8.539016, 47.405751], "type": "Point"}, "properties": {"address": "Ringstrasse 82", "electric": 6, "id": "pb_569", "manual": 2, "name": "Freibad Allenmoos", "provider": "publibike", "timeStamp": "01/27/2020, 08:28:40", "zip": 8057}, "type": "Feature"}, {"geometry": {"coordinates": [8.534974, 47.402164], "type": "Point"}, "properties": {"address": "Brache Guggach", "electric": 3, "id": "pb_572", "manual": 3, "name": "Radiostudio", "provider": "publibike", "timeStamp": "01/27/2020, 08:28:40", "zip": 8057}, "type": "Feature"}, {"geometry": {"coordinates": [8.547901, 47.375556], "type": "Point"}, "properties": {"address": "Karl-Schmid-Strasse 4", "electric": 3, "id": "pb_571", "manual": 0, "name": "ETH/Zoologisches Museum", "provider": "publibike", "timeStamp": "01/27/2020, 08:28:40", "zip": 8006}, "type": "Feature"}, {"geometry": {"coordinates": [8.55183, 47.367166], "type": "Point"}, "properties": {"charge": 61, "id": "smide_2901", "name": "ZH 267278", "provider": "smide", "range": 30.0, "size": 20, "time": "01/27/2020, 08:28:03"}, "type": "Feature"}, {"geometry": {"coordinates": [8.5614, 47.350403], "type": "Point"}, "properties": {"charge": 29, "id": "smide_2895", "name": "ZH 267279", "provider": "smide", "range": 14.0, "size": 20, "time": "01/27/2020, 08:28:03"}, "type": "Feature"}, {"geometry": {"coordinates": [8.530395, 47.374515], "type": "Point"}, "properties": {"charge": 42, "id": "smide_2883", "name": "ZH 267272", "provider": "smide", "range": 21.0, "size": 20, "time": "01/27/2020, 08:28:03"}, "type": "Feature"}, {"geometry": {"coordinates": [8.514498, 47.391125], "type": "Point"}, "properties": {"charge": 67, "id": "smide_2880", "name": "ZH267289", "provider": "smide", "range": 33.0, "size": 17, "time": "01/27/2020, 08:28:03"}, "type": "Feature"}, {"geometry": {"coordinates": [8.56052, 47.351653], "type": "Point"}, "properties": {"charge": 83, "id": "smide_2874", "name": "ZH 267288", "provider": "smide", "range": 41.0, "size": 17, "time": "01/27/2020, 08:28:03"}, "type": "Feature"}, {"geometry": {"coordinates": [8.49465, 47.39824], "type": "Point"}, "properties": {"charge": 78, "id": "smide_2871", "name": "ZH 267086", "provider": "smide", "range": 39.0, "size": 20, "time": "01/27/2020, 08:28:03"}, "type": "Feature"}, {"geometry": {"coordinates": [8.557445, 47.419073], "type": "Point"}, "properties": {"charge": 84, "id": "smide_2867", "name": "ZH 267090", "provider": "smide", "range": 42.0, "size": 20, "time": "01/27/2020, 08:28:03"}, "type": "Feature"}, {"geometry": {"coordinates": [8.553506, 47.387156], "type": "Point"}, "properties": {"charge": 35, "id": "smide_2861", "name": "ZH 267096", "provider": "smide", "range": 17.0, "size": 17, "time": "01/27/2020, 08:28:03"}, "type": "Feature"}, {"geometry": {"coordinates": [8.484445, 47.396981], "type": "Point"}, "properties": {"charge": 67, "id": "smide_2860", "name": "ZH 267097", "provider": "smide", "range": 33.0, "size": 17, "time": "01/27/2020, 08:28:03"}, "type": "Feature"}, {"geometry": {"coordinates": [8.525126, 47.372776], "type": "Point"}, "properties": {"charge": 42, "id": "smide_2859", "name": "ZH 267098", "provider": "smide", "range": 21.0, "size": 17, "time": "01/27/2020, 08:28:03"}, "type": "Feature"}, {"geometry": {"coordinates": [8.579888, 47.35085], "type": "Point"}, "properties": {"charge": 30, "id": "smide_2856", "name": "ZH 267101", "provider": "smide", "range": 15.0, "size": 17, "time": "01/27/2020, 08:28:03"}, "type": "Feature"}, {"geometry": {"coordinates": [8.511026, 47.407625], "type": "Point"}, "properties": {"charge": 34, "id": "smide_2855", "name": "ZH 267102", "provider": "smide", "range": 17.0, "size": 17, "time": "01/27/2020, 08:28:03"}, "type": "Feature"}, {"geometry": {"coordinates": [8.53843, 47.379316], "type": "Point"}, "properties": {"charge": 26, "id": "smide_2854", "name": "ZH 267103", "provider": "smide", "range": 13.0, "size": 17, "time": "01/27/2020, 08:28:03"}, "type": "Feature"}, {"geometry": {"coordinates": [8.57004, 47.352425], "type": "Point"}, "properties": {"charge": 88, "id": "smide_2831", "name": "ZH 267180", "provider": "smide", "range": 44.0, "size": 20, "time": "01/27/2020, 08:28:03"}, "type": "Feature"}, {"geometry": {"coordinates": [8.54369, 47.372163], "type": "Point"}, "properties": {"charge": 21, "id": "smide_2829", "name": "ZH 267049", "provider": "smide", "range": 10.0, "size": 20, "time": "01/27/2020, 08:28:03"}, "type": "Feature"}, {"geometry": {"coordinates": [8.511846, 47.420376], "type": "Point"}, "properties": {"charge": 63, "id": "smide_2804", "name": "ZH266903", "provider": "smide", "range": 31.0, "size": 20, "time": "01/27/2020, 08:28:03"}, "type": "Feature"}, {"geometry": {"coordinates": [8.552883, 47.3983], "type": "Point"}, "properties": {"charge": 99, "id": "smide_2798", "name": "ZH266888", "provider": "smide", "range": 49.0, "size": 17, "time": "01/27/2020, 08:28:03"}, "type": "Feature"}, {"geometry": {"coordinates": [8.552998, 47.413986], "type": "Point"}, "properties": {"charge": 36, "id": "smide_2792", "name": "ZH266882", "provider": "smide", "range": 18.0, "size": 17, "time": "01/27/2020, 08:28:03"}, "type": "Feature"}, {"geometry": {"coordinates": [8.517858, 47.414356], "type": "Point"}, "properties": {"charge": 97, "id": "smide_2790", "name": "ZH266880", "provider": "smide", "range": 48.0, "size": 17, "time": "01/27/2020, 08:28:03"}, "type": "Feature"}, {"geometry": {"coordinates": [8.560411, 47.372201], "type": "Point"}, "properties": {"charge": 19, "id": "smide_2781", "name": "ZH 266871", "provider": "smide", "range": 9.0, "size": 17, "time": "01/27/2020, 08:28:03"}, "type": "Feature"}, {"geometry": {"coordinates": [8.478335, 47.389556], "type": "Point"}, "properties": {"charge": 18, "id": "smide_2780", "name": "ST1 X #1", "provider": "smide", "range": 9.0, "size": 17, "time": "01/27/2020, 08:28:03"}, "type": "Feature"}, {"geometry": {"coordinates": [8.487291, 47.384292], "type": "Point"}, "properties": {"charge": 43, "id": "smide_2775", "name": "ZH267283", "provider": "smide", "range": 21.0, "size": 20, "time": "01/27/2020, 08:28:03"}, "type": "Feature"}, {"geometry": {"coordinates": [8.547277, 47.423176], "type": "Point"}, "properties": {"charge": 45, "id": "smide_2773", "name": "ZH266561", "provider": "smide", "range": 22.0, "size": 17, "time": "01/27/2020, 08:28:03"}, "type": "Feature"}, {"geometry": {"coordinates": [8.507171, 47.406828], "type": "Point"}, "properties": {"charge": 88, "id": "smide_2763", "name": "ZH266641", "provider": "smide", "range": 44.0, "size": 17, "time": "01/27/2020, 08:28:03"}, "type": "Feature"}, {"geometry": {"coordinates": [8.51392, 47.365256], "type": "Point"}, "properties": {"charge": 26, "id": "smide_2761", "name": "ZH266642", "provider": "smide", "range": 13.0, "size": 20, "time": "01/27/2020, 08:28:03"}, "type": "Feature"}, {"geometry": {"coordinates": [8.515507, 47.364736], "type": "Point"}, "properties": {"charge": 88, "id": "smide_2758", "name": "ZH266638 M", "provider": "smide", "range": 44.0, "size": 17, "time": "01/27/2020, 08:28:03"}, "type": "Feature"}, {"geometry": {"coordinates": [8.552621, 47.388688], "type": "Point"}, "properties": {"charge": 31, "id": "smide_2751", "name": "BE343857", "provider": "smide", "range": 15.0, "size": 17, "time": "01/27/2020, 08:28:03"}, "type": "Feature"}, {"geometry": {"coordinates": [8.554502, 47.364868], "type": "Point"}, "properties": {"charge": 87, "id": "smide_2749", "name": "BE343867", "provider": "smide", "range": 43.0, "size": 17, "time": "01/27/2020, 08:28:03"}, "type": "Feature"}, {"geometry": {"coordinates": [8.537388, 47.379408], "type": "Point"}, "properties": {"charge": 79, "id": "smide_2748", "name": "BE335758", "provider": "smide", "range": 39.0, "size": 17, "time": "01/27/2020, 08:28:03"}, "type": "Feature"}, {"geometry": {"coordinates": [8.529483, 47.373756], "type": "Point"}, "properties": {"charge": 89, "id": "smide_2746", "name": "BE335817", "provider": "smide", "range": 44.0, "size": 17, "time": "01/27/2020, 08:28:03"}, "type": "Feature"}, {"geometry": {"coordinates": [8.57233, 47.404116], "type": "Point"}, "properties": {"charge": 80, "id": "smide_2747", "name": "BE335820", "provider": "smide", "range": 40.0, "size": 17, "time": "01/27/2020, 08:28:03"}, "type": "Feature"}, {"geometry": {"coordinates": [8.490775, 47.376424], "type": "Point"}, "properties": {"charge": 62, "id": "smide_2745", "name": "BE335818", "provider": "smide", "range": 31.0, "size": 17, "time": "01/27/2020, 08:28:03"}, "type": "Feature"}, {"geometry": {"coordinates": [8.574551, 47.352408], "type": "Point"}, "properties": {"charge": 74, "id": "smide_2742", "name": "BE343866", "provider": "smide", "range": 37.0, "size": 17, "time": "01/27/2020, 08:28:03"}, "type": "Feature"}, {"geometry": {"coordinates": [8.573745, 47.383732], "type": "Point"}, "properties": {"charge": 57, "id": "smide_2740", "name": "BE343875", "provider": "smide", "range": 28.0, "size": 17, "time": "01/27/2020, 08:28:03"}, "type": "Feature"}, {"geometry": {"coordinates": [8.56544, 47.376932], "type": "Point"}, "properties": {"charge": 18, "id": "smide_2737", "name": "BE336149", "provider": "smide", "range": 9.0, "size": 17, "time": "01/27/2020, 08:28:03"}, "type": "Feature"}, {"geometry": {"coordinates": [8.571918, 47.381916], "type": "Point"}, "properties": {"charge": 47, "id": "smide_2734", "name": "BE343876", "provider": "smide", "range": 23.0, "size": 17, "time": "01/27/2020, 08:28:03"}, "type": "Feature"}, {"geometry": {"coordinates": [8.53024, 47.39034], "type": "Point"}, "properties": {"charge": 41, "id": "smide_2733", "name": "BE343873", "provider": "smide", "range": 20.0, "size": 17, "time": "01/27/2020, 08:28:03"}, "type": "Feature"}, {"geometry": {"coordinates": [8.563434, 47.409392], "type": "Point"}, "properties": {"charge": 30, "id": "smide_2729", "name": "BE343878", "provider": "smide", "range": 15.0, "size": 17, "time": "01/27/2020, 08:28:03"}, "type": "Feature"}, {"geometry": {"coordinates": [8.510738, 47.376011], "type": "Point"}, "properties": {"charge": 95, "id": "smide_2725", "name": "ZH261545", "provider": "smide", "range": 47.0, "size": 0, "time": "01/27/2020, 08:28:03"}, "type": "Feature"}, {"geometry": {"coordinates": [8.525571, 47.37856], "type": "Point"}, "properties": {"charge": 43, "id": "smide_2718", "name": "ZH259019", "provider": "smide", "range": 21.0, "size": 20, "time": "01/27/2020, 08:28:03"}, "type": "Feature"}, {"geometry": {"coordinates": [8.508294, 47.384552], "type": "Point"}, "properties": {"charge": 93, "id": "smide_2717", "name": "ZH263287", "provider": "smide", "range": 46.0, "size": 17, "time": "01/27/2020, 08:28:03"}, "type": "Feature"}, {"geometry": {"coordinates": [8.54083, 47.378421], "type": "Point"}, "properties": {"charge": 73, "id": "smide_2716", "name": "ZH254606", "provider": "smide", "range": 36.0, "size": 17, "time": "01/27/2020, 08:28:03"}, "type": "Feature"}, {"geometry": {"coordinates": [8.537502, 47.340128], "type": "Point"}, "properties": {"charge": 89, "id": "smide_2715", "name": "ZH254605", "provider": "smide", "range": 44.0, "size": 17, "time": "01/27/2020, 08:28:03"}, "type": "Feature"}, {"geometry": {"coordinates": [8.553596, 47.402132], "type": "Point"}, "properties": {"charge": 60, "id": "smide_2710", "name": "ZH256460", "provider": "smide", "range": 30.0, "size": 17, "time": "01/27/2020, 08:28:03"}, "type": "Feature"}, {"geometry": {"coordinates": [8.555716, 47.384344], "type": "Point"}, "properties": {"charge": 61, "id": "smide_2712", "name": "ZH256462", "provider": "smide", "range": 30.0, "size": 17, "time": "01/27/2020, 08:28:03"}, "type": "Feature"}, {"geometry": {"coordinates": [8.531796, 47.38438], "type": "Point"}, "properties": {"charge": 56, "id": "smide_2711", "name": "ZH256463", "provider": "smide", "range": 28.0, "size": 17, "time": "01/27/2020, 08:28:03"}, "type": "Feature"}, {"geometry": {"coordinates": [8.574311, 47.35223], "type": "Point"}, "properties": {"charge": 27, "id": "smide_2709", "name": "ZH256466", "provider": "smide", "range": 13.0, "size": 20, "time": "01/27/2020, 08:28:03"}, "type": "Feature"}, {"geometry": {"coordinates": [8.538404, 47.377324], "type": "Point"}, "properties": {"charge": 100, "id": "smide_2707", "name": "ZH256467", "provider": "smide", "range": 50.0, "size": 20, "time": "01/27/2020, 08:28:03"}, "type": "Feature"}, {"geometry": {"coordinates": [8.562207, 47.410452], "type": "Point"}, "properties": {"charge": 100, "id": "smide_2708", "name": "ZH256464", "provider": "smide", "range": 50.0, "size": 17, "time": "01/27/2020, 08:28:03"}, "type": "Feature"}, {"geometry": {"coordinates": [8.513479, 47.3619], "type": "Point"}, "properties": {"charge": 22, "id": "smide_2706", "name": "ZH256322", "provider": "smide", "range": 11.0, "size": 20, "time": "01/27/2020, 08:28:03"}, "type": "Feature"}, {"geometry": {"coordinates": [8.554525, 47.403012], "type": "Point"}, "properties": {"charge": 100, "id": "smide_2705", "name": "ZH256471", "provider": "smide", "range": 50.0, "size": 20, "time": "01/27/2020, 08:28:03"}, "type": "Feature"}, {"geometry": {"coordinates": [8.541496, 47.397364], "type": "Point"}, "properties": {"charge": 100, "id": "smide_2701", "name": "ZH256468", "provider": "smide", "range": 50.0, "size": 20, "time": "01/27/2020, 08:28:03"}, "type": "Feature"}, {"geometry": {"coordinates": [8.525515, 47.377072], "type": "Point"}, "properties": {"charge": 100, "id": "smide_2699", "name": "ZH254611", "provider": "smide", "range": 50.0, "size": 20, "time": "01/27/2020, 08:28:03"}, "type": "Feature"}, {"geometry": {"coordinates": [8.507607, 47.382512], "type": "Point"}, "properties": {"charge": 80, "id": "smide_2697", "name": "ZH254629", "provider": "smide", "range": 40.0, "size": 20, "time": "01/27/2020, 08:28:03"}, "type": "Feature"}, {"geometry": {"coordinates": [8.559096, 47.418333], "type": "Point"}, "properties": {"charge": 66, "id": "smide_2691", "name": "ZH254622", "provider": "smide", "range": 33.0, "size": 20, "time": "01/27/2020, 08:28:03"}, "type": "Feature"}, {"geometry": {"coordinates": [8.572877, 47.349104], "type": "Point"}, "properties": {"charge": 16, "id": "smide_2684", "name": "ZH254626", "provider": "smide", "range": 8.0, "size": 20, "time": "01/27/2020, 08:28:03"}, "type": "Feature"}, {"geometry": {"coordinates": [8.568991, 47.373095], "type": "Point"}, "properties": {"charge": 24, "id": "smide_2683", "name": "ZH254620", "provider": "smide", "range": 12.0, "size": 20, "time": "01/27/2020, 08:28:03"}, "type": "Feature"}, {"geometry": {"coordinates": [8.5586, 47.404536], "type": "Point"}, "properties": {"charge": 100, "id": "smide_2680", "name": "ZH254619", "provider": "smide", "range": 50.0, "size": 20, "time": "01/27/2020, 08:28:03"}, "type": "Feature"}, {"geometry": {"coordinates": [8.576465, 47.35124], "type": "Point"}, "properties": {"charge": 92, "id": "smide_2679", "name": "ZH258489", "provider": "smide", "range": 46.0, "size": 17, "time": "01/27/2020, 08:28:03"}, "type": "Feature"}, {"geometry": {"coordinates": [8.47664, 47.38746], "type": "Point"}, "properties": {"charge": 83, "id": "smide_2669", "name": "ZH263294", "provider": "smide", "range": 41.0, "size": 17, "time": "01/27/2020, 08:28:03"}, "type": "Feature"}, {"geometry": {"coordinates": [8.56074, 47.355816], "type": "Point"}, "properties": {"charge": 100, "id": "smide_2668", "name": "ZH258640", "provider": "smide", "range": 50.0, "size": 17, "time": "01/27/2020, 08:28:03"}, "type": "Feature"}, {"geometry": {"coordinates": [8.518205, 47.38838], "type": "Point"}, "properties": {"charge": 23, "id": "smide_2666", "name": "ZH258653", "provider": "smide", "range": 11.0, "size": 17, "time": "01/27/2020, 08:28:03"}, "type": "Feature"}, {"geometry": {"coordinates": [8.521512, 47.361716], "type": "Point"}, "properties": {"charge": 100, "id": "smide_2665", "name": "ZH258644", "provider": "smide", "range": 50.0, "size": 17, "time": "01/27/2020, 08:28:03"}, "type": "Feature"}, {"geometry": {"coordinates": [8.548472, 47.377844], "type": "Point"}, "properties": {"charge": 100, "id": "smide_2664", "name": "ZH258652", "provider": "smide", "range": 50.0, "size": 17, "time": "01/27/2020, 08:28:03"}, "type": "Feature"}, {"geometry": {"coordinates": [8.483127, 47.3781], "type": "Point"}, "properties": {"charge": 63, "id": "smide_2662", "name": "ZH258643", "provider": "smide", "range": 31.0, "size": 17, "time": "01/27/2020, 08:28:03"}, "type": "Feature"}, {"geometry": {"coordinates": [8.572095, 47.357748], "type": "Point"}, "properties": {"charge": 50, "id": "smide_2648", "name": "ZH257930", "provider": "smide", "range": 25.0, "size": 20, "time": "01/27/2020, 08:28:03"}, "type": "Feature"}, {"geometry": {"coordinates": [8.575855, 47.35302], "type": "Point"}, "properties": {"charge": 97, "id": "smide_2657", "name": "ZH257936", "provider": "smide", "range": 48.0, "size": 17, "time": "01/27/2020, 08:28:03"}, "type": "Feature"}, {"geometry": {"coordinates": [8.523629, 47.36946], "type": "Point"}, "properties": {"charge": 90, "id": "smide_2647", "name": "ZH257932", "provider": "smide", "range": 45.0, "size": 20, "time": "01/27/2020, 08:28:03"}, "type": "Feature"}, {"geometry": {"coordinates": [8.535879, 47.356304], "type": "Point"}, "properties": {"charge": 100, "id": "smide_2645", "name": "ZH257933", "provider": "smide", "range": 50.0, "size": 20, "time": "01/27/2020, 08:28:03"}, "type": "Feature"}, {"geometry": {"coordinates": [8.486396, 47.391561], "type": "Point"}, "properties": {"charge": 76, "id": "smide_105", "name": "ZH253804", "provider": "smide", "range": 38.0, "size": 17, "time": "01/27/2020, 08:28:03"}, "type": "Feature"}, {"geometry": {"coordinates": [8.483649, 47.381648], "type": "Point"}, "properties": {"charge": 63, "id": "smide_186", "name": "ZH253751", "provider": "smide", "range": 31.0, "size": 20, "time": "01/27/2020, 08:28:03"}, "type": "Feature"}, {"geometry": {"coordinates": [8.572133, 47.357944], "type": "Point"}, "properties": {"charge": 63, "id": "smide_173", "name": "ZH258501", "provider": "smide", "range": 31.0, "size": 17, "time": "01/27/2020, 08:28:03"}, "type": "Feature"}, {"geometry": {"coordinates": [8.559244, 47.405932], "type": "Point"}, "properties": {"charge": 84, "id": "smide_77", "name": "ZH261548", "provider": "smide", "range": 42.0, "size": 20, "time": "01/27/2020, 08:28:03"}, "type": "Feature"}, {"geometry": {"coordinates": [8.548439, 47.377856], "type": "Point"}, "properties": {"charge": 30, "id": "smide_200", "name": "ZH253801", "provider": "smide", "range": 15.0, "size": 20, "time": "01/27/2020, 08:28:03"}, "type": "Feature"}, {"geometry": {"coordinates": [8.53874, 47.337808], "type": "Point"}, "properties": {"charge": 66, "id": "smide_197", "name": "ZH253864", "provider": "smide", "range": 33.0, "size": 20, "time": "01/27/2020, 08:28:03"}, "type": "Feature"}, {"geometry": {"coordinates": [8.569027, 47.373008], "type": "Point"}, "properties": {"charge": 43, "id": "smide_199", "name": "ZH253766", "provider": "smide", "range": 21.0, "size": 20, "time": "01/27/2020, 08:28:03"}, "type": "Feature"}, {"geometry": {"coordinates": [8.533521, 47.373645], "type": "Point"}, "properties": {"charge": 63, "id": "smide_45", "name": "ZH253716", "provider": "smide", "range": 31.0, "size": 17, "time": "01/27/2020, 08:28:03"}, "type": "Feature"}, {"geometry": {"coordinates": [8.511041, 47.407516], "type": "Point"}, "properties": {"charge": 38, "id": "smide_188", "name": "ZH261543", "provider": "smide", "range": 19.0, "size": 20, "time": "01/27/2020, 08:28:03"}, "type": "Feature"}, {"geometry": {"coordinates": [8.574958, 47.372112], "type": "Point"}, "properties": {"charge": 100, "id": "smide_71", "name": "ZH253742", "provider": "smide", "range": 50.0, "size": 20, "time": "01/27/2020, 08:28:03"}, "type": "Feature"}, {"geometry": {"coordinates": [8.510666, 47.392456], "type": "Point"}, "properties": {"charge": 69, "id": "smide_101", "name": "ZH253814", "provider": "smide", "range": 34.0, "size": 17, "time": "01/27/2020, 08:28:03"}, "type": "Feature"}, {"geometry": {"coordinates": [8.506037, 47.381364], "type": "Point"}, "properties": {"charge": 65, "id": "smide_143", "name": "ZH253778", "provider": "smide", "range": 32.0, "size": 17, "time": "01/27/2020, 08:28:03"}, "type": "Feature"}, {"geometry": {"coordinates": [8.57216, 47.35799], "type": "Point"}, "properties": {"charge": 73, "id": "smide_180", "name": "ZH253824", "provider": "smide", "range": 36.0, "size": 20, "time": "01/27/2020, 08:28:03"}, "type": "Feature"}, {"geometry": {"coordinates": [8.549914, 47.398484], "type": "Point"}, "properties": {"charge": 58, "id": "smide_20", "name": "ZH253770", "provider": "smide", "range": 28.0, "size": 20, "time": "01/27/2020, 08:28:03"}, "type": "Feature"}, {"geometry": {"coordinates": [8.520015, 47.369645], "type": "Point"}, "properties": {"charge": 94, "id": "smide_30", "name": "ZH253813", "provider": "smide", "range": 47.0, "size": 20, "time": "01/27/2020, 08:28:03"}, "type": "Feature"}, {"geometry": {"coordinates": [8.542495, 47.411948], "type": "Point"}, "properties": {"charge": 100, "id": "smide_165", "name": "ZH253752", "provider": "smide", "range": 50.0, "size": 17, "time": "01/27/2020, 08:28:03"}, "type": "Feature"}, {"geometry": {"coordinates": [8.553453, 47.405828], "type": "Point"}, "properties": {"charge": 84, "id": "smide_119", "name": "ZH253686", "provider": "smide", "range": 42.0, "size": 20, "time": "01/27/2020, 08:28:03"}, "type": "Feature"}, {"geometry": {"coordinates": [8.550496, 47.377692], "type": "Point"}, "properties": {"charge": 88, "id": "smide_76", "name": "ZH253764", "provider": "smide", "range": 44.0, "size": 17, "time": "01/27/2020, 08:28:03"}, "type": "Feature"}, {"geometry": {"coordinates": [8.550735, 47.397912], "type": "Point"}, "properties": {"charge": 83, "id": "smide_94", "name": "ZH253754", "provider": "smide", "range": 41.0, "size": 17, "time": "01/27/2020, 08:28:03"}, "type": "Feature"}, {"geometry": {"coordinates": [8.47851, 47.389595], "type": "Point"}, "properties": {"charge": 70, "id": "smide_191", "name": "ZH253762", "provider": "smide", "range": 35.0, "size": 17, "time": "01/27/2020, 08:28:03"}, "type": "Feature"}, {"geometry": {"coordinates": [8.490988, 47.377108], "type": "Point"}, "properties": {"charge": 100, "id": "smide_202", "name": "ZH253830", "provider": "smide", "range": 50.0, "size": 17, "time": "01/27/2020, 08:28:03"}, "type": "Feature"}, {"geometry": {"coordinates": [8.574892, 47.373268], "type": "Point"}, "properties": {"charge": 85, "id": "smide_56", "name": "ZH261442", "provider": "smide", "range": 42.0, "size": 20, "time": "01/27/2020, 08:28:03"}, "type": "Feature"}, {"geometry": {"coordinates": [8.516803, 47.388705], "type": "Point"}, "properties": {"charge": 78, "id": "smide_47", "name": "ZH253858", "provider": "smide", "range": 39.0, "size": 17, "time": "01/27/2020, 08:28:03"}, "type": "Feature"}, {"geometry": {"coordinates": [8.551002, 47.391828], "type": "Point"}, "properties": {"charge": 100, "id": "smide_150", "name": "ZH253703", "provider": "smide", "range": 50.0, "size": 20, "time": "01/27/2020, 08:28:03"}, "type": "Feature"}, {"geometry": {"coordinates": [8.545201, 47.423672], "type": "Point"}, "properties": {"charge": 74, "id": "smide_181", "name": "ZH253815", "provider": "smide", "range": 37.0, "size": 17, "time": "01/27/2020, 08:28:03"}, "type": "Feature"}, {"geometry": {"coordinates": [8.498391, 47.366603], "type": "Point"}, "properties": {"charge": 78, "id": "smide_17", "name": "ZH253793", "provider": "smide", "range": 39.0, "size": 17, "time": "01/27/2020, 08:28:03"}, "type": "Feature"}, {"geometry": {"coordinates": [8.561403, 47.363165], "type": "Point"}, "properties": {"charge": 57, "id": "smide_145", "name": "ZH253780", "provider": "smide", "range": 28.0, "size": 20, "time": "01/27/2020, 08:28:03"}, "type": "Feature"}, {"geometry": {"coordinates": [8.518615, 47.385896], "type": "Point"}, "properties": {"charge": 92, "id": "smide_203", "name": "ZH261547", "provider": "smide", "range": 46.0, "size": 17, "time": "01/27/2020, 08:28:03"}, "type": "Feature"}, {"geometry": {"coordinates": [8.54915, 47.383416], "type": "Point"}, "properties": {"charge": 93, "id": "smide_21", "name": "ZH253841", "provider": "smide", "range": 46.0, "size": 17, "time": "01/27/2020, 08:28:03"}, "type": "Feature"}, {"geometry": {"coordinates": [8.553157, 47.384292], "type": "Point"}, "properties": {"charge": 90, "id": "smide_81", "name": "ZH253753", "provider": "smide", "range": 45.0, "size": 17, "time": "01/27/2020, 08:28:03"}, "type": "Feature"}, {"geometry": {"coordinates": [8.489066, 47.395476], "type": "Point"}, "properties": {"charge": 23, "id": "smide_148", "name": "ZH253844", "provider": "smide", "range": 11.0, "size": 20, "time": "01/27/2020, 08:28:03"}, "type": "Feature"}, {"geometry": {"coordinates": [8.517327, 47.36286], "type": "Point"}, "properties": {"charge": 67, "id": "smide_171", "name": "ZH253689", "provider": "smide", "range": 33.0, "size": 20, "time": "01/27/2020, 08:28:03"}, "type": "Feature"}, {"geometry": {"coordinates": [8.53587, 47.356268], "type": "Point"}, "properties": {"charge": 58, "id": "smide_22", "name": "ZH253852", "provider": "smide", "range": 28.0, "size": 17, "time": "01/27/2020, 08:28:03"}, "type": "Feature"}, {"geometry": {"coordinates": [8.550776, 47.413064], "type": "Point"}, "properties": {"charge": 75, "id": "smide_93", "name": "ZH253681", "provider": "smide", "range": 37.0, "size": 17, "time": "01/27/2020, 08:28:03"}, "type": "Feature"}, {"geometry": {"coordinates": [8.570057, 47.3524], "type": "Point"}, "properties": {"charge": 91, "id": "smide_67", "name": "ZH253779", "provider": "smide", "range": 45.0, "size": 17, "time": "01/27/2020, 08:28:03"}, "type": "Feature"}, {"geometry": {"coordinates": [8.509858, 47.390604], "type": "Point"}, "properties": {"charge": 100, "id": "smide_133", "name": "ZH253848", "provider": "smide", "range": 50.0, "size": 20, "time": "01/27/2020, 08:28:03"}, "type": "Feature"}, {"geometry": {"coordinates": [8.48001, 47.385486], "type": "Point"}, "properties": {"charge": 83, "id": "smide_118", "name": "ZH253759", "provider": "smide", "range": 41.0, "size": 20, "time": "01/27/2020, 08:28:03"}, "type": "Feature"}, {"geometry": {"coordinates": [8.524402, 47.378932], "type": "Point"}, "properties": {"charge": 90, "id": "smide_142", "name": "ZH258745", "provider": "smide", "range": 45.0, "size": 17, "time": "01/27/2020, 08:28:03"}, "type": "Feature"}, {"geometry": {"coordinates": [8.521158, 47.411718], "type": "Point"}, "properties": {"charge": 19, "id": "smide_166", "name": "ZH253728", "provider": "smide", "range": 9.0, "size": 17, "time": "01/27/2020, 08:28:03"}, "type": "Feature"}, {"geometry": {"coordinates": [8.489607, 47.391024], "type": "Point"}, "properties": {"charge": 49, "id": "smide_126", "name": "ZH268400", "provider": "smide", "range": 24.0, "size": 17, "time": "01/27/2020, 08:28:03"}, "type": "Feature"}, {"geometry": {"coordinates": [8.527375, 47.375211], "type": "Point"}, "properties": {"charge": 97, "id": "smide_44", "name": "ZH253837", "provider": "smide", "range": 48.0, "size": 17, "time": "01/27/2020, 08:28:03"}, "type": "Feature"}, {"geometry": {"coordinates": [8.515358, 47.395968], "type": "Point"}, "properties": {"charge": 62, "id": "smide_98", "name": "ZH256321", "provider": "smide", "range": 31.0, "size": 17, "time": "01/27/2020, 08:28:03"}, "type": "Feature"}, {"geometry": {"coordinates": [8.524087, 47.3534], "type": "Point"}, "properties": {"charge": 100, "id": "smide_154", "name": "ZH253744", "provider": "smide", "range": 50.0, "size": 20, "time": "01/27/2020, 08:28:03"}, "type": "Feature"}, {"geometry": {"coordinates": [8.516186, 47.396948], "type": "Point"}, "properties": {"charge": 49, "id": "smide_92", "name": "ZH253798", "provider": "smide", "range": 24.0, "size": 17, "time": "01/27/2020, 08:28:03"}, "type": "Feature"}, {"geometry": {"coordinates": [8.547336, 47.423008], "type": "Point"}, "properties": {"charge": 60, "id": "smide_167", "name": "ZH253854", "provider": "smide", "range": 30.0, "size": 17, "time": "01/27/2020, 08:28:03"}, "type": "Feature"}, {"geometry": {"coordinates": [8.522158, 47.410748], "type": "Point"}, "properties": {"charge": 100, "id": "smide_111", "name": "ZH253763", "provider": "smide", "range": 50.0, "size": 17, "time": "01/27/2020, 08:28:03"}, "type": "Feature"}, {"geometry": {"coordinates": [8.529566, 47.410284], "type": "Point"}, "properties": {"charge": 79, "id": "smide_1", "name": "ZH253776", "provider": "smide", "range": 39.0, "size": 17, "time": "01/27/2020, 08:28:03"}, "type": "Feature"}, {"geometry": {"coordinates": [8.556631, 47.353548], "type": "Point"}, "properties": {"charge": 74, "id": "smide_28", "name": "ZH253831", "provider": "smide", "range": 37.0, "size": 17, "time": "01/27/2020, 08:28:03"}, "type": "Feature"}, {"geometry": {"coordinates": [8.567351, 47.37607], "type": "Point"}, "properties": {"charge": 100, "id": "smide_14", "name": "ZH253749", "provider": "smide", "range": 50.0, "size": 20, "time": "01/27/2020, 08:28:03"}, "type": "Feature"}, {"geometry": {"coordinates": [8.556995, 47.40534], "type": "Point"}, "properties": {"charge": 70, "id": "smide_130", "name": "ZH253847", "provider": "smide", "range": 35.0, "size": 20, "time": "01/27/2020, 08:28:03"}, "type": "Feature"}, {"geometry": {"coordinates": [8.554574, 47.403204], "type": "Point"}, "properties": {"charge": 70, "id": "smide_193", "name": "ZH253738", "provider": "smide", "range": 35.0, "size": 20, "time": "01/27/2020, 08:28:03"}, "type": "Feature"}, {"geometry": {"coordinates": [8.563661, 47.40768], "type": "Point"}, "properties": {"charge": 100, "id": "smide_73", "name": "ZH261379", "provider": "smide", "range": 50.0, "size": 20, "time": "01/27/2020, 08:28:03"}, "type": "Feature"}, {"geometry": {"coordinates": [8.549413, 47.422078], "type": "Point"}, "properties": {"charge": 33, "id": "smide_158", "name": "ZH253870", "provider": "smide", "range": 16.0, "size": 20, "time": "01/27/2020, 08:28:03"}, "type": "Feature"}, {"geometry": {"coordinates": [8.511208, 47.377324], "type": "Point"}, "properties": {"charge": 41, "id": "smide_100", "name": "ZH253862", "provider": "smide", "range": 20.0, "size": 20, "time": "01/27/2020, 08:28:03"}, "type": "Feature"}, {"geometry": {"coordinates": [8.564601, 47.369308], "type": "Point"}, "properties": {"charge": 12, "id": "smide_134", "name": "ZH253741", "provider": "smide", "range": 6.0, "size": 20, "time": "01/27/2020, 08:28:03"}, "type": "Feature"}, {"geometry": {"coordinates": [8.54392, 47.408525], "type": "Point"}, "properties": {"charge": 100, "id": "smide_149", "name": "ZH253743", "provider": "smide", "range": 50.0, "size": 20, "time": "01/27/2020, 08:28:03"}, "type": "Feature"}, {"geometry": {"coordinates": [8.508554, 47.37906], "type": "Point"}, "properties": {"charge": 55, "id": "smide_74", "name": "ZH253693", "provider": "smide", "range": 27.0, "size": 20, "time": "01/27/2020, 08:28:03"}, "type": "Feature"}, {"geometry": {"coordinates": [8.496766, 47.392468], "type": "Point"}, "properties": {"charge": 100, "id": "smide_33", "name": "ZH253782", "provider": "smide", "range": 50.0, "size": 20, "time": "01/27/2020, 08:28:03"}, "type": "Feature"}, {"geometry": {"coordinates": [8.561878, 47.350372], "type": "Point"}, "properties": {"charge": 38, "id": "smide_161", "name": "ZH253691", "provider": "smide", "range": 19.0, "size": 20, "time": "01/27/2020, 08:28:03"}, "type": "Feature"}, {"geometry": {"coordinates": [8.483405, 47.374648], "type": "Point"}, "properties": {"charge": 20, "id": "smide_42", "name": "ZH253846", "provider": "smide", "range": 10.0, "size": 20, "time": "01/27/2020, 08:28:03"}, "type": "Feature"}, {"geometry": {"coordinates": [8.524413, 47.375596], "type": "Point"}, "properties": {"charge": 93, "id": "smide_137", "name": "ZH258502", "provider": "smide", "range": 46.0, "size": 17, "time": "01/27/2020, 08:28:03"}, "type": "Feature"}, {"geometry": {"coordinates": [8.52529, 47.37588], "type": "Point"}, "properties": {"charge": 69, "id": "smide_178", "name": "ZH253803", "provider": "smide", "range": 34.0, "size": 17, "time": "01/27/2020, 08:28:03"}, "type": "Feature"}, {"geometry": {"coordinates": [8.514321, 47.357388], "type": "Point"}, "properties": {"charge": 88, "id": "smide_55", "name": "ZH253875", "provider": "smide", "range": 44.0, "size": 17, "time": "01/27/2020, 08:28:03"}, "type": "Feature"}, {"geometry": {"coordinates": [8.56109, 47.366852], "type": "Point"}, "properties": {"charge": 34, "id": "smide_96", "name": "ZH256146", "provider": "smide", "range": 17.0, "size": 20, "time": "01/27/2020, 08:28:03"}, "type": "Feature"}, {"geometry": {"coordinates": [8.535879, 47.356248], "type": "Point"}, "properties": {"charge": 67, "id": "smide_58", "name": "ZH259246", "provider": "smide", "range": 33.0, "size": 20, "time": "01/27/2020, 08:28:03"}, "type": "Feature"}, {"geometry": {"coordinates": [8.548527, 47.377892], "type": "Point"}, "properties": {"charge": 40, "id": "smide_54", "name": "ZH253874", "provider": "smide", "range": 20.0, "size": 20, "time": "01/27/2020, 08:28:03"}, "type": "Feature"}, {"geometry": {"coordinates": [8.49335, 47.394392], "type": "Point"}, "properties": {"charge": 86, "id": "smide_175", "name": "ZH253730", "provider": "smide", "range": 43.0, "size": 17, "time": "01/27/2020, 08:28:03"}, "type": "Feature"}, {"geometry": {"coordinates": [8.574749, 47.37224], "type": "Point"}, "properties": {"charge": 30, "id": "smide_163", "name": "ZH256147", "provider": "smide", "range": 15.0, "size": 20, "time": "01/27/2020, 08:28:03"}, "type": "Feature"}, {"geometry": {"coordinates": [8.556038, 47.410596], "type": "Point"}, "properties": {"charge": 89, "id": "smide_112", "name": "ZH263530", "provider": "smide", "range": 44.0, "size": 20, "time": "01/27/2020, 08:28:03"}, "type": "Feature"}, {"geometry": {"coordinates": [8.553649, 47.367604], "type": "Point"}, "properties": {"charge": 48, "id": "smide_122", "name": "ZH253850", "provider": "smide", "range": 24.0, "size": 20, "time": "01/27/2020, 08:28:03"}, "type": "Feature"}, {"geometry": {"coordinates": [8.551, 47.38975], "type": "Point"}, "properties": {"charge": 76, "id": "smide_38", "name": "ZH253851", "provider": "smide", "range": 38.0, "size": 20, "time": "01/27/2020, 08:28:03"}, "type": "Feature"}, {"geometry": {"coordinates": [8.559239, 47.405932], "type": "Point"}, "properties": {"charge": 90, "id": "smide_18", "name": "ZH253859", "provider": "smide", "range": 45.0, "size": 17, "time": "01/27/2020, 08:28:03"}, "type": "Feature"}, {"geometry": {"coordinates": [8.549717, 47.401904], "type": "Point"}, "properties": {"charge": 88, "id": "smide_12", "name": "ZH253685", "provider": "smide", "range": 44.0, "size": 17, "time": "01/27/2020, 08:28:03"}, "type": "Feature"}, {"geometry": {"coordinates": [8.558594, 47.353632], "type": "Point"}, "properties": {"charge": 63, "id": "smide_192", "name": "ZH253706", "provider": "smide", "range": 31.0, "size": 20, "time": "01/27/2020, 08:28:03"}, "type": "Feature"}, {"geometry": {"coordinates": [8.554321, 47.41792], "type": "Point"}, "properties": {"charge": 100, "id": "smide_39", "name": "ZH253714", "provider": "smide", "range": 50.0, "size": 20, "time": "01/27/2020, 08:28:03"}, "type": "Feature"}, {"geometry": {"coordinates": [8.562651, 47.37746], "type": "Point"}, "properties": {"charge": 41, "id": "smide_85", "name": "ZH253729", "provider": "smide", "range": 20.0, "size": 17, "time": "01/27/2020, 08:28:03"}, "type": "Feature"}, {"geometry": {"coordinates": [8.558235, 47.404536], "type": "Point"}, "properties": {"charge": 100, "id": "smide_29", "name": "ZH253723", "provider": "smide", "range": 50.0, "size": 17, "time": "01/27/2020, 08:28:03"}, "type": "Feature"}, {"geometry": {"coordinates": [8.526115, 47.365056], "type": "Point"}, "properties": {"charge": 19, "id": "smide_46", "name": "ZH253843", "provider": "smide", "range": 9.0, "size": 20, "time": "01/27/2020, 08:28:03"}, "type": "Feature"}, {"geometry": {"coordinates": [8.53159, 47.364135], "type": "Point"}, "properties": {"charge": 100, "id": "bird_8034e203-521e-4ffa-865a-f3b7bb69d8b5", "provider": "bird", "timeStamp": "01/27/2020, 08:28:03"}, "type": "Feature"}, {"geometry": {"coordinates": [8.51222, 47.369755], "type": "Point"}, "properties": {"charge": 73, "id": "bird_b4b23565-891b-4864-8f66-ac84b699d20b", "provider": "bird", "timeStamp": "01/27/2020, 08:28:03"}, "type": "Feature"}, {"geometry": {"coordinates": [8.54486666666667, 47.3678633333333], "type": "Point"}, "properties": {"charge": 92, "id": "bird_a51aaeb8-cfc8-4176-85e4-734cfa68801d", "provider": "bird", "timeStamp": "01/27/2020, 08:28:03"}, "type": "Feature"}, {"geometry": {"coordinates": [8.53892166666667, 47.365555], "type": "Point"}, "properties": {"charge": 84, "id": "bird_0dae2de2-566b-4727-9550-7a07d94b4694", "provider": "bird", "timeStamp": "01/27/2020, 08:28:03"}, "type": "Feature"}, {"geometry": {"coordinates": [8.53167833333333, 47.3644783333333], "type": "Point"}, "properties": {"charge": 100, "id": "bird_b225ba34-84af-483e-9b71-a0922ec2d364", "provider": "bird", "timeStamp": "01/27/2020, 08:28:03"}, "type": "Feature"}, {"geometry": {"coordinates": [8.53172, 47.3644866666667], "type": "Point"}, "properties": {"charge": 100, "id": "bird_36b3f47c-3eb5-42ff-904a-c664850cdffc", "provider": "bird", "timeStamp": "01/27/2020, 08:28:03"}, "type": "Feature"}, {"geometry": {"coordinates": [8.53177333333333, 47.36451], "type": "Point"}, "properties": {"charge": 100, "id": "bird_4d8444c8-5e5f-4f3e-8ea8-26d58fc91b21", "provider": "bird", "timeStamp": "01/27/2020, 08:28:03"}, "type": "Feature"}, {"geometry": {"coordinates": [8.53174333333333, 47.3645483333333], "type": "Point"}, "properties": {"charge": 99, "id": "bird_d89deffc-72d2-4e5b-9dc9-98c534984a93", "provider": "bird", "timeStamp": "01/27/2020, 08:28:03"}, "type": "Feature"}, {"geometry": {"coordinates": [8.52048166666667, 47.3940666666667], "type": "Point"}, "properties": {"charge": 22, "id": "bird_79bcbdd1-5309-4510-b901-8606bc9008d2", "provider": "bird", "timeStamp": "01/27/2020, 08:28:03"}, "type": "Feature"}, {"geometry": {"coordinates": [8.51047833333333, 47.3719983333333], "type": "Point"}, "properties": {"charge": 38, "id": "bird_76f60696-f2dd-4e62-a7f6-6a82808ddc42", "provider": "bird", "timeStamp": "01/27/2020, 08:28:03"}, "type": "Feature"}, {"geometry": {"coordinates": [8.51806333333333, 47.3668516666667], "type": "Point"}, "properties": {"charge": 27, "id": "bird_623cbcb4-460c-405a-90de-7969e161fef3", "provider": "bird", "timeStamp": "01/27/2020, 08:28:03"}, "type": "Feature"}, {"geometry": {"coordinates": [8.55216166666667, 47.3765866666667], "type": "Point"}, "properties": {"charge": 27, "id": "bird_3a2a175c-f0e1-4622-8a92-6e35c7366bba", "provider": "bird", "timeStamp": "01/27/2020, 08:28:03"}, "type": "Feature"}, {"geometry": {"coordinates": [8.50736, 47.3802116666667], "type": "Point"}, "properties": {"charge": 34, "id": "bird_c9b12892-7171-4cf1-bb5b-87d51892ee6f", "provider": "bird", "timeStamp": "01/27/2020, 08:28:03"}, "type": "Feature"}, {"geometry": {"coordinates": [8.53043666666667, 47.3648183333333], "type": "Point"}, "properties": {"charge": 35, "id": "bird_37350909-5a54-4635-a042-26b5c65c9b2e", "provider": "bird", "timeStamp": "01/27/2020, 08:28:03"}, "type": "Feature"}, {"geometry": {"coordinates": [8.51497, 47.39093], "type": "Point"}, "properties": {"charge": 74, "id": "bird_99a22c4f-9fc3-4dec-969d-59ce753c751d", "provider": "bird", "timeStamp": "01/27/2020, 08:28:03"}, "type": "Feature"}, {"geometry": {"coordinates": [8.525455, 47.3945433333333], "type": "Point"}, "properties": {"charge": 42, "id": "bird_19aa676e-cd95-4b53-8573-b7468b522dfe", "provider": "bird", "timeStamp": "01/27/2020, 08:28:03"}, "type": "Feature"}, {"geometry": {"coordinates": [8.52051, 47.36676], "type": "Point"}, "properties": {"charge": 67, "id": "bird_e7b6e01a-2497-47a8-b03e-9a8f25be4b93", "provider": "bird", "timeStamp": "01/27/2020, 08:28:03"}, "type": "Feature"}, {"geometry": {"coordinates": [8.54398333333333, 47.3688283333333], "type": "Point"}, "properties": {"charge": 90, "id": "bird_8509c788-9692-4e3c-863b-a0b6afff2211", "provider": "bird", "timeStamp": "01/27/2020, 08:28:03"}, "type": "Feature"}, {"geometry": {"coordinates": [8.53670833333333, 47.3661], "type": "Point"}, "properties": {"charge": 30, "id": "bird_67cb4e79-6f48-454e-87e8-17cad707671d", "provider": "bird", "timeStamp": "01/27/2020, 08:28:03"}, "type": "Feature"}, {"geometry": {"coordinates": [8.51305166666667, 47.3710366666667], "type": "Point"}, "properties": {"charge": 26, "id": "bird_f29f1ea7-0d65-4e96-be62-67c320c924e7", "provider": "bird", "timeStamp": "01/27/2020, 08:28:03"}, "type": "Feature"}, {"geometry": {"coordinates": [8.51402833333333, 47.3895866666667], "type": "Point"}, "properties": {"charge": 62, "id": "bird_9684160c-6356-416d-8812-d86785d7aa33", "provider": "bird", "timeStamp": "01/27/2020, 08:28:03"}, "type": "Feature"}, {"geometry": {"coordinates": [8.53185166666667, 47.36562], "type": "Point"}, "properties": {"charge": 72, "id": "bird_cd81ac6d-2356-4065-b0f2-9a51b3756f8f", "provider": "bird", "timeStamp": "01/27/2020, 08:28:03"}, "type": "Feature"}, {"geometry": {"coordinates": [8.50872333333333, 47.3795816666667], "type": "Point"}, "properties": {"charge": 58, "id": "bird_fd270c76-ac22-4e10-9ba8-14c79b6532ca", "provider": "bird", "timeStamp": "01/27/2020, 08:28:03"}, "type": "Feature"}, {"geometry": {"coordinates": [8.53662666666667, 47.3664283333333], "type": "Point"}, "properties": {"charge": 42, "id": "bird_aa4256a7-fe42-4dc5-9450-f04ef9071624", "provider": "bird", "timeStamp": "01/27/2020, 08:28:03"}, "type": "Feature"}, {"geometry": {"coordinates": [8.51181833333333, 47.372815], "type": "Point"}, "properties": {"charge": 36, "id": "bird_a8e17aff-57c8-4393-b6c3-4a387398179b", "provider": "bird", "timeStamp": "01/27/2020, 08:28:03"}, "type": "Feature"}, {"geometry": {"coordinates": [8.53655833333333, 47.366485], "type": "Point"}, "properties": {"charge": 58, "id": "bird_1f672f49-5ae4-4a8f-ac80-87eb608dcdb4", "provider": "bird", "timeStamp": "01/27/2020, 08:28:03"}, "type": "Feature"}, {"geometry": {"coordinates": [8.54984666666667, 47.3846133333333], "type": "Point"}, "properties": {"charge": 31, "id": "bird_ad6e1878-7ff8-459e-8fdc-cad35de15f9d", "provider": "bird", "timeStamp": "01/27/2020, 08:28:03"}, "type": "Feature"}, {"geometry": {"coordinates": [8.515225, 47.369945], "type": "Point"}, "properties": {"charge": 38, "id": "bird_d9dbd0eb-63b6-4992-8000-86c8c0f50090", "provider": "bird", "timeStamp": "01/27/2020, 08:28:03"}, "type": "Feature"}, {"geometry": {"coordinates": [8.51182333333333, 47.373005], "type": "Point"}, "properties": {"charge": 58, "id": "bird_bf9ac7dd-7428-4592-8cca-144aebc918ec", "provider": "bird", "timeStamp": "01/27/2020, 08:28:03"}, "type": "Feature"}, {"geometry": {"coordinates": [8.53527, 47.36636], "type": "Point"}, "properties": {"charge": 56, "id": "bird_2e4f1b9c-336a-4415-a5e5-321d5a70b7ec", "provider": "bird", "timeStamp": "01/27/2020, 08:28:03"}, "type": "Feature"}, {"geometry": {"coordinates": [8.51025166666667, 47.3760033333333], "type": "Point"}, "properties": {"charge": 28, "id": "bird_122dfaf6-554c-424b-931c-fb210a057d0e", "provider": "bird", "timeStamp": "01/27/2020, 08:28:03"}, "type": "Feature"}, {"geometry": {"coordinates": [8.510465, 47.3757516666667], "type": "Point"}, "properties": {"charge": 24, "id": "bird_31dd8d4b-079c-4d5e-bb84-a9ecff649fc1", "provider": "bird", "timeStamp": "01/27/2020, 08:28:03"}, "type": "Feature"}, {"geometry": {"coordinates": [8.53227333333333, 47.3937983333333], "type": "Point"}, "properties": {"charge": 17, "id": "bird_5fc502b3-316d-45b1-872f-ba7c6e129e31", "provider": "bird", "timeStamp": "01/27/2020, 08:28:03"}, "type": "Feature"}, {"geometry": {"coordinates": [8.53510833333333, 47.3666416666667], "type": "Point"}, "properties": {"charge": 81, "id": "bird_dfaf3ebb-3693-499e-8761-60bbebe26f10", "provider": "bird", "timeStamp": "01/27/2020, 08:28:03"}, "type": "Feature"}, {"geometry": {"coordinates": [8.53509166666667, 47.3666566666667], "type": "Point"}, "properties": {"charge": 90, "id": "bird_f1b6c684-89ce-4774-909d-a65315d665e1", "provider": "bird", "timeStamp": "01/27/2020, 08:28:03"}, "type": "Feature"}, {"geometry": {"coordinates": [8.53340166666667, 47.366485], "type": "Point"}, "properties": {"charge": 65, "id": "bird_12493297-3984-4fd0-811b-c32db7d86535", "provider": "bird", "timeStamp": "01/27/2020, 08:28:03"}, "type": "Feature"}, {"geometry": {"coordinates": [8.52665833333333, 47.393505], "type": "Point"}, "properties": {"charge": 37, "id": "bird_51e8ba30-d0d3-43d5-9180-3009c19338ba", "provider": "bird", "timeStamp": "01/27/2020, 08:28:03"}, "type": "Feature"}, {"geometry": {"coordinates": [8.51632333333333, 47.3699233333333], "type": "Point"}, "properties": {"charge": 31, "id": "bird_16f8d626-c674-4e47-98fd-84e1fcfb564d", "provider": "bird", "timeStamp": "01/27/2020, 08:28:03"}, "type": "Feature"}, {"geometry": {"coordinates": [8.53619833333333, 47.3669966666667], "type": "Point"}, "properties": {"charge": 83, "id": "bird_c79537cd-17c3-4cf8-9344-30d0b1deda6a", "provider": "bird", "timeStamp": "01/27/2020, 08:28:03"}, "type": "Feature"}, {"geometry": {"coordinates": [8.53942, 47.3679233333333], "type": "Point"}, "properties": {"charge": 84, "id": "bird_fc4761b7-f1c7-4a4c-8500-a42e205fc4f5", "provider": "bird", "timeStamp": "01/27/2020, 08:28:03"}, "type": "Feature"}, {"geometry": {"coordinates": [8.53944, 47.3679583333333], "type": "Point"}, "properties": {"charge": 81, "id": "bird_9ec4fa27-04fb-41c3-bddf-569253d2eaac", "provider": "bird", "timeStamp": "01/27/2020, 08:28:03"}, "type": "Feature"}, {"geometry": {"coordinates": [8.53629333333333, 47.3671266666667], "type": "Point"}, "properties": {"charge": 79, "id": "bird_c2a8228c-f440-449d-8301-1ff23be9f43c", "provider": "bird", "timeStamp": "01/27/2020, 08:28:03"}, "type": "Feature"}, {"geometry": {"coordinates": [8.51523333333333, 47.3890416666667], "type": "Point"}, "properties": {"charge": 31, "id": "bird_98fb6011-116f-4b17-b71c-e94dfd91569f", "provider": "bird", "timeStamp": "01/27/2020, 08:28:03"}, "type": "Feature"}, {"geometry": {"coordinates": [8.51363166666667, 47.3876616666667], "type": "Point"}, "properties": {"charge": 52, "id": "bird_095d80d4-5bc9-40c4-a682-441e7bd0db8c", "provider": "bird", "timeStamp": "01/27/2020, 08:28:03"}, "type": "Feature"}, {"geometry": {"coordinates": [8.51010833333333, 47.38015], "type": "Point"}, "properties": {"charge": 38, "id": "bird_e68a08e0-95b7-4966-a838-043e7df1aeb1", "provider": "bird", "timeStamp": "01/27/2020, 08:28:03"}, "type": "Feature"}, {"geometry": {"coordinates": [8.51017333333333, 47.3801766666667], "type": "Point"}, "properties": {"charge": 28, "id": "bird_379d9e96-b03c-4511-8799-3bce6f504a5d", "provider": "bird", "timeStamp": "01/27/2020, 08:28:03"}, "type": "Feature"}, {"geometry": {"coordinates": [8.51109166666667, 47.3761833333333], "type": "Point"}, "properties": {"charge": 55, "id": "bird_20d63ca3-54c4-4a25-878d-946d1782cb46", "provider": "bird", "timeStamp": "01/27/2020, 08:28:03"}, "type": "Feature"}, {"geometry": {"coordinates": [8.54701833333333, 47.373275], "type": "Point"}, "properties": {"charge": 79, "id": "bird_3d8ee1e7-c095-4b1f-99b0-fbb83fcb5aa7", "provider": "bird", "timeStamp": "01/27/2020, 08:28:03"}, "type": "Feature"}, {"geometry": {"coordinates": [8.53834333333333, 47.39204], "type": "Point"}, "properties": {"charge": 63, "id": "bird_17146b6e-0468-4ecc-8e3e-a38f6162851e", "provider": "bird", "timeStamp": "01/27/2020, 08:28:03"}, "type": "Feature"}, {"geometry": {"coordinates": [8.5257, 47.392865], "type": "Point"}, "properties": {"charge": 64, "id": "bird_fb7fdfe0-7888-4c58-bcd6-f1d8838383da", "provider": "bird", "timeStamp": "01/27/2020, 08:28:03"}, "type": "Feature"}, {"geometry": {"coordinates": [8.51115166666667, 47.376705], "type": "Point"}, "properties": {"charge": 58, "id": "bird_ffda98d2-bef9-4e83-a035-1180638234fc", "provider": "bird", "timeStamp": "01/27/2020, 08:28:03"}, "type": "Feature"}, {"geometry": {"coordinates": [8.51120333333333, 47.3770866666667], "type": "Point"}, "properties": {"charge": 31, "id": "bird_7426483b-8221-4a7a-879e-b05050069caa", "provider": "bird", "timeStamp": "01/27/2020, 08:28:03"}, "type": "Feature"}, {"geometry": {"coordinates": [8.54776166666667, 47.3756183333333], "type": "Point"}, "properties": {"charge": 19, "id": "bird_64366ba5-1b4c-4dd0-8ba0-833abf0382a1", "provider": "bird", "timeStamp": "01/27/2020, 08:28:03"}, "type": "Feature"}, {"geometry": {"coordinates": [8.52433833333333, 47.392205], "type": "Point"}, "properties": {"charge": 25, "id": "bird_97439f27-b28f-4fa2-ad1e-26d1c9f2e0c2", "provider": "bird", "timeStamp": "01/27/2020, 08:28:03"}, "type": "Feature"}, {"geometry": {"coordinates": [8.52843166666667, 47.3926883333333], "type": "Point"}, "properties": {"charge": 58, "id": "bird_60f47440-929d-4c9c-ab71-ec3fb0ae38e6", "provider": "bird", "timeStamp": "01/27/2020, 08:28:03"}, "type": "Feature"}, {"geometry": {"coordinates": [8.52563666666667, 47.3923533333333], "type": "Point"}, "properties": {"charge": 66, "id": "bird_cea49f64-ebc9-47e5-a385-729d2ed3b776", "provider": "bird", "timeStamp": "01/27/2020, 08:28:03"}, "type": "Feature"}, {"geometry": {"coordinates": [8.51459, 47.3872183333333], "type": "Point"}, "properties": {"charge": 48, "id": "bird_42afe442-708e-4dc3-8ece-d36e4b6a5268", "provider": "bird", "timeStamp": "01/27/2020, 08:28:03"}, "type": "Feature"}, {"geometry": {"coordinates": [8.51462666666667, 47.3872183333333], "type": "Point"}, "properties": {"charge": 74, "id": "bird_2f7f0517-d42b-4bc9-8e78-3afd1d055e82", "provider": "bird", "timeStamp": "01/27/2020, 08:28:03"}, "type": "Feature"}, {"geometry": {"coordinates": [8.53906166666667, 47.3910633333333], "type": "Point"}, "properties": {"charge": 42, "id": "bird_d631f69c-3067-4ae9-9e7a-5692bf9aba85", "provider": "bird", "timeStamp": "01/27/2020, 08:28:03"}, "type": "Feature"}, {"geometry": {"coordinates": [8.53729, 47.3685116666667], "type": "Point"}, "properties": {"charge": 90, "id": "bird_713234b2-910b-4a42-831c-93f606548b3a", "provider": "bird", "timeStamp": "01/27/2020, 08:28:03"}, "type": "Feature"}, {"geometry": {"coordinates": [8.51191333333333, 47.37809], "type": "Point"}, "properties": {"charge": 17, "id": "bird_0704547e-4a58-499a-937d-42f1fa7b0b60", "provider": "bird", "timeStamp": "01/27/2020, 08:28:03"}, "type": "Feature"}, {"geometry": {"coordinates": [8.54809333333333, 47.3817016666667], "type": "Point"}, "properties": {"charge": 47, "id": "bird_4b82c223-6dd2-435a-aec5-10260f13e60d", "provider": "bird", "timeStamp": "01/27/2020, 08:28:03"}, "type": "Feature"}, {"geometry": {"coordinates": [8.51776333333333, 47.3708383333333], "type": "Point"}, "properties": {"charge": 20, "id": "bird_5d3e1d92-6305-4b8b-95a9-a97efdd751ac", "provider": "bird", "timeStamp": "01/27/2020, 08:28:03"}, "type": "Feature"}, {"geometry": {"coordinates": [8.51778, 47.3708616666667], "type": "Point"}, "properties": {"charge": 30, "id": "bird_2648a016-0af4-4565-b743-d479f871b1a9", "provider": "bird", "timeStamp": "01/27/2020, 08:28:03"}, "type": "Feature"}, {"geometry": {"coordinates": [8.526415, 47.3920133333333], "type": "Point"}, "properties": {"charge": 19, "id": "bird_e5f9566f-0b9a-4706-b3a6-8fa1e0370ec1", "provider": "bird", "timeStamp": "01/27/2020, 08:28:03"}, "type": "Feature"}, {"geometry": {"coordinates": [8.51328833333333, 47.3753966666667], "type": "Point"}, "properties": {"charge": 36, "id": "bird_5ce1e29d-c156-486d-80de-eadf1d82c949", "provider": "bird", "timeStamp": "01/27/2020, 08:28:03"}, "type": "Feature"}, {"geometry": {"coordinates": [8.54489166666667, 47.3731083333333], "type": "Point"}, "properties": {"charge": 28, "id": "bird_4d9c2d2f-b230-4032-a885-7e99075704cf", "provider": "bird", "timeStamp": "01/27/2020, 08:28:03"}, "type": "Feature"}, {"geometry": {"coordinates": [8.51637333333333, 47.37204], "type": "Point"}, "properties": {"charge": 66, "id": "bird_6a85fd0b-2df0-423e-a99e-9766de255fdb", "provider": "bird", "timeStamp": "01/27/2020, 08:28:03"}, "type": "Feature"}, {"geometry": {"coordinates": [8.53848666666667, 47.3692933333333], "type": "Point"}, "properties": {"charge": 100, "id": "bird_b39d174a-19b2-4039-8b21-f9bc77159ece", "provider": "bird", "timeStamp": "01/27/2020, 08:28:03"}, "type": "Feature"}, {"geometry": {"coordinates": [8.51800166666667, 47.3709716666667], "type": "Point"}, "properties": {"charge": 54, "id": "bird_944187ab-6c38-4d87-b1da-5020e95dd864", "provider": "bird", "timeStamp": "01/27/2020, 08:28:03"}, "type": "Feature"}, {"geometry": {"coordinates": [8.530235, 47.367855], "type": "Point"}, "properties": {"charge": 33, "id": "bird_633c6141-fa4d-4327-a877-c72ed2586a78", "provider": "bird", "timeStamp": "01/27/2020, 08:28:03"}, "type": "Feature"}, {"geometry": {"coordinates": [8.538545, 47.3693383333333], "type": "Point"}, "properties": {"charge": 84, "id": "bird_8231dbaf-6e70-48fc-abcf-420b64df94a8", "provider": "bird", "timeStamp": "01/27/2020, 08:28:03"}, "type": "Feature"}, {"geometry": {"coordinates": [8.53848166666667, 47.3693316666667], "type": "Point"}, "properties": {"charge": 100, "id": "bird_97d0aa94-534b-4d92-999b-60c6f97578e3", "provider": "bird", "timeStamp": "01/27/2020, 08:28:03"}, "type": "Feature"}, {"geometry": {"coordinates": [8.53853166666667, 47.3693766666667], "type": "Point"}, "properties": {"charge": 100, "id": "bird_494b6679-ffa3-418e-86ed-6605035203c5", "provider": "bird", "timeStamp": "01/27/2020, 08:28:03"}, "type": "Feature"}, {"geometry": {"coordinates": [8.5386, 47.3694033333333], "type": "Point"}, "properties": {"charge": 100, "id": "bird_ce9d740a-5c01-4906-a1e4-9b2e7ef2bf78", "provider": "bird", "timeStamp": "01/27/2020, 08:28:03"}, "type": "Feature"}, {"geometry": {"coordinates": [8.54774666666667, 47.3801116666667], "type": "Point"}, "properties": {"charge": 70, "id": "bird_e699c456-dd64-47c8-a871-b0b95b50edb2", "provider": "bird", "timeStamp": "01/27/2020, 08:28:03"}, "type": "Feature"}, {"geometry": {"coordinates": [8.51798833333333, 47.3888366666667], "type": "Point"}, "properties": {"charge": 25, "id": "bird_d01fa599-aa72-428b-ab5a-e4712401bb67", "provider": "bird", "timeStamp": "01/27/2020, 08:28:03"}, "type": "Feature"}, {"geometry": {"coordinates": [8.5123, 47.38005], "type": "Point"}, "properties": {"charge": 64, "id": "bird_1535b90f-c69e-4e77-b3b9-96e9c0d9ba56", "provider": "bird", "timeStamp": "01/27/2020, 08:28:03"}, "type": "Feature"}, {"geometry": {"coordinates": [8.54362833333333, 47.37249], "type": "Point"}, "properties": {"charge": 18, "id": "bird_76157a92-991d-490b-a277-c3cbd2672025", "provider": "bird", "timeStamp": "01/27/2020, 08:28:03"}, "type": "Feature"}, {"geometry": {"coordinates": [8.51423333333333, 47.374855], "type": "Point"}, "properties": {"charge": 65, "id": "bird_2cf5700a-2693-408b-9bd6-6fae2ca9b5c8", "provider": "bird", "timeStamp": "01/27/2020, 08:28:03"}, "type": "Feature"}, {"geometry": {"coordinates": [8.53821166666667, 47.3696066666667], "type": "Point"}, "properties": {"charge": 100, "id": "bird_1ba8fd17-85be-4d6e-9aea-af219c13674a", "provider": "bird", "timeStamp": "01/27/2020, 08:28:03"}, "type": "Feature"}, {"geometry": {"coordinates": [8.53835333333333, 47.3696983333333], "type": "Point"}, "properties": {"charge": 100, "id": "bird_2c781264-5614-4579-b4eb-3818e9d02f95", "provider": "bird", "timeStamp": "01/27/2020, 08:28:03"}, "type": "Feature"}, {"geometry": {"coordinates": [8.512695, 47.380795], "type": "Point"}, "properties": {"charge": 47, "id": "bird_eb83f6f5-ee9e-4e49-baed-657d4c343f20", "provider": "bird", "timeStamp": "01/27/2020, 08:28:03"}, "type": "Feature"}, {"geometry": {"coordinates": [8.54278333333333, 47.3721283333333], "type": "Point"}, "properties": {"charge": 19, "id": "bird_ae0477a9-808f-4413-9ea3-f3bbc05d264d", "provider": "bird", "timeStamp": "01/27/2020, 08:28:03"}, "type": "Feature"}, {"geometry": {"coordinates": [8.538305, 47.36974], "type": "Point"}, "properties": {"charge": 100, "id": "bird_21173804-ecca-4e8a-b2fc-c259b6e9747c", "provider": "bird", "timeStamp": "01/27/2020, 08:28:03"}, "type": "Feature"}, {"geometry": {"coordinates": [8.53821666666667, 47.369725], "type": "Point"}, "properties": {"charge": 100, "id": "bird_cb3813c2-0420-40a9-a0e3-3225ae39f02a", "provider": "bird", "timeStamp": "01/27/2020, 08:28:03"}, "type": "Feature"}, {"geometry": {"coordinates": [8.53722166666667, 47.39059], "type": "Point"}, "properties": {"charge": 75, "id": "bird_e1577fc0-fa2f-4f8c-b409-ab26782b92e2", "provider": "bird", "timeStamp": "01/27/2020, 08:28:03"}, "type": "Feature"}, {"geometry": {"coordinates": [8.54382, 47.3732333333333], "type": "Point"}, "properties": {"charge": 33, "id": "bird_994bb12a-ee9d-41d0-877f-45169dbb03d4", "provider": "bird", "timeStamp": "01/27/2020, 08:28:03"}, "type": "Feature"}, {"geometry": {"coordinates": [8.516065, 47.3866233333333], "type": "Point"}, "properties": {"charge": 48, "id": "bird_88ac5c55-cc9e-4273-ab4c-4de376e5ff19", "provider": "bird", "timeStamp": "01/27/2020, 08:28:03"}, "type": "Feature"}, {"geometry": {"coordinates": [8.51764333333333, 47.38789], "type": "Point"}, "properties": {"charge": 54, "id": "bird_94452dad-66ba-4b02-b40d-fb5c5d4b0bce", "provider": "bird", "timeStamp": "01/27/2020, 08:28:03"}, "type": "Feature"}, {"geometry": {"coordinates": [8.51806166666667, 47.3881383333333], "type": "Point"}, "properties": {"charge": 44, "id": "bird_a724762c-a78f-4ee3-a9a4-973a6ced345d", "provider": "bird", "timeStamp": "01/27/2020, 08:28:03"}, "type": "Feature"}, {"geometry": {"coordinates": [8.51636666666667, 47.3867116666667], "type": "Point"}, "properties": {"charge": 51, "id": "bird_3bb7561b-3959-4dc2-adda-f3caf222bfda", "provider": "bird", "timeStamp": "01/27/2020, 08:28:03"}, "type": "Feature"}, {"geometry": {"coordinates": [8.51639833333333, 47.38665], "type": "Point"},