{"features": [{"geometry": {"coordinates": [8.540062, 47.374392], "type": "Point"}, "properties": {"address": "Uraniastrasse 7", "electric": 2, "id": "pb_60", "manual": 6, "name": "Demo Station Werdm\u00fchleplatz", "provider": "publibike", "timeStamp": "02/10/2020, 19:27:57", "zip": 8001}, "type": "Feature"}, {"geometry": {"coordinates": [8.5452956, 47.4099615], "type": "Point"}, "properties": {"address": "Querstrasse 8", "electric": 3, "id": "pb_61", "manual": 2, "name": "Marktplatz", "provider": "publibike", "timeStamp": "02/10/2020, 19:27:57", "zip": 8050}, "type": "Feature"}, {"geometry": {"coordinates": [8.5156327, 47.3795837], "type": "Point"}, "properties": {"address": "Bullingerstrasse 5", "electric": 7, "id": "pb_80", "manual": 0, "name": "Bullingerplatz", "provider": "publibike", "timeStamp": "02/10/2020, 19:27:57", "zip": 8004}, "type": "Feature"}, {"geometry": {"coordinates": [8.5104051, 47.3899342], "type": "Point"}, "properties": {"address": "Pfingstweidstrasse 96e", "electric": 1, "id": "pb_81", "manual": 0, "name": "Herdern", "provider": "publibike", "timeStamp": "02/10/2020, 19:27:57", "zip": 8001}, "type": "Feature"}, {"geometry": {"coordinates": [8.535718, 47.359675], "type": "Point"}, "properties": {"address": "Mythenquai 50", "electric": 1, "id": "pb_82", "manual": 8, "name": "Hafen Enge", "provider": "publibike", "timeStamp": "02/10/2020, 19:27:57", "zip": 8002}, "type": "Feature"}, {"geometry": {"coordinates": [8.520370505, 47.358663827], "type": "Point"}, "properties": {"address": "Bubenbergstrasse 1", "electric": 2, "id": "pb_83", "manual": 3, "name": "Comerge", "provider": "publibike", "timeStamp": "02/10/2020, 19:27:57", "zip": 8045}, "type": "Feature"}, {"geometry": {"coordinates": [8.5412505, 47.3789825], "type": "Point"}, "properties": {"address": "Museumstrasse 2", "electric": 4, "id": "pb_84", "manual": 22, "name": "Landesmuseum", "provider": "publibike", "timeStamp": "02/10/2020, 19:27:57", "zip": 8001}, "type": "Feature"}, {"geometry": {"coordinates": [8.5235479, 47.3716661], "type": "Point"}, "properties": {"address": "Birmensdorferstrasse 80", "electric": 6, "id": "pb_85", "manual": 2, "name": "Bahnhof Wiedikon", "provider": "publibike", "timeStamp": "02/10/2020, 19:27:57", "zip": 8003}, "type": "Feature"}, {"geometry": {"coordinates": [8.506822854, 47.40781197], "type": "Point"}, "properties": {"address": "Stefano-Franscini-Platz 5", "electric": 0, "id": "pb_86", "manual": 0, "name": "ETH H\u00f6nggerberg", "provider": "publibike", "timeStamp": "02/10/2020, 19:27:57", "zip": 8093}, "type": "Feature"}, {"geometry": {"coordinates": [8.536101, 47.371083], "type": "Point"}, "properties": {"address": "Pelikanplatz 5", "electric": 2, "id": "pb_87", "manual": 13, "name": "Pelikanplatz", "provider": "publibike", "timeStamp": "02/10/2020, 19:27:57", "zip": 8001}, "type": "Feature"}, {"geometry": {"coordinates": [8.5257822, 47.3651936], "type": "Point"}, "properties": {"address": "H\u00fcrlimannplatz 90", "electric": 8, "id": "pb_88", "manual": 4, "name": "H\u00fcrlimannplatz", "provider": "publibike", "timeStamp": "02/10/2020, 19:27:57", "zip": 8002}, "type": "Feature"}, {"geometry": {"coordinates": [8.5313344, 47.3713591], "type": "Point"}, "properties": {"address": "Selnaustrasse 32", "electric": 6, "id": "pb_89", "manual": 1, "name": "Stauffacherbr\u00fccke", "provider": "publibike", "timeStamp": "02/10/2020, 19:27:57", "zip": 8001}, "type": "Feature"}, {"geometry": {"coordinates": [8.5056978, 47.3917964], "type": "Point"}, "properties": {"address": "Sportweg 25", "electric": 1, "id": "pb_90", "manual": 4, "name": "Sportweg", "provider": "publibike", "timeStamp": "02/10/2020, 19:27:57", "zip": 8005}, "type": "Feature"}, {"geometry": {"coordinates": [8.5181701, 47.3917837], "type": "Point"}, "properties": {"address": "Hardturmstrasse 11", "electric": 0, "id": "pb_91", "manual": 2, "name": "Puls 5", "provider": "publibike", "timeStamp": "02/10/2020, 19:27:57", "zip": 8005}, "type": "Feature"}, {"geometry": {"coordinates": [8.5286468, 47.3820827], "type": "Point"}, "properties": {"address": "R\u00f6ntgenstrasse 6", "electric": 3, "id": "pb_92", "manual": 5, "name": "R\u00f6ntgenstrasse", "provider": "publibike", "timeStamp": "02/10/2020, 19:27:57", "zip": 8005}, "type": "Feature"}, {"geometry": {"coordinates": [8.531935, 47.384918], "type": "Point"}, "properties": {"address": "Kornhausbr\u00fccke 1", "electric": 1, "id": "pb_93", "manual": 1, "name": "Limmatplatz", "provider": "publibike", "timeStamp": "02/10/2020, 19:27:57", "zip": 8005}, "type": "Feature"}, {"geometry": {"coordinates": [8.5354006, 47.3758639], "type": "Point"}, "properties": {"address": "Gessnerallee 15", "electric": 4, "id": "pb_94", "manual": 2, "name": "Gessnerallee", "provider": "publibike", "timeStamp": "02/10/2020, 19:27:57", "zip": 8001}, "type": "Feature"}, {"geometry": {"coordinates": [8.523818, 47.377148], "type": "Point"}, "properties": {"address": "Stauffacherstrasse 127", "electric": 2, "id": "pb_95", "manual": 11, "name": "B\u00e4ckeranlage", "provider": "publibike", "timeStamp": "02/10/2020, 19:27:57", "zip": 8004}, "type": "Feature"}, {"geometry": {"coordinates": [8.531836, 47.378548], "type": "Point"}, "properties": {"address": "Lagerstrasse 44", "electric": 9, "id": "pb_96", "manual": 4, "name": "Gustav-Gull-Platz", "provider": "publibike", "timeStamp": "02/10/2020, 19:27:57", "zip": 8004}, "type": "Feature"}, {"geometry": {"coordinates": [8.5104883, 47.3771535], "type": "Point"}, "properties": {"address": "Zurlindenstrasse 291", "electric": 1, "id": "pb_97", "manual": 7, "name": "Zurlindenstrasse", "provider": "publibike", "timeStamp": "02/10/2020, 19:27:57", "zip": 8003}, "type": "Feature"}, {"geometry": {"coordinates": [8.5333139, 47.3731102], "type": "Point"}, "properties": {"address": "Sihlstrasse 81", "electric": 6, "id": "pb_98", "manual": 11, "name": "Sihlstrasse", "provider": "publibike", "timeStamp": "02/10/2020, 19:27:57", "zip": 8001}, "type": "Feature"}, {"geometry": {"coordinates": [8.520532, 47.374951], "type": "Point"}, "properties": {"address": "Feldstrasse 24", "electric": 0, "id": "pb_99", "manual": 3, "name": "Kalkbreite", "provider": "publibike", "timeStamp": "02/10/2020, 19:27:57", "zip": 8004}, "type": "Feature"}, {"geometry": {"coordinates": [8.539046, 47.368064], "type": "Point"}, "properties": {"address": "Talstrasse 12", "electric": 0, "id": "pb_100", "manual": 5, "name": "Z\u00fcrcher Kantonalbank", "provider": "publibike", "timeStamp": "02/10/2020, 19:27:57", "zip": 8001}, "type": "Feature"}, {"geometry": {"coordinates": [8.5348427, 47.3625938], "type": "Point"}, "properties": {"address": "Breitingerstrasse 5", "electric": 1, "id": "pb_101", "manual": 1, "name": "Rentenanstalt", "provider": "publibike", "timeStamp": "02/10/2020, 19:27:57", "zip": 8002}, "type": "Feature"}, {"geometry": {"coordinates": [8.5166922, 47.3897772], "type": "Point"}, "properties": {"address": "Technoparkstrasse 4", "electric": 1, "id": "pb_102", "manual": 8, "name": "Turbinenplatz", "provider": "publibike", "timeStamp": "02/10/2020, 19:27:57", "zip": 8005}, "type": "Feature"}, {"geometry": {"coordinates": [8.539312, 47.3739964], "type": "Point"}, "properties": {"address": "Oetenbachgasse 14", "electric": 0, "id": "pb_104", "manual": 7, "name": "Rennweg", "provider": "publibike", "timeStamp": "02/10/2020, 19:27:57", "zip": 8001}, "type": "Feature"}, {"geometry": {"coordinates": [8.5360685, 47.3775022], "type": "Point"}, "properties": {"address": "Kasernenstrasse 101", "electric": 1, "id": "pb_105", "manual": 34, "name": "Sihlpost", "provider": "publibike", "timeStamp": "02/10/2020, 19:27:57", "zip": 8004}, "type": "Feature"}, {"geometry": {"coordinates": [8.53545, 47.382798], "type": "Point"}, "properties": {"address": "Ausstellungsstrasse 44", "electric": 6, "id": "pb_106", "manual": 11, "name": "Museum f\u00fcr Gestaltung", "provider": "publibike", "timeStamp": "02/10/2020, 19:27:57", "zip": 8005}, "type": "Feature"}, {"geometry": {"coordinates": [8.5306155, 47.3647902], "type": "Point"}, "properties": {"address": "Gutenbergstrasse 1", "electric": 6, "id": "pb_107", "manual": 8, "name": "Bederbr\u00fccke", "provider": "publibike", "timeStamp": "02/10/2020, 19:27:57", "zip": 8002}, "type": "Feature"}, {"geometry": {"coordinates": [8.518982, 47.386741], "type": "Point"}, "properties": {"address": "Geroldstrasse 4", "electric": 0, "id": "pb_108", "manual": 7, "name": "Bahnhof Hardbr\u00fccke", "provider": "publibike", "timeStamp": "02/10/2020, 19:27:57", "zip": 8005}, "type": "Feature"}, {"geometry": {"coordinates": [8.53001018, 47.37247535], "type": "Point"}, "properties": {"address": "Werdstrasse 21", "electric": 0, "id": "pb_109", "manual": 0, "name": "Tamedia", "provider": "publibike", "timeStamp": "02/10/2020, 19:27:57", "zip": 8004}, "type": "Feature"}, {"geometry": {"coordinates": [8.4860017, 47.396401], "type": "Point"}, "properties": {"address": "Gr\u00fcnauring 37", "electric": 7, "id": "pb_110", "manual": 2, "name": "Gr\u00fcnau", "provider": "publibike", "timeStamp": "02/10/2020, 19:27:57", "zip": 8064}, "type": "Feature"}, {"geometry": {"coordinates": [8.548519, 47.376756], "type": "Point"}, "properties": {"address": "R\u00e4mistrasse 101", "electric": 0, "id": "pb_111", "manual": 1, "name": "ETH Zentrum", "provider": "publibike", "timeStamp": "02/10/2020, 19:27:57", "zip": 8006}, "type": "Feature"}, {"geometry": {"coordinates": [8.520449, 47.388151], "type": "Point"}, "properties": {"address": "Josefstrasse 224", "electric": 0, "id": "pb_112", "manual": 0, "name": "Steinfelsareal", "provider": "publibike", "timeStamp": "02/10/2020, 19:27:57", "zip": 8005}, "type": "Feature"}, {"geometry": {"coordinates": [8.520482, 47.37209], "type": "Point"}, "properties": {"address": "Weststrasse 115", "electric": 2, "id": "pb_124", "manual": 4, "name": "Weststrasse", "provider": "publibike", "timeStamp": "02/10/2020, 19:27:57", "zip": 8003}, "type": "Feature"}, {"geometry": {"coordinates": [8.496727, 47.378521], "type": "Point"}, "properties": {"address": "Albisriederstrasse 200", "electric": 3, "id": "pb_125", "manual": 3, "name": "Utogrund", "provider": "publibike", "timeStamp": "02/10/2020, 19:27:57", "zip": 8047}, "type": "Feature"}, {"geometry": {"coordinates": [8.510418, 47.381356], "type": "Point"}, "properties": {"address": "Bullingerstrasse 73", "electric": 2, "id": "pb_126", "manual": 4, "name": "Hardau", "provider": "publibike", "timeStamp": "02/10/2020, 19:27:57", "zip": 8004}, "type": "Feature"}, {"geometry": {"coordinates": [8.525525, 47.361567], "type": "Point"}, "properties": {"address": "Klopstockstrasse 23", "electric": 6, "id": "pb_127", "manual": 2, "name": "Klopstockwiese", "provider": "publibike", "timeStamp": "02/10/2020, 19:27:57", "zip": 8002}, "type": "Feature"}, {"geometry": {"coordinates": [8.518143, 47.363148], "type": "Point"}, "properties": {"address": "Haldenstrasse 8", "electric": 6, "id": "pb_128", "manual": 4, "name": "Binz", "provider": "publibike", "timeStamp": "02/10/2020, 19:27:57", "zip": 8045}, "type": "Feature"}, {"geometry": {"coordinates": [8.542726, 47.379952], "type": "Point"}, "properties": {"address": "Walchestrasse 11", "electric": 2, "id": "pb_129", "manual": 1, "name": "Stampfenbachplatz", "provider": "publibike", "timeStamp": "02/10/2020, 19:27:57", "zip": 8006}, "type": "Feature"}, {"geometry": {"coordinates": [8.488108, 47.391366], "type": "Point"}, "properties": {"address": "Altstetterplatz 1", "electric": 8, "id": "pb_130", "manual": 6, "name": "Bahnhof Altstetten", "provider": "publibike", "timeStamp": "02/10/2020, 19:27:57", "zip": 8048}, "type": "Feature"}, {"geometry": {"coordinates": [8.554114, 47.365119], "type": "Point"}, "properties": {"address": "Kreuzplatz 2", "electric": 1, "id": "pb_131", "manual": 2, "name": "Kreuzplatz", "provider": "publibike", "timeStamp": "02/10/2020, 19:27:57", "zip": 8032}, "type": "Feature"}, {"geometry": {"coordinates": [8.549852, 47.35594], "type": "Point"}, "properties": {"address": "H\u00f6schgasse 3", "electric": 4, "id": "pb_132", "manual": 6, "name": "Blatterwiese", "provider": "publibike", "timeStamp": "02/10/2020, 19:27:57", "zip": 8008}, "type": "Feature"}, {"geometry": {"coordinates": [8.554501, 47.36162], "type": "Point"}, "properties": {"address": "Feldeggstrasse 80", "electric": 7, "id": "pb_133", "manual": 2, "name": "Villa Bleuler", "provider": "publibike", "timeStamp": "02/10/2020, 19:27:57", "zip": 8008}, "type": "Feature"}, {"geometry": {"coordinates": [8.557088, 47.358557], "type": "Point"}, "properties": {"address": "M\u00fchlebachstrasse 131", "electric": 3, "id": "pb_134", "manual": 1, "name": "M\u00fchlebachstrasse", "provider": "publibike", "timeStamp": "02/10/2020, 19:27:57", "zip": 8008}, "type": "Feature"}, {"geometry": {"coordinates": [8.547639, 47.361266], "type": "Point"}, "properties": {"address": "Utoquai 50", "electric": 9, "id": "pb_135", "manual": 16, "name": "Seebad Utoquai", "provider": "publibike", "timeStamp": "02/10/2020, 19:27:57", "zip": 8008}, "type": "Feature"}, {"geometry": {"coordinates": [8.548045, 47.370869], "type": "Point"}, "properties": {"address": "Heimplatz 1", "electric": 2, "id": "pb_137", "manual": 2, "name": "Kunsthaus", "provider": "publibike", "timeStamp": "02/10/2020, 19:27:57", "zip": 8001}, "type": "Feature"}, {"geometry": {"coordinates": [8.543447, 47.375933], "type": "Point"}, "properties": {"address": "Limmatquai 138", "electric": 6, "id": "pb_138", "manual": 6, "name": "Central", "provider": "publibike", "timeStamp": "02/10/2020, 19:27:57", "zip": 8001}, "type": "Feature"}, {"geometry": {"coordinates": [8.549356, 47.408827], "type": "Point"}, "properties": {"address": "Tramstrasse 35", "electric": 0, "id": "pb_139", "manual": 1, "name": "ewz Tramstrasse", "provider": "publibike", "timeStamp": "02/10/2020, 19:27:57", "zip": 8050}, "type": "Feature"}, {"geometry": {"coordinates": [8.533736, 47.366904], "type": "Point"}, "properties": {"address": "Bleicherweg 33", "electric": 1, "id": "pb_140", "manual": 3, "name": "Bleicherweg", "provider": "publibike", "timeStamp": "02/10/2020, 19:27:57", "zip": 8002}, "type": "Feature"}, {"geometry": {"coordinates": [8.544935, 47.366752], "type": "Point"}, "properties": {"address": "Bellevueplatz 2", "electric": 25, "id": "pb_141", "manual": 24, "name": "Bellevue", "provider": "publibike", "timeStamp": "02/10/2020, 19:27:57", "zip": 8001}, "type": "Feature"}, {"geometry": {"coordinates": [8.5285533, 47.3742296], "type": "Point"}, "properties": {"address": "Stauffacherstrasse 41", "electric": 1, "id": "pb_142", "manual": 4, "name": "Stauffacher", "provider": "publibike", "timeStamp": "02/10/2020, 19:27:57", "zip": 8004}, "type": "Feature"}, {"geometry": {"coordinates": [8.523722, 47.3899], "type": "Point"}, "properties": {"address": "Limmatstrasse 310", "electric": 1, "id": "pb_143", "manual": 6, "name": "Escher-Wyss-Platz", "provider": "publibike", "timeStamp": "02/10/2020, 19:27:57", "zip": 8005}, "type": "Feature"}, {"geometry": {"coordinates": [8.491061, 47.392336], "type": "Point"}, "properties": {"address": "Vulkanplatz 1", "electric": 6, "id": "pb_149", "manual": 3, "name": "Vulkanplatz", "provider": "publibike", "timeStamp": "02/10/2020, 19:27:57", "zip": 8048}, "type": "Feature"}, {"geometry": {"coordinates": [8.52306, 47.359872], "type": "Point"}, "properties": {"address": "Giessh\u00fcbelstrasse 15", "electric": 8, "id": "pb_150", "manual": 1, "name": "Utoplatz", "provider": "publibike", "timeStamp": "02/10/2020, 19:27:57", "zip": 8045}, "type": "Feature"}, {"geometry": {"coordinates": [8.486284, 47.387685], "type": "Point"}, "properties": {"address": "Lindenplatz 1", "electric": 6, "id": "pb_151", "manual": 6, "name": "Lindenplatz", "provider": "publibike", "timeStamp": "02/10/2020, 19:27:57", "zip": 8048}, "type": "Feature"}, {"geometry": {"coordinates": [8.49163, 47.389823], "type": "Point"}, "properties": {"address": "Hohlstrasse 563", "electric": 3, "id": "pb_152", "manual": 1, "name": "Luggweg", "provider": "publibike", "timeStamp": "02/10/2020, 19:27:57", "zip": 8048}, "type": "Feature"}, {"geometry": {"coordinates": [8.52174, 47.365272], "type": "Point"}, "properties": {"address": "Manessestrasse 87", "electric": 7, "id": "pb_153", "manual": 5, "name": "Manesseplatz", "provider": "publibike", "timeStamp": "02/10/2020, 19:27:57", "zip": 8045}, "type": "Feature"}, {"geometry": {"coordinates": [8.52714, 47.372329], "type": "Point"}, "properties": {"address": "Werdstrasse 75", "electric": 0, "id": "pb_154", "manual": 2, "name": "Werd", "provider": "publibike", "timeStamp": "02/10/2020, 19:27:57", "zip": 8004}, "type": "Feature"}, {"geometry": {"coordinates": [8.543042, 47.374711], "type": "Point"}, "properties": {"address": "Limmatquai 100", "electric": 0, "id": "pb_155", "manual": 0, "name": "Rudolf-Brun-Br\u00fccke", "provider": "publibike", "timeStamp": "02/10/2020, 19:27:57", "zip": 8001}, "type": "Feature"}, {"geometry": {"coordinates": [8.490837, 47.386596], "type": "Point"}, "properties": {"address": "Badenerstrasse 627", "electric": 6, "id": "pb_156", "manual": 0, "name": "Luggwegstrasse VBZ", "provider": "publibike", "timeStamp": "02/10/2020, 19:27:57", "zip": 8048}, "type": "Feature"}, {"geometry": {"coordinates": [8.535119, 47.355189], "type": "Point"}, "properties": {"address": "Mythenquai 95", "electric": 3, "id": "pb_157", "manual": 5, "name": "Strandbad Mythenquai", "provider": "publibike", "timeStamp": "02/10/2020, 19:27:57", "zip": 8002}, "type": "Feature"}, {"geometry": {"coordinates": [8.545505, 47.373675], "type": "Point"}, "properties": {"address": "Predigerpatz 21", "electric": 10, "id": "pb_158", "manual": 7, "name": "Predigerplatz", "provider": "publibike", "timeStamp": "02/10/2020, 19:27:57", "zip": 8001}, "type": "Feature"}, {"geometry": {"coordinates": [8.515558, 47.371868], "type": "Point"}, "properties": {"address": "Aemtlerstrasse 23", "electric": 3, "id": "pb_159", "manual": 7, "name": "Zwinglihaus", "provider": "publibike", "timeStamp": "02/10/2020, 19:27:57", "zip": 8003}, "type": "Feature"}, {"geometry": {"coordinates": [8.524629, 47.386072], "type": "Point"}, "properties": {"address": "Josefstrasse 188", "electric": 0, "id": "pb_160", "manual": 2, "name": "Josefwiese", "provider": "publibike", "timeStamp": "02/10/2020, 19:27:57", "zip": 8005}, "type": "Feature"}, {"geometry": {"coordinates": [8.527138, 47.387531], "type": "Point"}, "properties": {"address": "R\u00f6ntgenstrasse 87", "electric": 0, "id": "pb_164", "manual": 3, "name": "Markthalle", "provider": "publibike", "timeStamp": "02/10/2020, 19:27:57", "zip": 8005}, "type": "Feature"}, {"geometry": {"coordinates": [8.552717, 47.359978], "type": "Point"}, "properties": {"address": "Seefeldstrasse 96", "electric": 6, "id": "pb_263", "manual": 9, "name": "Feldeggstrasse", "provider": "publibike", "timeStamp": "02/10/2020, 19:27:57", "zip": 8008}, "type": "Feature"}, {"geometry": {"coordinates": [8.553189, 47.353198], "type": "Point"}, "properties": {"address": "Bellerivestrasse 170", "electric": 5, "id": "pb_264", "manual": 0, "name": "Lake Side", "provider": "publibike", "timeStamp": "02/10/2020, 19:27:57", "zip": 8008}, "type": "Feature"}, {"geometry": {"coordinates": [8.543437, 47.369256], "type": "Point"}, "properties": {"address": "Limmatquai 18", "electric": 0, "id": "pb_265", "manual": 0, "name": "Helmhaus", "provider": "publibike", "timeStamp": "02/10/2020, 19:27:57", "zip": 8032}, "type": "Feature"}, {"geometry": {"coordinates": [8.516676, 47.375819], "type": "Point"}, "properties": {"address": "Badenerstrasse 246", "electric": 8, "id": "pb_266", "manual": 3, "name": "Lochergut", "provider": "publibike", "timeStamp": "02/10/2020, 19:27:57", "zip": 8004}, "type": "Feature"}, {"geometry": {"coordinates": [8.514605, 47.389862], "type": "Point"}, "properties": {"address": "Pfingstweidstrasse 60", "electric": 0, "id": "pb_273", "manual": 0, "name": "Westpark", "provider": "publibike", "timeStamp": "02/10/2020, 19:27:57", "zip": 8005}, "type": "Feature"}, {"geometry": {"coordinates": [8.541239126, 47.375991201], "type": "Point"}, "properties": {"address": "Beatenplatz 1", "electric": 4, "id": "pb_274", "manual": 3, "name": "Beatenplatz", "provider": "publibike", "timeStamp": "02/10/2020, 19:27:57", "zip": 8001}, "type": "Feature"}, {"geometry": {"coordinates": [8.5417135, 47.3942197], "type": "Point"}, "properties": {"address": "Scheuchzerstrasse 181", "electric": 6, "id": "pb_275", "manual": 2, "name": "Pauluskirche", "provider": "publibike", "timeStamp": "02/10/2020, 19:27:57", "zip": 8057}, "type": "Feature"}, {"geometry": {"coordinates": [8.5528182, 47.414558], "type": "Point"}, "properties": {"address": "Hagenholzstrasse 51", "electric": 3, "id": "pb_276", "manual": 4, "name": "Airgate", "provider": "publibike", "timeStamp": "02/10/2020, 19:27:57", "zip": 8050}, "type": "Feature"}, {"geometry": {"coordinates": [8.537816, 47.413514], "type": "Point"}, "properties": {"address": "Birchstrasse 183", "electric": 7, "id": "pb_277", "manual": 1, "name": "Lamprechtweg", "provider": "publibike", "timeStamp": "02/10/2020, 19:27:57", "zip": 8050}, "type": "Feature"}, {"geometry": {"coordinates": [8.545602, 47.417701], "type": "Point"}, "properties": {"address": "Felsenrainstrasse 2", "electric": 8, "id": "pb_278", "manual": 4, "name": "Emil-Oberh\u00e4nsli", "provider": "publibike", "timeStamp": "02/10/2020, 19:27:57", "zip": 8050}, "type": "Feature"}, {"geometry": {"coordinates": [8.533647, 47.39808], "type": "Point"}, "properties": {"address": "Bucheggplatz 2", "electric": 4, "id": "pb_279", "manual": 4, "name": "Bucheggplatz", "provider": "publibike", "timeStamp": "02/10/2020, 19:27:57", "zip": 8057}, "type": "Feature"}, {"geometry": {"coordinates": [8.523549, 47.392347], "type": "Point"}, "properties": {"address": "Wipkingerplatz 4", "electric": 6, "id": "pb_280", "manual": 4, "name": "Wipkingerplatz", "provider": "publibike", "timeStamp": "02/10/2020, 19:27:57", "zip": 8037}, "type": "Feature"}, {"geometry": {"coordinates": [8.548562, 47.36691], "type": "Point"}, "properties": {"address": "Galerie \u00fcber Gleis 2/3", "electric": 12, "id": "pb_285", "manual": 6, "name": "Bahnhof Stadelhofen", "provider": "publibike", "timeStamp": "02/10/2020, 19:27:57", "zip": 8001}, "type": "Feature"}, {"geometry": {"coordinates": [8.493822, 47.3985553], "type": "Point"}, "properties": {"address": "Meierwiesenstrasse 12-4", "electric": 3, "id": "pb_286", "manual": 3, "name": "T\u00fcffenwies", "provider": "publibike", "timeStamp": "02/10/2020, 19:27:57", "zip": 8064}, "type": "Feature"}, {"geometry": {"coordinates": [8.552432, 47.3801757], "type": "Point"}, "properties": {"address": "Hochstrasse 34", "electric": 3, "id": "pb_356", "manual": 0, "name": "Siriuswiese", "provider": "publibike", "timeStamp": "02/10/2020, 19:27:57", "zip": 8044}, "type": "Feature"}, {"geometry": {"coordinates": [8.527298, 47.370141], "type": "Point"}, "properties": {"address": "Hallwylstrasse 71", "electric": 3, "id": "pb_357", "manual": 8, "name": "Hallwylstrasse", "provider": "publibike", "timeStamp": "02/10/2020, 19:27:57", "zip": 8004}, "type": "Feature"}, {"geometry": {"coordinates": [8.5414185, 47.3972455], "type": "Point"}, "properties": {"address": "Schaffhauserstrasse 137", "electric": 3, "id": "pb_358", "manual": 0, "name": "Milchbuck", "provider": "publibike", "timeStamp": "02/10/2020, 19:27:57", "zip": 8057}, "type": "Feature"}, {"geometry": {"coordinates": [8.512381, 47.393409], "type": "Point"}, "properties": {"address": "Hardturmstrasse 161", "electric": 2, "id": "pb_359", "manual": 2, "name": "Fischerweg", "provider": "publibike", "timeStamp": "02/10/2020, 19:27:57", "zip": 8005}, "type": "Feature"}, {"geometry": {"coordinates": [8.5421457, 47.3876979], "type": "Point"}, "properties": {"address": "Turnerstrasse 47", "electric": 0, "id": "pb_360", "manual": 0, "name": "Kirche Unterstrass", "provider": "publibike", "timeStamp": "02/10/2020, 19:27:57", "zip": 8006}, "type": "Feature"}, {"geometry": {"coordinates": [8.522117, 47.394554], "type": "Point"}, "properties": {"address": "Dorfstrasse 40", "electric": 6, "id": "pb_361", "manual": 3, "name": "Dorfstrasse", "provider": "publibike", "timeStamp": "02/10/2020, 19:27:57", "zip": 8037}, "type": "Feature"}, {"geometry": {"coordinates": [8.530437, 47.37271], "type": "Point"}, "properties": {"address": "Werdstrasse 25", "electric": 2, "id": "pb_362", "manual": 2, "name": "Stauffachertor", "provider": "publibike", "timeStamp": "02/10/2020, 19:27:57", "zip": 8004}, "type": "Feature"}, {"geometry": {"coordinates": [8.541712, 47.416155], "type": "Point"}, "properties": {"address": "Eggb\u00fchlstrasse 21", "electric": 14, "id": "pb_363", "manual": 1, "name": "Wahlenpark", "provider": "publibike", "timeStamp": "02/10/2020, 19:27:57", "zip": 8050}, "type": "Feature"}, {"geometry": {"coordinates": [8.5595335, 47.3708387], "type": "Point"}, "properties": {"address": "Dolderstrasse 32", "electric": 2, "id": "pb_364", "manual": 0, "name": "Kinderspital", "provider": "publibike", "timeStamp": "02/10/2020, 19:27:57", "zip": 8032}, "type": "Feature"}, {"geometry": {"coordinates": [8.536433, 47.388689], "type": "Point"}, "properties": {"address": "Kornhausstrasse 30", "electric": 2, "id": "pb_365", "manual": 1, "name": "Kornhausstrasse", "provider": "publibike", "timeStamp": "02/10/2020, 19:27:57", "zip": 8006}, "type": "Feature"}, {"geometry": {"coordinates": [8.55033, 47.407098], "type": "Point"}, "properties": {"address": "Schwamendingenstrasse 41", "electric": 7, "id": "pb_366", "manual": 8, "name": "Dorflinde", "provider": "publibike", "timeStamp": "02/10/2020, 19:27:57", "zip": 8050}, "type": "Feature"}, {"geometry": {"coordinates": [8.560476, 47.368199], "type": "Point"}, "properties": {"address": "R\u00f6merhofplatz 5", "electric": 10, "id": "pb_367", "manual": 0, "name": "R\u00f6merhof", "provider": "publibike", "timeStamp": "02/10/2020, 19:27:57", "zip": 8032}, "type": "Feature"}, {"geometry": {"coordinates": [8.5609218, 47.3619068], "type": "Point"}, "properties": {"address": "Forchstrasse 99", "electric": 2, "id": "pb_368", "manual": 4, "name": "Hegibachplatz", "provider": "publibike", "timeStamp": "02/10/2020, 19:27:57", "zip": 8032}, "type": "Feature"}, {"geometry": {"coordinates": [8.5721264, 47.4039985], "type": "Point"}, "properties": {"address": "Winterthurerstrasse 519", "electric": 11, "id": "pb_370", "manual": 6, "name": "Schwamendingerplatz", "provider": "publibike", "timeStamp": "02/10/2020, 19:27:57", "zip": 8051}, "type": "Feature"}, {"geometry": {"coordinates": [8.520168, 47.378556], "type": "Point"}, "properties": {"address": "Herman-Greulich-Strasse 56", "electric": 1, "id": "pb_384", "manual": 7, "name": "Hermann-Greulich-Weg", "provider": "publibike", "timeStamp": "02/10/2020, 19:27:57", "zip": 8004}, "type": "Feature"}, {"geometry": {"coordinates": [8.547912, 47.384923], "type": "Point"}, "properties": {"address": "Culmannstrasse", "electric": 0, "id": "pb_386", "manual": 7, "name": "Rigiplatz", "provider": "publibike", "timeStamp": "02/10/2020, 19:27:57", "zip": 8006}, "type": "Feature"}, {"geometry": {"coordinates": [8.543768, 47.411057], "type": "Point"}, "properties": {"address": "Hofwiesenstrasse 369", "electric": 1, "id": "pb_387", "manual": 8, "name": "Bahnhof Oerlikon S\u00fcd", "provider": "publibike", "timeStamp": "02/10/2020, 19:27:57", "zip": 8050}, "type": "Feature"}, {"geometry": {"coordinates": [8.544185, 47.412732], "type": "Point"}, "properties": {"address": "Jungholzstrasse 6", "electric": 1, "id": "pb_388", "manual": 0, "name": "Max-Frisch-Platz", "provider": "publibike", "timeStamp": "02/10/2020, 19:27:57", "zip": 8050}, "type": "Feature"}, {"geometry": {"coordinates": [8.558096, 47.413032], "type": "Point"}, "properties": {"address": "Andreasstrasse", "electric": 8, "id": "pb_389", "manual": 3, "name": "Hunziker-Areal", "provider": "publibike", "timeStamp": "02/10/2020, 19:27:57", "zip": 8050}, "type": "Feature"}, {"geometry": {"coordinates": [8.533265, 47.412873], "type": "Point"}, "properties": {"address": "Regina-K\u00e4gi-Strasse 1", "electric": 5, "id": "pb_390", "manual": 4, "name": "Luis-H\u00e4fliger-Park", "provider": "publibike", "timeStamp": "02/10/2020, 19:27:57", "zip": 8050}, "type": "Feature"}, {"geometry": {"coordinates": [8.499265, 47.401852], "type": "Point"}, "properties": {"address": "Limmattalstrasse 177", "electric": 4, "id": "pb_391", "manual": 2, "name": "Meierhofplatz", "provider": "publibike", "timeStamp": "02/10/2020, 19:27:57", "zip": 8049}, "type": "Feature"}, {"geometry": {"coordinates": [8.528356, 47.393255], "type": "Point"}, "properties": {"address": "R\u00f6schibachstrasse 73", "electric": 21, "id": "pb_392", "manual": 9, "name": "R\u00f6schibachplatz", "provider": "publibike", "timeStamp": "02/10/2020, 19:27:57", "zip": 8037}, "type": "Feature"}, {"geometry": {"coordinates": [8.538067, 47.415721], "type": "Point"}, "properties": {"address": "Birchstrasse 191", "electric": 9, "id": "pb_393", "manual": 3, "name": "Oerliker Park", "provider": "publibike", "timeStamp": "02/10/2020, 19:27:57", "zip": 8050}, "type": "Feature"}, {"geometry": {"coordinates": [8.5420304, 47.3669233], "type": "Point"}, "properties": {"address": "Stadthausquai 1", "electric": 2, "id": "pb_395", "manual": 5, "name": "B\u00fcrkliplatz", "provider": "publibike", "timeStamp": "02/10/2020, 19:27:57", "zip": 8001}, "type": "Feature"}, {"geometry": {"coordinates": [8.535767, 47.409881], "type": "Point"}, "properties": {"address": "Regensbergstrasse 195", "electric": 1, "id": "pb_396", "manual": 1, "name": "Holunderhof", "provider": "publibike", "timeStamp": "02/10/2020, 19:27:57", "zip": 8050}, "type": "Feature"}, {"geometry": {"coordinates": [8.5116245, 47.3616199], "type": "Point"}, "properties": {"address": "Grubenstrasse 42", "electric": 1, "id": "pb_431", "manual": 0, "name": "Binz Center", "provider": "publibike", "timeStamp": "02/10/2020, 19:27:57", "zip": 8045}, "type": "Feature"}, {"geometry": {"coordinates": [8.547195, 47.382089], "type": "Point"}, "properties": {"address": "Nelkenstrasse 24", "electric": 3, "id": "pb_430", "manual": 3, "name": "Stapferstube", "provider": "publibike", "timeStamp": "02/10/2020, 19:27:57", "zip": 8006}, "type": "Feature"}, {"geometry": {"coordinates": [8.5787183, 47.4039845], "type": "Point"}, "properties": {"address": "Kronwiesenstrasse 35", "electric": 3, "id": "pb_426", "manual": 3, "name": "Kronwiesen", "provider": "publibike", "timeStamp": "02/10/2020, 19:27:57", "zip": 8051}, "type": "Feature"}, {"geometry": {"coordinates": [8.508131, 47.420757], "type": "Point"}, "properties": {"address": "Riedenhaldenstrasse 20-18", "electric": 10, "id": "pb_425", "manual": 2, "name": "Bahnhof Affoltern", "provider": "publibike", "timeStamp": "02/10/2020, 19:27:57", "zip": 8046}, "type": "Feature"}, {"geometry": {"coordinates": [8.532464, 47.406988], "type": "Point"}, "properties": {"address": "K\u00fcnzlistrasse 41", "electric": 5, "id": "pb_424", "manual": 1, "name": "Birchd\u00f6rfli", "provider": "publibike", "timeStamp": "02/10/2020, 19:27:57", "zip": 8057}, "type": "Feature"}, {"geometry": {"coordinates": [8.5777038, 47.4080095], "type": "Point"}, "properties": {"address": "Luegislandstrasse 412", "electric": 5, "id": "pb_429", "manual": 2, "name": "Luegisland", "provider": "publibike", "timeStamp": "02/10/2020, 19:27:57", "zip": 8051}, "type": "Feature"}, {"geometry": {"coordinates": [8.58841, 47.40158], "type": "Point"}, "properties": {"address": "Hirzenbachstrasse 2-4", "electric": 5, "id": "pb_428", "manual": 2, "name": "Hirzenbachstrasse", "provider": "publibike", "timeStamp": "02/10/2020, 19:27:57", "zip": 8051}, "type": "Feature"}, {"geometry": {"coordinates": [8.5563463, 47.4095467], "type": "Point"}, "properties": {"address": "K\u00fchriedweg", "electric": 4, "id": "pb_445", "manual": 10, "name": "Hallenbad Oerlikon", "provider": "publibike", "timeStamp": "02/10/2020, 19:27:57", "zip": 8050}, "type": "Feature"}, {"geometry": {"coordinates": [8.537971, 47.364871], "type": "Point"}, "properties": {"address": "General-Guisan-Quai 17", "electric": 1, "id": "pb_454", "manual": 2, "name": "General-Guisan-Quai", "provider": "publibike", "timeStamp": "02/10/2020, 19:27:57", "zip": 8002}, "type": "Feature"}, {"geometry": {"coordinates": [8.560587, 47.350578], "type": "Point"}, "properties": {"address": "Bellerivestrasse 245", "electric": 9, "id": "pb_450", "manual": 7, "name": "Bahnhof Tiefenbrunnen", "provider": "publibike", "timeStamp": "02/10/2020, 19:27:57", "zip": 8008}, "type": "Feature"}, {"geometry": {"coordinates": [8.5269416, 47.3563719], "type": "Point"}, "properties": {"address": "Waffenplatzstrasse 89", "electric": 6, "id": "pb_452", "manual": 8, "name": "Rieterplatz", "provider": "publibike", "timeStamp": "02/10/2020, 19:27:57", "zip": 8002}, "type": "Feature"}, {"geometry": {"coordinates": [8.514176, 47.3663708], "type": "Point"}, "properties": {"address": "Talwiesenstrasse 92", "electric": 4, "id": "pb_446", "manual": 3, "name": "Binzallee", "provider": "publibike", "timeStamp": "02/10/2020, 19:27:57", "zip": 8055}, "type": "Feature"}, {"geometry": {"coordinates": [8.5070564, 47.371455], "type": "Point"}, "properties": {"address": "Gutstrasse 87", "electric": 4, "id": "pb_447", "manual": 0, "name": "Gutstrasse", "provider": "publibike", "timeStamp": "02/10/2020, 19:27:57", "zip": 8055}, "type": "Feature"}, {"geometry": {"coordinates": [8.4941268, 47.3836391], "type": "Point"}, "properties": {"address": "Flurstrasse 62", "electric": 1, "id": "pb_453", "manual": 1, "name": "Flurpark", "provider": "publibike", "timeStamp": "02/10/2020, 19:27:57", "zip": 8048}, "type": "Feature"}, {"geometry": {"coordinates": [8.500343, 47.380778], "type": "Point"}, "properties": {"address": "Edelweissstrasse 32", "electric": 7, "id": "pb_448", "manual": 5, "name": "Bl\u00fcemliquartier", "provider": "publibike", "timeStamp": "02/10/2020, 19:27:57", "zip": 8048}, "type": "Feature"}, {"geometry": {"coordinates": [8.528796, 47.383858], "type": "Point"}, "properties": {"address": "Gasometerstrasse 24", "electric": 1, "id": "pb_449", "manual": 2, "name": "Gasometerstrasse", "provider": "publibike", "timeStamp": "02/10/2020, 19:27:57", "zip": 8005}, "type": "Feature"}, {"geometry": {"coordinates": [8.4981964, 47.3859194], "type": "Point"}, "properties": {"address": "Baslerstrasse 57", "electric": 11, "id": "pb_455", "manual": 7, "name": "Letzipark", "provider": "publibike", "timeStamp": "02/10/2020, 19:27:57", "zip": 8048}, "type": "Feature"}, {"geometry": {"coordinates": [8.515252, 47.381915], "type": "Point"}, "properties": {"address": "Sihlfeldstrasse 175", "electric": 1, "id": "pb_451", "manual": 2, "name": "Hardplatz", "provider": "publibike", "timeStamp": "02/10/2020, 19:27:57", "zip": 8004}, "type": "Feature"}, {"geometry": {"coordinates": [8.5064743, 47.4188324], "type": "Point"}, "properties": {"address": "Wehntalerstrasse 541", "electric": 4, "id": "pb_427", "manual": 10, "name": "Zehntenhausplatz", "provider": "publibike", "timeStamp": "02/10/2020, 19:27:57", "zip": 8046}, "type": "Feature"}, {"geometry": {"coordinates": [8.537729, 47.379719], "type": "Point"}, "properties": {"address": "Sihlquai/HB", "electric": 4, "id": "pb_513", "manual": 9, "name": "Sihlquai", "provider": "publibike", "timeStamp": "02/10/2020, 19:27:57", "zip": 8005}, "type": "Feature"}, {"geometry": {"coordinates": [8.596202, 47.397885], "type": "Point"}, "properties": {"address": "Bahnhof Stettbach", "electric": 0, "id": "pb_514", "manual": 3, "name": "Bahnhof Stettbach", "provider": "publibike", "timeStamp": "02/10/2020, 19:27:57", "zip": 8051}, "type": "Feature"}, {"geometry": {"coordinates": [8.5543974, 47.3690153], "type": "Point"}, "properties": {"address": "Kasinostrasse 10", "electric": 1, "id": "pb_515", "manual": 0, "name": "Hottingerplatz", "provider": "publibike", "timeStamp": "02/10/2020, 19:27:57", "zip": 8032}, "type": "Feature"}, {"geometry": {"coordinates": [8.534444, 47.351525], "type": "Point"}, "properties": {"address": "Mobile Station Z\u00fcrich 1", "electric": 0, "id": "pb_282", "manual": 0, "name": "Theaterspektakel", "provider": "publibike", "timeStamp": "02/10/2020, 19:27:57", "zip": 8002}, "type": "Feature"}, {"geometry": {"coordinates": [8.516257, 47.367656], "type": "Point"}, "properties": {"address": "Goldbrunnenstrasse 54", "electric": 4, "id": "pb_538", "manual": 3, "name": "Kirche B\u00fchl", "provider": "publibike", "timeStamp": "02/10/2020, 19:27:57", "zip": 8055}, "type": "Feature"}, {"geometry": {"coordinates": [8.555639, 47.416873], "type": "Point"}, "properties": {"address": "Leutschenbachstrasse 50", "electric": 2, "id": "pb_537", "manual": 5, "name": "Leutschenpark", "provider": "publibike", "timeStamp": "02/10/2020, 19:27:57", "zip": 8050}, "type": "Feature"}, {"geometry": {"coordinates": [8.546464, 47.403822], "type": "Point"}, "properties": {"address": "Berninastrasse 45", "electric": 1, "id": "pb_540", "manual": 1, "name": "Berninaplatz", "provider": "publibike", "timeStamp": "02/10/2020, 19:27:57", "zip": 8057}, "type": "Feature"}, {"geometry": {"coordinates": [8.523134, 47.369004], "type": "Point"}, "properties": {"address": "Erlachstrasse 3", "electric": 3, "id": "pb_385", "manual": 11, "name": "Aegerten", "provider": "publibike", "timeStamp": "02/10/2020, 19:27:57", "zip": 8003}, "type": "Feature"}, {"geometry": {"coordinates": [8.49038, 47.381591], "type": "Point"}, "properties": {"address": "Rautistrasse 60", "electric": 15, "id": "pb_536", "manual": 4, "name": "Freilager", "provider": "publibike", "timeStamp": "02/10/2020, 19:27:57", "zip": 8048}, "type": "Feature"}, {"geometry": {"coordinates": [8.496511, 47.375247], "type": "Point"}, "properties": {"address": "Letzigraben 139", "electric": 4, "id": "pb_444", "manual": 4, "name": "Sackzelg", "provider": "publibike", "timeStamp": "02/10/2020, 19:27:57", "zip": 8047}, "type": "Feature"}, {"geometry": {"coordinates": [8.58131, 47.402801], "type": "Point"}, "properties": {"address": "Altwiesenstrasse 104", "electric": 2, "id": "pb_539", "manual": 2, "name": "Glattwiesen", "provider": "publibike", "timeStamp": "02/10/2020, 19:27:57", "zip": 8051}, "type": "Feature"}, {"geometry": {"coordinates": [8.52689, 47.3767], "type": "Point"}, "properties": {"address": "Molkenstrasse 5", "electric": 1, "id": "pb_560", "manual": 2, "name": "Helvetiaplatz", "provider": "publibike", "timeStamp": "02/10/2020, 19:27:57", "zip": 8004}, "type": "Feature"}, {"geometry": {"coordinates": [8.525602, 47.374241], "type": "Point"}, "properties": {"address": "Badenerstrasse 90", "electric": 5, "id": "pb_559", "manual": 4, "name": "Bezirksgeb\u00e4ude", "provider": "publibike", "timeStamp": "02/10/2020, 19:27:57", "zip": 8004}, "type": "Feature"}, {"geometry": {"coordinates": [8.535082, 47.345248], "type": "Point"}, "properties": {"address": "Bachstrasse 15", "electric": 2, "id": "pb_564", "manual": 5, "name": "GZ Wollishofen", "provider": "publibike", "timeStamp": "02/10/2020, 19:27:57", "zip": 8038}, "type": "Feature"}, {"geometry": {"coordinates": [8.514841, 47.370238], "type": "Point"}, "properties": {"address": "Schrennengasse 37", "electric": 1, "id": "pb_562", "manual": 1, "name": "Goldbrunnenplatz", "provider": "publibike", "timeStamp": "02/10/2020, 19:27:57", "zip": 8003}, "type": "Feature"}, {"geometry": {"coordinates": [8.514138, 47.374206], "type": "Point"}, "properties": {"address": "Idaplatz 4", "electric": 4, "id": "pb_557", "manual": 9, "name": "Idaplatz", "provider": "publibike", "timeStamp": "02/10/2020, 19:27:57", "zip": 8003}, "type": "Feature"}, {"geometry": {"coordinates": [8.518432, 47.369549], "type": "Point"}, "properties": {"address": "Brinerstrasse 2", "electric": 1, "id": "pb_558", "manual": 6, "name": "Schmiede Wiedikon", "provider": "publibike", "timeStamp": "02/10/2020, 19:27:57", "zip": 8003}, "type": "Feature"}, {"geometry": {"coordinates": [8.537546, 47.391289], "type": "Point"}, "properties": {"address": "Rotbuchstrasse 15", "electric": 0, "id": "pb_556", "manual": 1, "name": "Schaffhauserplatz", "provider": "publibike", "timeStamp": "02/10/2020, 19:27:57", "zip": 8006}, "type": "Feature"}, {"geometry": {"coordinates": [8.541541, 47.413733], "type": "Point"}, "properties": {"address": "Therese-Giehse-Strasse 11", "electric": 4, "id": "pb_561", "manual": 0, "name": "Center Eleven", "provider": "publibike", "timeStamp": "02/10/2020, 19:27:57", "zip": 8050}, "type": "Feature"}, {"geometry": {"coordinates": [8.534227, 47.360004], "type": "Point"}, "properties": {"address": "Alfred Escher-Strasse 76", "electric": 0, "id": "pb_563", "manual": 0, "name": "Mythenschloss", "provider": "publibike", "timeStamp": "02/10/2020, 19:27:57", "zip": 8002}, "type": "Feature"}, {"geometry": {"coordinates": [8.50373, 47.396172], "type": "Point"}, "properties": {"address": "Hardeggstrasse 6", "electric": 9, "id": "pb_566", "manual": 6, "name": "Am Wasser", "provider": "publibike", "timeStamp": "02/10/2020, 19:27:57", "zip": 8049}, "type": "Feature"}, {"geometry": {"coordinates": [8.532432, 47.381174], "type": "Point"}, "properties": {"address": "Klingenstrasse 9", "electric": 2, "id": "pb_565", "manual": 4, "name": "Zollstrasse", "provider": "publibike", "timeStamp": "02/10/2020, 19:27:57", "zip": 8005}, "type": "Feature"}, {"geometry": {"coordinates": [8.497982, 47.381447], "type": "Point"}, "properties": {"address": "Dennlerstrasse 23", "electric": 4, "id": "pb_567", "manual": 3, "name": "Dennlerstrasse", "provider": "publibike", "timeStamp": "02/10/2020, 19:27:57", "zip": 8047}, "type": "Feature"}, {"geometry": {"coordinates": [8.528049, 47.347701], "type": "Point"}, "properties": {"address": "Mutschellenstrasse 114", "electric": 9, "id": "pb_568", "manual": 2, "name": "Jugendherberge", "provider": "publibike", "timeStamp": "02/10/2020, 19:27:57", "zip": 8038}, "type": "Feature"}, {"geometry": {"coordinates": [8.539016, 47.405751], "type": "Point"}, "properties": {"address": "Ringstrasse 82", "electric": 2, "id": "pb_569", "manual": 4, "name": "Freibad Allenmoos", "provider": "publibike", "timeStamp": "02/10/2020, 19:27:57", "zip": 8057}, "type": "Feature"}, {"geometry": {"coordinates": [8.534974, 47.402164], "type": "Point"}, "properties": {"address": "Brache Guggach", "electric": 3, "id": "pb_572", "manual": 3, "name": "Radiostudio", "provider": "publibike", "timeStamp": "02/10/2020, 19:27:57", "zip": 8057}, "type": "Feature"}, {"geometry": {"coordinates": [8.547901, 47.375556], "type": "Point"}, "properties": {"address": "Karl-Schmid-Strasse 4", "electric": 0, "id": "pb_571", "manual": 0, "name": "ETH/Zoologisches Museum", "provider": "publibike", "timeStamp": "02/10/2020, 19:27:57", "zip": 8006}, "type": "Feature"}, {"geometry": {"coordinates": [8.562988, 47.382488], "type": "Point"}, "properties": {"charge": 64, "id": "smide_2901", "name": "ZH 267278", "provider": "smide", "range": 32.0, "size": 20, "time": "02/10/2020, 19:29:30"}, "type": "Feature"}, {"geometry": {"coordinates": [8.501533, 47.424733], "type": "Point"}, "properties": {"charge": 57, "id": "smide_2895", "name": "ZH 267279", "provider": "smide", "range": 28.0, "size": 20, "time": "02/10/2020, 19:29:30"}, "type": "Feature"}, {"geometry": {"coordinates": [8.546541, 47.409278], "type": "Point"}, "properties": {"charge": 67, "id": "smide_2880", "name": "ZH267289", "provider": "smide", "range": 33.0, "size": 17, "time": "02/10/2020, 19:29:30"}, "type": "Feature"}, {"geometry": {"coordinates": [8.521395, 47.35985], "type": "Point"}, "properties": {"charge": 99, "id": "smide_2874", "name": "ZH 267288", "provider": "smide", "range": 49.0, "size": 17, "time": "02/10/2020, 19:29:30"}, "type": "Feature"}, {"geometry": {"coordinates": [8.558503, 47.356988], "type": "Point"}, "properties": {"charge": 100, "id": "smide_2871", "name": "ZH 267086", "provider": "smide", "range": 50.0, "size": 20, "time": "02/10/2020, 19:29:30"}, "type": "Feature"}, {"geometry": {"coordinates": [8.51574, 47.428763], "type": "Point"}, "properties": {"charge": 30, "id": "smide_2867", "name": "ZH 267090", "provider": "smide", "range": 15.0, "size": 20, "time": "02/10/2020, 19:29:30"}, "type": "Feature"}, {"geometry": {"coordinates": [8.512858, 47.381473], "type": "Point"}, "properties": {"charge": 64, "id": "smide_2861", "name": "ZH 267096", "provider": "smide", "range": 32.0, "size": 17, "time": "02/10/2020, 19:29:30"}, "type": "Feature"}, {"geometry": {"coordinates": [8.55402, 47.36911], "type": "Point"}, "properties": {"charge": 90, "id": "smide_2859", "name": "ZH 267098", "provider": "smide", "range": 45.0, "size": 17, "time": "02/10/2020, 19:29:30"}, "type": "Feature"}, {"geometry": {"coordinates": [8.542763, 47.372465], "type": "Point"}, "properties": {"charge": 55, "id": "smide_2856", "name": "ZH 267101", "provider": "smide", "range": 27.0, "size": 17, "time": "02/10/2020, 19:29:30"}, "type": "Feature"}, {"geometry": {"coordinates": [8.524173, 47.39822], "type": "Point"}, "properties": {"charge": 63, "id": "smide_2855", "name": "ZH 267102", "provider": "smide", "range": 31.0, "size": 17, "time": "02/10/2020, 19:29:30"}, "type": "Feature"}, {"geometry": {"coordinates": [8.517101, 47.361345], "type": "Point"}, "properties": {"charge": 86, "id": "smide_2854", "name": "ZH 267103", "provider": "smide", "range": 43.0, "size": 17, "time": "02/10/2020, 19:29:30"}, "type": "Feature"}, {"geometry": {"coordinates": [8.555635, 47.384423], "type": "Point"}, "properties": {"charge": 95, "id": "smide_2833", "name": "ZH 267182", "provider": "smide", "range": 47.0, "size": 20, "time": "02/10/2020, 19:29:30"}, "type": "Feature"}, {"geometry": {"coordinates": [8.558468, 47.371173], "type": "Point"}, "properties": {"charge": 21, "id": "smide_2831", "name": "ZH 267180", "provider": "smide", "range": 10.0, "size": 20, "time": "02/10/2020, 19:29:30"}, "type": "Feature"}, {"geometry": {"coordinates": [8.574241, 47.348248], "type": "Point"}, "properties": {"charge": 60, "id": "smide_2804", "name": "ZH266903", "provider": "smide", "range": 30.0, "size": 20, "time": "02/10/2020, 19:29:30"}, "type": "Feature"}, {"geometry": {"coordinates": [8.494536, 47.368131], "type": "Point"}, "properties": {"charge": 100, "id": "smide_2793", "name": "ZH266883", "provider": "smide", "range": 50.0, "size": 17, "time": "02/10/2020, 19:29:30"}, "type": "Feature"}, {"geometry": {"coordinates": [8.533171, 47.397671], "type": "Point"}, "properties": {"charge": 94, "id": "smide_2790", "name": "ZH266880", "provider": "smide", "range": 47.0, "size": 17, "time": "02/10/2020, 19:29:30"}, "type": "Feature"}, {"geometry": {"coordinates": [8.5463, 47.398313], "type": "Point"}, "properties": {"charge": 86, "id": "smide_2785", "name": "ZH266875", "provider": "smide", "range": 43.0, "size": 17, "time": "02/10/2020, 19:29:30"}, "type": "Feature"}, {"geometry": {"coordinates": [8.539081, 47.375726], "type": "Point"}, "properties": {"charge": 95, "id": "smide_2780", "name": "ST1 X #1", "provider": "smide", "range": 47.0, "size": 17, "time": "02/10/2020, 19:29:30"}, "type": "Feature"}, {"geometry": {"coordinates": [8.498693, 47.38786], "type": "Point"}, "properties": {"charge": 35, "id": "smide_2773", "name": "ZH266561", "provider": "smide", "range": 17.0, "size": 17, "time": "02/10/2020, 19:29:30"}, "type": "Feature"}, {"geometry": {"coordinates": [8.503872, 47.399144], "type": "Point"}, "properties": {"charge": 18, "id": "smide_2771", "name": "ZH266559", "provider": "smide", "range": 9.0, "size": 17, "time": "02/10/2020, 19:29:30"}, "type": "Feature"}, {"geometry": {"coordinates": [8.545812, 47.378152], "type": "Point"}, "properties": {"charge": 63, "id": "smide_2763", "name": "ZH266641", "provider": "smide", "range": 31.0, "size": 17, "time": "02/10/2020, 19:29:30"}, "type": "Feature"}, {"geometry": {"coordinates": [8.55568, 47.384343], "type": "Point"}, "properties": {"charge": 90, "id": "smide_2761", "name": "ZH266642", "provider": "smide", "range": 45.0, "size": 20, "time": "02/10/2020, 19:29:30"}, "type": "Feature"}, {"geometry": {"coordinates": [8.54413, 47.378944], "type": "Point"}, "properties": {"charge": 71, "id": "smide_2759", "name": "ZH266639", "provider": "smide", "range": 35.0, "size": 17, "time": "02/10/2020, 19:29:30"}, "type": "Feature"}, {"geometry": {"coordinates": [8.574214, 47.348252], "type": "Point"}, "properties": {"charge": 100, "id": "smide_2758", "name": "ZH266638 M", "provider": "smide", "range": 50.0, "size": 17, "time": "02/10/2020, 19:29:30"}, "type": "Feature"}, {"geometry": {"coordinates": [8.55096, 47.359572], "type": "Point"}, "properties": {"charge": 36, "id": "smide_2752", "name": "BE343856", "provider": "smide", "range": 18.0, "size": 17, "time": "02/10/2020, 19:29:30"}, "type": "Feature"}, {"geometry": {"coordinates": [8.503796, 47.396472], "type": "Point"}, "properties": {"charge": 100, "id": "smide_2751", "name": "BE343857", "provider": "smide", "range": 50.0, "size": 17, "time": "02/10/2020, 19:29:30"}, "type": "Feature"}, {"geometry": {"coordinates": [8.513027, 47.366268], "type": "Point"}, "properties": {"charge": 92, "id": "smide_2749", "name": "BE343867", "provider": "smide", "range": 46.0, "size": 17, "time": "02/10/2020, 19:29:30"}, "type": "Feature"}, {"geometry": {"coordinates": [8.475247, 47.38552], "type": "Point"}, "properties": {"charge": 58, "id": "smide_2748", "name": "BE335758", "provider": "smide", "range": 28.0, "size": 17, "time": "02/10/2020, 19:29:30"}, "type": "Feature"}, {"geometry": {"coordinates": [8.568207, 47.382204], "type": "Point"}, "properties": {"charge": 44, "id": "smide_2746", "name": "BE335817", "provider": "smide", "range": 22.0, "size": 17, "time": "02/10/2020, 19:29:30"}, "type": "Feature"}, {"geometry": {"coordinates": [8.494463, 47.38682], "type": "Point"}, "properties": {"charge": 41, "id": "smide_2747", "name": "BE335820", "provider": "smide", "range": 20.0, "size": 17, "time": "02/10/2020, 19:29:30"}, "type": "Feature"}, {"geometry": {"coordinates": [8.524478, 47.363052], "type": "Point"}, "properties": {"charge": 59, "id": "smide_2745", "name": "BE335818", "provider": "smide", "range": 29.0, "size": 17, "time": "02/10/2020, 19:29:30"}, "type": "Feature"}, {"geometry": {"coordinates": [8.488918, 47.391204], "type": "Point"}, "properties": {"charge": 38, "id": "smide_2743", "name": "BE343864", "provider": "smide", "range": 19.0, "size": 17, "time": "02/10/2020, 19:29:30"}, "type": "Feature"}, {"geometry": {"coordinates": [8.572536, 47.380784], "type": "Point"}, "properties": {"charge": 79, "id": "smide_2742", "name": "BE343866", "provider": "smide", "range": 39.0, "size": 17, "time": "02/10/2020, 19:29:30"}, "type": "Feature"}, {"geometry": {"coordinates": [8.571885, 47.381916], "type": "Point"}, "properties": {"charge": 58, "id": "smide_2741", "name": "BE343874", "provider": "smide", "range": 28.0, "size": 17, "time": "02/10/2020, 19:29:30"}, "type": "Feature"}, {"geometry": {"coordinates": [8.530203, 47.338536], "type": "Point"}, "properties": {"charge": 100, "id": "smide_2740", "name": "BE343875", "provider": "smide", "range": 50.0, "size": 17, "time": "02/10/2020, 19:29:30"}, "type": "Feature"}, {"geometry": {"coordinates": [8.564195, 47.360096], "type": "Point"}, "properties": {"charge": 53, "id": "smide_2738", "name": "BE343865", "provider": "smide", "range": 26.0, "size": 17, "time": "02/10/2020, 19:29:30"}, "type": "Feature"}, {"geometry": {"coordinates": [8.540116, 47.379036], "type": "Point"}, "properties": {"charge": 57, "id": "smide_2737", "name": "BE336149", "provider": "smide", "range": 28.0, "size": 17, "time": "02/10/2020, 19:29:30"}, "type": "Feature"}, {"geometry": {"coordinates": [8.535531, 47.378276], "type": "Point"}, "properties": {"charge": 84, "id": "smide_2736", "name": "BE346639", "provider": "smide", "range": 42.0, "size": 17, "time": "02/10/2020, 19:29:30"}, "type": "Feature"}, {"geometry": {"coordinates": [8.507624, 47.382396], "type": "Point"}, "properties": {"charge": 50, "id": "smide_2734", "name": "BE343876", "provider": "smide", "range": 25.0, "size": 17, "time": "02/10/2020, 19:29:30"}, "type": "Feature"}, {"geometry": {"coordinates": [8.57648, 47.35118], "type": "Point"}, "properties": {"charge": 76, "id": "smide_2729", "name": "BE343878", "provider": "smide", "range": 38.0, "size": 17, "time": "02/10/2020, 19:29:30"}, "type": "Feature"}, {"geometry": {"coordinates": [8.544711, 47.374831], "type": "Point"}, "properties": {"charge": 30, "id": "smide_2725", "name": "ZH261545", "provider": "smide", "range": 15.0, "size": 0, "time": "02/10/2020, 19:29:30"}, "type": "Feature"}, {"geometry": {"coordinates": [8.537278, 47.368688], "type": "Point"}, "properties": {"charge": 100, "id": "smide_2718", "name": "ZH259019", "provider": "smide", "range": 50.0, "size": 20, "time": "02/10/2020, 19:29:30"}, "type": "Feature"}, {"geometry": {"coordinates": [8.512948, 47.366352], "type": "Point"}, "properties": {"charge": 98, "id": "smide_2717", "name": "ZH263287", "provider": "smide", "range": 49.0, "size": 17, "time": "02/10/2020, 19:29:30"}, "type": "Feature"}, {"geometry": {"coordinates": [8.543356, 47.391186], "type": "Point"}, "properties": {"charge": 84, "id": "smide_2716", "name": "ZH254606", "provider": "smide", "range": 42.0, "size": 17, "time": "02/10/2020, 19:29:30"}, "type": "Feature"}, {"geometry": {"coordinates": [8.520329, 47.369748], "type": "Point"}, "properties": {"charge": 81, "id": "smide_2715", "name": "ZH254605", "provider": "smide", "range": 40.0, "size": 17, "time": "02/10/2020, 19:29:30"}, "type": "Feature"}, {"geometry": {"coordinates": [8.500991, 47.36862], "type": "Point"}, "properties": {"charge": 100, "id": "smide_2714", "name": "ZH256461", "provider": "smide", "range": 50.0, "size": 17, "time": "02/10/2020, 19:29:30"}, "type": "Feature"}, {"geometry": {"coordinates": [8.514333, 47.386728], "type": "Point"}, "properties": {"charge": 55, "id": "smide_2710", "name": "ZH256460", "provider": "smide", "range": 27.0, "size": 17, "time": "02/10/2020, 19:29:30"}, "type": "Feature"}, {"geometry": {"coordinates": [8.556111, 47.38624], "type": "Point"}, "properties": {"charge": 24, "id": "smide_2712", "name": "ZH256462", "provider": "smide", "range": 12.0, "size": 17, "time": "02/10/2020, 19:29:30"}, "type": "Feature"}, {"geometry": {"coordinates": [8.564494, 47.371676], "type": "Point"}, "properties": {"charge": 37, "id": "smide_2711", "name": "ZH256463", "provider": "smide", "range": 18.0, "size": 17, "time": "02/10/2020, 19:29:30"}, "type": "Feature"}, {"geometry": {"coordinates": [8.56422, 47.363595], "type": "Point"}, "properties": {"charge": 75, "id": "smide_2709", "name": "ZH256466", "provider": "smide", "range": 37.0, "size": 20, "time": "02/10/2020, 19:29:30"}, "type": "Feature"}, {"geometry": {"coordinates": [8.567152, 47.362288], "type": "Point"}, "properties": {"charge": 72, "id": "smide_2707", "name": "ZH256467", "provider": "smide", "range": 36.0, "size": 20, "time": "02/10/2020, 19:29:30"}, "type": "Feature"}, {"geometry": {"coordinates": [8.487387, 47.367488], "type": "Point"}, "properties": {"charge": 80, "id": "smide_2708", "name": "ZH256464", "provider": "smide", "range": 40.0, "size": 17, "time": "02/10/2020, 19:29:30"}, "type": "Feature"}, {"geometry": {"coordinates": [8.525441, 47.38976], "type": "Point"}, "properties": {"charge": 93, "id": "smide_2699", "name": "ZH254611", "provider": "smide", "range": 46.0, "size": 20, "time": "02/10/2020, 19:29:30"}, "type": "Feature"}, {"geometry": {"coordinates": [8.540042, 47.378992], "type": "Point"}, "properties": {"charge": 99, "id": "smide_2697", "name": "ZH254629", "provider": "smide", "range": 49.0, "size": 20, "time": "02/10/2020, 19:29:30"}, "type": "Feature"}, {"geometry": {"coordinates": [8.576337, 47.35124], "type": "Point"}, "properties": {"charge": 32, "id": "smide_2694", "name": "ZH254610", "provider": "smide", "range": 16.0, "size": 20, "time": "02/10/2020, 19:29:30"}, "type": "Feature"}, {"geometry": {"coordinates": [8.572568, 47.380851], "type": "Point"}, "properties": {"charge": 100, "id": "smide_2691", "name": "ZH254622", "provider": "smide", "range": 50.0, "size": 20, "time": "02/10/2020, 19:29:30"}, "type": "Feature"}, {"geometry": {"coordinates": [8.535816, 47.399823], "type": "Point"}, "properties": {"charge": 76, "id": "smide_2690", "name": "ZH254625", "provider": "smide", "range": 38.0, "size": 20, "time": "02/10/2020, 19:29:30"}, "type": "Feature"}, {"geometry": {"coordinates": [8.527164, 47.386668], "type": "Point"}, "properties": {"charge": 90, "id": "smide_2689", "name": "ZH254623", "provider": "smide", "range": 45.0, "size": 20, "time": "02/10/2020, 19:29:30"}, "type": "Feature"}, {"geometry": {"coordinates": [8.532022, 47.38082], "type": "Point"}, "properties": {"charge": 100, "id": "smide_2687", "name": "ZH263529", "provider": "smide", "range": 50.0, "size": 20, "time": "02/10/2020, 19:29:30"}, "type": "Feature"}, {"geometry": {"coordinates": [8.550049, 47.39258], "type": "Point"}, "properties": {"charge": 61, "id": "smide_2686", "name": "ZH263288", "provider": "smide", "range": 30.0, "size": 20, "time": "02/10/2020, 19:29:30"}, "type": "Feature"}, {"geometry": {"coordinates": [8.569105, 47.373648], "type": "Point"}, "properties": {"charge": 95, "id": "smide_2684", "name": "ZH254626", "provider": "smide", "range": 47.0, "size": 20, "time": "02/10/2020, 19:29:30"}, "type": "Feature"}, {"geometry": {"coordinates": [8.521948, 47.359361], "type": "Point"}, "properties": {"charge": 93, "id": "smide_2683", "name": "ZH254620", "provider": "smide", "range": 46.0, "size": 20, "time": "02/10/2020, 19:29:30"}, "type": "Feature"}, {"geometry": {"coordinates": [8.564494, 47.363476], "type": "Point"}, "properties": {"charge": 99, "id": "smide_2680", "name": "ZH254619", "provider": "smide", "range": 49.0, "size": 20, "time": "02/10/2020, 19:29:30"}, "type": "Feature"}, {"geometry": {"coordinates": [8.570819, 47.357016], "type": "Point"}, "properties": {"charge": 90, "id": "smide_2679", "name": "ZH258489", "provider": "smide", "range": 45.0, "size": 17, "time": "02/10/2020, 19:29:30"}, "type": "Feature"}, {"geometry": {"coordinates": [8.514973, 47.367964], "type": "Point"}, "properties": {"charge": 58, "id": "smide_2677", "name": "ZH258487", "provider": "smide", "range": 28.0, "size": 17, "time": "02/10/2020, 19:29:30"}, "type": "Feature"}, {"geometry": {"coordinates": [8.560882, 47.384204], "type": "Point"}, "properties": {"charge": 100, "id": "smide_2674", "name": "ZH258654", "provider": "smide", "range": 50.0, "size": 17, "time": "02/10/2020, 19:29:30"}, "type": "Feature"}, {"geometry": {"coordinates": [8.539535, 47.399724], "type": "Point"}, "properties": {"charge": 77, "id": "smide_2671", "name": "ZH258645", "provider": "smide", "range": 38.0, "size": 17, "time": "02/10/2020, 19:29:30"}, "type": "Feature"}, {"geometry": {"coordinates": [8.555847, 47.410644], "type": "Point"}, "properties": {"charge": 49, "id": "smide_2669", "name": "ZH263294", "provider": "smide", "range": 24.0, "size": 17, "time": "02/10/2020, 19:29:30"}, "type": "Feature"}, {"geometry": {"coordinates": [8.514953, 47.368644], "type": "Point"}, "properties": {"charge": 94, "id": "smide_2666", "name": "ZH258653", "provider": "smide", "range": 47.0, "size": 17, "time": "02/10/2020, 19:29:30"}, "type": "Feature"}, {"geometry": {"coordinates": [8.572839, 47.352908], "type": "Point"}, "properties": {"charge": 100, "id": "smide_2665", "name": "ZH258644", "provider": "smide", "range": 50.0, "size": 17, "time": "02/10/2020, 19:29:30"}, "type": "Feature"}, {"geometry": {"coordinates": [8.517122, 47.384992], "type": "Point"}, "properties": {"charge": 63, "id": "smide_2663", "name": "ZH258649", "provider": "smide", "range": 31.0, "size": 17, "time": "02/10/2020, 19:29:30"}, "type": "Feature"}, {"geometry": {"coordinates": [8.52897, 47.383064], "type": "Point"}, "properties": {"charge": 100, "id": "smide_2662", "name": "ZH258643", "provider": "smide", "range": 50.0, "size": 17, "time": "02/10/2020, 19:29:30"}, "type": "Feature"}, {"geometry": {"coordinates": [8.553946, 47.3747], "type": "Point"}, "properties": {"charge": 91, "id": "smide_2660", "name": "ZH258647", "provider": "smide", "range": 45.0, "size": 17, "time": "02/10/2020, 19:29:30"}, "type": "Feature"}, {"geometry": {"coordinates": [8.544641, 47.366544], "type": "Point"}, "properties": {"charge": 75, "id": "smide_2648", "name": "ZH257930", "provider": "smide", "range": 37.0, "size": 20, "time": "02/10/2020, 19:29:30"}, "type": "Feature"}, {"geometry": {"coordinates": [8.557682, 47.406812], "type": "Point"}, "properties": {"charge": 70, "id": "smide_2647", "name": "ZH257932", "provider": "smide", "range": 35.0, "size": 20, "time": "02/10/2020, 19:29:30"}, "type": "Feature"}, {"geometry": {"coordinates": [8.531958, 47.371888], "type": "Point"}, "properties": {"charge": 91, "id": "smide_2645", "name": "ZH257933", "provider": "smide", "range": 45.0, "size": 20, "time": "02/10/2020, 19:29:30"}, "type": "Feature"}, {"geometry": {"coordinates": [8.547731, 47.37442], "type": "Point"}, "properties": {"charge": 20, "id": "smide_3", "name": "ZH253765", "provider": "smide", "range": 10.0, "size": 20, "time": "02/10/2020, 19:29:30"}, "type": "Feature"}, {"geometry": {"coordinates": [8.552715, 47.413151], "type": "Point"}, "properties": {"charge": 91, "id": "smide_105", "name": "ZH253804", "provider": "smide", "range": 45.0, "size": 17, "time": "02/10/2020, 19:29:30"}, "type": "Feature"}, {"geometry": {"coordinates": [8.52599, 47.387904], "type": "Point"}, "properties": {"charge": 42, "id": "smide_186", "name": "ZH253751", "provider": "smide", "range": 21.0, "size": 20, "time": "02/10/2020, 19:29:30"}, "type": "Feature"}, {"geometry": {"coordinates": [8.559233, 47.405968], "type": "Point"}, "properties": {"charge": 98, "id": "smide_77", "name": "ZH261548", "provider": "smide", "range": 49.0, "size": 20, "time": "02/10/2020, 19:29:30"}, "type": "Feature"}, {"geometry": {"coordinates": [8.500608, 47.369768], "type": "Point"}, "properties": {"charge": 100, "id": "smide_197", "name": "ZH253864", "provider": "smide", "range": 50.0, "size": 20, "time": "02/10/2020, 19:29:30"}, "type": "Feature"}, {"geometry": {"coordinates": [8.531276, 47.372271], "type": "Point"}, "properties": {"charge": 93, "id": "smide_199", "name": "ZH253766", "provider": "smide", "range": 46.0, "size": 20, "time": "02/10/2020, 19:29:30"}, "type": "Feature"}, {"geometry": {"coordinates": [8.535986, 47.37738], "type": "Point"}, "properties": {"charge": 100, "id": "smide_8", "name": "ZH253861", "provider": "smide", "range": 50.0, "size": 17, "time": "02/10/2020, 19:29:30"}, "type": "Feature"}, {"geometry": {"coordinates": [8.55466, 47.363624], "type": "Point"}, "properties": {"charge": 78, "id": "smide_188", "name": "ZH261543", "provider": "smide", "range": 39.0, "size": 20, "time": "02/10/2020, 19:29:30"}, "type": "Feature"}, {"geometry": {"coordinates": [8.553606, 47.35766], "type": "Point"}, "properties": {"charge": 42, "id": "smide_71", "name": "ZH253742", "provider": "smide", "range": 21.0, "size": 20, "time": "02/10/2020, 19:29:30"}, "type": "Feature"}, {"geometry": {"coordinates": [8.49684, 47.368432], "type": "Point"}, "properties": {"charge": 75, "id": "smide_101", "name": "ZH253814", "provider": "smide", "range": 37.0, "size": 17, "time": "02/10/2020, 19:29:30"}, "type": "Feature"}, {"geometry": {"coordinates": [8.514307, 47.386964], "type": "Point"}, "properties": {"charge": 74, "id": "smide_9", "name": "ZH253796", "provider": "smide", "range": 37.0, "size": 17, "time": "02/10/2020, 19:29:30"}, "type": "Feature"}, {"geometry": {"coordinates": [8.563102, 47.382584], "type": "Point"}, "properties": {"charge": 60, "id": "smide_143", "name": "ZH253778", "provider": "smide", "range": 30.0, "size": 17, "time": "02/10/2020, 19:29:30"}, "type": "Feature"}, {"geometry": {"coordinates": [8.576383, 47.351221], "type": "Point"}, "properties": {"charge": 79, "id": "smide_180", "name": "ZH253824", "provider": "smide", "range": 39.0, "size": 20, "time": "02/10/2020, 19:29:30"}, "type": "Feature"}, {"geometry": {"coordinates": [8.53222, 47.364732], "type": "Point"}, "properties": {"charge": 19, "id": "smide_20", "name": "ZH253770", "provider": "smide", "range": 9.0, "size": 20, "time": "02/10/2020, 19:29:30"}, "type": "Feature"}, {"geometry": {"coordinates": [8.489605, 47.392504], "type": "Point"}, "properties": {"charge": 62, "id": "smide_50", "name": "ZH253853", "provider": "smide", "range": 31.0, "size": 17, "time": "02/10/2020, 19:29:30"}, "type": "Feature"}, {"geometry": {"coordinates": [8.536046, 47.378248], "type": "Point"}, "properties": {"charge": 60, "id": "smide_30", "name": "ZH253813", "provider": "smide", "range": 30.0, "size": 20, "time": "02/10/2020, 19:29:30"}, "type": "Feature"}, {"geometry": {"coordinates": [8.55765, 47.412416], "type": "Point"}, "properties": {"charge": 64, "id": "smide_10", "name": "ZH253855", "provider": "smide", "range": 32.0, "size": 17, "time": "02/10/2020, 19:29:30"}, "type": "Feature"}, {"geometry": {"coordinates": [8.507488, 47.398452], "type": "Point"}, "properties": {"charge": 38, "id": "smide_179", "name": "ZH253687", "provider": "smide", "range": 19.0, "size": 20, "time": "02/10/2020, 19:29:30"}, "type": "Feature"}, {"geometry": {"coordinates": [8.563075, 47.372112], "type": "Point"}, "properties": {"charge": 22, "id": "smide_84", "name": "ZH253733", "provider": "smide", "range": 11.0, "size": 17, "time": "02/10/2020, 19:29:30"}, "type": "Feature"}, {"geometry": {"coordinates": [8.499113, 47.401784], "type": "Point"}, "properties": {"charge": 91, "id": "smide_35", "name": "ZH253755", "provider": "smide", "range": 45.0, "size": 20, "time": "02/10/2020, 19:29:30"}, "type": "Feature"}, {"geometry": {"coordinates": [8.545494, 47.379092], "type": "Point"}, "properties": {"charge": 28, "id": "smide_119", "name": "ZH253686", "provider": "smide", "range": 14.0, "size": 20, "time": "02/10/2020, 19:29:30"}, "type": "Feature"}, {"geometry": {"coordinates": [8.51678, 47.398332], "type": "Point"}, "properties": {"charge": 100, "id": "smide_76", "name": "ZH253764", "provider": "smide", "range": 50.0, "size": 17, "time": "02/10/2020, 19:29:30"}, "type": "Feature"}, {"geometry": {"coordinates": [8.563374, 47.372688], "type": "Point"}, "properties": {"charge": 79, "id": "smide_129", "name": "ZH261378", "provider": "smide", "range": 39.0, "size": 17, "time": "02/10/2020, 19:29:30"}, "type": "Feature"}, {"geometry": {"coordinates": [8.566551, 47.3642], "type": "Point"}, "properties": {"charge": 83, "id": "smide_49", "name": "ZH253873", "provider": "smide", "range": 41.0, "size": 17, "time": "02/10/2020, 19:29:30"}, "type": "Feature"}, {"geometry": {"coordinates": [8.501521, 47.422572], "type": "Point"}, "properties": {"charge": 27, "id": "smide_37", "name": "ZH261377", "provider": "smide", "range": 13.0, "size": 20, "time": "02/10/2020, 19:29:30"}, "type": "Feature"}, {"geometry": {"coordinates": [8.517286, 47.362046], "type": "Point"}, "properties": {"charge": 90, "id": "smide_191", "name": "ZH253762", "provider": "smide", "range": 45.0, "size": 17, "time": "02/10/2020, 19:29:30"}, "type": "Feature"}, {"geometry": {"coordinates": [8.505365, 47.377698], "type": "Point"}, "properties": {"charge": 74, "id": "smide_202", "name": "ZH253830", "provider": "smide", "range": 37.0, "size": 17, "time": "02/10/2020, 19:29:30"}, "type": "Feature"}, {"geometry": {"coordinates": [8.554058, 47.374721], "type": "Point"}, "properties": {"charge": 71, "id": "smide_47", "name": "ZH253858", "provider": "smide", "range": 35.0, "size": 17, "time": "02/10/2020, 19:29:30"}, "type": "Feature"}, {"geometry": {"coordinates": [8.478389, 47.389608], "type": "Point"}, "properties": {"charge": 90, "id": "smide_66", "name": "ZH253818", "provider": "smide", "range": 45.0, "size": 20, "time": "02/10/2020, 19:29:30"}, "type": "Feature"}, {"geometry": {"coordinates": [8.496883, 47.362755], "type": "Point"}, "properties": {"charge": 92, "id": "smide_17", "name": "ZH253793", "provider": "smide", "range": 46.0, "size": 17, "time": "02/10/2020, 19:29:30"}, "type": "Feature"}, {"geometry": {"coordinates": [8.536283, 47.377746], "type": "Point"}, "properties": {"charge": 91, "id": "smide_145", "name": "ZH253780", "provider": "smide", "range": 45.0, "size": 20, "time": "02/10/2020, 19:29:30"}, "type": "Feature"}, {"geometry": {"coordinates": [8.545838, 47.410108], "type": "Point"}, "properties": {"charge": 52, "id": "smide_114", "name": "ZH253878", "provider": "smide", "range": 26.0, "size": 20, "time": "02/10/2020, 19:29:30"}, "type": "Feature"}, {"geometry": {"coordinates": [8.533202, 47.417148], "type": "Point"}, "properties": {"charge": 26, "id": "smide_203", "name": "ZH261547", "provider": "smide", "range": 13.0, "size": 17, "time": "02/10/2020, 19:29:30"}, "type": "Feature"}, {"geometry": {"coordinates": [8.519546, 47.337228], "type": "Point"}, "properties": {"charge": 99, "id": "smide_21", "name": "ZH253841", "provider": "smide", "range": 49.0, "size": 17, "time": "02/10/2020, 19:29:30"}, "type": "Feature"}, {"geometry": {"coordinates": [8.476825, 47.387352], "type": "Point"}, "properties": {"charge": 93, "id": "smide_164", "name": "ZH253775", "provider": "smide", "range": 46.0, "size": 17, "time": "02/10/2020, 19:29:30"}, "type": "Feature"}, {"geometry": {"coordinates": [8.534241, 47.416756], "type": "Point"}, "properties": {"charge": 23, "id": "smide_189", "name": "ZH253845", "provider": "smide", "range": 11.0, "size": 20, "time": "02/10/2020, 19:29:30"}, "type": "Feature"}, {"geometry": {"coordinates": [8.502913, 47.380688], "type": "Point"}, "properties": {"charge": 84, "id": "smide_81", "name": "ZH253753", "provider": "smide", "range": 42.0, "size": 17, "time": "02/10/2020, 19:29:30"}, "type": "Feature"}, {"geometry": {"coordinates": [8.575768, 47.353128], "type": "Point"}, "properties": {"charge": 65, "id": "smide_171", "name": "ZH253689", "provider": "smide", "range": 32.0, "size": 20, "time": "02/10/2020, 19:29:30"}, "type": "Feature"}, {"geometry": {"coordinates": [8.502054, 47.369212], "type": "Point"}, "properties": {"charge": 98, "id": "smide_93", "name": "ZH253681", "provider": "smide", "range": 49.0, "size": 17, "time": "02/10/2020, 19:29:30"}, "type": "Feature"}, {"geometry": {"coordinates": [8.52214, 47.386304], "type": "Point"}, "properties": {"charge": 29, "id": "smide_67", "name": "ZH253779", "provider": "smide", "range": 14.0, "size": 17, "time": "02/10/2020, 19:29:30"}, "type": "Feature"}, {"geometry": {"coordinates": [8.546077, 47.366432], "type": "Point"}, "properties": {"charge": 100, "id": "smide_133", "name": "ZH253848", "provider": "smide", "range": 50.0, "size": 20, "time": "02/10/2020, 19:29:30"}, "type": "Feature"}, {"geometry": {"coordinates": [8.480981, 47.384548], "type": "Point"}, "properties": {"charge": 90, "id": "smide_118", "name": "ZH253759", "provider": "smide", "range": 45.0, "size": 20, "time": "02/10/2020, 19:29:30"}, "type": "Feature"}, {"geometry": {"coordinates": [8.535415, 47.40803], "type": "Point"}, "properties": {"charge": 89, "id": "smide_166", "name": "ZH253728", "provider": "smide", "range": 44.0, "size": 17, "time": "02/10/2020, 19:29:30"}, "type": "Feature"}, {"geometry": {"coordinates": [8.509419, 47.395216], "type": "Point"}, "properties": {"charge": 75, "id": "smide_126", "name": "ZH268400", "provider": "smide", "range": 37.0, "size": 17, "time": "02/10/2020, 19:29:30"}, "type": "Feature"}, {"geometry": {"coordinates": [8.52475, 47.341191], "type": "Point"}, "properties": {"charge": 100, "id": "smide_44", "name": "ZH253837", "provider": "smide", "range": 50.0, "size": 17, "time": "02/10/2020, 19:29:30"}, "type": "Feature"}, {"geometry": {"coordinates": [8.538462, 47.420044], "type": "Point"}, "properties": {"charge": 41, "id": "smide_154", "name": "ZH253744", "provider": "smide", "range": 20.0, "size": 20, "time": "02/10/2020, 19:29:30"}, "type": "Feature"}, {"geometry": {"coordinates": [8.530255, 47.383472], "type": "Point"}, "properties": {"charge": 100, "id": "smide_7", "name": "ZH256289", "provider": "smide", "range": 50.0, "size": 20, "time": "02/10/2020, 19:29:30"}, "type": "Feature"}, {"geometry": {"coordinates": [8.489495, 47.373904], "type": "Point"}, "properties": {"charge": 77, "id": "smide_92", "name": "ZH253798", "provider": "smide", "range": 38.0, "size": 17, "time": "02/10/2020, 19:29:30"}, "type": "Feature"}, {"geometry": {"coordinates": [8.553579, 47.3976], "type": "Point"}, "properties": {"charge": 55, "id": "smide_65", "name": "ZH253810", "provider": "smide", "range": 27.0, "size": 17, "time": "02/10/2020, 19:29:30"}, "type": "Feature"}, {"geometry": {"coordinates": [8.536127, 47.377484], "type": "Point"}, "properties": {"charge": 100, "id": "smide_111", "name": "ZH253763", "provider": "smide", "range": 50.0, "size": 17, "time": "02/10/2020, 19:29:30"}, "type": "Feature"}, {"geometry": {"coordinates": [8.57574, 47.348804], "type": "Point"}, "properties": {"charge": 26, "id": "smide_40", "name": "ZH253690", "provider": "smide", "range": 13.0, "size": 20, "time": "02/10/2020, 19:29:30"}, "type": "Feature"}, {"geometry": {"coordinates": [8.516254, 47.3815], "type": "Point"}, "properties": {"charge": 71, "id": "smide_1", "name": "ZH253776", "provider": "smide", "range": 35.0, "size": 17, "time": "02/10/2020, 19:29:30"}, "type": "Feature"}, {"geometry": {"coordinates": [8.51974, 47.340251], "type": "Point"}, "properties": {"charge": 84, "id": "smide_14", "name": "ZH253749", "provider": "smide", "range": 42.0, "size": 20, "time": "02/10/2020, 19:29:30"}, "type": "Feature"}, {"geometry": {"coordinates": [8.499713, 47.371176], "type": "Point"}, "properties": {"charge": 86, "id": "smide_130", "name": "ZH253847", "provider": "smide", "range": 43.0, "size": 20, "time": "02/10/2020, 19:29:30"}, "type": "Feature"}, {"geometry": {"coordinates": [8.522504, 47.357292], "type": "Point"}, "properties": {"charge": 80, "id": "smide_107", "name": "ZH253819", "provider": "smide", "range": 40.0, "size": 17, "time": "02/10/2020, 19:29:30"}, "type": "Feature"}, {"geometry": {"coordinates": [8.524948, 47.343648], "type": "Point"}, "properties": {"charge": 100, "id": "smide_136", "name": "ZH253682", "provider": "smide", "range": 50.0, "size": 17, "time": "02/10/2020, 19:29:30"}, "type": "Feature"}, {"geometry": {"coordinates": [8.582211, 47.351888], "type": "Point"}, "properties": {"charge": 76, "id": "smide_83", "name": "ZH253869", "provider": "smide", "range": 38.0, "size": 20, "time": "02/10/2020, 19:29:30"}, "type": "Feature"}, {"geometry": {"coordinates": [8.51728, 47.390732], "type": "Point"}, "properties": {"charge": 91, "id": "smide_205", "name": "ZH253805", "provider": "smide", "range": 45.0, "size": 17, "time": "02/10/2020, 19:29:30"}, "type": "Feature"}, {"geometry": {"coordinates": [8.486725, 47.388333], "type": "Point"}, "properties": {"charge": 26, "id": "smide_73", "name": "ZH261379", "provider": "smide", "range": 13.0, "size": 20, "time": "02/10/2020, 19:29:30"}, "type": "Feature"}, {"geometry": {"coordinates": [8.536323, 47.377896], "type": "Point"}, "properties": {"charge": 33, "id": "smide_100", "name": "ZH253862", "provider": "smide", "range": 16.0, "size": 20, "time": "02/10/2020, 19:29:30"}, "type": "Feature"}, {"geometry": {"coordinates": [8.501983, 47.37921], "type": "Point"}, "properties": {"charge": 65, "id": "smide_134", "name": "ZH253741", "provider": "smide", "range": 32.0, "size": 20, "time": "02/10/2020, 19:29:30"}, "type": "Feature"}, {"geometry": {"coordinates": [8.557788, 47.352745], "type": "Point"}, "properties": {"charge": 49, "id": "smide_141", "name": "ZH253800", "provider": "smide", "range": 24.0, "size": 20, "time": "02/10/2020, 19:29:30"}, "type": "Feature"}, {"geometry": {"coordinates": [8.572987, 47.351556], "type": "Point"}, "properties": {"charge": 64, "id": "smide_16", "name": "ZH253713", "provider": "smide", "range": 32.0, "size": 20, "time": "02/10/2020, 19:29:30"}, "type": "Feature"}, {"geometry": {"coordinates": [8.518603, 47.371532], "type": "Point"}, "properties": {"charge": 66, "id": "smide_74", "name": "ZH253693", "provider": "smide", "range": 33.0, "size": 20, "time": "02/10/2020, 19:29:30"}, "type": "Feature"}, {"geometry": {"coordinates": [8.560416, 47.35465], "type": "Point"}, "properties": {"charge": 80, "id": "smide_33", "name": "ZH253782", "provider": "smide", "range": 40.0, "size": 20, "time": "02/10/2020, 19:29:30"}, "type": "Feature"}, {"geometry": {"coordinates": [8.525181, 47.397878], "type": "Point"}, "properties": {"charge": 100, "id": "smide_183", "name": "ZH253868", "provider": "smide", "range": 50.0, "size": 17, "time": "02/10/2020, 19:29:30"}, "type": "Feature"}, {"geometry": {"coordinates": [8.54534, 47.370724], "type": "Point"}, "properties": {"charge": 44, "id": "smide_42", "name": "ZH253846", "provider": "smide", "range": 22.0, "size": 20, "time": "02/10/2020, 19:29:30"}, "type": "Feature"}, {"geometry": {"coordinates": [8.542008, 47.424528], "type": "Point"}, "properties": {"charge": 35, "id": "smide_4", "name": "ZH253740", "provider": "smide", "range": 17.0, "size": 20, "time": "02/10/2020, 19:29:30"}, "type": "Feature"}, {"geometry": {"coordinates": [8.496413, 47.392772], "type": "Point"}, "properties": {"charge": 95, "id": "smide_160", "name": "ZH253722", "provider": "smide", "range": 47.0, "size": 17, "time": "02/10/2020, 19:29:30"}, "type": "Feature"}, {"geometry": {"coordinates": [8.540828, 47.388351], "type": "Point"}, "properties": {"charge": 51, "id": "smide_137", "name": "ZH258502", "provider": "smide", "range": 25.0, "size": 17, "time": "02/10/2020, 19:29:30"}, "type": "Feature"}, {"geometry": {"coordinates": [8.523527, 47.377272], "type": "Point"}, "properties": {"charge": 100, "id": "smide_178", "name": "ZH253803", "provider": "smide", "range": 50.0, "size": 17, "time": "02/10/2020, 19:29:30"}, "type": "Feature"}, {"geometry": {"coordinates": [8.553615, 47.397621], "type": "Point"}, "properties": {"charge": 58, "id": "smide_55", "name": "ZH253875", "provider": "smide", "range": 28.0, "size": 17, "time": "02/10/2020, 19:29:30"}, "type": "Feature"}, {"geometry": {"coordinates": [8.554028, 47.357256], "type": "Point"}, "properties": {"charge": 72, "id": "smide_96", "name": "ZH256146", "provider": "smide", "range": 36.0, "size": 20, "time": "02/10/2020, 19:29:30"}, "type": "Feature"}, {"geometry": {"coordinates": [8.531713, 47.39568], "type": "Point"}, "properties": {"charge": 77, "id": "smide_58", "name": "ZH259246", "provider": "smide", "range": 38.0, "size": 20, "time": "02/10/2020, 19:29:30"}, "type": "Feature"}, {"geometry": {"coordinates": [8.474997, 47.38534], "type": "Point"}, "properties": {"charge": 91, "id": "smide_54", "name": "ZH253874", "provider": "smide", "range": 45.0, "size": 20, "time": "02/10/2020, 19:29:30"}, "type": "Feature"}, {"geometry": {"coordinates": [8.527938, 47.391528], "type": "Point"}, "properties": {"charge": 72, "id": "smide_175", "name": "ZH253730", "provider": "smide", "range": 36.0, "size": 17, "time": "02/10/2020, 19:29:30"}, "type": "Feature"}, {"geometry": {"coordinates": [8.539978, 47.379144], "type": "Point"}, "properties": {"charge": 100, "id": "smide_95", "name": "ZH253773", "provider": "smide", "range": 50.0, "size": 17, "time": "02/10/2020, 19:29:30"}, "type": "Feature"}, {"geometry": {"coordinates": [8.534477, 47.34446], "type": "Point"}, "properties": {"charge": 100, "id": "smide_163", "name": "ZH256147", "provider": "smide", "range": 50.0, "size": 20, "time": "02/10/2020, 19:29:30"}, "type": "Feature"}, {"geometry": {"coordinates": [8.528099, 47.413712], "type": "Point"}, "properties": {"charge": 60, "id": "smide_112", "name": "ZH263530", "provider": "smide", "range": 30.0, "size": 20, "time": "02/10/2020, 19:29:30"}, "type": "Feature"}, {"geometry": {"coordinates": [8.549566, 47.397232], "type": "Point"}, "properties": {"charge": 28, "id": "smide_122", "name": "ZH253850", "provider": "smide", "range": 14.0, "size": 20, "time": "02/10/2020, 19:29:30"}, "type": "Feature"}, {"geometry": {"coordinates": [8.559281, 47.414873], "type": "Point"}, "properties": {"charge": 32, "id": "smide_38", "name": "ZH253851", "provider": "smide", "range": 16.0, "size": 20, "time": "02/10/2020, 19:29:30"}, "type": "Feature"}, {"geometry": {"coordinates": [8.557739, 47.40444], "type": "Point"}, "properties": {"charge": 70, "id": "smide_6", "name": "ZH253787", "provider": "smide", "range": 35.0, "size": 17, "time": "02/10/2020, 19:29:30"}, "type": "Feature"}, {"geometry": {"coordinates": [8.551292, 47.38552], "type": "Point"}, "properties": {"charge": 60, "id": "smide_18", "name": "ZH253859", "provider": "smide", "range": 30.0, "size": 17, "time": "02/10/2020, 19:29:30"}, "type": "Feature"}, {"geometry": {"coordinates": [8.508712, 47.35272], "type": "Point"}, "properties": {"charge": 74, "id": "smide_12", "name": "ZH253685", "provider": "smide", "range": 37.0, "size": 17, "time": "02/10/2020, 19:29:30"}, "type": "Feature"}, {"geometry": {"coordinates": [8.50204, 47.368856], "type": "Point"}, "properties": {"charge": 31, "id": "smide_192", "name": "ZH253706", "provider": "smide", "range": 15.0, "size": 20, "time": "02/10/2020, 19:29:30"}, "type": "Feature"}, {"geometry": {"coordinates": [8.533202, 47.368164], "type": "Point"}, "properties": {"charge": 90, "id": "smide_39", "name": "ZH253714", "provider": "smide", "range": 45.0, "size": 20, "time": "02/10/2020, 19:29:30"}, "type": "Feature"}, {"geometry": {"coordinates": [8.508348, 47.421266], "type": "Point"}, "properties": {"charge": 27, "id": "smide_5", "name": "ZH261443", "provider": "smide", "range": 13.0, "size": 20, "time": "02/10/2020, 19:29:30"}, "type": "Feature"}, {"geometry": {"coordinates": [8.540345, 47.378584], "type": "Point"}, "properties": {"charge": 100, "id": "smide_29", "name": "ZH253723", "provider": "smide", "range": 50.0, "size": 17, "time": "02/10/2020, 19:29:30"}, "type": "Feature"}, {"geometry": {"coordinates": [8.560324, 47.405732], "type": "Point"}, "properties": {"charge": 40, "id": "smide_46", "name": "ZH253843", "provider": "smide", "range": 20.0, "size": 20, "time": "02/10/2020, 19:29:30"}, "type": "Feature"}, {"geometry": {"coordinates": [8.54626, 47.3738816666667], "type": "Point"}, "properties": {"charge": 29, "id": "bird_1408e760-1121-4612-a8cb-63f698054651", "provider": "bird", "timeStamp": "02/10/2020, 19:29:30"}, "type": "Feature"}, {"geometry": {"coordinates": [8.53315666666667, 47.39238], "type": "Point"}, "properties": {"charge": 57, "id": "bird_dd008e0e-b759-4bdb-b6c8-abcc8940fb65", "provider": "bird", "timeStamp": "02/10/2020, 19:29:30"}, "type": "Feature"}, {"geometry": {"coordinates": [8.53318166666667, 47.3923683333333], "type": "Point"}, "properties": {"charge": 60, "id": "bird_22b1885c-a5c9-4f97-9e8d-3403f5b46fc7", "provider": "bird", "timeStamp": "02/10/2020, 19:29:30"}, "type": "Feature"}, {"geometry": {"coordinates": [8.53324, 47.3923416666667], "type": "Point"}, "properties": {"charge": 60, "id": "bird_4b73f711-f572-474a-9248-2724ad71d6e6", "provider": "bird", "timeStamp": "02/10/2020, 19:29:30"}, "type": "Feature"}, {"geometry": {"coordinates": [8.53753166666667, 47.3913916666667], "type": "Point"}, "properties": {"charge": 55, "id": "bird_31f1bc28-5e1f-45bf-a9ce-3559436b1bab", "provider": "bird", "timeStamp": "02/10/2020, 19:29:30"}, "type": "Feature"}, {"geometry": {"coordinates": [8.51878333333333, 47.3701316666667], "type": "Point"}, "properties": {"charge": 98, "id": "bird_941229fb-56e3-41ed-8f4f-a4bc97cf087e", "provider": "bird", "timeStamp": "02/10/2020, 19:29:30"}, "type": "Feature"}, {"geometry": {"coordinates": [8.51925833333333, 47.369945], "type": "Point"}, "properties": {"charge": 97, "id": "bird_9706fda6-731c-4f6f-a3c2-f7946d4ad1be", "provider": "bird", "timeStamp": "02/10/2020, 19:29:30"}, "type": "Feature"}, {"geometry": {"coordinates": [8.51934, 47.3699716666667], "type": "Point"}, "properties": {"charge": 98, "id": "bird_7073f685-94dd-43fd-ae17-3fe3f364e09b", "provider": "bird", "timeStamp": "02/10/2020, 19:29:30"}, "type": "Feature"}, {"geometry": {"coordinates": [8.51333166666667, 47.3751983333333], "type": "Point"}, "properties": {"charge": 44, "id": "bird_29686fc0-1b1c-446c-a14c-de9274b789da", "provider": "bird", "timeStamp": "02/10/2020, 19:29:30"}, "type": "Feature"}, {"geometry": {"coordinates": [8.545535, 47.3737266666667], "type": "Point"}, "properties": {"charge": 25, "id": "bird_122eb6b4-69f2-4904-a8fa-9fd480605126", "provider": "bird", "timeStamp": "02/10/2020, 19:29:30"}, "type": "Feature"}, {"geometry": {"coordinates": [8.54585333333333, 47.3858983333333], "type": "Point"}, "properties": {"charge": 39, "id": "bird_c9a7c4c7-70cb-42d3-b09f-a0eff39f4764", "provider": "bird", "timeStamp": "02/10/2020, 19:29:30"}, "type": "Feature"}, {"geometry": {"coordinates": [8.52414166666667, 47.368515], "type": "Point"}, "properties": {"charge": 47, "id": "bird_9ab4dbc2-2079-40e9-ac2f-d953eed1c043", "provider": "bird", "timeStamp": "02/10/2020, 19:29:30"}, "type": "Feature"}, {"geometry": {"coordinates": [8.51718666666667, 47.371495], "type": "Point"}, "properties": {"charge": 30, "id": "bird_7e345870-5490-40cd-b8ec-0e34cd2a6040", "provider": "bird", "timeStamp": "02/10/2020, 19:29:30"}, "type": "Feature"}, {"geometry": {"coordinates": [8.51974666666667, 47.3700333333333], "type": "Point"}, "properties": {"charge": 44, "id": "bird_b898aeac-2f9f-49ce-91e1-a052e656f9fb", "provider": "bird", "timeStamp": "02/10/2020, 19:29:30"}, "type": "Feature"}, {"geometry": {"coordinates": [8.53830833333333, 47.36924], "type": "Point"}, "properties": {"charge": 96, "id": "bird_a928806d-7f4c-40ea-bdf0-8b7d5dd52df4", "provider": "bird", "timeStamp": "02/10/2020, 19:29:30"}, "type": "Feature"}, {"geometry": {"coordinates": [8.533785, 47.39183], "type": "Point"}, "properties": {"charge": 31, "id": "bird_30aadb47-400b-44af-99a0-d3f552f17b65", "provider": "bird", "timeStamp": "02/10/2020, 19:29:30"}, "type": "Feature"}, {"geometry": {"coordinates": [8.53644833333333, 47.39127], "type": "Point"}, "properties": {"charge": 62, "id": "bird_178edeb3-cee5-40cd-9e26-34f82cddb981", "provider": "bird", "timeStamp": "02/10/2020, 19:29:30"}, "type": "Feature"}, {"geometry": {"coordinates": [8.53646666666667, 47.3912383333333], "type": "Point"}, "properties": {"charge": 60, "id": "bird_465e8cb9-de27-4c1a-a886-0c46cfbd7b51", "provider": "bird", "timeStamp": "02/10/2020, 19:29:30"}, "type": "Feature"}, {"geometry": {"coordinates": [8.53841, 47.369385], "type": "Point"}, "properties": {"charge": 93, "id": "bird_3c3bc7a9-8319-433d-a6a0-689037649385", "provider": "bird", "timeStamp": "02/10/2020, 19:29:30"}, "type": "Feature"}, {"geometry": {"coordinates": [8.53562833333333, 47.3913883333333], "type": "Point"}, "properties": {"charge": 40, "id": "bird_dd51efbc-62fb-4e24-b6e4-f3d2312283d0", "provider": "bird", "timeStamp": "02/10/2020, 19:29:30"}, "type": "Feature"}, {"geometry": {"coordinates": [8.53683166666667, 47.3689466666667], "type": "Point"}, "properties": {"charge": 63, "id": "bird_1f4555a3-282b-4443-bb2e-ea2f298d6426", "provider": "bird", "timeStamp": "02/10/2020, 19:29:30"}, "type": "Feature"}, {"geometry": {"coordinates": [8.53571166666667, 47.3913266666667], "type": "Point"}, "properties": {"charge": 33, "id": "bird_51913dfd-0f34-4d2e-b75f-997410f2dbfc", "provider": "bird", "timeStamp": "02/10/2020, 19:29:30"}, "type": "Feature"}, {"geometry": {"coordinates": [8.53613833333333, 47.3688666666667], "type": "Point"}, "properties": {"charge": 28, "id": "bird_af076303-6088-499a-b41f-cbaf322807fb", "provider": "bird", "timeStamp": "02/10/2020, 19:29:30"}, "type": "Feature"}, {"geometry": {"coordinates": [8.53833833333333, 47.3697433333333], "type": "Point"}, "properties": {"charge": 96, "id": "bird_faffb6f0-fadc-478c-98c7-e847bad0955b", "provider": "bird", "timeStamp": "02/10/2020, 19:29:30"}, "type": "Feature"}, {"geometry": {"coordinates": [8.53825166666667, 47.3697283333333], "type": "Point"}, "properties": {"charge": 98, "id": "bird_d9795514-fe9b-4b9d-ae41-a33029c87702", "provider": "bird", "timeStamp": "02/10/2020, 19:29:30"}, "type": "Feature"}, {"geometry": {"coordinates": [8.54158333333333, 47.371475], "type": "Point"}, "properties": {"charge": 29, "id": "bird_9399b3af-5fce-4dbe-beea-825c537b3d1b", "provider": "bird", "timeStamp": "02/10/2020, 19:29:30"}, "type": "Feature"}, {"geometry": {"coordinates": [8.54287, 47.3725516666667], "type": "Point"}, "properties": {"charge": 91, "id": "bird_ff7f5b29-a43d-4771-ba2d-72a73a629127", "provider": "bird", "timeStamp": "02/10/2020, 19:29:30"}, "type": "Feature"}, {"geometry": {"coordinates": [8.51795666666667, 47.3878966666667], "type": "Point"}, "properties": {"charge": 33, "id": "bird_b8d4ea17-0f06-4f54-960b-b68d60e5eb57", "provider": "bird", "timeStamp": "02/10/2020, 19:29:30"}, "type": "Feature"}, {"geometry": {"coordinates": [8.52105333333333, 47.37043], "type": "Point"}, "properties": {"charge": 28, "id": "bird_d299d6eb-3d95-48d5-b68d-c654916c3452", "provider": "bird", "timeStamp": "02/10/2020, 19:29:30"}, "type": "Feature"}, {"geometry": {"coordinates": [8.53762333333333, 47.3700183333333], "type": "Point"}, "properties": {"charge": 96, "id": "bird_b7ad87e7-029d-46de-a306-b7cf0b5ce7ef", "provider": "bird", "timeStamp": "02/10/2020, 19:29:30"}, "type": "Feature"}, {"geometry": {"coordinates": [8.51453, 47.3759533333333], "type": "Point"}, "properties": {"charge": 91, "id": "bird_a90ec1e1-8e83-46ff-8dc5-68ef5846fc77", "provider": "bird", "timeStamp": "02/10/2020, 19:29:30"}, "type": "Feature"}, {"geometry": {"coordinates": [8.51953833333333, 47.3886983333333], "type": "Point"}, "properties": {"charge": 33, "id": "bird_feae6e85-9271-48d6-876b-2232319a65b6", "provider": "bird", "timeStamp": "02/10/2020, 19:29:30"}, "type": "Feature"}, {"geometry": {"coordinates": [8.5194, 47.38855], "type": "Point"}, "properties": {"charge": 47, "id": "bird_2954c5ef-922c-4eac-8f06-b9ffc9debf11", "provider": "bird", "timeStamp": "02/10/2020, 19:29:30"}, "type": "Feature"}, {"geometry": {"coordinates": [8.537595, 47.3702283333333], "type": "Point"}, "properties": {"charge": 98, "id": "bird_4a038a08-4e74-4189-b25c-a05c9f127c48", "provider": "bird", "timeStamp": "02/10/2020, 19:29:30"}, "type": "Feature"}, {"geometry": {"coordinates": [8.52796666666667, 47.36906], "type": "Point"}, "properties": {"charge": 21, "id": "bird_127178de-b308-49a8-9379-1c9313721a57", "provider": "bird", "timeStamp": "02/10/2020, 19:29:30"}, "type": "Feature"}, {"geometry": {"coordinates": [8.53769833333333, 47.370285], "type": "Point"}, "properties": {"charge": 96, "id": "bird_a2d7cede-6cbd-4ef3-b7fd-dd49fbcd6d8e", "provider": "bird", "timeStamp": "02/10/2020, 19:29:30"}, "type": "Feature"}, {"geometry": {"coordinates": [8.5367, 47.3699566666667], "type": "Point"}, "properties": {"charge": 96, "id": "bird_d4032e5e-f6f9-41ad-931a-85cf642d211e", "provider": "bird", "timeStamp": "02/10/2020, 19:29:30"}, "type": "Feature"}, {"geometry": {"coordinates": [8.53665, 47.3699566666667], "type": "Point"}, "properties": {"charge": 98, "id": "bird_3ac5ff9b-caba-4239-8137-a39c1510acf9", "provider": "bird", "timeStamp": "02/10/2020, 19:29:30"}, "type": "Feature"}, {"geometry": {"coordinates": [8.536215, 47.36985], "type": "Point"}, "properties": {"charge": 98, "id": "bird_cdfafd23-3aff-448e-9658-f5ae6ed971dd", "provider": "bird", "timeStamp": "02/10/2020, 19:29:30"}, "type": "Feature"}, {"geometry": {"coordinates": [8.522705, 47.3897816666667], "type": "Point"}, "properties": {"charge": 21, "id": "bird_448cb061-b3b6-4fc5-b4d2-047e1b540b39", "provider": "bird", "timeStamp": "02/10/2020, 19:29:30"}, "type": "Feature"}, {"geometry": {"coordinates": [8.51850833333333, 47.3722916666667], "type": "Point"}, "properties": {"charge": 26, "id": "bird_3d07e07c-4f84-4a89-93cd-8ddfdbe6cb83", "provider": "bird", "timeStamp": "02/10/2020, 19:29:30"}, "type": "Feature"}, {"geometry": {"coordinates": [8.54384333333333, 47.3856583333333], "type": "Point"}, "properties": {"charge": 48, "id": "bird_19838b78-da42-4269-9ded-3cf123b234b2", "provider": "bird", "timeStamp": "02/10/2020, 19:29:30"}, "type": "Feature"}, {"geometry": {"coordinates": [8.53631333333333, 47.3699333333333], "type": "Point"}, "properties": {"charge": 93, "id": "bird_7d1b4e69-9682-48a6-8657-fd728f90a15e", "provider": "bird", "timeStamp": "02/10/2020, 19:29:30"}, "type": "Feature"}, {"geometry": {"coordinates": [8.51997, 47.3884933333333], "type": "Point"}, "properties": {"charge": 98, "id": "bird_feaa967a-a38d-45b1-8cff-6c08cd53c22d", "provider": "bird", "timeStamp": "02/10/2020, 19:29:30"}, "type": "Feature"}, {"geometry": {"coordinates": [8.540855, 47.3721116666667], "type": "Point"}, "properties": {"charge": 57, "id": "bird_de410d05-2b92-47dc-bb1a-23e587e79002", "provider": "bird", "timeStamp": "02/10/2020, 19:29:30"}, "type": "Feature"}, {"geometry": {"coordinates": [8.52127, 47.388985], "type": "Point"}, "properties": {"charge": 70, "id": "bird_2e8043b6-3ce9-48d9-b38a-6d9542979f4c", "provider": "bird", "timeStamp": "02/10/2020, 19:29:30"}, "type": "Feature"}, {"geometry": {"coordinates": [8.53412, 47.3696216666667], "type": "Point"}, "properties": {"charge": 40, "id": "bird_01bc309c-e934-45ff-956e-612af90f4e8b", "provider": "bird", "timeStamp": "02/10/2020, 19:29:30"}, "type": "Feature"}, {"geometry": {"coordinates": [8.51578833333333, 47.3752333333333], "type": "Point"}, "properties": {"charge": 43, "id": "bird_6b44f314-cbf0-4d37-8d57-e03c1324e6f3", "provider": "bird", "timeStamp": "02/10/2020, 19:29:30"}, "type": "Feature"}, {"geometry": {"coordinates": [8.54385666666667, 47.374805], "type": "Point"}, "properties": {"charge": 33, "id": "bird_2f10b19c-914c-4f4e-8468-a3dc7ae1f38c", "provider": "bird", "timeStamp": "02/10/2020, 19:29:30"}, "type": "Feature"}, {"geometry": {"coordinates": [8.53559666666667, 47.3700066666667], "type": "Point"}, "properties": {"charge": 34, "id": "bird_b002a320-c46e-4a79-8834-579ccc561a8b", "provider": "bird", "timeStamp": "02/10/2020, 19:29:30"}, "type": "Feature"}, {"geometry": {"coordinates": [8.53988666666667, 47.3718916666667], "type": "Point"}, "properties": {"charge": 72, "id": "bird_9503b20e-5091-43eb-b836-92198a2518cf", "provider": "bird", "timeStamp": "02/10/2020, 19:29:30"}, "type": "Feature"}, {"geometry": {"coordinates": [8.53139166666667, 47.3695416666667], "type": "Point"}, "properties": {"charge": 91, "id": "bird_a1aebaa7-585f-4ef1-86bc-a384358b2eed", "provider": "bird", "timeStamp": "02/10/2020, 19:29:30"}, "type": "Feature"}, {"geometry": {"coordinates": [8.52183166666667, 47.3888966666667], "type": "Point"}, "properties": {"charge": 33, "id": "bird_2ed39412-3df1-4444-bd29-348266915741", "provider": "bird", "timeStamp": "02/10/2020, 19:29:30"}, "type": "Feature"}, {"geometry": {"coordinates": [8.53811, 47.3711616666667], "type": "Point"}, "properties": {"charge": 36, "id": "bird_6f12b216-e48f-4195-9346-666123a10fbc", "provider": "bird", "timeStamp": "02/10/2020, 19:29:30"}, "type": "Feature"}, {"geometry": {"coordinates": [8.54461666666667, 47.3768116666667], "type": "Point"}, "properties": {"charge": 52, "id": "bird_cad9d1ec-db93-45cc-af89-84b11a75e1a7", "provider": "bird", "timeStamp": "02/10/2020, 19:29:30"}, "type": "Feature"}, {"geometry": {"coordinates": [8.51507166666667, 47.37767], "type": "Point"}, "properties": {"charge": 57, "id": "bird_a756599c-8c1d-4098-b2c1-c86e591c3cea", "provider": "bird", "timeStamp": "02/10/2020, 19:29:30"}, "type": "Feature"}, {"geometry": {"coordinates": [8.51585666666667, 47.3760216666667], "type": "Point"}, "properties": {"charge": 30, "id": "bird_f263755b-36cc-45aa-9bc1-bde9224f968f", "provider": "bird", "timeStamp": "02/10/2020, 19:29:30"}, "type": "Feature"}, {"geometry": {"coordinates": [8.539335, 47.3881716666667], "type": "Point"}, "properties": {"charge": 47, "id": "bird_428ae7ef-f859-4f31-a4e6-db5dd484f6a5", "provider": "bird", "timeStamp": "02/10/2020, 19:29:30"}, "type": "Feature"}, {"geometry": {"coordinates": [8.51654833333333, 47.384845], "type": "Point"}, "properties": {"charge": 29, "id": "bird_8e76cabd-886c-4dd1-8bed-d778d1eaa794", "provider": "bird", "timeStamp": "02/10/2020, 19:29:30"}, "type": "Feature"}, {"geometry": {"coordinates": [8.53733333333333, 47.3709716666667], "type": "Point"}, "properties": {"charge": 65, "id": "bird_23b5f769-2367-4c9c-8e19-c4bc41bfa931", "provider": "bird", "timeStamp": "02/10/2020, 19:29:30"}, "type": "Feature"}, {"geometry": {"coordinates": [8.51768833333333, 47.386025], "type": "Point"}, "properties": {"charge": 26, "id": "bird_b9b24c43-3eed-416c-8fb1-590efe789592", "provider": "bird", "timeStamp": "02/10/2020, 19:29:30"}, "type": "Feature"}, {"geometry": {"coordinates": [8.53510666666667, 47.3703383333333], "type": "Point"}, "properties": {"charge": 46, "id": "bird_7fab84f4-0527-4696-9fd0-1df9f2226f02", "provider": "bird", "timeStamp": "02/10/2020, 19:29:30"}, "type": "Feature"}, {"geometry": {"coordinates": [8.51583666666667, 47.3766483333333], "type": "Point"}, "properties": {"charge": 40, "id": "bird_0d2e3eb6-9481-4ed4-bb31-b6a69c9c85e4", "provider": "bird", "timeStamp": "02/10/2020, 19:29:30"}, "type": "Feature"}, {"geometry": {"coordinates": [8.51644833333333, 47.375645], "type": "Point"}, "properties": {"charge": 93, "id": "bird_490c5d55-21d8-4bd8-a28d-a9a9ce8536b8", "provider": "bird", "timeStamp": "02/10/2020, 19:29:30"}, "type": "Feature"}, {"geometry": {"coordinates": [8.51797166666667, 47.38607], "type": "Point"}, "properties": {"charge": 71, "id": "bird_d6fb0e01-3670-4b7e-8587-8eb29ac78bd5", "provider": "bird", "timeStamp": "02/10/2020, 19:29:30"}, "type": "Feature"}, {"geometry": {"coordinates": [8.516505, 47.3756133333333], "type": "Point"}, "properties": {"charge": 98, "id": "bird_fdcab07b-a2d4-434e-9a67-bd02c3341421", "provider": "bird", "timeStamp": "02/10/2020, 19:29:30"}, "type": "Feature"}, {"geometry": {"coordinates": [8.51808, 47.3738783333333], "type": "Point"}, "properties": {"charge": 38, "id": "bird_f04b764d-fae7-4c72-a44f-9c3cbc583f2a", "provider": "bird", "timeStamp": "02/10/2020, 19:29:30"}, "type": "Feature"}, {"geometry": {"coordinates": [8.51666333333333, 47.375465], "type": "Point"}, "properties": {"charge": 93, "id": "bird_185519a3-7b29-4c67-8159-d4f877d2a994", "provider": "bird", "timeStamp": "02/10/2020, 19:29:30"}, "type": "Feature"}, {"geometry": {"coordinates": [8.54386, 47.376285], "type": "Point"}, "properties": {"charge": 29, "id": "bird_1d9a3452-fd45-4a32-a2df-038d1ad7de93", "provider": "bird", "timeStamp": "02/10/2020, 19:29:30"}, "type": "Feature"}, {"geometry": {"coordinates": [8.51794333333333, 47.3859333333333], "type": "Point"}, "properties": {"charge": 15, "id": "bird_a082c079-3f23-49ae-b3c6-a7b1c3f9250d", "provider": "bird", "timeStamp": "02/10/2020, 19:29:30"}, "type": "Feature"}, {"geometry": {"coordinates": [8.5177, 47.38567], "type": "Point"}, "properties": {"charge": 75, "id": "bird_37020690-66c6-4b56-80f7-3631c71cf781", "provider": "bird", "timeStamp": "02/10/2020, 19:29:30"}, "type": "Feature"}, {"geometry": {"coordinates": [8.51670333333333, 47.3755], "type": "Point"}, "properties": {"charge": 91, "id": "bird_aafb9367-ed4f-4a46-a50d-f0e66ac61a9c", "provider": "bird", "timeStamp": "02/10/2020, 19:29:30"}, "type": "Feature"}, {"geometry": {"coordinates": [8.51787333333333, 47.3857883333333], "type": "Point"}, "properties": {"charge": 96, "id": "bird_823208e0-241e-4487-b256-4dc60db3fa1a", "provider": "bird", "timeStamp": "02/10/2020, 19:29:30"}, "type": "Feature"}, {"geometry": {"coordinates": [8.516425, 47.376015], "type": "Point"}, "properties": {"charge": 70, "id": "bird_b5400ef2-5c09-4763-af16-6e21241dc39c", "provider": "bird", "timeStamp": "02/10/2020, 19:29:30"}, "type": "Feature"}, {"geometry": {"coordinates": [8.51851666666667, 47.3863033333333], "type": "Point"},