{"features": [{"geometry": {"coordinates": [8.540062, 47.374392], "type": "Point"}, "properties": {"address": "Uraniastrasse 7", "electric": 5, "id": "pb_60", "manual": 9, "name": "Demo Station Werdm\u00fchleplatz", "provider": "publibike", "timeStamp": "01/30/2020, 11:18:24", "zip": 8001}, "type": "Feature"}, {"geometry": {"coordinates": [8.5452956, 47.4099615], "type": "Point"}, "properties": {"address": "Querstrasse 8", "electric": 4, "id": "pb_61", "manual": 1, "name": "Marktplatz", "provider": "publibike", "timeStamp": "01/30/2020, 11:18:24", "zip": 8050}, "type": "Feature"}, {"geometry": {"coordinates": [8.5156327, 47.3795837], "type": "Point"}, "properties": {"address": "Bullingerstrasse 5", "electric": 0, "id": "pb_80", "manual": 10, "name": "Bullingerplatz", "provider": "publibike", "timeStamp": "01/30/2020, 11:18:24", "zip": 8004}, "type": "Feature"}, {"geometry": {"coordinates": [8.5104051, 47.3899342], "type": "Point"}, "properties": {"address": "Pfingstweidstrasse 96e", "electric": 5, "id": "pb_81", "manual": 6, "name": "Herdern", "provider": "publibike", "timeStamp": "01/30/2020, 11:18:24", "zip": 8001}, "type": "Feature"}, {"geometry": {"coordinates": [8.535718, 47.359675], "type": "Point"}, "properties": {"address": "Mythenquai 50", "electric": 17, "id": "pb_82", "manual": 7, "name": "Hafen Enge", "provider": "publibike", "timeStamp": "01/30/2020, 11:18:24", "zip": 8002}, "type": "Feature"}, {"geometry": {"coordinates": [8.520370505, 47.358663827], "type": "Point"}, "properties": {"address": "Bubenbergstrasse 1", "electric": 1, "id": "pb_83", "manual": 4, "name": "Comerge", "provider": "publibike", "timeStamp": "01/30/2020, 11:18:24", "zip": 8045}, "type": "Feature"}, {"geometry": {"coordinates": [8.5412505, 47.3789825], "type": "Point"}, "properties": {"address": "Museumstrasse 2", "electric": 3, "id": "pb_84", "manual": 9, "name": "Landesmuseum", "provider": "publibike", "timeStamp": "01/30/2020, 11:18:24", "zip": 8001}, "type": "Feature"}, {"geometry": {"coordinates": [8.5235479, 47.3716661], "type": "Point"}, "properties": {"address": "Birmensdorferstrasse 80", "electric": 1, "id": "pb_85", "manual": 6, "name": "Bahnhof Wiedikon", "provider": "publibike", "timeStamp": "01/30/2020, 11:18:24", "zip": 8003}, "type": "Feature"}, {"geometry": {"coordinates": [8.506822854, 47.40781197], "type": "Point"}, "properties": {"address": "Stefano-Franscini-Platz 5", "electric": 8, "id": "pb_86", "manual": 0, "name": "ETH H\u00f6nggerberg", "provider": "publibike", "timeStamp": "01/30/2020, 11:18:24", "zip": 8093}, "type": "Feature"}, {"geometry": {"coordinates": [8.536101, 47.371083], "type": "Point"}, "properties": {"address": "Pelikanplatz 5", "electric": 4, "id": "pb_87", "manual": 4, "name": "Pelikanplatz", "provider": "publibike", "timeStamp": "01/30/2020, 11:18:24", "zip": 8001}, "type": "Feature"}, {"geometry": {"coordinates": [8.5257822, 47.3651936], "type": "Point"}, "properties": {"address": "H\u00fcrlimannplatz 90", "electric": 33, "id": "pb_88", "manual": 6, "name": "H\u00fcrlimannplatz", "provider": "publibike", "timeStamp": "01/30/2020, 11:18:24", "zip": 8002}, "type": "Feature"}, {"geometry": {"coordinates": [8.5313344, 47.3713591], "type": "Point"}, "properties": {"address": "Selnaustrasse 32", "electric": 9, "id": "pb_89", "manual": 3, "name": "Stauffacherbr\u00fccke", "provider": "publibike", "timeStamp": "01/30/2020, 11:18:24", "zip": 8001}, "type": "Feature"}, {"geometry": {"coordinates": [8.5056978, 47.3917964], "type": "Point"}, "properties": {"address": "Sportweg 25", "electric": 4, "id": "pb_90", "manual": 6, "name": "Sportweg", "provider": "publibike", "timeStamp": "01/30/2020, 11:18:24", "zip": 8005}, "type": "Feature"}, {"geometry": {"coordinates": [8.5181701, 47.3917837], "type": "Point"}, "properties": {"address": "Hardturmstrasse 11", "electric": 2, "id": "pb_91", "manual": 5, "name": "Puls 5", "provider": "publibike", "timeStamp": "01/30/2020, 11:18:24", "zip": 8005}, "type": "Feature"}, {"geometry": {"coordinates": [8.5286468, 47.3820827], "type": "Point"}, "properties": {"address": "R\u00f6ntgenstrasse 6", "electric": 2, "id": "pb_92", "manual": 6, "name": "R\u00f6ntgenstrasse", "provider": "publibike", "timeStamp": "01/30/2020, 11:18:24", "zip": 8005}, "type": "Feature"}, {"geometry": {"coordinates": [8.531935, 47.384918], "type": "Point"}, "properties": {"address": "Kornhausbr\u00fccke 1", "electric": 0, "id": "pb_93", "manual": 7, "name": "Limmatplatz", "provider": "publibike", "timeStamp": "01/30/2020, 11:18:24", "zip": 8005}, "type": "Feature"}, {"geometry": {"coordinates": [8.5354006, 47.3758639], "type": "Point"}, "properties": {"address": "Gessnerallee 15", "electric": 2, "id": "pb_94", "manual": 1, "name": "Gessnerallee", "provider": "publibike", "timeStamp": "01/30/2020, 11:18:24", "zip": 8001}, "type": "Feature"}, {"geometry": {"coordinates": [8.523818, 47.377148], "type": "Point"}, "properties": {"address": "Stauffacherstrasse 127", "electric": 6, "id": "pb_95", "manual": 9, "name": "B\u00e4ckeranlage", "provider": "publibike", "timeStamp": "01/30/2020, 11:18:24", "zip": 8004}, "type": "Feature"}, {"geometry": {"coordinates": [8.531836, 47.378548], "type": "Point"}, "properties": {"address": "Lagerstrasse 44", "electric": 18, "id": "pb_96", "manual": 11, "name": "Gustav-Gull-Platz", "provider": "publibike", "timeStamp": "01/30/2020, 11:18:24", "zip": 8004}, "type": "Feature"}, {"geometry": {"coordinates": [8.5104883, 47.3771535], "type": "Point"}, "properties": {"address": "Zurlindenstrasse 291", "electric": 0, "id": "pb_97", "manual": 4, "name": "Zurlindenstrasse", "provider": "publibike", "timeStamp": "01/30/2020, 11:18:24", "zip": 8003}, "type": "Feature"}, {"geometry": {"coordinates": [8.5333139, 47.3731102], "type": "Point"}, "properties": {"address": "Sihlstrasse 81", "electric": 3, "id": "pb_98", "manual": 2, "name": "Sihlstrasse", "provider": "publibike", "timeStamp": "01/30/2020, 11:18:24", "zip": 8001}, "type": "Feature"}, {"geometry": {"coordinates": [8.520532, 47.374951], "type": "Point"}, "properties": {"address": "Feldstrasse 24", "electric": 0, "id": "pb_99", "manual": 8, "name": "Kalkbreite", "provider": "publibike", "timeStamp": "01/30/2020, 11:18:24", "zip": 8004}, "type": "Feature"}, {"geometry": {"coordinates": [8.539046, 47.368064], "type": "Point"}, "properties": {"address": "Talstrasse 12", "electric": 0, "id": "pb_100", "manual": 4, "name": "Z\u00fcrcher Kantonalbank", "provider": "publibike", "timeStamp": "01/30/2020, 11:18:24", "zip": 8001}, "type": "Feature"}, {"geometry": {"coordinates": [8.5348427, 47.3625938], "type": "Point"}, "properties": {"address": "Breitingerstrasse 5", "electric": 1, "id": "pb_101", "manual": 3, "name": "Rentenanstalt", "provider": "publibike", "timeStamp": "01/30/2020, 11:18:24", "zip": 8002}, "type": "Feature"}, {"geometry": {"coordinates": [8.5166922, 47.3897772], "type": "Point"}, "properties": {"address": "Technoparkstrasse 4", "electric": 8, "id": "pb_102", "manual": 5, "name": "Turbinenplatz", "provider": "publibike", "timeStamp": "01/30/2020, 11:18:24", "zip": 8005}, "type": "Feature"}, {"geometry": {"coordinates": [8.539312, 47.3739964], "type": "Point"}, "properties": {"address": "Oetenbachgasse 14", "electric": 7, "id": "pb_104", "manual": 10, "name": "Rennweg", "provider": "publibike", "timeStamp": "01/30/2020, 11:18:24", "zip": 8001}, "type": "Feature"}, {"geometry": {"coordinates": [8.5360685, 47.3775022], "type": "Point"}, "properties": {"address": "Kasernenstrasse 101", "electric": 11, "id": "pb_105", "manual": 23, "name": "Sihlpost", "provider": "publibike", "timeStamp": "01/30/2020, 11:18:24", "zip": 8004}, "type": "Feature"}, {"geometry": {"coordinates": [8.53545, 47.382798], "type": "Point"}, "properties": {"address": "Ausstellungsstrasse 44", "electric": 11, "id": "pb_106", "manual": 6, "name": "Museum f\u00fcr Gestaltung", "provider": "publibike", "timeStamp": "01/30/2020, 11:18:24", "zip": 8005}, "type": "Feature"}, {"geometry": {"coordinates": [8.5306155, 47.3647902], "type": "Point"}, "properties": {"address": "Gutenbergstrasse 1", "electric": 4, "id": "pb_107", "manual": 1, "name": "Bederbr\u00fccke", "provider": "publibike", "timeStamp": "01/30/2020, 11:18:24", "zip": 8002}, "type": "Feature"}, {"geometry": {"coordinates": [8.518982, 47.386741], "type": "Point"}, "properties": {"address": "Geroldstrasse 4", "electric": 3, "id": "pb_108", "manual": 11, "name": "Bahnhof Hardbr\u00fccke", "provider": "publibike", "timeStamp": "01/30/2020, 11:18:24", "zip": 8005}, "type": "Feature"}, {"geometry": {"coordinates": [8.53001018, 47.37247535], "type": "Point"}, "properties": {"address": "Werdstrasse 21", "electric": 15, "id": "pb_109", "manual": 2, "name": "Tamedia", "provider": "publibike", "timeStamp": "01/30/2020, 11:18:24", "zip": 8004}, "type": "Feature"}, {"geometry": {"coordinates": [8.4860017, 47.396401], "type": "Point"}, "properties": {"address": "Gr\u00fcnauring 37", "electric": 5, "id": "pb_110", "manual": 6, "name": "Gr\u00fcnau", "provider": "publibike", "timeStamp": "01/30/2020, 11:18:24", "zip": 8064}, "type": "Feature"}, {"geometry": {"coordinates": [8.548519, 47.376756], "type": "Point"}, "properties": {"address": "R\u00e4mistrasse 101", "electric": 40, "id": "pb_111", "manual": 1, "name": "ETH Zentrum", "provider": "publibike", "timeStamp": "01/30/2020, 11:18:24", "zip": 8006}, "type": "Feature"}, {"geometry": {"coordinates": [8.520449, 47.388151], "type": "Point"}, "properties": {"address": "Josefstrasse 224", "electric": 3, "id": "pb_112", "manual": 4, "name": "Steinfelsareal", "provider": "publibike", "timeStamp": "01/30/2020, 11:18:24", "zip": 8005}, "type": "Feature"}, {"geometry": {"coordinates": [8.520482, 47.37209], "type": "Point"}, "properties": {"address": "Weststrasse 115", "electric": 5, "id": "pb_124", "manual": 5, "name": "Weststrasse", "provider": "publibike", "timeStamp": "01/30/2020, 11:18:24", "zip": 8003}, "type": "Feature"}, {"geometry": {"coordinates": [8.496727, 47.378521], "type": "Point"}, "properties": {"address": "Albisriederstrasse 200", "electric": 5, "id": "pb_125", "manual": 1, "name": "Utogrund", "provider": "publibike", "timeStamp": "01/30/2020, 11:18:24", "zip": 8047}, "type": "Feature"}, {"geometry": {"coordinates": [8.510418, 47.381356], "type": "Point"}, "properties": {"address": "Bullingerstrasse 73", "electric": 5, "id": "pb_126", "manual": 4, "name": "Hardau", "provider": "publibike", "timeStamp": "01/30/2020, 11:18:24", "zip": 8004}, "type": "Feature"}, {"geometry": {"coordinates": [8.525525, 47.361567], "type": "Point"}, "properties": {"address": "Klopstockstrasse 23", "electric": 4, "id": "pb_127", "manual": 2, "name": "Klopstockwiese", "provider": "publibike", "timeStamp": "01/30/2020, 11:18:24", "zip": 8002}, "type": "Feature"}, {"geometry": {"coordinates": [8.518143, 47.363148], "type": "Point"}, "properties": {"address": "Haldenstrasse 8", "electric": 5, "id": "pb_128", "manual": 5, "name": "Binz", "provider": "publibike", "timeStamp": "01/30/2020, 11:18:24", "zip": 8045}, "type": "Feature"}, {"geometry": {"coordinates": [8.542726, 47.379952], "type": "Point"}, "properties": {"address": "Walchestrasse 11", "electric": 3, "id": "pb_129", "manual": 4, "name": "Stampfenbachplatz", "provider": "publibike", "timeStamp": "01/30/2020, 11:18:24", "zip": 8006}, "type": "Feature"}, {"geometry": {"coordinates": [8.488108, 47.391366], "type": "Point"}, "properties": {"address": "Altstetterplatz 1", "electric": 9, "id": "pb_130", "manual": 6, "name": "Bahnhof Altstetten", "provider": "publibike", "timeStamp": "01/30/2020, 11:18:24", "zip": 8048}, "type": "Feature"}, {"geometry": {"coordinates": [8.554114, 47.365119], "type": "Point"}, "properties": {"address": "Kreuzplatz 2", "electric": 1, "id": "pb_131", "manual": 5, "name": "Kreuzplatz", "provider": "publibike", "timeStamp": "01/30/2020, 11:18:24", "zip": 8032}, "type": "Feature"}, {"geometry": {"coordinates": [8.549852, 47.35594], "type": "Point"}, "properties": {"address": "H\u00f6schgasse 3", "electric": 2, "id": "pb_132", "manual": 9, "name": "Blatterwiese", "provider": "publibike", "timeStamp": "01/30/2020, 11:18:24", "zip": 8008}, "type": "Feature"}, {"geometry": {"coordinates": [8.554501, 47.36162], "type": "Point"}, "properties": {"address": "Feldeggstrasse 80", "electric": 1, "id": "pb_133", "manual": 2, "name": "Villa Bleuler", "provider": "publibike", "timeStamp": "01/30/2020, 11:18:24", "zip": 8008}, "type": "Feature"}, {"geometry": {"coordinates": [8.557088, 47.358557], "type": "Point"}, "properties": {"address": "M\u00fchlebachstrasse 131", "electric": 1, "id": "pb_134", "manual": 2, "name": "M\u00fchlebachstrasse", "provider": "publibike", "timeStamp": "01/30/2020, 11:18:24", "zip": 8008}, "type": "Feature"}, {"geometry": {"coordinates": [8.547639, 47.361266], "type": "Point"}, "properties": {"address": "Utoquai 50", "electric": 10, "id": "pb_135", "manual": 7, "name": "Seebad Utoquai", "provider": "publibike", "timeStamp": "01/30/2020, 11:18:24", "zip": 8008}, "type": "Feature"}, {"geometry": {"coordinates": [8.548045, 47.370869], "type": "Point"}, "properties": {"address": "Heimplatz 1", "electric": 5, "id": "pb_137", "manual": 1, "name": "Kunsthaus", "provider": "publibike", "timeStamp": "01/30/2020, 11:18:24", "zip": 8001}, "type": "Feature"}, {"geometry": {"coordinates": [8.543447, 47.375933], "type": "Point"}, "properties": {"address": "Limmatquai 138", "electric": 7, "id": "pb_138", "manual": 12, "name": "Central", "provider": "publibike", "timeStamp": "01/30/2020, 11:18:24", "zip": 8001}, "type": "Feature"}, {"geometry": {"coordinates": [8.549356, 47.408827], "type": "Point"}, "properties": {"address": "Tramstrasse 35", "electric": 6, "id": "pb_139", "manual": 4, "name": "ewz Tramstrasse", "provider": "publibike", "timeStamp": "01/30/2020, 11:18:24", "zip": 8050}, "type": "Feature"}, {"geometry": {"coordinates": [8.533736, 47.366904], "type": "Point"}, "properties": {"address": "Bleicherweg 33", "electric": 0, "id": "pb_140", "manual": 12, "name": "Bleicherweg", "provider": "publibike", "timeStamp": "01/30/2020, 11:18:24", "zip": 8002}, "type": "Feature"}, {"geometry": {"coordinates": [8.544935, 47.366752], "type": "Point"}, "properties": {"address": "Bellevueplatz 2", "electric": 6, "id": "pb_141", "manual": 19, "name": "Bellevue", "provider": "publibike", "timeStamp": "01/30/2020, 11:18:24", "zip": 8001}, "type": "Feature"}, {"geometry": {"coordinates": [8.5285533, 47.3742296], "type": "Point"}, "properties": {"address": "Stauffacherstrasse 41", "electric": 3, "id": "pb_142", "manual": 0, "name": "Stauffacher", "provider": "publibike", "timeStamp": "01/30/2020, 11:18:24", "zip": 8004}, "type": "Feature"}, {"geometry": {"coordinates": [8.523722, 47.3899], "type": "Point"}, "properties": {"address": "Limmatstrasse 310", "electric": 1, "id": "pb_143", "manual": 4, "name": "Escher-Wyss-Platz", "provider": "publibike", "timeStamp": "01/30/2020, 11:18:24", "zip": 8005}, "type": "Feature"}, {"geometry": {"coordinates": [8.491061, 47.392336], "type": "Point"}, "properties": {"address": "Vulkanplatz 1", "electric": 4, "id": "pb_149", "manual": 5, "name": "Vulkanplatz", "provider": "publibike", "timeStamp": "01/30/2020, 11:18:24", "zip": 8048}, "type": "Feature"}, {"geometry": {"coordinates": [8.52306, 47.359872], "type": "Point"}, "properties": {"address": "Giessh\u00fcbelstrasse 15", "electric": 6, "id": "pb_150", "manual": 5, "name": "Utoplatz", "provider": "publibike", "timeStamp": "01/30/2020, 11:18:24", "zip": 8045}, "type": "Feature"}, {"geometry": {"coordinates": [8.486284, 47.387685], "type": "Point"}, "properties": {"address": "Lindenplatz 1", "electric": 10, "id": "pb_151", "manual": 6, "name": "Lindenplatz", "provider": "publibike", "timeStamp": "01/30/2020, 11:18:24", "zip": 8048}, "type": "Feature"}, {"geometry": {"coordinates": [8.49163, 47.389823], "type": "Point"}, "properties": {"address": "Hohlstrasse 563", "electric": 6, "id": "pb_152", "manual": 8, "name": "Luggweg", "provider": "publibike", "timeStamp": "01/30/2020, 11:18:24", "zip": 8048}, "type": "Feature"}, {"geometry": {"coordinates": [8.52174, 47.365272], "type": "Point"}, "properties": {"address": "Manessestrasse 87", "electric": 0, "id": "pb_153", "manual": 7, "name": "Manesseplatz", "provider": "publibike", "timeStamp": "01/30/2020, 11:18:24", "zip": 8045}, "type": "Feature"}, {"geometry": {"coordinates": [8.52714, 47.372329], "type": "Point"}, "properties": {"address": "Werdstrasse 75", "electric": 4, "id": "pb_154", "manual": 6, "name": "Werd", "provider": "publibike", "timeStamp": "01/30/2020, 11:18:24", "zip": 8004}, "type": "Feature"}, {"geometry": {"coordinates": [8.543042, 47.374711], "type": "Point"}, "properties": {"address": "Limmatquai 100", "electric": 0, "id": "pb_155", "manual": 0, "name": "Rudolf-Brun-Br\u00fccke", "provider": "publibike", "timeStamp": "01/30/2020, 11:18:24", "zip": 8001}, "type": "Feature"}, {"geometry": {"coordinates": [8.490837, 47.386596], "type": "Point"}, "properties": {"address": "Badenerstrasse 627", "electric": 3, "id": "pb_156", "manual": 6, "name": "Luggwegstrasse VBZ", "provider": "publibike", "timeStamp": "01/30/2020, 11:18:24", "zip": 8048}, "type": "Feature"}, {"geometry": {"coordinates": [8.535119, 47.355189], "type": "Point"}, "properties": {"address": "Mythenquai 95", "electric": 0, "id": "pb_157", "manual": 1, "name": "Strandbad Mythenquai", "provider": "publibike", "timeStamp": "01/30/2020, 11:18:24", "zip": 8002}, "type": "Feature"}, {"geometry": {"coordinates": [8.545505, 47.373675], "type": "Point"}, "properties": {"address": "Predigerpatz 21", "electric": 3, "id": "pb_158", "manual": 4, "name": "Predigerplatz", "provider": "publibike", "timeStamp": "01/30/2020, 11:18:24", "zip": 8001}, "type": "Feature"}, {"geometry": {"coordinates": [8.515558, 47.371868], "type": "Point"}, "properties": {"address": "Aemtlerstrasse 23", "electric": 0, "id": "pb_159", "manual": 2, "name": "Zwinglihaus", "provider": "publibike", "timeStamp": "01/30/2020, 11:18:24", "zip": 8003}, "type": "Feature"}, {"geometry": {"coordinates": [8.524629, 47.386072], "type": "Point"}, "properties": {"address": "Josefstrasse 188", "electric": 2, "id": "pb_160", "manual": 1, "name": "Josefwiese", "provider": "publibike", "timeStamp": "01/30/2020, 11:18:24", "zip": 8005}, "type": "Feature"}, {"geometry": {"coordinates": [8.527138, 47.387531], "type": "Point"}, "properties": {"address": "R\u00f6ntgenstrasse 87", "electric": 1, "id": "pb_164", "manual": 3, "name": "Markthalle", "provider": "publibike", "timeStamp": "01/30/2020, 11:18:24", "zip": 8005}, "type": "Feature"}, {"geometry": {"coordinates": [8.552717, 47.359978], "type": "Point"}, "properties": {"address": "Seefeldstrasse 96", "electric": 4, "id": "pb_263", "manual": 11, "name": "Feldeggstrasse", "provider": "publibike", "timeStamp": "01/30/2020, 11:18:24", "zip": 8008}, "type": "Feature"}, {"geometry": {"coordinates": [8.553189, 47.353198], "type": "Point"}, "properties": {"address": "Bellerivestrasse 170", "electric": 5, "id": "pb_264", "manual": 1, "name": "Lake Side", "provider": "publibike", "timeStamp": "01/30/2020, 11:18:24", "zip": 8008}, "type": "Feature"}, {"geometry": {"coordinates": [8.543437, 47.369256], "type": "Point"}, "properties": {"address": "Limmatquai 18", "electric": 0, "id": "pb_265", "manual": 0, "name": "Helmhaus", "provider": "publibike", "timeStamp": "01/30/2020, 11:18:24", "zip": 8032}, "type": "Feature"}, {"geometry": {"coordinates": [8.516676, 47.375819], "type": "Point"}, "properties": {"address": "Badenerstrasse 246", "electric": 0, "id": "pb_266", "manual": 3, "name": "Lochergut", "provider": "publibike", "timeStamp": "01/30/2020, 11:18:24", "zip": 8004}, "type": "Feature"}, {"geometry": {"coordinates": [8.514605, 47.389862], "type": "Point"}, "properties": {"address": "Pfingstweidstrasse 60", "electric": 7, "id": "pb_273", "manual": 3, "name": "Westpark", "provider": "publibike", "timeStamp": "01/30/2020, 11:18:24", "zip": 8005}, "type": "Feature"}, {"geometry": {"coordinates": [8.541239126, 47.375991201], "type": "Point"}, "properties": {"address": "Beatenplatz 1", "electric": 6, "id": "pb_274", "manual": 9, "name": "Beatenplatz", "provider": "publibike", "timeStamp": "01/30/2020, 11:18:24", "zip": 8001}, "type": "Feature"}, {"geometry": {"coordinates": [8.5417135, 47.3942197], "type": "Point"}, "properties": {"address": "Scheuchzerstrasse 181", "electric": 1, "id": "pb_275", "manual": 0, "name": "Pauluskirche", "provider": "publibike", "timeStamp": "01/30/2020, 11:18:24", "zip": 8057}, "type": "Feature"}, {"geometry": {"coordinates": [8.5528182, 47.414558], "type": "Point"}, "properties": {"address": "Hagenholzstrasse 51", "electric": 4, "id": "pb_276", "manual": 9, "name": "Airgate", "provider": "publibike", "timeStamp": "01/30/2020, 11:18:24", "zip": 8050}, "type": "Feature"}, {"geometry": {"coordinates": [8.537816, 47.413514], "type": "Point"}, "properties": {"address": "Birchstrasse 183", "electric": 4, "id": "pb_277", "manual": 4, "name": "Lamprechtweg", "provider": "publibike", "timeStamp": "01/30/2020, 11:18:24", "zip": 8050}, "type": "Feature"}, {"geometry": {"coordinates": [8.545602, 47.417701], "type": "Point"}, "properties": {"address": "Felsenrainstrasse 2", "electric": 2, "id": "pb_278", "manual": 7, "name": "Emil-Oberh\u00e4nsli", "provider": "publibike", "timeStamp": "01/30/2020, 11:18:24", "zip": 8050}, "type": "Feature"}, {"geometry": {"coordinates": [8.533647, 47.39808], "type": "Point"}, "properties": {"address": "Bucheggplatz 2", "electric": 0, "id": "pb_279", "manual": 0, "name": "Bucheggplatz", "provider": "publibike", "timeStamp": "01/30/2020, 11:18:24", "zip": 8057}, "type": "Feature"}, {"geometry": {"coordinates": [8.523549, 47.392347], "type": "Point"}, "properties": {"address": "Wipkingerplatz 4", "electric": 0, "id": "pb_280", "manual": 6, "name": "Wipkingerplatz", "provider": "publibike", "timeStamp": "01/30/2020, 11:18:24", "zip": 8037}, "type": "Feature"}, {"geometry": {"coordinates": [8.548562, 47.36691], "type": "Point"}, "properties": {"address": "Galerie \u00fcber Gleis 2/3", "electric": 14, "id": "pb_285", "manual": 2, "name": "Bahnhof Stadelhofen", "provider": "publibike", "timeStamp": "01/30/2020, 11:18:24", "zip": 8001}, "type": "Feature"}, {"geometry": {"coordinates": [8.493822, 47.3985553], "type": "Point"}, "properties": {"address": "Meierwiesenstrasse 12-4", "electric": 2, "id": "pb_286", "manual": 0, "name": "T\u00fcffenwies", "provider": "publibike", "timeStamp": "01/30/2020, 11:18:24", "zip": 8064}, "type": "Feature"}, {"geometry": {"coordinates": [8.552432, 47.3801757], "type": "Point"}, "properties": {"address": "Hochstrasse 34", "electric": 2, "id": "pb_356", "manual": 1, "name": "Siriuswiese", "provider": "publibike", "timeStamp": "01/30/2020, 11:18:24", "zip": 8044}, "type": "Feature"}, {"geometry": {"coordinates": [8.527298, 47.370141], "type": "Point"}, "properties": {"address": "Hallwylstrasse 71", "electric": 0, "id": "pb_357", "manual": 0, "name": "Hallwylstrasse", "provider": "publibike", "timeStamp": "01/30/2020, 11:18:24", "zip": 8004}, "type": "Feature"}, {"geometry": {"coordinates": [8.5414185, 47.3972455], "type": "Point"}, "properties": {"address": "Schaffhauserstrasse 137", "electric": 1, "id": "pb_358", "manual": 0, "name": "Milchbuck", "provider": "publibike", "timeStamp": "01/30/2020, 11:18:24", "zip": 8057}, "type": "Feature"}, {"geometry": {"coordinates": [8.512381, 47.393409], "type": "Point"}, "properties": {"address": "Hardturmstrasse 161", "electric": 4, "id": "pb_359", "manual": 3, "name": "Fischerweg", "provider": "publibike", "timeStamp": "01/30/2020, 11:18:24", "zip": 8005}, "type": "Feature"}, {"geometry": {"coordinates": [8.5421457, 47.3876979], "type": "Point"}, "properties": {"address": "Turnerstrasse 47", "electric": 1, "id": "pb_360", "manual": 1, "name": "Kirche Unterstrass", "provider": "publibike", "timeStamp": "01/30/2020, 11:18:24", "zip": 8006}, "type": "Feature"}, {"geometry": {"coordinates": [8.522117, 47.394554], "type": "Point"}, "properties": {"address": "Dorfstrasse 40", "electric": 2, "id": "pb_361", "manual": 3, "name": "Dorfstrasse", "provider": "publibike", "timeStamp": "01/30/2020, 11:18:24", "zip": 8037}, "type": "Feature"}, {"geometry": {"coordinates": [8.530437, 47.37271], "type": "Point"}, "properties": {"address": "Werdstrasse 25", "electric": 2, "id": "pb_362", "manual": 6, "name": "Stauffachertor", "provider": "publibike", "timeStamp": "01/30/2020, 11:18:24", "zip": 8004}, "type": "Feature"}, {"geometry": {"coordinates": [8.541712, 47.416155], "type": "Point"}, "properties": {"address": "Eggb\u00fchlstrasse 21", "electric": 3, "id": "pb_363", "manual": 4, "name": "Wahlenpark", "provider": "publibike", "timeStamp": "01/30/2020, 11:18:24", "zip": 8050}, "type": "Feature"}, {"geometry": {"coordinates": [8.5595335, 47.3708387], "type": "Point"}, "properties": {"address": "Dolderstrasse 32", "electric": 4, "id": "pb_364", "manual": 1, "name": "Kinderspital", "provider": "publibike", "timeStamp": "01/30/2020, 11:18:24", "zip": 8032}, "type": "Feature"}, {"geometry": {"coordinates": [8.536433, 47.388689], "type": "Point"}, "properties": {"address": "Kornhausstrasse 30", "electric": 1, "id": "pb_365", "manual": 0, "name": "Kornhausstrasse", "provider": "publibike", "timeStamp": "01/30/2020, 11:18:24", "zip": 8006}, "type": "Feature"}, {"geometry": {"coordinates": [8.55033, 47.407098], "type": "Point"}, "properties": {"address": "Schwamendingenstrasse 41", "electric": 3, "id": "pb_366", "manual": 4, "name": "Dorflinde", "provider": "publibike", "timeStamp": "01/30/2020, 11:18:24", "zip": 8050}, "type": "Feature"}, {"geometry": {"coordinates": [8.560476, 47.368199], "type": "Point"}, "properties": {"address": "R\u00f6merhofplatz 5", "electric": 1, "id": "pb_367", "manual": 0, "name": "R\u00f6merhof", "provider": "publibike", "timeStamp": "01/30/2020, 11:18:24", "zip": 8032}, "type": "Feature"}, {"geometry": {"coordinates": [8.5609218, 47.3619068], "type": "Point"}, "properties": {"address": "Forchstrasse 99", "electric": 0, "id": "pb_368", "manual": 0, "name": "Hegibachplatz", "provider": "publibike", "timeStamp": "01/30/2020, 11:18:24", "zip": 8032}, "type": "Feature"}, {"geometry": {"coordinates": [8.5721264, 47.4039985], "type": "Point"}, "properties": {"address": "Winterthurerstrasse 519", "electric": 5, "id": "pb_370", "manual": 4, "name": "Schwamendingerplatz", "provider": "publibike", "timeStamp": "01/30/2020, 11:18:24", "zip": 8051}, "type": "Feature"}, {"geometry": {"coordinates": [8.520168, 47.378556], "type": "Point"}, "properties": {"address": "Herman-Greulich-Strasse 56", "electric": 2, "id": "pb_384", "manual": 7, "name": "Hermann-Greulich-Weg", "provider": "publibike", "timeStamp": "01/30/2020, 11:18:24", "zip": 8004}, "type": "Feature"}, {"geometry": {"coordinates": [8.547912, 47.384923], "type": "Point"}, "properties": {"address": "Culmannstrasse", "electric": 2, "id": "pb_386", "manual": 1, "name": "Rigiplatz", "provider": "publibike", "timeStamp": "01/30/2020, 11:18:24", "zip": 8006}, "type": "Feature"}, {"geometry": {"coordinates": [8.543768, 47.411057], "type": "Point"}, "properties": {"address": "Hofwiesenstrasse 369", "electric": 4, "id": "pb_387", "manual": 3, "name": "Bahnhof Oerlikon S\u00fcd", "provider": "publibike", "timeStamp": "01/30/2020, 11:18:24", "zip": 8050}, "type": "Feature"}, {"geometry": {"coordinates": [8.544185, 47.412732], "type": "Point"}, "properties": {"address": "Jungholzstrasse 6", "electric": 3, "id": "pb_388", "manual": 2, "name": "Max-Frisch-Platz", "provider": "publibike", "timeStamp": "01/30/2020, 11:18:24", "zip": 8050}, "type": "Feature"}, {"geometry": {"coordinates": [8.558096, 47.413032], "type": "Point"}, "properties": {"address": "Andreasstrasse", "electric": 4, "id": "pb_389", "manual": 10, "name": "Hunziker-Areal", "provider": "publibike", "timeStamp": "01/30/2020, 11:18:24", "zip": 8050}, "type": "Feature"}, {"geometry": {"coordinates": [8.533265, 47.412873], "type": "Point"}, "properties": {"address": "Regina-K\u00e4gi-Strasse 1", "electric": 4, "id": "pb_390", "manual": 4, "name": "Luis-H\u00e4fliger-Park", "provider": "publibike", "timeStamp": "01/30/2020, 11:18:24", "zip": 8050}, "type": "Feature"}, {"geometry": {"coordinates": [8.499265, 47.401852], "type": "Point"}, "properties": {"address": "Limmattalstrasse 177", "electric": 0, "id": "pb_391", "manual": 0, "name": "Meierhofplatz", "provider": "publibike", "timeStamp": "01/30/2020, 11:18:24", "zip": 8049}, "type": "Feature"}, {"geometry": {"coordinates": [8.528356, 47.393255], "type": "Point"}, "properties": {"address": "R\u00f6schibachstrasse 73", "electric": 0, "id": "pb_392", "manual": 0, "name": "R\u00f6schibachplatz", "provider": "publibike", "timeStamp": "01/30/2020, 11:18:24", "zip": 8037}, "type": "Feature"}, {"geometry": {"coordinates": [8.538067, 47.415721], "type": "Point"}, "properties": {"address": "Birchstrasse 191", "electric": 4, "id": "pb_393", "manual": 1, "name": "Oerliker Park", "provider": "publibike", "timeStamp": "01/30/2020, 11:18:24", "zip": 8050}, "type": "Feature"}, {"geometry": {"coordinates": [8.5420304, 47.3669233], "type": "Point"}, "properties": {"address": "Stadthausquai 1", "electric": 1, "id": "pb_395", "manual": 8, "name": "B\u00fcrkliplatz", "provider": "publibike", "timeStamp": "01/30/2020, 11:18:24", "zip": 8001}, "type": "Feature"}, {"geometry": {"coordinates": [8.535767, 47.409881], "type": "Point"}, "properties": {"address": "Regensbergstrasse 195", "electric": 1, "id": "pb_396", "manual": 1, "name": "Holunderhof", "provider": "publibike", "timeStamp": "01/30/2020, 11:18:24", "zip": 8050}, "type": "Feature"}, {"geometry": {"coordinates": [8.5116245, 47.3616199], "type": "Point"}, "properties": {"address": "Grubenstrasse 42", "electric": 1, "id": "pb_431", "manual": 2, "name": "Binz Center", "provider": "publibike", "timeStamp": "01/30/2020, 11:18:24", "zip": 8045}, "type": "Feature"}, {"geometry": {"coordinates": [8.547195, 47.382089], "type": "Point"}, "properties": {"address": "Nelkenstrasse 24", "electric": 3, "id": "pb_430", "manual": 0, "name": "Stapferstube", "provider": "publibike", "timeStamp": "01/30/2020, 11:18:24", "zip": 8006}, "type": "Feature"}, {"geometry": {"coordinates": [8.5787183, 47.4039845], "type": "Point"}, "properties": {"address": "Kronwiesenstrasse 35", "electric": 3, "id": "pb_426", "manual": 3, "name": "Kronwiesen", "provider": "publibike", "timeStamp": "01/30/2020, 11:18:24", "zip": 8051}, "type": "Feature"}, {"geometry": {"coordinates": [8.508131, 47.420757], "type": "Point"}, "properties": {"address": "Riedenhaldenstrasse 20-18", "electric": 11, "id": "pb_425", "manual": 5, "name": "Bahnhof Affoltern", "provider": "publibike", "timeStamp": "01/30/2020, 11:18:24", "zip": 8046}, "type": "Feature"}, {"geometry": {"coordinates": [8.532464, 47.406988], "type": "Point"}, "properties": {"address": "K\u00fcnzlistrasse 41", "electric": 3, "id": "pb_424", "manual": 4, "name": "Birchd\u00f6rfli", "provider": "publibike", "timeStamp": "01/30/2020, 11:18:24", "zip": 8057}, "type": "Feature"}, {"geometry": {"coordinates": [8.5777038, 47.4080095], "type": "Point"}, "properties": {"address": "Luegislandstrasse 412", "electric": 4, "id": "pb_429", "manual": 5, "name": "Luegisland", "provider": "publibike", "timeStamp": "01/30/2020, 11:18:24", "zip": 8051}, "type": "Feature"}, {"geometry": {"coordinates": [8.58841, 47.40158], "type": "Point"}, "properties": {"address": "Hirzenbachstrasse 2-4", "electric": 0, "id": "pb_428", "manual": 3, "name": "Hirzenbachstrasse", "provider": "publibike", "timeStamp": "01/30/2020, 11:18:24", "zip": 8051}, "type": "Feature"}, {"geometry": {"coordinates": [8.5563463, 47.4095467], "type": "Point"}, "properties": {"address": "K\u00fchriedweg", "electric": 2, "id": "pb_445", "manual": 4, "name": "Hallenbad Oerlikon", "provider": "publibike", "timeStamp": "01/30/2020, 11:18:24", "zip": 8050}, "type": "Feature"}, {"geometry": {"coordinates": [8.537971, 47.364871], "type": "Point"}, "properties": {"address": "General-Guisan-Quai 17", "electric": 0, "id": "pb_454", "manual": 3, "name": "General-Guisan-Quai", "provider": "publibike", "timeStamp": "01/30/2020, 11:18:24", "zip": 8002}, "type": "Feature"}, {"geometry": {"coordinates": [8.560587, 47.350578], "type": "Point"}, "properties": {"address": "Bellerivestrasse 245", "electric": 9, "id": "pb_450", "manual": 7, "name": "Bahnhof Tiefenbrunnen", "provider": "publibike", "timeStamp": "01/30/2020, 11:18:24", "zip": 8008}, "type": "Feature"}, {"geometry": {"coordinates": [8.5269416, 47.3563719], "type": "Point"}, "properties": {"address": "Waffenplatzstrasse 89", "electric": 3, "id": "pb_452", "manual": 2, "name": "Rieterplatz", "provider": "publibike", "timeStamp": "01/30/2020, 11:18:24", "zip": 8002}, "type": "Feature"}, {"geometry": {"coordinates": [8.514176, 47.3663708], "type": "Point"}, "properties": {"address": "Talwiesenstrasse 92", "electric": 1, "id": "pb_446", "manual": 2, "name": "Binzallee", "provider": "publibike", "timeStamp": "01/30/2020, 11:18:24", "zip": 8055}, "type": "Feature"}, {"geometry": {"coordinates": [8.5070564, 47.371455], "type": "Point"}, "properties": {"address": "Gutstrasse 87", "electric": 1, "id": "pb_447", "manual": 3, "name": "Gutstrasse", "provider": "publibike", "timeStamp": "01/30/2020, 11:18:24", "zip": 8055}, "type": "Feature"}, {"geometry": {"coordinates": [8.4941268, 47.3836391], "type": "Point"}, "properties": {"address": "Flurstrasse 62", "electric": 0, "id": "pb_453", "manual": 5, "name": "Flurpark", "provider": "publibike", "timeStamp": "01/30/2020, 11:18:24", "zip": 8048}, "type": "Feature"}, {"geometry": {"coordinates": [8.500343, 47.380778], "type": "Point"}, "properties": {"address": "Edelweissstrasse 32", "electric": 4, "id": "pb_448", "manual": 3, "name": "Bl\u00fcemliquartier", "provider": "publibike", "timeStamp": "01/30/2020, 11:18:24", "zip": 8048}, "type": "Feature"}, {"geometry": {"coordinates": [8.528796, 47.383858], "type": "Point"}, "properties": {"address": "Gasometerstrasse 24", "electric": 2, "id": "pb_449", "manual": 12, "name": "Gasometerstrasse", "provider": "publibike", "timeStamp": "01/30/2020, 11:18:24", "zip": 8005}, "type": "Feature"}, {"geometry": {"coordinates": [8.4981964, 47.3859194], "type": "Point"}, "properties": {"address": "Baslerstrasse 57", "electric": 10, "id": "pb_455", "manual": 7, "name": "Letzipark", "provider": "publibike", "timeStamp": "01/30/2020, 11:18:24", "zip": 8048}, "type": "Feature"}, {"geometry": {"coordinates": [8.515252, 47.381915], "type": "Point"}, "properties": {"address": "Sihlfeldstrasse 175", "electric": 2, "id": "pb_451", "manual": 2, "name": "Hardplatz", "provider": "publibike", "timeStamp": "01/30/2020, 11:18:24", "zip": 8004}, "type": "Feature"}, {"geometry": {"coordinates": [8.5064743, 47.4188324], "type": "Point"}, "properties": {"address": "Wehntalerstrasse 541", "electric": 2, "id": "pb_427", "manual": 2, "name": "Zehntenhausplatz", "provider": "publibike", "timeStamp": "01/30/2020, 11:18:24", "zip": 8046}, "type": "Feature"}, {"geometry": {"coordinates": [8.537729, 47.379719], "type": "Point"}, "properties": {"address": "Sihlquai/HB", "electric": 5, "id": "pb_513", "manual": 6, "name": "Sihlquai", "provider": "publibike", "timeStamp": "01/30/2020, 11:18:24", "zip": 8005}, "type": "Feature"}, {"geometry": {"coordinates": [8.596202, 47.397885], "type": "Point"}, "properties": {"address": "Bahnhof Stettbach", "electric": 5, "id": "pb_514", "manual": 0, "name": "Bahnhof Stettbach", "provider": "publibike", "timeStamp": "01/30/2020, 11:18:24", "zip": 8051}, "type": "Feature"}, {"geometry": {"coordinates": [8.5543974, 47.3690153], "type": "Point"}, "properties": {"address": "Kasinostrasse 10", "electric": 6, "id": "pb_515", "manual": 0, "name": "Hottingerplatz", "provider": "publibike", "timeStamp": "01/30/2020, 11:18:24", "zip": 8032}, "type": "Feature"}, {"geometry": {"coordinates": [8.534444, 47.351525], "type": "Point"}, "properties": {"address": "Mobile Station Z\u00fcrich 1", "electric": 0, "id": "pb_282", "manual": 0, "name": "Theaterspektakel", "provider": "publibike", "timeStamp": "01/30/2020, 11:18:24", "zip": 8002}, "type": "Feature"}, {"geometry": {"coordinates": [8.516257, 47.367656], "type": "Point"}, "properties": {"address": "Goldbrunnenstrasse 54", "electric": 4, "id": "pb_538", "manual": 1, "name": "Kirche B\u00fchl", "provider": "publibike", "timeStamp": "01/30/2020, 11:18:24", "zip": 8055}, "type": "Feature"}, {"geometry": {"coordinates": [8.555639, 47.416873], "type": "Point"}, "properties": {"address": "Leutschenbachstrasse 50", "electric": 1, "id": "pb_537", "manual": 4, "name": "Leutschenpark", "provider": "publibike", "timeStamp": "01/30/2020, 11:18:24", "zip": 8050}, "type": "Feature"}, {"geometry": {"coordinates": [8.546464, 47.403822], "type": "Point"}, "properties": {"address": "Berninastrasse 45", "electric": 11, "id": "pb_540", "manual": 2, "name": "Berninaplatz", "provider": "publibike", "timeStamp": "01/30/2020, 11:18:24", "zip": 8057}, "type": "Feature"}, {"geometry": {"coordinates": [8.523134, 47.369004], "type": "Point"}, "properties": {"address": "Erlachstrasse 3", "electric": 0, "id": "pb_385", "manual": 4, "name": "Aegerten", "provider": "publibike", "timeStamp": "01/30/2020, 11:18:24", "zip": 8003}, "type": "Feature"}, {"geometry": {"coordinates": [8.49038, 47.381591], "type": "Point"}, "properties": {"address": "Rautistrasse 60", "electric": 3, "id": "pb_536", "manual": 6, "name": "Freilager", "provider": "publibike", "timeStamp": "01/30/2020, 11:18:24", "zip": 8048}, "type": "Feature"}, {"geometry": {"coordinates": [8.496511, 47.375247], "type": "Point"}, "properties": {"address": "Letzigraben 139", "electric": 2, "id": "pb_444", "manual": 2, "name": "Sackzelg", "provider": "publibike", "timeStamp": "01/30/2020, 11:18:24", "zip": 8047}, "type": "Feature"}, {"geometry": {"coordinates": [8.58131, 47.402801], "type": "Point"}, "properties": {"address": "Altwiesenstrasse 104", "electric": 1, "id": "pb_539", "manual": 5, "name": "Glattwiesen", "provider": "publibike", "timeStamp": "01/30/2020, 11:18:24", "zip": 8051}, "type": "Feature"}, {"geometry": {"coordinates": [8.52689, 47.3767], "type": "Point"}, "properties": {"address": "Molkenstrasse 5", "electric": 1, "id": "pb_560", "manual": 5, "name": "Helvetiaplatz", "provider": "publibike", "timeStamp": "01/30/2020, 11:18:24", "zip": 8004}, "type": "Feature"}, {"geometry": {"coordinates": [8.525602, 47.374241], "type": "Point"}, "properties": {"address": "Badenerstrasse 90", "electric": 0, "id": "pb_559", "manual": 3, "name": "Bezirksgeb\u00e4ude", "provider": "publibike", "timeStamp": "01/30/2020, 11:18:24", "zip": 8004}, "type": "Feature"}, {"geometry": {"coordinates": [8.535082, 47.345248], "type": "Point"}, "properties": {"address": "Bachstrasse 15", "electric": 4, "id": "pb_564", "manual": 5, "name": "GZ Wollishofen", "provider": "publibike", "timeStamp": "01/30/2020, 11:18:24", "zip": 8038}, "type": "Feature"}, {"geometry": {"coordinates": [8.514841, 47.370238], "type": "Point"}, "properties": {"address": "Schrennengasse 37", "electric": 0, "id": "pb_562", "manual": 3, "name": "Goldbrunnenplatz", "provider": "publibike", "timeStamp": "01/30/2020, 11:18:24", "zip": 8003}, "type": "Feature"}, {"geometry": {"coordinates": [8.514138, 47.374206], "type": "Point"}, "properties": {"address": "Idaplatz 4", "electric": 3, "id": "pb_557", "manual": 3, "name": "Idaplatz", "provider": "publibike", "timeStamp": "01/30/2020, 11:18:24", "zip": 8003}, "type": "Feature"}, {"geometry": {"coordinates": [8.518432, 47.369549], "type": "Point"}, "properties": {"address": "Brinerstrasse 2", "electric": 2, "id": "pb_558", "manual": 9, "name": "Schmiede Wiedikon", "provider": "publibike", "timeStamp": "01/30/2020, 11:18:24", "zip": 8003}, "type": "Feature"}, {"geometry": {"coordinates": [8.537546, 47.391289], "type": "Point"}, "properties": {"address": "Rotbuchstrasse 15", "electric": 0, "id": "pb_556", "manual": 0, "name": "Schaffhauserplatz", "provider": "publibike", "timeStamp": "01/30/2020, 11:18:24", "zip": 8006}, "type": "Feature"}, {"geometry": {"coordinates": [8.541541, 47.413733], "type": "Point"}, "properties": {"address": "Therese-Giehse-Strasse 11", "electric": 1, "id": "pb_561", "manual": 2, "name": "Center Eleven", "provider": "publibike", "timeStamp": "01/30/2020, 11:18:24", "zip": 8050}, "type": "Feature"}, {"geometry": {"coordinates": [8.534227, 47.360004], "type": "Point"}, "properties": {"address": "Alfred Escher-Strasse 76", "electric": 13, "id": "pb_563", "manual": 5, "name": "Mythenschloss", "provider": "publibike", "timeStamp": "01/30/2020, 11:18:24", "zip": 8002}, "type": "Feature"}, {"geometry": {"coordinates": [8.50373, 47.396172], "type": "Point"}, "properties": {"address": "Hardeggstrasse 6", "electric": 2, "id": "pb_566", "manual": 4, "name": "Am Wasser", "provider": "publibike", "timeStamp": "01/30/2020, 11:18:24", "zip": 8049}, "type": "Feature"}, {"geometry": {"coordinates": [8.532432, 47.381174], "type": "Point"}, "properties": {"address": "Klingenstrasse 9", "electric": 6, "id": "pb_565", "manual": 3, "name": "Zollstrasse", "provider": "publibike", "timeStamp": "01/30/2020, 11:18:24", "zip": 8005}, "type": "Feature"}, {"geometry": {"coordinates": [8.497982, 47.381447], "type": "Point"}, "properties": {"address": "Dennlerstrasse 23", "electric": 4, "id": "pb_567", "manual": 5, "name": "Dennlerstrasse", "provider": "publibike", "timeStamp": "01/30/2020, 11:18:24", "zip": 8047}, "type": "Feature"}, {"geometry": {"coordinates": [8.528049, 47.347701], "type": "Point"}, "properties": {"address": "Mutschellenstrasse 114", "electric": 1, "id": "pb_568", "manual": 1, "name": "Jugendherberge", "provider": "publibike", "timeStamp": "01/30/2020, 11:18:24", "zip": 8038}, "type": "Feature"}, {"geometry": {"coordinates": [8.539016, 47.405751], "type": "Point"}, "properties": {"address": "Ringstrasse 82", "electric": 5, "id": "pb_569", "manual": 2, "name": "Freibad Allenmoos", "provider": "publibike", "timeStamp": "01/30/2020, 11:18:24", "zip": 8057}, "type": "Feature"}, {"geometry": {"coordinates": [8.534974, 47.402164], "type": "Point"}, "properties": {"address": "Brache Guggach", "electric": 3, "id": "pb_572", "manual": 0, "name": "Radiostudio", "provider": "publibike", "timeStamp": "01/30/2020, 11:18:24", "zip": 8057}, "type": "Feature"}, {"geometry": {"coordinates": [8.547901, 47.375556], "type": "Point"}, "properties": {"address": "Karl-Schmid-Strasse 4", "electric": 4, "id": "pb_571", "manual": 0, "name": "ETH/Zoologisches Museum", "provider": "publibike", "timeStamp": "01/30/2020, 11:18:24", "zip": 8006}, "type": "Feature"}, {"geometry": {"coordinates": [8.548208, 47.36969], "type": "Point"}, "properties": {"charge": 98, "id": "smide_2901", "name": "ZH 267278", "provider": "smide", "range": 49.0, "size": 20, "time": "01/30/2020, 11:19:58"}, "type": "Feature"}, {"geometry": {"coordinates": [8.561681, 47.35037], "type": "Point"}, "properties": {"charge": 100, "id": "smide_2895", "name": "ZH 267279", "provider": "smide", "range": 50.0, "size": 20, "time": "01/30/2020, 11:19:58"}, "type": "Feature"}, {"geometry": {"coordinates": [8.540145, 47.378965], "type": "Point"}, "properties": {"charge": 57, "id": "smide_2874", "name": "ZH 267288", "provider": "smide", "range": 28.0, "size": 17, "time": "01/30/2020, 11:19:58"}, "type": "Feature"}, {"geometry": {"coordinates": [8.540726, 47.378373], "type": "Point"}, "properties": {"charge": 39, "id": "smide_2871", "name": "ZH 267086", "provider": "smide", "range": 19.0, "size": 20, "time": "01/30/2020, 11:19:58"}, "type": "Feature"}, {"geometry": {"coordinates": [8.551736, 47.380075], "type": "Point"}, "properties": {"charge": 83, "id": "smide_2867", "name": "ZH 267090", "provider": "smide", "range": 41.0, "size": 20, "time": "01/30/2020, 11:19:58"}, "type": "Feature"}, {"geometry": {"coordinates": [8.553585, 47.387185], "type": "Point"}, "properties": {"charge": 62, "id": "smide_2861", "name": "ZH 267096", "provider": "smide", "range": 31.0, "size": 17, "time": "01/30/2020, 11:19:58"}, "type": "Feature"}, {"geometry": {"coordinates": [8.51351, 47.377971], "type": "Point"}, "properties": {"charge": 84, "id": "smide_2859", "name": "ZH 267098", "provider": "smide", "range": 42.0, "size": 17, "time": "01/30/2020, 11:19:58"}, "type": "Feature"}, {"geometry": {"coordinates": [8.541791, 47.378288], "type": "Point"}, "properties": {"charge": 76, "id": "smide_2856", "name": "ZH 267101", "provider": "smide", "range": 38.0, "size": 17, "time": "01/30/2020, 11:19:58"}, "type": "Feature"}, {"geometry": {"coordinates": [8.582741, 47.350948], "type": "Point"}, "properties": {"charge": 91, "id": "smide_2855", "name": "ZH 267102", "provider": "smide", "range": 45.0, "size": 17, "time": "01/30/2020, 11:19:58"}, "type": "Feature"}, {"geometry": {"coordinates": [8.510595, 47.398445], "type": "Point"}, "properties": {"charge": 89, "id": "smide_2854", "name": "ZH 267103", "provider": "smide", "range": 44.0, "size": 17, "time": "01/30/2020, 11:19:58"}, "type": "Feature"}, {"geometry": {"coordinates": [8.545551, 47.368766], "type": "Point"}, "properties": {"charge": 56, "id": "smide_2833", "name": "ZH 267182", "provider": "smide", "range": 28.0, "size": 20, "time": "01/30/2020, 11:19:58"}, "type": "Feature"}, {"geometry": {"coordinates": [8.569988, 47.35231], "type": "Point"}, "properties": {"charge": 70, "id": "smide_2831", "name": "ZH 267180", "provider": "smide", "range": 35.0, "size": 20, "time": "01/30/2020, 11:19:58"}, "type": "Feature"}, {"geometry": {"coordinates": [8.52301, 47.370873], "type": "Point"}, "properties": {"charge": 89, "id": "smide_2829", "name": "ZH 267049", "provider": "smide", "range": 44.0, "size": 20, "time": "01/30/2020, 11:19:58"}, "type": "Feature"}, {"geometry": {"coordinates": [8.506045, 47.418961], "type": "Point"}, "properties": {"charge": 100, "id": "smide_2804", "name": "ZH266903", "provider": "smide", "range": 50.0, "size": 20, "time": "01/30/2020, 11:19:58"}, "type": "Feature"}, {"geometry": {"coordinates": [8.541163, 47.378968], "type": "Point"}, "properties": {"charge": 81, "id": "smide_2798", "name": "ZH266888", "provider": "smide", "range": 40.0, "size": 17, "time": "01/30/2020, 11:19:58"}, "type": "Feature"}, {"geometry": {"coordinates": [8.535488, 47.35939], "type": "Point"}, "properties": {"charge": 85, "id": "smide_2793", "name": "ZH266883", "provider": "smide", "range": 42.0, "size": 17, "time": "01/30/2020, 11:19:58"}, "type": "Feature"}, {"geometry": {"coordinates": [8.527976, 47.35881], "type": "Point"}, "properties": {"charge": 49, "id": "smide_2790", "name": "ZH266880", "provider": "smide", "range": 24.0, "size": 17, "time": "01/30/2020, 11:19:58"}, "type": "Feature"}, {"geometry": {"coordinates": [8.50196, 47.36876], "type": "Point"}, "properties": {"charge": 98, "id": "smide_2785", "name": "ZH266875", "provider": "smide", "range": 49.0, "size": 17, "time": "01/30/2020, 11:19:58"}, "type": "Feature"}, {"geometry": {"coordinates": [8.555458, 47.384455], "type": "Point"}, "properties": {"charge": 23, "id": "smide_2781", "name": "ZH 266871", "provider": "smide", "range": 11.0, "size": 17, "time": "01/30/2020, 11:19:58"}, "type": "Feature"}, {"geometry": {"coordinates": [8.542975, 47.411545], "type": "Point"}, "properties": {"charge": 37, "id": "smide_2780", "name": "ST1 X #1", "provider": "smide", "range": 18.0, "size": 17, "time": "01/30/2020, 11:19:58"}, "type": "Feature"}, {"geometry": {"coordinates": [8.514423, 47.363188], "type": "Point"}, "properties": {"charge": 93, "id": "smide_2775", "name": "ZH267283", "provider": "smide", "range": 46.0, "size": 20, "time": "01/30/2020, 11:19:58"}, "type": "Feature"}, {"geometry": {"coordinates": [8.545184, 47.423556], "type": "Point"}, "properties": {"charge": 93, "id": "smide_2773", "name": "ZH266561", "provider": "smide", "range": 46.0, "size": 17, "time": "01/30/2020, 11:19:58"}, "type": "Feature"}, {"geometry": {"coordinates": [8.48954, 47.37388], "type": "Point"}, "properties": {"charge": 100, "id": "smide_2763", "name": "ZH266641", "provider": "smide", "range": 50.0, "size": 17, "time": "01/30/2020, 11:19:58"}, "type": "Feature"}, {"geometry": {"coordinates": [8.560408, 47.382181], "type": "Point"}, "properties": {"charge": 51, "id": "smide_2761", "name": "ZH266642", "provider": "smide", "range": 25.0, "size": 20, "time": "01/30/2020, 11:19:58"}, "type": "Feature"}, {"geometry": {"coordinates": [8.548094, 47.368864], "type": "Point"}, "properties": {"charge": 89, "id": "smide_2758", "name": "ZH266638 M", "provider": "smide", "range": 44.0, "size": 17, "time": "01/30/2020, 11:19:58"}, "type": "Feature"}, {"geometry": {"coordinates": [8.524079, 47.371424], "type": "Point"}, "properties": {"charge": 79, "id": "smide_2752", "name": "BE343856", "provider": "smide", "range": 39.0, "size": 17, "time": "01/30/2020, 11:19:58"}, "type": "Feature"}, {"geometry": {"coordinates": [8.552642, 47.3887], "type": "Point"}, "properties": {"charge": 100, "id": "smide_2751", "name": "BE343857", "provider": "smide", "range": 50.0, "size": 17, "time": "01/30/2020, 11:19:58"}, "type": "Feature"}, {"geometry": {"coordinates": [8.491266, 47.390904], "type": "Point"}, "properties": {"charge": 55, "id": "smide_2749", "name": "BE343867", "provider": "smide", "range": 27.0, "size": 17, "time": "01/30/2020, 11:19:58"}, "type": "Feature"}, {"geometry": {"coordinates": [8.527775, 47.369196], "type": "Point"}, "properties": {"charge": 20, "id": "smide_2748", "name": "BE335758", "provider": "smide", "range": 10.0, "size": 17, "time": "01/30/2020, 11:19:58"}, "type": "Feature"}, {"geometry": {"coordinates": [8.514379, 47.357372], "type": "Point"}, "properties": {"charge": 74, "id": "smide_2746", "name": "BE335817", "provider": "smide", "range": 37.0, "size": 17, "time": "01/30/2020, 11:19:58"}, "type": "Feature"}, {"geometry": {"coordinates": [8.551541, 47.420752], "type": "Point"}, "properties": {"charge": 100, "id": "smide_2747", "name": "BE335820", "provider": "smide", "range": 50.0, "size": 17, "time": "01/30/2020, 11:19:58"}, "type": "Feature"}, {"geometry": {"coordinates": [8.492947, 47.3806], "type": "Point"}, "properties": {"charge": 38, "id": "smide_2745", "name": "BE335818", "provider": "smide", "range": 19.0, "size": 17, "time": "01/30/2020, 11:19:58"}, "type": "Feature"}, {"geometry": {"coordinates": [8.560641, 47.368716], "type": "Point"}, "properties": {"charge": 48, "id": "smide_2742", "name": "BE343866", "provider": "smide", "range": 24.0, "size": 17, "time": "01/30/2020, 11:19:58"}, "type": "Feature"}, {"geometry": {"coordinates": [8.544556, 47.418923], "type": "Point"}, "properties": {"charge": 95, "id": "smide_2738", "name": "BE343865", "provider": "smide", "range": 47.0, "size": 17, "time": "01/30/2020, 11:19:58"}, "type": "Feature"}, {"geometry": {"coordinates": [8.514321, 47.357316], "type": "Point"}, "properties": {"charge": 81, "id": "smide_2737", "name": "BE336149", "provider": "smide", "range": 40.0, "size": 17, "time": "01/30/2020, 11:19:58"}, "type": "Feature"}, {"geometry": {"coordinates": [8.562749, 47.371588], "type": "Point"}, "properties": {"charge": 76, "id": "smide_2734", "name": "BE343876", "provider": "smide", "range": 38.0, "size": 17, "time": "01/30/2020, 11:19:58"}, "type": "Feature"}, {"geometry": {"coordinates": [8.52974, 47.371272], "type": "Point"}, "properties": {"charge": 27, "id": "smide_2733", "name": "BE343873", "provider": "smide", "range": 13.0, "size": 17, "time": "01/30/2020, 11:19:58"}, "type": "Feature"}, {"geometry": {"coordinates": [8.494437, 47.366028], "type": "Point"}, "properties": {"charge": 87, "id": "smide_2732", "name": "BE343870", "provider": "smide", "range": 43.0, "size": 17, "time": "01/30/2020, 11:19:58"}, "type": "Feature"}, {"geometry": {"coordinates": [8.564721, 47.37286], "type": "Point"}, "properties": {"charge": 84, "id": "smide_2729", "name": "BE343878", "provider": "smide", "range": 42.0, "size": 17, "time": "01/30/2020, 11:19:58"}, "type": "Feature"}, {"geometry": {"coordinates": [8.49731, 47.404043], "type": "Point"}, "properties": {"charge": 32, "id": "smide_2725", "name": "ZH261545", "provider": "smide", "range": 16.0, "size": 0, "time": "01/30/2020, 11:19:58"}, "type": "Feature"}, {"geometry": {"coordinates": [8.546415, 47.367268], "type": "Point"}, "properties": {"charge": 76, "id": "smide_2718", "name": "ZH259019", "provider": "smide", "range": 38.0, "size": 20, "time": "01/30/2020, 11:19:58"}, "type": "Feature"}, {"geometry": {"coordinates": [8.518319, 47.398132], "type": "Point"}, "properties": {"charge": 57, "id": "smide_2717", "name": "ZH263287", "provider": "smide", "range": 28.0, "size": 17, "time": "01/30/2020, 11:19:58"}, "type": "Feature"}, {"geometry": {"coordinates": [8.541376, 47.370098], "type": "Point"}, "properties": {"charge": 31, "id": "smide_2716", "name": "ZH254606", "provider": "smide", "range": 15.0, "size": 17, "time": "01/30/2020, 11:19:58"}, "type": "Feature"}, {"geometry": {"coordinates": [8.537459, 47.340608], "type": "Point"}, "properties": {"charge": 88, "id": "smide_2715", "name": "ZH254605", "provider": "smide", "range": 44.0, "size": 17, "time": "01/30/2020, 11:19:58"}, "type": "Feature"}, {"geometry": {"coordinates": [8.546398, 47.374404], "type": "Point"}, "properties": {"charge": 100, "id": "smide_2710", "name": "ZH256460", "provider": "smide", "range": 50.0, "size": 17, "time": "01/30/2020, 11:19:58"}, "type": "Feature"}, {"geometry": {"coordinates": [8.546586, 47.36834], "type": "Point"}, "properties": {"charge": 100, "id": "smide_2712", "name": "ZH256462", "provider": "smide", "range": 50.0, "size": 17, "time": "01/30/2020, 11:19:58"}, "type": "Feature"}, {"geometry": {"coordinates": [8.563903, 47.348213], "type": "Point"}, "properties": {"charge": 74, "id": "smide_2709", "name": "ZH256466", "provider": "smide", "range": 37.0, "size": 20, "time": "01/30/2020, 11:19:58"}, "type": "Feature"}, {"geometry": {"coordinates": [8.549447, 47.422064], "type": "Point"}, "properties": {"charge": 83, "id": "smide_2707", "name": "ZH256467", "provider": "smide", "range": 41.0, "size": 20, "time": "01/30/2020, 11:19:58"}, "type": "Feature"}, {"geometry": {"coordinates": [8.48315, 47.384664], "type": "Point"}, "properties": {"charge": 53, "id": "smide_2708", "name": "ZH256464", "provider": "smide", "range": 26.0, "size": 17, "time": "01/30/2020, 11:19:58"}, "type": "Feature"}, {"geometry": {"coordinates": [8.536806, 47.37978], "type": "Point"}, "properties": {"charge": 79, "id": "smide_2706", "name": "ZH256322", "provider": "smide", "range": 39.0, "size": 20, "time": "01/30/2020, 11:19:58"}, "type": "Feature"}, {"geometry": {"coordinates": [8.537162, 47.41914], "type": "Point"}, "properties": {"charge": 34, "id": "smide_2705", "name": "ZH256471", "provider": "smide", "range": 17.0, "size": 20, "time": "01/30/2020, 11:19:58"}, "type": "Feature"}, {"geometry": {"coordinates": [8.563466, 47.37234], "type": "Point"}, "properties": {"charge": 100, "id": "smide_2701", "name": "ZH256468", "provider": "smide", "range": 50.0, "size": 20, "time": "01/30/2020, 11:19:58"}, "type": "Feature"}, {"geometry": {"coordinates": [8.507428, 47.407228], "type": "Point"}, "properties": {"charge": 95, "id": "smide_2700", "name": "ZH256470", "provider": "smide", "range": 47.0, "size": 20, "time": "01/30/2020, 11:19:58"}, "type": "Feature"}, {"geometry": {"coordinates": [8.568398, 47.367668], "type": "Point"}, "properties": {"charge": 29, "id": "smide_2699", "name": "ZH254611", "provider": "smide", "range": 14.0, "size": 20, "time": "01/30/2020, 11:19:58"}, "type": "Feature"}, {"geometry": {"coordinates": [8.511537, 47.370896], "type": "Point"}, "properties": {"charge": 42, "id": "smide_2696", "name": "ZH254616", "provider": "smide", "range": 21.0, "size": 20, "time": "01/30/2020, 11:19:58"}, "type": "Feature"}, {"geometry": {"coordinates": [8.5141, 47.362032], "type": "Point"}, "properties": {"charge": 88, "id": "smide_2694", "name": "ZH254610", "provider": "smide", "range": 44.0, "size": 20, "time": "01/30/2020, 11:19:58"}, "type": "Feature"}, {"geometry": {"coordinates": [8.510615, 47.398395], "type": "Point"}, "properties": {"charge": 86, "id": "smide_2691", "name": "ZH254622", "provider": "smide", "range": 43.0, "size": 20, "time": "01/30/2020, 11:19:58"}, "type": "Feature"}, {"geometry": {"coordinates": [8.565383, 47.358091], "type": "Point"}, "properties": {"charge": 62, "id": "smide_2690", "name": "ZH254625", "provider": "smide", "range": 31.0, "size": 20, "time": "01/30/2020, 11:19:58"}, "type": "Feature"}, {"geometry": {"coordinates": [8.495284, 47.423736], "type": "Point"}, "properties": {"charge": 85, "id": "smide_2689", "name": "ZH254623", "provider": "smide", "range": 42.0, "size": 20, "time": "01/30/2020, 11:19:58"}, "type": "Feature"}, {"geometry": {"coordinates": [8.538022, 47.4119], "type": "Point"}, "properties": {"charge": 75, "id": "smide_2687", "name": "ZH263529", "provider": "smide", "range": 37.0, "size": 20, "time": "01/30/2020, 11:19:58"}, "type": "Feature"}, {"geometry": {"coordinates": [8.57278, 47.380572], "type": "Point"}, "properties": {"charge": 81, "id": "smide_2684", "name": "ZH254626", "provider": "smide", "range": 40.0, "size": 20, "time": "01/30/2020, 11:19:58"}, "type": "Feature"}, {"geometry": {"coordinates": [8.535973, 47.368566], "type": "Point"}, "properties": {"charge": 62, "id": "smide_2683", "name": "ZH254620", "provider": "smide", "range": 31.0, "size": 20, "time": "01/30/2020, 11:19:58"}, "type": "Feature"}, {"geometry": {"coordinates": [8.587484, 47.403232], "type": "Point"}, "properties": {"charge": 71, "id": "smide_2680", "name": "ZH254619", "provider": "smide", "range": 35.0, "size": 20, "time": "01/30/2020, 11:19:58"}, "type": "Feature"}, {"geometry": {"coordinates": [8.526209, 47.372944], "type": "Point"}, "properties": {"charge": 47, "id": "smide_2671", "name": "ZH258645", "provider": "smide", "range": 23.0, "size": 17, "time": "01/30/2020, 11:19:58"}, "type": "Feature"}, {"geometry": {"coordinates": [8.476615, 47.387428], "type": "Point"}, "properties": {"charge": 72, "id": "smide_2669", "name": "ZH263294", "provider": "smide", "range": 36.0, "size": 17, "time": "01/30/2020, 11:19:58"}, "type": "Feature"}, {"geometry": {"coordinates": [8.502012, 47.36894], "type": "Point"}, "properties": {"charge": 75, "id": "smide_2668", "name": "ZH258640", "provider": "smide", "range": 37.0, "size": 17, "time": "01/30/2020, 11:19:58"}, "type": "Feature"}, {"geometry": {"coordinates": [8.551198, 47.364008], "type": "Point"}, "properties": {"charge": 100, "id": "smide_2666", "name": "ZH258653", "provider": "smide", "range": 50.0, "size": 17, "time": "01/30/2020, 11:19:58"}, "type": "Feature"}, {"geometry": {"coordinates": [8.521638, 47.361492], "type": "Point"}, "properties": {"charge": 99, "id": "smide_2665", "name": "ZH258644", "provider": "smide", "range": 49.0, "size": 17, "time": "01/30/2020, 11:19:58"}, "type": "Feature"}, {"geometry": {"coordinates": [8.529838, 47.344876], "type": "Point"}, "properties": {"charge": 77, "id": "smide_2664", "name": "ZH258652", "provider": "smide", "range": 38.0, "size": 17, "time": "01/30/2020, 11:19:58"}, "type": "Feature"}, {"geometry": {"coordinates": [8.551154, 47.414784], "type": "Point"}, "properties": {"charge": 60, "id": "smide_2663", "name": "ZH258649", "provider": "smide", "range": 30.0, "size": 17, "time": "01/30/2020, 11:19:58"}, "type": "Feature"}, {"geometry": {"coordinates": [8.544884, 47.368452], "type": "Point"}, "properties": {"charge": 46, "id": "smide_2662", "name": "ZH258643", "provider": "smide", "range": 23.0, "size": 17, "time": "01/30/2020, 11:19:58"}, "type": "Feature"}, {"geometry": {"coordinates": [8.560972, 47.37274], "type": "Point"}, "properties": {"charge": 99, "id": "smide_2648", "name": "ZH257930", "provider": "smide", "range": 49.0, "size": 20, "time": "01/30/2020, 11:19:58"}, "type": "Feature"}, {"geometry": {"coordinates": [8.57015, 47.352276], "type": "Point"}, "properties": {"charge": 64, "id": "smide_2657", "name": "ZH257936", "provider": "smide", "range": 32.0, "size": 17, "time": "01/30/2020, 11:19:58"}, "type": "Feature"}, {"geometry": {"coordinates": [8.541617, 47.378972], "type": "Point"}, "properties": {"charge": 89, "id": "smide_2647", "name": "ZH257932", "provider": "smide", "range": 44.0, "size": 20, "time": "01/30/2020, 11:19:58"}, "type": "Feature"}, {"geometry": {"coordinates": [8.519546, 47.370744], "type": "Point"}, "properties": {"charge": 72, "id": "smide_2645", "name": "ZH257933", "provider": "smide", "range": 36.0, "size": 20, "time": "01/30/2020, 11:19:58"}, "type": "Feature"}, {"geometry": {"coordinates": [8.498398, 47.399063], "type": "Point"}, "properties": {"charge": 87, "id": "smide_3", "name": "ZH253765", "provider": "smide", "range": 43.0, "size": 20, "time": "01/30/2020, 11:19:58"}, "type": "Feature"}, {"geometry": {"coordinates": [8.511211, 47.371713], "type": "Point"}, "properties": {"charge": 30, "id": "smide_105", "name": "ZH253804", "provider": "smide", "range": 15.0, "size": 17, "time": "01/30/2020, 11:19:58"}, "type": "Feature"}, {"geometry": {"coordinates": [8.541799, 47.40762], "type": "Point"}, "properties": {"charge": 17, "id": "smide_186", "name": "ZH253751", "provider": "smide", "range": 8.0, "size": 20, "time": "01/30/2020, 11:19:58"}, "type": "Feature"}, {"geometry": {"coordinates": [8.571162, 47.352548], "type": "Point"}, "properties": {"charge": 93, "id": "smide_173", "name": "ZH258501", "provider": "smide", "range": 46.0, "size": 17, "time": "01/30/2020, 11:19:58"}, "type": "Feature"}, {"geometry": {"coordinates": [8.55928, 47.406008], "type": "Point"}, "properties": {"charge": 73, "id": "smide_77", "name": "ZH261548", "provider": "smide", "range": 36.0, "size": 20, "time": "01/30/2020, 11:19:58"}, "type": "Feature"}, {"geometry": {"coordinates": [8.508316, 47.400496], "type": "Point"}, "properties": {"charge": 27, "id": "smide_200", "name": "ZH253801", "provider": "smide", "range": 13.0, "size": 20, "time": "01/30/2020, 11:19:58"}, "type": "Feature"}, {"geometry": {"coordinates": [8.539026, 47.337886], "type": "Point"}, "properties": {"charge": 87, "id": "smide_197", "name": "ZH253864", "provider": "smide", "range": 43.0, "size": 20, "time": "01/30/2020, 11:19:58"}, "type": "Feature"}, {"geometry": {"coordinates": [8.554598, 47.367556], "type": "Point"}, "properties": {"charge": 55, "id": "smide_199", "name": "ZH253766", "provider": "smide", "range": 27.0, "size": 20, "time": "01/30/2020, 11:19:58"}, "type": "Feature"}, {"geometry": {"coordinates": [8.541718, 47.377016], "type": "Point"}, "properties": {"charge": 72, "id": "smide_8", "name": "ZH253861", "provider": "smide", "range": 36.0, "size": 17, "time": "01/30/2020, 11:19:58"}, "type": "Feature"}, {"geometry": {"coordinates": [8.525835, 47.368903], "type": "Point"}, "properties": {"charge": 100, "id": "smide_45", "name": "ZH253716", "provider": "smide", "range": 50.0, "size": 17, "time": "01/30/2020, 11:19:58"}, "type": "Feature"}, {"geometry": {"coordinates": [8.53555, 47.359392], "type": "Point"}, "properties": {"charge": 79, "id": "smide_188", "name": "ZH261543", "provider": "smide", "range": 39.0, "size": 20, "time": "01/30/2020, 11:19:58"}, "type": "Feature"}, {"geometry": {"coordinates": [8.511422, 47.40912], "type": "Point"}, "properties": {"charge": 23, "id": "smide_143", "name": "ZH253778", "provider": "smide", "range": 11.0, "size": 17, "time": "01/30/2020, 11:19:58"}, "type": "Feature"}, {"geometry": {"coordinates": [8.542008, 47.413245], "type": "Point"}, "properties": {"charge": 28, "id": "smide_180", "name": "ZH253824", "provider": "smide", "range": 14.0, "size": 20, "time": "01/30/2020, 11:19:58"}, "type": "Feature"}, {"geometry": {"coordinates": [8.549105, 47.399076], "type": "Point"}, "properties": {"charge": 95, "id": "smide_20", "name": "ZH253770", "provider": "smide", "range": 47.0, "size": 20, "time": "01/30/2020, 11:19:58"}, "type": "Feature"}, {"geometry": {"coordinates": [8.509384, 47.35494], "type": "Point"}, "properties": {"charge": 80, "id": "smide_50", "name": "ZH253853", "provider": "smide", "range": 40.0, "size": 17, "time": "01/30/2020, 11:19:58"}, "type": "Feature"}, {"geometry": {"coordinates": [8.553913, 47.36803], "type": "Point"}, "properties": {"charge": 100, "id": "smide_30", "name": "ZH253813", "provider": "smide", "range": 50.0, "size": 20, "time": "01/30/2020, 11:19:58"}, "type": "Feature"}, {"geometry": {"coordinates": [8.538568, 47.379263], "type": "Point"}, "properties": {"charge": 27, "id": "smide_10", "name": "ZH253855", "provider": "smide", "range": 13.0, "size": 17, "time": "01/30/2020, 11:19:58"}, "type": "Feature"}, {"geometry": {"coordinates": [8.53091, 47.36956], "type": "Point"}, "properties": {"charge": 95, "id": "smide_179", "name": "ZH253687", "provider": "smide", "range": 47.0, "size": 20, "time": "01/30/2020, 11:19:58"}, "type": "Feature"}, {"geometry": {"coordinates": [8.534327, 47.364792], "type": "Point"}, "properties": {"charge": 56, "id": "smide_165", "name": "ZH253752", "provider": "smide", "range": 28.0, "size": 17, "time": "01/30/2020, 11:19:58"}, "type": "Feature"}, {"geometry": {"coordinates": [8.545337, 47.42366], "type": "Point"}, "properties": {"charge": 45, "id": "smide_119", "name": "ZH253686", "provider": "smide", "range": 22.0, "size": 20, "time": "01/30/2020, 11:19:58"}, "type": "Feature"}, {"geometry": {"coordinates": [8.510743, 47.362168], "type": "Point"}, "properties": {"charge": 81, "id": "smide_76", "name": "ZH253764", "provider": "smide", "range": 40.0, "size": 17, "time": "01/30/2020, 11:19:58"}, "type": "Feature"}, {"geometry": {"coordinates": [8.541246, 47.371972], "type": "Point"}, "properties": {"charge": 76, "id": "smide_129", "name": "ZH261378", "provider": "smide", "range": 38.0, "size": 17, "time": "01/30/2020, 11:19:58"}, "type": "Feature"}, {"geometry": {"coordinates": [8.51946, 47.368745], "type": "Point"}, "properties": {"charge": 92, "id": "smide_49", "name": "ZH253873", "provider": "smide", "range": 46.0, "size": 17, "time": "01/30/2020, 11:19:58"}, "type": "Feature"}, {"geometry": {"coordinates": [8.529874, 47.344288], "type": "Point"}, "properties": {"charge": 26, "id": "smide_37", "name": "ZH261377", "provider": "smide", "range": 13.0, "size": 20, "time": "01/30/2020, 11:19:58"}, "type": "Feature"}, {"geometry": {"coordinates": [8.53323, 47.366331], "type": "Point"}, "properties": {"charge": 95, "id": "smide_191", "name": "ZH253762", "provider": "smide", "range": 47.0, "size": 17, "time": "01/30/2020, 11:19:58"}, "type": "Feature"}, {"geometry": {"coordinates": [8.547725, 47.364996], "type": "Point"}, "properties": {"charge": 61, "id": "smide_202", "name": "ZH253830", "provider": "smide", "range": 30.0, "size": 17, "time": "01/30/2020, 11:19:58"}, "type": "Feature"}, {"geometry": {"coordinates": [8.524171, 47.375652], "type": "Point"}, "properties": {"charge": 85, "id": "smide_56", "name": "ZH261442", "provider": "smide", "range": 42.0, "size": 20, "time": "01/30/2020, 11:19:58"}, "type": "Feature"}, {"geometry": {"coordinates": [8.509588, 47.393586], "type": "Point"}, "properties": {"charge": 99, "id": "smide_47", "name": "ZH253858", "provider": "smide", "range": 49.0, "size": 17, "time": "01/30/2020, 11:19:58"}, "type": "Feature"}, {"geometry": {"coordinates": [8.551505, 47.37998], "type": "Point"}, "properties": {"charge": 52, "id": "smide_150", "name": "ZH253703", "provider": "smide", "range": 26.0, "size": 20, "time": "01/30/2020, 11:19:58"}, "type": "Feature"}, {"geometry": {"coordinates": [8.559446, 47.404104], "type": "Point"}, "properties": {"charge": 20, "id": "smide_66", "name": "ZH253818", "provider": "smide", "range": 10.0, "size": 20, "time": "01/30/2020, 11:19:58"}, "type": "Feature"}, {"geometry": {"coordinates": [8.54686, 47.40788], "type": "Point"}, "properties": {"charge": 22, "id": "smide_17", "name": "ZH253793", "provider": "smide", "range": 11.0, "size": 17, "time": "01/30/2020, 11:19:58"}, "type": "Feature"}, {"geometry": {"coordinates": [8.539383, 47.414936], "type": "Point"}, "properties": {"charge": 92, "id": "smide_145", "name": "ZH253780", "provider": "smide", "range": 46.0, "size": 20, "time": "01/30/2020, 11:19:58"}, "type": "Feature"}, {"geometry": {"coordinates": [8.550361, 47.365944], "type": "Point"}, "properties": {"charge": 56, "id": "smide_114", "name": "ZH253878", "provider": "smide", "range": 28.0, "size": 20, "time": "01/30/2020, 11:19:58"}, "type": "Feature"}, {"geometry": {"coordinates": [8.552545, 47.374804], "type": "Point"}, "properties": {"charge": 32, "id": "smide_203", "name": "ZH261547", "provider": "smide", "range": 16.0, "size": 17, "time": "01/30/2020, 11:19:58"}, "type": "Feature"}, {"geometry": {"coordinates": [8.514734, 47.355452], "type": "Point"}, "properties": {"charge": 51, "id": "smide_21", "name": "ZH253841", "provider": "smide", "range": 25.0, "size": 17, "time": "01/30/2020, 11:19:58"}, "type": "Feature"}, {"geometry": {"coordinates": [8.58579, 47.40048], "type": "Point"}, "properties": {"charge": 17, "id": "smide_164", "name": "ZH253775", "provider": "smide", "range": 8.0, "size": 17, "time": "01/30/2020, 11:19:58"}, "type": "Feature"}, {"geometry": {"coordinates": [8.547997, 47.36642], "type": "Point"}, "properties": {"charge": 47, "id": "smide_189", "name": "ZH253845", "provider": "smide", "range": 23.0, "size": 20, "time": "01/30/2020, 11:19:58"}, "type": "Feature"}, {"geometry": {"coordinates": [8.552473, 47.381784], "type": "Point"}, "properties": {"charge": 36, "id": "smide_81", "name": "ZH253753", "provider": "smide", "range": 18.0, "size": 17, "time": "01/30/2020, 11:19:58"}, "type": "Feature"}, {"geometry": {"coordinates": [8.514876, 47.392676], "type": "Point"}, "properties": {"charge": 41, "id": "smide_148", "name": "ZH253844", "provider": "smide", "range": 20.0, "size": 20, "time": "01/30/2020, 11:19:58"}, "type": "Feature"}, {"geometry": {"coordinates": [8.503438, 47.396672], "type": "Point"}, "properties": {"charge": 81, "id": "smide_171", "name": "ZH253689", "provider": "smide", "range": 40.0, "size": 20, "time": "01/30/2020, 11:19:58"}, "type": "Feature"}, {"geometry": {"coordinates": [8.531866, 47.347032], "type": "Point"}, "properties": {"charge": 93, "id": "smide_93", "name": "ZH253681", "provider": "smide", "range": 46.0, "size": 17, "time": "01/30/2020, 11:19:58"}, "type": "Feature"}, {"geometry": {"coordinates": [8.573557, 47.352548], "type": "Point"}, "properties": {"charge": 88, "id": "smide_67", "name": "ZH253779", "provider": "smide", "range": 44.0, "size": 17, "time": "01/30/2020, 11:19:58"}, "type": "Feature"}, {"geometry": {"coordinates": [8.517939, 47.389584], "type": "Point"}, "properties": {"charge": 15, "id": "smide_133", "name": "ZH253848", "provider": "smide", "range": 7.0, "size": 20, "time": "01/30/2020, 11:19:58"}, "type": "Feature"}, {"geometry": {"coordinates": [8.480125, 47.38555], "type": "Point"}, "properties": {"charge": 68, "id": "smide_118", "name": "ZH253759", "provider": "smide", "range": 34.0, "size": 20, "time": "01/30/2020, 11:19:58"}, "type": "Feature"}, {"geometry": {"coordinates": [8.524381, 47.392684], "type": "Point"}, "properties": {"charge": 70, "id": "smide_142", "name": "ZH258745", "provider": "smide", "range": 35.0, "size": 17, "time": "01/30/2020, 11:19:58"}, "type": "Feature"}, {"geometry": {"coordinates": [8.539398, 47.378883], "type": "Point"}, "properties": {"charge": 80, "id": "smide_166", "name": "ZH253728", "provider": "smide", "range": 40.0, "size": 17, "time": "01/30/2020, 11:19:58"}, "type": "Feature"}, {"geometry": {"coordinates": [8.496836, 47.378352], "type": "Point"}, "properties": {"charge": 91, "id": "smide_126", "name": "ZH268400", "provider": "smide", "range": 45.0, "size": 17, "time": "01/30/2020, 11:19:58"}, "type": "Feature"}, {"geometry": {"coordinates": [8.491061, 47.371995], "type": "Point"}, "properties": {"charge": 97, "id": "smide_44", "name": "ZH253837", "provider": "smide", "range": 48.0, "size": 17, "time": "01/30/2020, 11:19:58"}, "type": "Feature"}, {"geometry": {"coordinates": [8.547765, 47.36426], "type": "Point"}, "properties": {"charge": 100, "id": "smide_98", "name": "ZH256321", "provider": "smide", "range": 50.0, "size": 17, "time": "01/30/2020, 11:19:58"}, "type": "Feature"}, {"geometry": {"coordinates": [8.572014, 47.355148], "type": "Point"}, "properties": {"charge": 100, "id": "smide_154", "name": "ZH253744", "provider": "smide", "range": 50.0, "size": 20, "time": "01/30/2020, 11:19:58"}, "type": "Feature"}, {"geometry": {"coordinates": [8.512816, 47.398916], "type": "Point"}, "properties": {"charge": 35, "id": "smide_92", "name": "ZH253798", "provider": "smide", "range": 17.0, "size": 17, "time": "01/30/2020, 11:19:58"}, "type": "Feature"}, {"geometry": {"coordinates": [8.487093, 47.383956], "type": "Point"}, "properties": {"charge": 87, "id": "smide_167", "name": "ZH253854", "provider": "smide", "range": 43.0, "size": 17, "time": "01/30/2020, 11:19:58"}, "type": "Feature"}, {"geometry": {"coordinates": [8.532181, 47.384076], "type": "Point"}, "properties": {"charge": 99, "id": "smide_65", "name": "ZH253810", "provider": "smide", "range": 49.0, "size": 17, "time": "01/30/2020, 11:19:58"}, "type": "Feature"}, {"geometry": {"coordinates": [8.535593, 47.386956], "type": "Point"}, "properties": {"charge": 60, "id": "smide_111", "name": "ZH253763", "provider": "smide", "range": 30.0, "size": 17, "time": "01/30/2020, 11:19:58"}, "type": "Feature"}, {"geometry": {"coordinates": [8.560431, 47.38206], "type": "Point"}, "properties": {"charge": 43, "id": "smide_40", "name": "ZH253690", "provider": "smide", "range": 21.0, "size": 20, "time": "01/30/2020, 11:19:58"}, "type": "Feature"}, {"geometry": {"coordinates": [8.563927, 47.348156], "type": "Point"}, "properties": {"charge": 42, "id": "smide_1", "name": "ZH253776", "provider": "smide", "range": 21.0, "size": 17, "time": "01/30/2020, 11:19:58"}, "type": "Feature"}, {"geometry": {"coordinates": [8.5569, 47.3533], "type": "Point"}, "properties": {"charge": 100, "id": "smide_28", "name": "ZH253831", "provider": "smide", "range": 50.0, "size": 17, "time": "01/30/2020, 11:19:58"}, "type": "Feature"}, {"geometry": {"coordinates": [8.516935, 47.39822], "type": "Point"}, "properties": {"charge": 100, "id": "smide_14", "name": "ZH253749", "provider": "smide", "range": 50.0, "size": 20, "time": "01/30/2020, 11:19:58"}, "type": "Feature"}, {"geometry": {"coordinates": [8.54835, 47.3778], "type": "Point"}, "properties": {"charge": 49, "id": "smide_130", "name": "ZH253847", "provider": "smide", "range": 24.0, "size": 20, "time": "01/30/2020, 11:19:58"}, "type": "Feature"}, {"geometry": {"coordinates": [8.549763, 47.410644], "type": "Point"}, "properties": {"charge": 74, "id": "smide_24", "name": "ZH253696", "provider": "smide", "range": 37.0, "size": 20, "time": "01/30/2020, 11:19:58"}, "type": "Feature"}, {"geometry": {"coordinates": [8.502064, 47.369168], "type": "Point"}, "properties": {"charge": 100, "id": "smide_83", "name": "ZH253869", "provider": "smide", "range": 50.0, "size": 20, "time": "01/30/2020, 11:19:58"}, "type": "Feature"}, {"geometry": {"coordinates": [8.489079, 47.386276], "type": "Point"}, "properties": {"charge": 73, "id": "smide_193", "name": "ZH253738", "provider": "smide", "range": 36.0, "size": 20, "time": "01/30/2020, 11:19:58"}, "type": "Feature"}, {"geometry": {"coordinates": [8.510153, 47.42545], "type": "Point"}, "properties": {"charge": 100, "id": "smide_158", "name": "ZH253870", "provider": "smide", "range": 50.0, "size": 20, "time": "01/30/2020, 11:19:58"}, "type": "Feature"}, {"geometry": {"coordinates": [8.494177, 47.424232], "type": "Point"}, "properties": {"charge": 21, "id": "smide_100", "name": "ZH253862", "provider": "smide", "range": 10.0, "size": 20, "time": "01/30/2020, 11:19:58"}, "type": "Feature"}, {"geometry": {"coordinates": [8.496585, 47.378431], "type": "Point"}, "properties": {"charge": 50, "id": "smide_134", "name": "ZH253741", "provider": "smide", "range": 25.0, "size": 20, "time": "01/30/2020, 11:19:58"}, "type": "Feature"}, {"geometry": {"coordinates": [8.530725, 47.348196], "type": "Point"}, "properties": {"charge": 60, "id": "smide_141", "name": "ZH253800", "provider": "smide", "range": 30.0, "size": 20, "time": "01/30/2020, 11:19:58"}, "type": "Feature"}, {"geometry": {"coordinates": [8.56017, 47.370321], "type": "Point"}, "properties": {"charge": 73, "id": "smide_149", "name": "ZH253743", "provider": "smide", "range": 36.0, "size": 20, "time": "01/30/2020, 11:19:58"}, "type": "Feature"}, {"geometry": {"coordinates": [8.509402, 47.395268], "type": "Point"}, "properties": {"charge": 16, "id": "smide_16", "name": "ZH253713", "provider": "smide", "range": 8.0, "size": 20, "time": "01/30/2020, 11:19:58"}, "type": "Feature"}, {"geometry": {"coordinates": [8.545551, 47.410032], "type": "Point"}, "properties": {"charge": 92, "id": "smide_74", "name": "ZH253693", "provider": "smide", "range": 46.0, "size": 20, "time": "01/30/2020, 11:19:58"}, "type": "Feature"}, {"geometry": {"coordinates": [8.536787, 47.373224], "type": "Point"}, "properties": {"charge": 78, "id": "smide_161", "name": "ZH253691", "provider": "smide", "range": 39.0, "size": 20, "time": "01/30/2020, 11:19:58"}, "type": "Feature"}, {"geometry": {"coordinates": [8.53527, 47.36438], "type": "Point"}, "properties": {"charge": 89, "id": "smide_183", "name": "ZH253868", "provider": "smide", "range": 44.0, "size": 17, "time": "01/30/2020, 11:19:58"}, "type": "Feature"}, {"geometry": {"coordinates": [8.483382, 47.37464], "type": "Point"}, "properties": {"charge": 100, "id": "smide_42", "name": "ZH253846", "provider": "smide", "range": 50.0, "size": 20, "time": "01/30/2020, 11:19:58"}, "type": "Feature"}, {"geometry": {"coordinates": [8.537145, 47.419128], "type": "Point"}, "properties": {"charge": 100, "id": "smide_4", "name": "ZH253740", "provider": "smide", "range": 50.0, "size": 20, "time": "01/30/2020, 11:19:58"}, "type": "Feature"}, {"geometry": {"coordinates": [8.561223, 47.415804], "type": "Point"}, "properties": {"charge": 79, "id": "smide_160", "name": "ZH253722", "provider": "smide", "range": 39.0, "size": 17, "time": "01/30/2020, 11:19:58"}, "type": "Feature"}, {"geometry": {"coordinates": [8.5484, 47.3779], "type": "Point"}, "properties": {"charge": 46, "id": "smide_137", "name": "ZH258502", "provider": "smide", "range": 23.0, "size": 17, "time": "01/30/2020, 11:19:58"}, "type": "Feature"}, {"geometry": {"coordinates": [8.518193, 47.369768], "type": "Point"}, "properties": {"charge": 24, "id": "smide_178", "name": "ZH253803", "provider": "smide", "range": 12.0, "size": 17, "time": "01/30/2020, 11:19:58"}, "type": "Feature"}, {"geometry": {"coordinates": [8.547735, 47.422613], "type": "Point"}, "properties": {"charge": 74, "id": "smide_55", "name": "ZH253875", "provider": "smide", "range": 37.0, "size": 17, "time": "01/30/2020, 11:19:58"}, "type": "Feature"}, {"geometry": {"coordinates": [8.517101, 47.398416], "type": "Point"}, "properties": {"charge": 59, "id": "smide_96", "name": "ZH256146", "provider": "smide", "range": 29.0, "size": 20, "time": "01/30/2020, 11:19:58"}, "type": "Feature"}, {"geometry": {"coordinates": [8.511678, 47.377572], "type": "Point"}, "properties": {"charge": 93, "id": "smide_58", "name": "ZH259246", "provider": "smide", "range": 46.0, "size": 20, "time": "01/30/2020, 11:19:58"}, "type": "Feature"}, {"geometry": {"coordinates": [8.561735, 47.350436], "type": "Point"}, "properties": {"charge": 98, "id": "smide_54", "name": "ZH253874", "provider": "smide", "range": 49.0, "size": 20, "time": "01/30/2020, 11:19:58"}, "type": "Feature"}, {"geometry": {"coordinates": [8.552483, 47.391504], "type": "Point"}, "properties": {"charge": 42, "id": "smide_175", "name": "ZH253730", "provider": "smide", "range": 21.0, "size": 17, "time": "01/30/2020, 11:19:58"}, "type": "Feature"}, {"geometry": {"coordinates": [8.564563, 47.369404], "type": "Point"}, "properties": {"charge": 98, "id": "smide_163", "name": "ZH256147", "provider": "smide", "range": 49.0, "size": 20, "time": "01/30/2020, 11:19:58"}, "type": "Feature"}, {"geometry": {"coordinates": [8.516176, 47.388464], "type": "Point"}, "properties": {"charge": 90, "id": "smide_112", "name": "ZH263530", "provider": "smide", "range": 45.0, "size": 20, "time": "01/30/2020, 11:19:58"}, "type": "Feature"}, {"geometry": {"coordinates": [8.545204, 47.367572], "type": "Point"}, "properties": {"charge": 69, "id": "smide_122", "name": "ZH253850", "provider": "smide", "range": 34.0, "size": 20, "time": "01/30/2020, 11:19:58"}, "type": "Feature"}, {"geometry": {"coordinates": [8.56147, 47.349988], "type": "Point"}, "properties": {"charge": 42, "id": "smide_38", "name": "ZH253851", "provider": "smide", "range": 21.0, "size": 20, "time": "01/30/2020, 11:19:58"}, "type": "Feature"}, {"geometry": {"coordinates": [8.51439, 47.3574], "type": "Point"}, "properties": {"charge": 53, "id": "smide_6", "name": "ZH253787", "provider": "smide", "range": 26.0, "size": 17, "time": "01/30/2020, 11:19:58"}, "type": "Feature"}, {"geometry": {"coordinates": [8.548711, 47.379896], "type": "Point"}, "properties": {"charge": 60, "id": "smide_18", "name": "ZH253859", "provider": "smide", "range": 30.0, "size": 17, "time": "01/30/2020, 11:19:58"}, "type": "Feature"}, {"geometry": {"coordinates": [8.532002, 47.3526], "type": "Point"}, "properties": {"charge": 24, "id": "smide_192", "name": "ZH253706", "provider": "smide", "range": 12.0, "size": 20, "time": "01/30/2020, 11:19:58"}, "type": "Feature"}, {"geometry": {"coordinates": [8.558823, 47.416096], "type": "Point"}, "properties": {"charge": 99, "id": "smide_39", "name": "ZH253714", "provider": "smide", "range": 49.0, "size": 20, "time": "01/30/2020, 11:19:58"}, "type": "Feature"}, {"geometry": {"coordinates": [8.557895, 47.352593], "type": "Point"}, "properties": {"charge": 100, "id": "smide_5", "name": "ZH261443", "provider": "smide", "range": 50.0, "size": 20, "time": "01/30/2020, 11:19:58"}, "type": "Feature"}, {"geometry": {"coordinates": [8.562238, 47.37747], "type": "Point"}, "properties": {"charge": 20, "id": "smide_85", "name": "ZH253729", "provider": "smide", "range": 10.0, "size": 17, "time": "01/30/2020, 11:19:58"}, "type": "Feature"}, {"geometry": {"coordinates": [8.513885, 47.423812], "type": "Point"}, "properties": {"charge": 63, "id": "smide_29", "name": "ZH253723", "provider": "smide", "range": 31.0, "size": 17, "time": "01/30/2020, 11:19:58"}, "type": "Feature"}, {"geometry": {"coordinates": [8.540748, 47.378524], "type": "Point"}, "properties": {"charge": 81, "id": "smide_48", "name": "ZH253849", "provider": "smide", "range": 40.0, "size": 20, "time": "01/30/2020, 11:19:58"}, "type": "Feature"}, {"geometry": {"coordinates": [8.538533, 47.379324], "type": "Point"}, "properties": {"charge": 26, "id": "smide_46", "name": "ZH253843", "provider": "smide", "range": 13.0, "size": 20, "time": "01/30/2020, 11:19:58"}, "type": "Feature"}, {"geometry": {"coordinates": [8.54861166666667, 47.37062], "type": "Point"}, "properties": {"charge": 87, "id": "bird_fca2a1f3-b76c-4ea6-8a4c-fb114ac715b4", "provider": "bird", "timeStamp": "01/30/2020, 11:19:57"}, "type": "Feature"}, {"geometry": {"coordinates": [8.54082666666667, 47.366245], "type": "Point"}, "properties": {"charge": 64, "id": "bird_8debb2d5-a9be-461c-a601-fc13d240eaa7", "provider": "bird", "timeStamp": "01/30/2020, 11:19:57"}, "type": "Feature"}, {"geometry": {"coordinates": [8.51261, 47.3901983333333], "type": "Point"}, "properties": {"charge": 39, "id": "bird_bfeaf1c4-f605-4aa2-bee5-3b01dc688e41", "provider": "bird", "timeStamp": "01/30/2020, 11:19:57"}, "type": "Feature"}, {"geometry": {"coordinates": [8.53201833333333, 47.3646466666667], "type": "Point"}, "properties": {"charge": 71, "id": "bird_9d0d4605-59ac-440d-b448-19a466103df1", "provider": "bird", "timeStamp": "01/30/2020, 11:19:57"}, "type": "Feature"}, {"geometry": {"coordinates": [8.51057833333333, 47.3721883333333], "type": "Point"}, "properties": {"charge": 72, "id": "bird_71509002-df06-4e48-a5b1-4b57adda0fc4", "provider": "bird", "timeStamp": "01/30/2020, 11:19:57"}, "type": "Feature"}, {"geometry": {"coordinates": [8.52545333333333, 47.39455], "type": "Point"}, "properties": {"charge": 30, "id": "bird_34226415-f3c1-4e27-b28a-33d350bd433e", "provider": "bird", "timeStamp": "01/30/2020, 11:19:57"}, "type": "Feature"}, {"geometry": {"coordinates": [8.53160666666667, 47.3651733333333], "type": "Point"}, "properties": {"charge": 29, "id": "bird_1b60946e-5204-450c-a898-9581bb19439f", "provider": "bird", "timeStamp": "01/30/2020, 11:19:57"}, "type": "Feature"}, {"geometry": {"coordinates": [8.508575, 47.3820683333333], "type": "Point"}, "properties": {"charge": 31, "id": "bird_bf749641-f8d8-43be-9d51-f45be4b50b0d", "provider": "bird", "timeStamp": "01/30/2020, 11:19:57"}, "type": "Feature"}, {"geometry": {"coordinates": [8.51305833333333, 47.3709833333333], "type": "Point"}, "properties": {"charge": 57, "id": "bird_ce91d98f-c56f-4103-9154-fcb4e17fc84b", "provider": "bird", "timeStamp": "01/30/2020, 11:19:57"}, "type": "Feature"}, {"geometry": {"coordinates": [8.53183333333333, 47.3654866666667], "type": "Point"}, "properties": {"charge": 46, "id": "bird_8e634515-b1ca-474f-9e02-bed64b6832ce", "provider": "bird", "timeStamp": "01/30/2020, 11:19:57"}, "type": "Feature"}, {"geometry": {"coordinates": [8.53231, 47.36552], "type": "Point"}, "properties": {"charge": 34, "id": "bird_919dd6a9-7e40-4d1e-980d-554890686216", "provider": "bird", "timeStamp": "01/30/2020, 11:19:57"}, "type": "Feature"}, {"geometry": {"coordinates": [8.53185, 47.3655316666667], "type": "Point"}, "properties": {"charge": 47, "id": "bird_937a18bc-4b86-42e8-8f96-fa688c3a0505", "provider": "bird", "timeStamp": "01/30/2020, 11:19:57"}, "type": "Feature"}, {"geometry": {"coordinates": [8.53657666666667, 47.3662416666667], "type": "Point"}, "properties": {"charge": 73, "id": "bird_88256453-d05c-4333-8651-6a50205b5ba5", "provider": "bird", "timeStamp": "01/30/2020, 11:19:57"}, "type": "Feature"}, {"geometry": {"coordinates": [8.536545, 47.3662683333333], "type": "Point"}, "properties": {"charge": 19, "id": "bird_d059bb1e-3366-4e74-909c-35b51bb507e2", "provider": "bird", "timeStamp": "01/30/2020, 11:19:57"}, "type": "Feature"}, {"geometry": {"coordinates": [8.53202666666667, 47.3657033333333], "type": "Point"}, "properties": {"charge": 25, "id": "bird_6c63cbbf-4dfe-4b45-9fbd-abab51b2251f", "provider": "bird", "timeStamp": "01/30/2020, 11:19:57"}, "type": "Feature"}, {"geometry": {"coordinates": [8.51415333333333, 47.3894116666667], "type": "Point"}, "properties": {"charge": 10, "id": "bird_e02d28de-8d47-4d14-8019-974e0c0d4e56", "provider": "bird", "timeStamp": "01/30/2020, 11:19:57"}, "type": "Feature"}, {"geometry": {"coordinates": [8.51776666666667, 47.3915866666667], "type": "Point"}, "properties": {"charge": 89, "id": "bird_0969a9b0-74da-4ad2-ac72-b020120eb32b", "provider": "bird", "timeStamp": "01/30/2020, 11:19:57"}, "type": "Feature"}, {"geometry": {"coordinates": [8.52958, 47.3941733333333], "type": "Point"}, "properties": {"charge": 71, "id": "bird_24a5139b-0c9c-4e79-8ce9-d0ad93cefe6b", "provider": "bird", "timeStamp": "01/30/2020, 11:19:57"}, "type": "Feature"}, {"geometry": {"coordinates": [8.51457, 47.3894316666667], "type": "Point"}, "properties": {"charge": 70, "id": "bird_afa52b5a-ef7e-425b-98db-19dbe51448c6", "provider": "bird", "timeStamp": "01/30/2020, 11:19:57"}, "type": "Feature"}, {"geometry": {"coordinates": [8.53249166666667, 47.3939316666667], "type": "Point"}, "properties": {"charge": 42, "id": "bird_43500f9b-7ec5-44d9-ba78-e2b9e8677dcf", "provider": "bird", "timeStamp": "01/30/2020, 11:19:57"}, "type": "Feature"}, {"geometry": {"coordinates": [8.54108666666667, 47.3681533333333], "type": "Point"}, "properties": {"charge": 52, "id": "bird_e15d51c6-0fb8-4323-9b79-5fa49f91684e", "provider": "bird", "timeStamp": "01/30/2020, 11:19:57"}, "type": "Feature"}, {"geometry": {"coordinates": [8.51022, 47.3759416666667], "type": "Point"}, "properties": {"charge": 57, "id": "bird_60a3f545-4770-4b14-ab7b-2bbd2e5185ee", "provider": "bird", "timeStamp": "01/30/2020, 11:19:57"}, "type": "Feature"}, {"geometry": {"coordinates": [8.519, 47.3917883333333], "type": "Point"}, "properties": {"charge": 61, "id": "bird_69b31635-f52a-430b-af5e-87ed42ba54b2", "provider": "bird", "timeStamp": "01/30/2020, 11:19:57"}, "type": "Feature"}, {"geometry": {"coordinates": [8.54094333333333, 47.3682933333333], "type": "Point"}, "properties": {"charge": 64, "id": "bird_83c72349-9aae-4c61-b0a7-902e754456ef", "provider": "bird", "timeStamp": "01/30/2020, 11:19:57"}, "type": "Feature"}, {"geometry": {"coordinates": [8.50977, 47.3784066666667], "type": "Point"}, "properties": {"charge": 78, "id": "bird_3e25f1f3-b576-4e93-a84b-e73b4a2791a0", "provider": "bird", "timeStamp": "01/30/2020, 11:19:57"}, "type": "Feature"}, {"geometry": {"coordinates": [8.540905, 47.3683733333333], "type": "Point"}, "properties": {"charge": 10, "id": "bird_aed8a4ef-4275-44e7-8e93-5d20f1239bae", "provider": "bird", "timeStamp": "01/30/2020, 11:19:57"}, "type": "Feature"}, {"geometry": {"coordinates": [8.529475, 47.393765], "type": "Point"}, "properties": {"charge": 89, "id": "bird_7b5dd720-a514-4152-bdba-86934ca836ce", "provider": "bird", "timeStamp": "01/30/2020, 11:19:57"}, "type": "Feature"}, {"geometry": {"coordinates": [8.53735833333333, 47.3671883333333], "type": "Point"}, "properties": {"charge": 43, "id": "bird_8e9a4467-5d39-4d14-a159-af37a6275781", "provider": "bird", "timeStamp": "01/30/2020, 11:19:57"}, "type": "Feature"}, {"geometry": {"coordinates": [8.52938833333333, 47.39373], "type": "Point"}, "properties": {"charge": 96, "id": "bird_1dba2a90-acbc-4cb5-8949-3f100ef86595", "provider": "bird", "timeStamp": "01/30/2020, 11:19:57"}, "type": "Feature"}, {"geometry": {"coordinates": [8.52939833333333, 47.393695], "type": "Point"}, "properties": {"charge": 93, "id": "bird_8dcd5a08-cd73-4b09-b652-80abe2ee67e1", "provider": "bird", "timeStamp": "01/30/2020, 11:19:57"}, "type": "Feature"}, {"geometry": {"coordinates": [8.51003, 47.3780283333333], "type": "Point"}, "properties": {"charge": 100, "id": "bird_623cbcb4-460c-405a-90de-7969e161fef3", "provider": "bird", "timeStamp": "01/30/2020, 11:19:57"}, "type": "Feature"}, {"geometry": {"coordinates": [8.51561833333333, 47.3704533333333], "type": "Point"}, "properties": {"charge": 65, "id": "bird_b03c9824-06c2-43c2-9f93-b3c373df5373", "provider": "bird", "timeStamp": "01/30/2020, 11:19:57"}, "type": "Feature"}, {"geometry": {"coordinates": [8.529305, 47.3936116666667], "type": "Point"}, "properties": {"charge": 93, "id": "bird_07c4620f-1480-469c-bed7-63ab2828bf4c", "provider": "bird", "timeStamp": "01/30/2020, 11:19:57"}, "type": "Feature"}, {"geometry": {"coordinates": [8.5100827, 47.3784294], "type": "Point"}, "properties": {"charge": 99, "id": "bird_d9dbd0eb-63b6-4992-8000-86c8c0f50090", "provider": "bird", "timeStamp": "01/30/2020, 11:19:57"}, "type": "Feature"}, {"geometry": {"coordinates": [8.51016, 47.3781283333333], "type": "Point"}, "properties": {"charge": 70, "id": "bird_7656c2f7-23ac-4d71-a8f8-e0e0d3749297", "provider": "bird", "timeStamp": "01/30/2020, 11:19:57"}, "type": "Feature"}, {"geometry": {"coordinates": [8.51337333333333, 47.3724633333333], "type": "Point"}, "properties": {"charge": 64, "id": "bird_76b56fa6-424c-4a98-b816-cc6651af94d8", "provider": "bird", "timeStamp": "01/30/2020, 11:19:57"}, "type": "Feature"}, {"geometry": {"coordinates": [8.51905666666667, 47.3686783333333], "type": "Point"}, "properties": {"charge": 19, "id": "bird_96afc39b-286d-4072-baeb-7dc1c7cabe8c", "provider": "bird", "timeStamp": "01/30/2020, 11:19:57"}, "type": "Feature"}, {"geometry": {"coordinates": [8.51531666666667, 47.3891716666667], "type": "Point"}, "properties": {"charge": 91, "id": "bird_1b56c684-0fa1-4cd3-ac58-69d754fb31d2", "provider": "bird", "timeStamp": "01/30/2020, 11:19:57"}, "type": "Feature"}, {"geometry": {"coordinates": [8.52929666666667, 47.3935166666667], "type": "Point"}, "properties": {"charge": 93, "id": "bird_972145d7-4adf-48d1-9d31-52c4536f0aa3", "provider": "bird", "timeStamp": "01/30/2020, 11:19:57"}, "type": "Feature"}, {"geometry": {"coordinates": [8.51912666666667, 47.3686566666667], "type": "Point"}, "properties": {"charge": 13, "id": "bird_49df8b36-4d13-4cdc-a62c-96a30369e8d2", "provider": "bird", "timeStamp": "01/30/2020, 11:19:57"}, "type": "Feature"}, {"geometry": {"coordinates": [8.529325, 47.3934816666667], "type": "Point"}, "properties": {"charge": 98, "id": "bird_44238b20-f91a-45bf-97c5-3eb9ae1376d9", "provider": "bird", "timeStamp": "01/30/2020, 11:19:57"}, "type": "Feature"}, {"geometry": {"coordinates": [8.51913666666667, 47.3687016666667], "type": "Point"}, "properties": {"charge": 16, "id": "bird_22d59842-0698-471d-9faa-48a1227fb387", "provider": "bird", "timeStamp": "01/30/2020, 11:19:57"}, "type": "Feature"}, {"geometry": {"coordinates": [8.51914166666667, 47.36871], "type": "Point"}, "properties": {"charge": 25, "id": "bird_3ee58353-3a48-4737-9542-31c945df83b3", "provider": "bird", "timeStamp": "01/30/2020, 11:19:57"}, "type": "Feature"}, {"geometry": {"coordinates": [8.51366, 47.38765], "type": "Point"}, "properties": {"charge": 72, "id": "bird_daf78aca-b701-49b0-b55c-7cd6d94445f5", "provider": "bird", "timeStamp": "01/30/2020, 11:19:57"}, "type": "Feature"}, {"geometry": {"coordinates": [8.519165, 47.3687366666667], "type": "Point"}, "properties": {"charge": 11, "id": "bird_c8614e1f-3570-454f-ac8f-dc9e8c1bc100", "provider": "bird", "timeStamp": "01/30/2020, 11:19:57"}, "type": "Feature"}, {"geometry": {"coordinates": [8.510325, 47.3783916666667], "type": "Point"}, "properties": {"charge": 100, "id": "bird_6265dbf3-fd84-4b8b-a2d3-2e269fee9570", "provider": "bird", "timeStamp": "01/30/2020, 11:19:57"}, "type": "Feature"}, {"geometry": {"coordinates": [8.51032833333333, 47.3783833333333], "type": "Point"}, "properties": {"charge": 99, "id": "bird_a8e17aff-57c8-4393-b6c3-4a387398179b", "provider": "bird", "timeStamp": "01/30/2020, 11:19:57"}, "type": "Feature"}, {"geometry": {"coordinates": [8.526375, 47.39317], "type": "Point"}, "properties": {"charge": 69, "id": "bird_4faa1086-c7f0-4147-8ac9-5d762141bddb", "provider": "bird", "timeStamp": "01/30/2020, 11:19:57"}, "type": "Feature"}, {"geometry": {"coordinates": [8.51074666666667, 47.3770483333333], "type": "Point"}, "properties": {"charge": 47, "id": "bird_1f0fb49e-1e7c-4d45-9e42-d8aeb04bf580", "provider": "bird", "timeStamp": "01/30/2020, 11:19:57"}, "type": "Feature"}, {"geometry": {"coordinates": [8.528135, 47.3667633333333], "type": "Point"}, "properties": {"charge": 35, "id": "bird_987e7f39-9a41-42c0-a977-c3743f9e8ef4", "provider": "bird", "timeStamp": "01/30/2020, 11:19:57"}, "type": "Feature"}, {"geometry": {"coordinates": [8.518225, 47.369445], "type": "Point"}, "properties": {"charge": 28, "id": "bird_12eea7b5-c2bc-489a-9260-52334ce7f974", "provider": "bird", "timeStamp": "01/30/2020, 11:19:57"}, "type": "Feature"}, {"geometry": {"coordinates": [8.51068166666667, 47.3783716666667], "type": "Point"}, "properties": {"charge": 99, "id": "bird_9cf4995b-8bf6-461d-af36-ec3c2ae5ceb4", "provider": "bird", "timeStamp": "01/30/2020, 11:19:57"}, "type": "Feature"}, {"geometry": {"coordinates": [8.51069666666667, 47.3784416666667], "type": "Point"}, "properties": {"charge": 100, "id": "bird_19cc1447-1b7a-4a02-9302-86dfaa26cc6b", "provider": "bird", "timeStamp": "01/30/2020, 11:19:57"}, "type": "Feature"}, {"geometry": {"coordinates": [8.51547333333333, 47.3713183333333], "type": "Point"}, "properties": {"charge": 80, "id": "bird_2b9871fb-2e4c-4638-9a81-52ed73f5f728", "provider": "bird", "timeStamp": "01/30/2020, 11:19:57"}, "type": "Feature"}, {"geometry": {"coordinates": [8.51125833333333, 47.3767783333333], "type": "Point"}, "properties": {"charge": 27, "id": "bird_cc4537c5-bbe5-4085-8176-d27d3c791bf6", "provider": "bird", "timeStamp": "01/30/2020, 11:19:57"}, "type": "Feature"}, {"geometry": {"coordinates": [8.51624, 47.3891983333333], "type": "Point"}, "properties": {"charge": 80, "id": "bird_d57d5312-81d7-43cf-b122-cd85ce62a8df", "provider": "bird", "timeStamp": "01/30/2020, 11:19:57"}, "type": "Feature"}, {"geometry": {"coordinates": [8.54605166666667, 47.3727116666667], "type": "Point"}, "properties": {"charge": 29, "id": "bird_2ca096f2-d941-4152-95ce-8b771a995515", "provider": "bird", "timeStamp": "01/30/2020, 11:19:57"}, "type": "Feature"}, {"geometry": {"coordinates": [8.51767666666667, 47.3899616666667], "type": "Point"}, "properties": {"charge": 92, "id": "bird_4383fcf4-35eb-47db-990e-abf81960cb8c", "provider": "bird", "timeStamp": "01/30/2020, 11:19:57"}, "type": "Feature"}, {"geometry": {"coordinates": [8.511325, 47.3825266666667], "type": "Point"}, "properties": {"charge": 60, "id": "bird_5c8287f5-8198-4f5a-b1bd-29e20f640979", "provider": "bird", "timeStamp": "01/30/2020, 11:19:57"}, "type": "Feature"}, {"geometry": {"coordinates": [8.54318666666667, 47.370785], "type": "Point"}, "properties": {"charge": 69, "id": "bird_9ae5654e-dc54-452b-b892-546e89924631", "provider": "bird", "timeStamp": "01/30/2020, 11:19:57"}, "type": "Feature"}, {"geometry": {"coordinates": [8.52839, 47.39267], "type": "Point"}, "properties": {"charge": 38, "id": "bird_c3833c67-b2df-462a-965b-c9dc5f96eef2", "provider": "bird", "timeStamp": "01/30/2020, 11:19:57"}, "type": "Feature"}, {"geometry": {"coordinates": [8.51517166666667, 47.3877533333333], "type": "Point"}, "properties": {"charge": 56, "id": "bird_ff36fe86-75b7-4f85-90db-1e8652654d17", "provider": "bird", "timeStamp": "01/30/2020, 11:19:57"}, "type": "Feature"}, {"geometry": {"coordinates": [8.53685833333333, 47.36821], "type": "Point"}, "properties": {"charge": 17, "id": "bird_35900668-9719-4842-b7cb-6532bb981563", "provider": "bird", "timeStamp": "01/30/2020, 11:19:57"}, "type": "Feature"}, {"geometry": {"coordinates": [8.54829, 47.3774683333333], "type": "Point"}, "properties": {"charge": 69, "id": "bird_bf4fd5aa-e40f-4fe7-922c-57d34c4104d3", "provider": "bird", "timeStamp": "01/30/2020, 11:19:57"}, "type": "Feature"}, {"geometry": {"coordinates": [8.54058833333333, 47.3696166666667], "type": "Point"}, "properties": {"charge": 90, "id": "bird_69b6a4c3-3f32-42da-9df7-85844a7f6e12", "provider": "bird", "timeStamp": "01/30/2020, 11:19:57"}, "type": "Feature"}, {"geometry": {"coordinates": [8.53171666666667, 47.3674733333333], "type": "Point"}, "properties": {"charge": 27, "id": "bird_d0406750-b783-4ceb-92b3-39ccfa31b0eb", "provider": "bird", "timeStamp": "01/30/2020, 11:19:57"}, "type": "Feature"}, {"geometry": {"coordinates": [8.54385166666667, 47.371895], "type": "Point"}, "properties": {"charge": 38, "id": "bird_de203de1-431b-422b-9c95-1e6e23876523", "provider": "bird", "timeStamp": "01/30/2020, 11:19:57"}, "type": "Feature"}, {"geometry": {"coordinates": [8.54388, 47.3720366666667], "type": "Point"}, "properties": {"charge": 28, "id": "bird_667b4059-d4a7-4e60-a5c1-9e1157668b90", "provider": "bird", "timeStamp": "01/30/2020, 11:19:57"}, "type": "Feature"}, {"geometry": {"coordinates": [8.54001166666667, 47.3900866666667], "type": "Point"}, "properties": {"charge": 33, "id": "bird_af6b4e7b-df99-4333-bcae-2547588f7246", "provider": "bird", "timeStamp": "01/30/2020, 11:19:57"}, "type": "Feature"}, {"geometry": {"coordinates": [8.53544833333333, 47.39156], "type": "Point"}, "properties": {"charge": 83, "id": "bird_019455d8-bb92-4b84-b4ba-5c75f19ab485", "provider": "bird", "timeStamp": "01/30/2020, 11:19:57"}, "type": "Feature"}, {"geometry": {"coordinates": [8.54775666666667, 47.380005], "type": "Point"},