{"features": [{"geometry": {"coordinates": [8.540062, 47.374392], "type": "Point"}, "properties": {"address": "Uraniastrasse 7", "electric": 6, "id": "pb_60", "manual": 8, "name": "Demo Station Werdm\u00fchleplatz", "provider": "publibike", "timeStamp": "01/30/2020, 09:18:14", "zip": 8001}, "type": "Feature"}, {"geometry": {"coordinates": [8.5452956, 47.4099615], "type": "Point"}, "properties": {"address": "Querstrasse 8", "electric": 4, "id": "pb_61", "manual": 1, "name": "Marktplatz", "provider": "publibike", "timeStamp": "01/30/2020, 09:18:14", "zip": 8050}, "type": "Feature"}, {"geometry": {"coordinates": [8.5156327, 47.3795837], "type": "Point"}, "properties": {"address": "Bullingerstrasse 5", "electric": 3, "id": "pb_80", "manual": 9, "name": "Bullingerplatz", "provider": "publibike", "timeStamp": "01/30/2020, 09:18:14", "zip": 8004}, "type": "Feature"}, {"geometry": {"coordinates": [8.5104051, 47.3899342], "type": "Point"}, "properties": {"address": "Pfingstweidstrasse 96e", "electric": 4, "id": "pb_81", "manual": 6, "name": "Herdern", "provider": "publibike", "timeStamp": "01/30/2020, 09:18:14", "zip": 8001}, "type": "Feature"}, {"geometry": {"coordinates": [8.535718, 47.359675], "type": "Point"}, "properties": {"address": "Mythenquai 50", "electric": 19, "id": "pb_82", "manual": 6, "name": "Hafen Enge", "provider": "publibike", "timeStamp": "01/30/2020, 09:18:14", "zip": 8002}, "type": "Feature"}, {"geometry": {"coordinates": [8.520370505, 47.358663827], "type": "Point"}, "properties": {"address": "Bubenbergstrasse 1", "electric": 1, "id": "pb_83", "manual": 3, "name": "Comerge", "provider": "publibike", "timeStamp": "01/30/2020, 09:18:14", "zip": 8045}, "type": "Feature"}, {"geometry": {"coordinates": [8.5412505, 47.3789825], "type": "Point"}, "properties": {"address": "Museumstrasse 2", "electric": 4, "id": "pb_84", "manual": 9, "name": "Landesmuseum", "provider": "publibike", "timeStamp": "01/30/2020, 09:18:14", "zip": 8001}, "type": "Feature"}, {"geometry": {"coordinates": [8.5235479, 47.3716661], "type": "Point"}, "properties": {"address": "Birmensdorferstrasse 80", "electric": 3, "id": "pb_85", "manual": 8, "name": "Bahnhof Wiedikon", "provider": "publibike", "timeStamp": "01/30/2020, 09:18:14", "zip": 8003}, "type": "Feature"}, {"geometry": {"coordinates": [8.506822854, 47.40781197], "type": "Point"}, "properties": {"address": "Stefano-Franscini-Platz 5", "electric": 6, "id": "pb_86", "manual": 0, "name": "ETH H\u00f6nggerberg", "provider": "publibike", "timeStamp": "01/30/2020, 09:18:14", "zip": 8093}, "type": "Feature"}, {"geometry": {"coordinates": [8.536101, 47.371083], "type": "Point"}, "properties": {"address": "Pelikanplatz 5", "electric": 4, "id": "pb_87", "manual": 3, "name": "Pelikanplatz", "provider": "publibike", "timeStamp": "01/30/2020, 09:18:14", "zip": 8001}, "type": "Feature"}, {"geometry": {"coordinates": [8.5257822, 47.3651936], "type": "Point"}, "properties": {"address": "H\u00fcrlimannplatz 90", "electric": 14, "id": "pb_88", "manual": 7, "name": "H\u00fcrlimannplatz", "provider": "publibike", "timeStamp": "01/30/2020, 09:18:14", "zip": 8002}, "type": "Feature"}, {"geometry": {"coordinates": [8.5313344, 47.3713591], "type": "Point"}, "properties": {"address": "Selnaustrasse 32", "electric": 9, "id": "pb_89", "manual": 3, "name": "Stauffacherbr\u00fccke", "provider": "publibike", "timeStamp": "01/30/2020, 09:18:14", "zip": 8001}, "type": "Feature"}, {"geometry": {"coordinates": [8.5056978, 47.3917964], "type": "Point"}, "properties": {"address": "Sportweg 25", "electric": 5, "id": "pb_90", "manual": 7, "name": "Sportweg", "provider": "publibike", "timeStamp": "01/30/2020, 09:18:14", "zip": 8005}, "type": "Feature"}, {"geometry": {"coordinates": [8.5181701, 47.3917837], "type": "Point"}, "properties": {"address": "Hardturmstrasse 11", "electric": 2, "id": "pb_91", "manual": 4, "name": "Puls 5", "provider": "publibike", "timeStamp": "01/30/2020, 09:18:14", "zip": 8005}, "type": "Feature"}, {"geometry": {"coordinates": [8.5286468, 47.3820827], "type": "Point"}, "properties": {"address": "R\u00f6ntgenstrasse 6", "electric": 1, "id": "pb_92", "manual": 4, "name": "R\u00f6ntgenstrasse", "provider": "publibike", "timeStamp": "01/30/2020, 09:18:14", "zip": 8005}, "type": "Feature"}, {"geometry": {"coordinates": [8.531935, 47.384918], "type": "Point"}, "properties": {"address": "Kornhausbr\u00fccke 1", "electric": 0, "id": "pb_93", "manual": 8, "name": "Limmatplatz", "provider": "publibike", "timeStamp": "01/30/2020, 09:18:14", "zip": 8005}, "type": "Feature"}, {"geometry": {"coordinates": [8.5354006, 47.3758639], "type": "Point"}, "properties": {"address": "Gessnerallee 15", "electric": 2, "id": "pb_94", "manual": 1, "name": "Gessnerallee", "provider": "publibike", "timeStamp": "01/30/2020, 09:18:14", "zip": 8001}, "type": "Feature"}, {"geometry": {"coordinates": [8.523818, 47.377148], "type": "Point"}, "properties": {"address": "Stauffacherstrasse 127", "electric": 7, "id": "pb_95", "manual": 8, "name": "B\u00e4ckeranlage", "provider": "publibike", "timeStamp": "01/30/2020, 09:18:14", "zip": 8004}, "type": "Feature"}, {"geometry": {"coordinates": [8.531836, 47.378548], "type": "Point"}, "properties": {"address": "Lagerstrasse 44", "electric": 7, "id": "pb_96", "manual": 9, "name": "Gustav-Gull-Platz", "provider": "publibike", "timeStamp": "01/30/2020, 09:18:14", "zip": 8004}, "type": "Feature"}, {"geometry": {"coordinates": [8.5104883, 47.3771535], "type": "Point"}, "properties": {"address": "Zurlindenstrasse 291", "electric": 1, "id": "pb_97", "manual": 5, "name": "Zurlindenstrasse", "provider": "publibike", "timeStamp": "01/30/2020, 09:18:14", "zip": 8003}, "type": "Feature"}, {"geometry": {"coordinates": [8.5333139, 47.3731102], "type": "Point"}, "properties": {"address": "Sihlstrasse 81", "electric": 4, "id": "pb_98", "manual": 2, "name": "Sihlstrasse", "provider": "publibike", "timeStamp": "01/30/2020, 09:18:14", "zip": 8001}, "type": "Feature"}, {"geometry": {"coordinates": [8.520532, 47.374951], "type": "Point"}, "properties": {"address": "Feldstrasse 24", "electric": 0, "id": "pb_99", "manual": 7, "name": "Kalkbreite", "provider": "publibike", "timeStamp": "01/30/2020, 09:18:14", "zip": 8004}, "type": "Feature"}, {"geometry": {"coordinates": [8.539046, 47.368064], "type": "Point"}, "properties": {"address": "Talstrasse 12", "electric": 0, "id": "pb_100", "manual": 4, "name": "Z\u00fcrcher Kantonalbank", "provider": "publibike", "timeStamp": "01/30/2020, 09:18:14", "zip": 8001}, "type": "Feature"}, {"geometry": {"coordinates": [8.5348427, 47.3625938], "type": "Point"}, "properties": {"address": "Breitingerstrasse 5", "electric": 1, "id": "pb_101", "manual": 3, "name": "Rentenanstalt", "provider": "publibike", "timeStamp": "01/30/2020, 09:18:14", "zip": 8002}, "type": "Feature"}, {"geometry": {"coordinates": [8.5166922, 47.3897772], "type": "Point"}, "properties": {"address": "Technoparkstrasse 4", "electric": 5, "id": "pb_102", "manual": 4, "name": "Turbinenplatz", "provider": "publibike", "timeStamp": "01/30/2020, 09:18:14", "zip": 8005}, "type": "Feature"}, {"geometry": {"coordinates": [8.539312, 47.3739964], "type": "Point"}, "properties": {"address": "Oetenbachgasse 14", "electric": 7, "id": "pb_104", "manual": 10, "name": "Rennweg", "provider": "publibike", "timeStamp": "01/30/2020, 09:18:14", "zip": 8001}, "type": "Feature"}, {"geometry": {"coordinates": [8.5360685, 47.3775022], "type": "Point"}, "properties": {"address": "Kasernenstrasse 101", "electric": 7, "id": "pb_105", "manual": 22, "name": "Sihlpost", "provider": "publibike", "timeStamp": "01/30/2020, 09:18:14", "zip": 8004}, "type": "Feature"}, {"geometry": {"coordinates": [8.53545, 47.382798], "type": "Point"}, "properties": {"address": "Ausstellungsstrasse 44", "electric": 10, "id": "pb_106", "manual": 8, "name": "Museum f\u00fcr Gestaltung", "provider": "publibike", "timeStamp": "01/30/2020, 09:18:14", "zip": 8005}, "type": "Feature"}, {"geometry": {"coordinates": [8.5306155, 47.3647902], "type": "Point"}, "properties": {"address": "Gutenbergstrasse 1", "electric": 1, "id": "pb_107", "manual": 0, "name": "Bederbr\u00fccke", "provider": "publibike", "timeStamp": "01/30/2020, 09:18:14", "zip": 8002}, "type": "Feature"}, {"geometry": {"coordinates": [8.518982, 47.386741], "type": "Point"}, "properties": {"address": "Geroldstrasse 4", "electric": 7, "id": "pb_108", "manual": 10, "name": "Bahnhof Hardbr\u00fccke", "provider": "publibike", "timeStamp": "01/30/2020, 09:18:14", "zip": 8005}, "type": "Feature"}, {"geometry": {"coordinates": [8.53001018, 47.37247535], "type": "Point"}, "properties": {"address": "Werdstrasse 21", "electric": 13, "id": "pb_109", "manual": 2, "name": "Tamedia", "provider": "publibike", "timeStamp": "01/30/2020, 09:18:14", "zip": 8004}, "type": "Feature"}, {"geometry": {"coordinates": [8.4860017, 47.396401], "type": "Point"}, "properties": {"address": "Gr\u00fcnauring 37", "electric": 5, "id": "pb_110", "manual": 7, "name": "Gr\u00fcnau", "provider": "publibike", "timeStamp": "01/30/2020, 09:18:14", "zip": 8064}, "type": "Feature"}, {"geometry": {"coordinates": [8.548519, 47.376756], "type": "Point"}, "properties": {"address": "R\u00e4mistrasse 101", "electric": 24, "id": "pb_111", "manual": 1, "name": "ETH Zentrum", "provider": "publibike", "timeStamp": "01/30/2020, 09:18:14", "zip": 8006}, "type": "Feature"}, {"geometry": {"coordinates": [8.520449, 47.388151], "type": "Point"}, "properties": {"address": "Josefstrasse 224", "electric": 3, "id": "pb_112", "manual": 4, "name": "Steinfelsareal", "provider": "publibike", "timeStamp": "01/30/2020, 09:18:14", "zip": 8005}, "type": "Feature"}, {"geometry": {"coordinates": [8.520482, 47.37209], "type": "Point"}, "properties": {"address": "Weststrasse 115", "electric": 9, "id": "pb_124", "manual": 5, "name": "Weststrasse", "provider": "publibike", "timeStamp": "01/30/2020, 09:18:14", "zip": 8003}, "type": "Feature"}, {"geometry": {"coordinates": [8.496727, 47.378521], "type": "Point"}, "properties": {"address": "Albisriederstrasse 200", "electric": 3, "id": "pb_125", "manual": 1, "name": "Utogrund", "provider": "publibike", "timeStamp": "01/30/2020, 09:18:14", "zip": 8047}, "type": "Feature"}, {"geometry": {"coordinates": [8.510418, 47.381356], "type": "Point"}, "properties": {"address": "Bullingerstrasse 73", "electric": 6, "id": "pb_126", "manual": 4, "name": "Hardau", "provider": "publibike", "timeStamp": "01/30/2020, 09:18:14", "zip": 8004}, "type": "Feature"}, {"geometry": {"coordinates": [8.525525, 47.361567], "type": "Point"}, "properties": {"address": "Klopstockstrasse 23", "electric": 4, "id": "pb_127", "manual": 0, "name": "Klopstockwiese", "provider": "publibike", "timeStamp": "01/30/2020, 09:18:14", "zip": 8002}, "type": "Feature"}, {"geometry": {"coordinates": [8.518143, 47.363148], "type": "Point"}, "properties": {"address": "Haldenstrasse 8", "electric": 9, "id": "pb_128", "manual": 5, "name": "Binz", "provider": "publibike", "timeStamp": "01/30/2020, 09:18:14", "zip": 8045}, "type": "Feature"}, {"geometry": {"coordinates": [8.542726, 47.379952], "type": "Point"}, "properties": {"address": "Walchestrasse 11", "electric": 4, "id": "pb_129", "manual": 4, "name": "Stampfenbachplatz", "provider": "publibike", "timeStamp": "01/30/2020, 09:18:14", "zip": 8006}, "type": "Feature"}, {"geometry": {"coordinates": [8.488108, 47.391366], "type": "Point"}, "properties": {"address": "Altstetterplatz 1", "electric": 9, "id": "pb_130", "manual": 4, "name": "Bahnhof Altstetten", "provider": "publibike", "timeStamp": "01/30/2020, 09:18:14", "zip": 8048}, "type": "Feature"}, {"geometry": {"coordinates": [8.554114, 47.365119], "type": "Point"}, "properties": {"address": "Kreuzplatz 2", "electric": 3, "id": "pb_131", "manual": 6, "name": "Kreuzplatz", "provider": "publibike", "timeStamp": "01/30/2020, 09:18:14", "zip": 8032}, "type": "Feature"}, {"geometry": {"coordinates": [8.549852, 47.35594], "type": "Point"}, "properties": {"address": "H\u00f6schgasse 3", "electric": 2, "id": "pb_132", "manual": 7, "name": "Blatterwiese", "provider": "publibike", "timeStamp": "01/30/2020, 09:18:14", "zip": 8008}, "type": "Feature"}, {"geometry": {"coordinates": [8.554501, 47.36162], "type": "Point"}, "properties": {"address": "Feldeggstrasse 80", "electric": 1, "id": "pb_133", "manual": 2, "name": "Villa Bleuler", "provider": "publibike", "timeStamp": "01/30/2020, 09:18:14", "zip": 8008}, "type": "Feature"}, {"geometry": {"coordinates": [8.557088, 47.358557], "type": "Point"}, "properties": {"address": "M\u00fchlebachstrasse 131", "electric": 0, "id": "pb_134", "manual": 2, "name": "M\u00fchlebachstrasse", "provider": "publibike", "timeStamp": "01/30/2020, 09:18:14", "zip": 8008}, "type": "Feature"}, {"geometry": {"coordinates": [8.547639, 47.361266], "type": "Point"}, "properties": {"address": "Utoquai 50", "electric": 11, "id": "pb_135", "manual": 7, "name": "Seebad Utoquai", "provider": "publibike", "timeStamp": "01/30/2020, 09:18:14", "zip": 8008}, "type": "Feature"}, {"geometry": {"coordinates": [8.548045, 47.370869], "type": "Point"}, "properties": {"address": "Heimplatz 1", "electric": 5, "id": "pb_137", "manual": 1, "name": "Kunsthaus", "provider": "publibike", "timeStamp": "01/30/2020, 09:18:14", "zip": 8001}, "type": "Feature"}, {"geometry": {"coordinates": [8.543447, 47.375933], "type": "Point"}, "properties": {"address": "Limmatquai 138", "electric": 4, "id": "pb_138", "manual": 12, "name": "Central", "provider": "publibike", "timeStamp": "01/30/2020, 09:18:14", "zip": 8001}, "type": "Feature"}, {"geometry": {"coordinates": [8.549356, 47.408827], "type": "Point"}, "properties": {"address": "Tramstrasse 35", "electric": 4, "id": "pb_139", "manual": 4, "name": "ewz Tramstrasse", "provider": "publibike", "timeStamp": "01/30/2020, 09:18:14", "zip": 8050}, "type": "Feature"}, {"geometry": {"coordinates": [8.533736, 47.366904], "type": "Point"}, "properties": {"address": "Bleicherweg 33", "electric": 2, "id": "pb_140", "manual": 13, "name": "Bleicherweg", "provider": "publibike", "timeStamp": "01/30/2020, 09:18:14", "zip": 8002}, "type": "Feature"}, {"geometry": {"coordinates": [8.544935, 47.366752], "type": "Point"}, "properties": {"address": "Bellevueplatz 2", "electric": 7, "id": "pb_141", "manual": 19, "name": "Bellevue", "provider": "publibike", "timeStamp": "01/30/2020, 09:18:14", "zip": 8001}, "type": "Feature"}, {"geometry": {"coordinates": [8.5285533, 47.3742296], "type": "Point"}, "properties": {"address": "Stauffacherstrasse 41", "electric": 1, "id": "pb_142", "manual": 0, "name": "Stauffacher", "provider": "publibike", "timeStamp": "01/30/2020, 09:18:14", "zip": 8004}, "type": "Feature"}, {"geometry": {"coordinates": [8.523722, 47.3899], "type": "Point"}, "properties": {"address": "Limmatstrasse 310", "electric": 1, "id": "pb_143", "manual": 5, "name": "Escher-Wyss-Platz", "provider": "publibike", "timeStamp": "01/30/2020, 09:18:14", "zip": 8005}, "type": "Feature"}, {"geometry": {"coordinates": [8.491061, 47.392336], "type": "Point"}, "properties": {"address": "Vulkanplatz 1", "electric": 4, "id": "pb_149", "manual": 5, "name": "Vulkanplatz", "provider": "publibike", "timeStamp": "01/30/2020, 09:18:14", "zip": 8048}, "type": "Feature"}, {"geometry": {"coordinates": [8.52306, 47.359872], "type": "Point"}, "properties": {"address": "Giessh\u00fcbelstrasse 15", "electric": 8, "id": "pb_150", "manual": 4, "name": "Utoplatz", "provider": "publibike", "timeStamp": "01/30/2020, 09:18:14", "zip": 8045}, "type": "Feature"}, {"geometry": {"coordinates": [8.486284, 47.387685], "type": "Point"}, "properties": {"address": "Lindenplatz 1", "electric": 9, "id": "pb_151", "manual": 5, "name": "Lindenplatz", "provider": "publibike", "timeStamp": "01/30/2020, 09:18:14", "zip": 8048}, "type": "Feature"}, {"geometry": {"coordinates": [8.49163, 47.389823], "type": "Point"}, "properties": {"address": "Hohlstrasse 563", "electric": 4, "id": "pb_152", "manual": 8, "name": "Luggweg", "provider": "publibike", "timeStamp": "01/30/2020, 09:18:14", "zip": 8048}, "type": "Feature"}, {"geometry": {"coordinates": [8.52174, 47.365272], "type": "Point"}, "properties": {"address": "Manessestrasse 87", "electric": 4, "id": "pb_153", "manual": 7, "name": "Manesseplatz", "provider": "publibike", "timeStamp": "01/30/2020, 09:18:14", "zip": 8045}, "type": "Feature"}, {"geometry": {"coordinates": [8.52714, 47.372329], "type": "Point"}, "properties": {"address": "Werdstrasse 75", "electric": 3, "id": "pb_154", "manual": 6, "name": "Werd", "provider": "publibike", "timeStamp": "01/30/2020, 09:18:14", "zip": 8004}, "type": "Feature"}, {"geometry": {"coordinates": [8.543042, 47.374711], "type": "Point"}, "properties": {"address": "Limmatquai 100", "electric": 0, "id": "pb_155", "manual": 0, "name": "Rudolf-Brun-Br\u00fccke", "provider": "publibike", "timeStamp": "01/30/2020, 09:18:14", "zip": 8001}, "type": "Feature"}, {"geometry": {"coordinates": [8.490837, 47.386596], "type": "Point"}, "properties": {"address": "Badenerstrasse 627", "electric": 2, "id": "pb_156", "manual": 6, "name": "Luggwegstrasse VBZ", "provider": "publibike", "timeStamp": "01/30/2020, 09:18:14", "zip": 8048}, "type": "Feature"}, {"geometry": {"coordinates": [8.535119, 47.355189], "type": "Point"}, "properties": {"address": "Mythenquai 95", "electric": 1, "id": "pb_157", "manual": 1, "name": "Strandbad Mythenquai", "provider": "publibike", "timeStamp": "01/30/2020, 09:18:14", "zip": 8002}, "type": "Feature"}, {"geometry": {"coordinates": [8.545505, 47.373675], "type": "Point"}, "properties": {"address": "Predigerpatz 21", "electric": 2, "id": "pb_158", "manual": 5, "name": "Predigerplatz", "provider": "publibike", "timeStamp": "01/30/2020, 09:18:14", "zip": 8001}, "type": "Feature"}, {"geometry": {"coordinates": [8.515558, 47.371868], "type": "Point"}, "properties": {"address": "Aemtlerstrasse 23", "electric": 1, "id": "pb_159", "manual": 4, "name": "Zwinglihaus", "provider": "publibike", "timeStamp": "01/30/2020, 09:18:14", "zip": 8003}, "type": "Feature"}, {"geometry": {"coordinates": [8.524629, 47.386072], "type": "Point"}, "properties": {"address": "Josefstrasse 188", "electric": 2, "id": "pb_160", "manual": 1, "name": "Josefwiese", "provider": "publibike", "timeStamp": "01/30/2020, 09:18:14", "zip": 8005}, "type": "Feature"}, {"geometry": {"coordinates": [8.527138, 47.387531], "type": "Point"}, "properties": {"address": "R\u00f6ntgenstrasse 87", "electric": 1, "id": "pb_164", "manual": 3, "name": "Markthalle", "provider": "publibike", "timeStamp": "01/30/2020, 09:18:14", "zip": 8005}, "type": "Feature"}, {"geometry": {"coordinates": [8.552717, 47.359978], "type": "Point"}, "properties": {"address": "Seefeldstrasse 96", "electric": 4, "id": "pb_263", "manual": 11, "name": "Feldeggstrasse", "provider": "publibike", "timeStamp": "01/30/2020, 09:18:14", "zip": 8008}, "type": "Feature"}, {"geometry": {"coordinates": [8.553189, 47.353198], "type": "Point"}, "properties": {"address": "Bellerivestrasse 170", "electric": 6, "id": "pb_264", "manual": 1, "name": "Lake Side", "provider": "publibike", "timeStamp": "01/30/2020, 09:18:14", "zip": 8008}, "type": "Feature"}, {"geometry": {"coordinates": [8.543437, 47.369256], "type": "Point"}, "properties": {"address": "Limmatquai 18", "electric": 0, "id": "pb_265", "manual": 0, "name": "Helmhaus", "provider": "publibike", "timeStamp": "01/30/2020, 09:18:14", "zip": 8032}, "type": "Feature"}, {"geometry": {"coordinates": [8.516676, 47.375819], "type": "Point"}, "properties": {"address": "Badenerstrasse 246", "electric": 12, "id": "pb_266", "manual": 5, "name": "Lochergut", "provider": "publibike", "timeStamp": "01/30/2020, 09:18:14", "zip": 8004}, "type": "Feature"}, {"geometry": {"coordinates": [8.514605, 47.389862], "type": "Point"}, "properties": {"address": "Pfingstweidstrasse 60", "electric": 6, "id": "pb_273", "manual": 1, "name": "Westpark", "provider": "publibike", "timeStamp": "01/30/2020, 09:18:14", "zip": 8005}, "type": "Feature"}, {"geometry": {"coordinates": [8.541239126, 47.375991201], "type": "Point"}, "properties": {"address": "Beatenplatz 1", "electric": 6, "id": "pb_274", "manual": 10, "name": "Beatenplatz", "provider": "publibike", "timeStamp": "01/30/2020, 09:18:14", "zip": 8001}, "type": "Feature"}, {"geometry": {"coordinates": [8.5417135, 47.3942197], "type": "Point"}, "properties": {"address": "Scheuchzerstrasse 181", "electric": 2, "id": "pb_275", "manual": 0, "name": "Pauluskirche", "provider": "publibike", "timeStamp": "01/30/2020, 09:18:14", "zip": 8057}, "type": "Feature"}, {"geometry": {"coordinates": [8.5528182, 47.414558], "type": "Point"}, "properties": {"address": "Hagenholzstrasse 51", "electric": 3, "id": "pb_276", "manual": 9, "name": "Airgate", "provider": "publibike", "timeStamp": "01/30/2020, 09:18:14", "zip": 8050}, "type": "Feature"}, {"geometry": {"coordinates": [8.537816, 47.413514], "type": "Point"}, "properties": {"address": "Birchstrasse 183", "electric": 5, "id": "pb_277", "manual": 4, "name": "Lamprechtweg", "provider": "publibike", "timeStamp": "01/30/2020, 09:18:14", "zip": 8050}, "type": "Feature"}, {"geometry": {"coordinates": [8.545602, 47.417701], "type": "Point"}, "properties": {"address": "Felsenrainstrasse 2", "electric": 4, "id": "pb_278", "manual": 7, "name": "Emil-Oberh\u00e4nsli", "provider": "publibike", "timeStamp": "01/30/2020, 09:18:14", "zip": 8050}, "type": "Feature"}, {"geometry": {"coordinates": [8.533647, 47.39808], "type": "Point"}, "properties": {"address": "Bucheggplatz 2", "electric": 0, "id": "pb_279", "manual": 0, "name": "Bucheggplatz", "provider": "publibike", "timeStamp": "01/30/2020, 09:18:14", "zip": 8057}, "type": "Feature"}, {"geometry": {"coordinates": [8.523549, 47.392347], "type": "Point"}, "properties": {"address": "Wipkingerplatz 4", "electric": 0, "id": "pb_280", "manual": 5, "name": "Wipkingerplatz", "provider": "publibike", "timeStamp": "01/30/2020, 09:18:14", "zip": 8037}, "type": "Feature"}, {"geometry": {"coordinates": [8.548562, 47.36691], "type": "Point"}, "properties": {"address": "Galerie \u00fcber Gleis 2/3", "electric": 14, "id": "pb_285", "manual": 2, "name": "Bahnhof Stadelhofen", "provider": "publibike", "timeStamp": "01/30/2020, 09:18:14", "zip": 8001}, "type": "Feature"}, {"geometry": {"coordinates": [8.493822, 47.3985553], "type": "Point"}, "properties": {"address": "Meierwiesenstrasse 12-4", "electric": 2, "id": "pb_286", "manual": 1, "name": "T\u00fcffenwies", "provider": "publibike", "timeStamp": "01/30/2020, 09:18:14", "zip": 8064}, "type": "Feature"}, {"geometry": {"coordinates": [8.552432, 47.3801757], "type": "Point"}, "properties": {"address": "Hochstrasse 34", "electric": 2, "id": "pb_356", "manual": 1, "name": "Siriuswiese", "provider": "publibike", "timeStamp": "01/30/2020, 09:18:14", "zip": 8044}, "type": "Feature"}, {"geometry": {"coordinates": [8.527298, 47.370141], "type": "Point"}, "properties": {"address": "Hallwylstrasse 71", "electric": 0, "id": "pb_357", "manual": 0, "name": "Hallwylstrasse", "provider": "publibike", "timeStamp": "01/30/2020, 09:18:14", "zip": 8004}, "type": "Feature"}, {"geometry": {"coordinates": [8.5414185, 47.3972455], "type": "Point"}, "properties": {"address": "Schaffhauserstrasse 137", "electric": 0, "id": "pb_358", "manual": 0, "name": "Milchbuck", "provider": "publibike", "timeStamp": "01/30/2020, 09:18:14", "zip": 8057}, "type": "Feature"}, {"geometry": {"coordinates": [8.512381, 47.393409], "type": "Point"}, "properties": {"address": "Hardturmstrasse 161", "electric": 3, "id": "pb_359", "manual": 3, "name": "Fischerweg", "provider": "publibike", "timeStamp": "01/30/2020, 09:18:14", "zip": 8005}, "type": "Feature"}, {"geometry": {"coordinates": [8.5421457, 47.3876979], "type": "Point"}, "properties": {"address": "Turnerstrasse 47", "electric": 1, "id": "pb_360", "manual": 4, "name": "Kirche Unterstrass", "provider": "publibike", "timeStamp": "01/30/2020, 09:18:14", "zip": 8006}, "type": "Feature"}, {"geometry": {"coordinates": [8.522117, 47.394554], "type": "Point"}, "properties": {"address": "Dorfstrasse 40", "electric": 1, "id": "pb_361", "manual": 3, "name": "Dorfstrasse", "provider": "publibike", "timeStamp": "01/30/2020, 09:18:14", "zip": 8037}, "type": "Feature"}, {"geometry": {"coordinates": [8.530437, 47.37271], "type": "Point"}, "properties": {"address": "Werdstrasse 25", "electric": 5, "id": "pb_362", "manual": 6, "name": "Stauffachertor", "provider": "publibike", "timeStamp": "01/30/2020, 09:18:14", "zip": 8004}, "type": "Feature"}, {"geometry": {"coordinates": [8.541712, 47.416155], "type": "Point"}, "properties": {"address": "Eggb\u00fchlstrasse 21", "electric": 4, "id": "pb_363", "manual": 4, "name": "Wahlenpark", "provider": "publibike", "timeStamp": "01/30/2020, 09:18:14", "zip": 8050}, "type": "Feature"}, {"geometry": {"coordinates": [8.5595335, 47.3708387], "type": "Point"}, "properties": {"address": "Dolderstrasse 32", "electric": 5, "id": "pb_364", "manual": 1, "name": "Kinderspital", "provider": "publibike", "timeStamp": "01/30/2020, 09:18:14", "zip": 8032}, "type": "Feature"}, {"geometry": {"coordinates": [8.536433, 47.388689], "type": "Point"}, "properties": {"address": "Kornhausstrasse 30", "electric": 0, "id": "pb_365", "manual": 0, "name": "Kornhausstrasse", "provider": "publibike", "timeStamp": "01/30/2020, 09:18:14", "zip": 8006}, "type": "Feature"}, {"geometry": {"coordinates": [8.55033, 47.407098], "type": "Point"}, "properties": {"address": "Schwamendingenstrasse 41", "electric": 2, "id": "pb_366", "manual": 4, "name": "Dorflinde", "provider": "publibike", "timeStamp": "01/30/2020, 09:18:14", "zip": 8050}, "type": "Feature"}, {"geometry": {"coordinates": [8.560476, 47.368199], "type": "Point"}, "properties": {"address": "R\u00f6merhofplatz 5", "electric": 1, "id": "pb_367", "manual": 0, "name": "R\u00f6merhof", "provider": "publibike", "timeStamp": "01/30/2020, 09:18:14", "zip": 8032}, "type": "Feature"}, {"geometry": {"coordinates": [8.5609218, 47.3619068], "type": "Point"}, "properties": {"address": "Forchstrasse 99", "electric": 4, "id": "pb_368", "manual": 1, "name": "Hegibachplatz", "provider": "publibike", "timeStamp": "01/30/2020, 09:18:14", "zip": 8032}, "type": "Feature"}, {"geometry": {"coordinates": [8.5721264, 47.4039985], "type": "Point"}, "properties": {"address": "Winterthurerstrasse 519", "electric": 6, "id": "pb_370", "manual": 4, "name": "Schwamendingerplatz", "provider": "publibike", "timeStamp": "01/30/2020, 09:18:14", "zip": 8051}, "type": "Feature"}, {"geometry": {"coordinates": [8.520168, 47.378556], "type": "Point"}, "properties": {"address": "Herman-Greulich-Strasse 56", "electric": 4, "id": "pb_384", "manual": 6, "name": "Hermann-Greulich-Weg", "provider": "publibike", "timeStamp": "01/30/2020, 09:18:14", "zip": 8004}, "type": "Feature"}, {"geometry": {"coordinates": [8.547912, 47.384923], "type": "Point"}, "properties": {"address": "Culmannstrasse", "electric": 2, "id": "pb_386", "manual": 1, "name": "Rigiplatz", "provider": "publibike", "timeStamp": "01/30/2020, 09:18:14", "zip": 8006}, "type": "Feature"}, {"geometry": {"coordinates": [8.543768, 47.411057], "type": "Point"}, "properties": {"address": "Hofwiesenstrasse 369", "electric": 5, "id": "pb_387", "manual": 3, "name": "Bahnhof Oerlikon S\u00fcd", "provider": "publibike", "timeStamp": "01/30/2020, 09:18:14", "zip": 8050}, "type": "Feature"}, {"geometry": {"coordinates": [8.544185, 47.412732], "type": "Point"}, "properties": {"address": "Jungholzstrasse 6", "electric": 2, "id": "pb_388", "manual": 2, "name": "Max-Frisch-Platz", "provider": "publibike", "timeStamp": "01/30/2020, 09:18:14", "zip": 8050}, "type": "Feature"}, {"geometry": {"coordinates": [8.558096, 47.413032], "type": "Point"}, "properties": {"address": "Andreasstrasse", "electric": 5, "id": "pb_389", "manual": 10, "name": "Hunziker-Areal", "provider": "publibike", "timeStamp": "01/30/2020, 09:18:14", "zip": 8050}, "type": "Feature"}, {"geometry": {"coordinates": [8.533265, 47.412873], "type": "Point"}, "properties": {"address": "Regina-K\u00e4gi-Strasse 1", "electric": 4, "id": "pb_390", "manual": 4, "name": "Luis-H\u00e4fliger-Park", "provider": "publibike", "timeStamp": "01/30/2020, 09:18:14", "zip": 8050}, "type": "Feature"}, {"geometry": {"coordinates": [8.499265, 47.401852], "type": "Point"}, "properties": {"address": "Limmattalstrasse 177", "electric": 0, "id": "pb_391", "manual": 0, "name": "Meierhofplatz", "provider": "publibike", "timeStamp": "01/30/2020, 09:18:14", "zip": 8049}, "type": "Feature"}, {"geometry": {"coordinates": [8.528356, 47.393255], "type": "Point"}, "properties": {"address": "R\u00f6schibachstrasse 73", "electric": 0, "id": "pb_392", "manual": 0, "name": "R\u00f6schibachplatz", "provider": "publibike", "timeStamp": "01/30/2020, 09:18:14", "zip": 8037}, "type": "Feature"}, {"geometry": {"coordinates": [8.538067, 47.415721], "type": "Point"}, "properties": {"address": "Birchstrasse 191", "electric": 3, "id": "pb_393", "manual": 1, "name": "Oerliker Park", "provider": "publibike", "timeStamp": "01/30/2020, 09:18:14", "zip": 8050}, "type": "Feature"}, {"geometry": {"coordinates": [8.5420304, 47.3669233], "type": "Point"}, "properties": {"address": "Stadthausquai 1", "electric": 1, "id": "pb_395", "manual": 8, "name": "B\u00fcrkliplatz", "provider": "publibike", "timeStamp": "01/30/2020, 09:18:14", "zip": 8001}, "type": "Feature"}, {"geometry": {"coordinates": [8.535767, 47.409881], "type": "Point"}, "properties": {"address": "Regensbergstrasse 195", "electric": 2, "id": "pb_396", "manual": 1, "name": "Holunderhof", "provider": "publibike", "timeStamp": "01/30/2020, 09:18:14", "zip": 8050}, "type": "Feature"}, {"geometry": {"coordinates": [8.5116245, 47.3616199], "type": "Point"}, "properties": {"address": "Grubenstrasse 42", "electric": 1, "id": "pb_431", "manual": 2, "name": "Binz Center", "provider": "publibike", "timeStamp": "01/30/2020, 09:18:14", "zip": 8045}, "type": "Feature"}, {"geometry": {"coordinates": [8.547195, 47.382089], "type": "Point"}, "properties": {"address": "Nelkenstrasse 24", "electric": 0, "id": "pb_430", "manual": 0, "name": "Stapferstube", "provider": "publibike", "timeStamp": "01/30/2020, 09:18:14", "zip": 8006}, "type": "Feature"}, {"geometry": {"coordinates": [8.5787183, 47.4039845], "type": "Point"}, "properties": {"address": "Kronwiesenstrasse 35", "electric": 3, "id": "pb_426", "manual": 3, "name": "Kronwiesen", "provider": "publibike", "timeStamp": "01/30/2020, 09:18:14", "zip": 8051}, "type": "Feature"}, {"geometry": {"coordinates": [8.508131, 47.420757], "type": "Point"}, "properties": {"address": "Riedenhaldenstrasse 20-18", "electric": 10, "id": "pb_425", "manual": 5, "name": "Bahnhof Affoltern", "provider": "publibike", "timeStamp": "01/30/2020, 09:18:14", "zip": 8046}, "type": "Feature"}, {"geometry": {"coordinates": [8.532464, 47.406988], "type": "Point"}, "properties": {"address": "K\u00fcnzlistrasse 41", "electric": 2, "id": "pb_424", "manual": 4, "name": "Birchd\u00f6rfli", "provider": "publibike", "timeStamp": "01/30/2020, 09:18:14", "zip": 8057}, "type": "Feature"}, {"geometry": {"coordinates": [8.5777038, 47.4080095], "type": "Point"}, "properties": {"address": "Luegislandstrasse 412", "electric": 5, "id": "pb_429", "manual": 5, "name": "Luegisland", "provider": "publibike", "timeStamp": "01/30/2020, 09:18:14", "zip": 8051}, "type": "Feature"}, {"geometry": {"coordinates": [8.58841, 47.40158], "type": "Point"}, "properties": {"address": "Hirzenbachstrasse 2-4", "electric": 5, "id": "pb_428", "manual": 3, "name": "Hirzenbachstrasse", "provider": "publibike", "timeStamp": "01/30/2020, 09:18:14", "zip": 8051}, "type": "Feature"}, {"geometry": {"coordinates": [8.5563463, 47.4095467], "type": "Point"}, "properties": {"address": "K\u00fchriedweg", "electric": 2, "id": "pb_445", "manual": 4, "name": "Hallenbad Oerlikon", "provider": "publibike", "timeStamp": "01/30/2020, 09:18:14", "zip": 8050}, "type": "Feature"}, {"geometry": {"coordinates": [8.537971, 47.364871], "type": "Point"}, "properties": {"address": "General-Guisan-Quai 17", "electric": 1, "id": "pb_454", "manual": 3, "name": "General-Guisan-Quai", "provider": "publibike", "timeStamp": "01/30/2020, 09:18:14", "zip": 8002}, "type": "Feature"}, {"geometry": {"coordinates": [8.560587, 47.350578], "type": "Point"}, "properties": {"address": "Bellerivestrasse 245", "electric": 9, "id": "pb_450", "manual": 7, "name": "Bahnhof Tiefenbrunnen", "provider": "publibike", "timeStamp": "01/30/2020, 09:18:14", "zip": 8008}, "type": "Feature"}, {"geometry": {"coordinates": [8.5269416, 47.3563719], "type": "Point"}, "properties": {"address": "Waffenplatzstrasse 89", "electric": 6, "id": "pb_452", "manual": 2, "name": "Rieterplatz", "provider": "publibike", "timeStamp": "01/30/2020, 09:18:14", "zip": 8002}, "type": "Feature"}, {"geometry": {"coordinates": [8.514176, 47.3663708], "type": "Point"}, "properties": {"address": "Talwiesenstrasse 92", "electric": 4, "id": "pb_446", "manual": 2, "name": "Binzallee", "provider": "publibike", "timeStamp": "01/30/2020, 09:18:14", "zip": 8055}, "type": "Feature"}, {"geometry": {"coordinates": [8.5070564, 47.371455], "type": "Point"}, "properties": {"address": "Gutstrasse 87", "electric": 1, "id": "pb_447", "manual": 3, "name": "Gutstrasse", "provider": "publibike", "timeStamp": "01/30/2020, 09:18:14", "zip": 8055}, "type": "Feature"}, {"geometry": {"coordinates": [8.4941268, 47.3836391], "type": "Point"}, "properties": {"address": "Flurstrasse 62", "electric": 0, "id": "pb_453", "manual": 6, "name": "Flurpark", "provider": "publibike", "timeStamp": "01/30/2020, 09:18:14", "zip": 8048}, "type": "Feature"}, {"geometry": {"coordinates": [8.500343, 47.380778], "type": "Point"}, "properties": {"address": "Edelweissstrasse 32", "electric": 5, "id": "pb_448", "manual": 3, "name": "Bl\u00fcemliquartier", "provider": "publibike", "timeStamp": "01/30/2020, 09:18:14", "zip": 8048}, "type": "Feature"}, {"geometry": {"coordinates": [8.528796, 47.383858], "type": "Point"}, "properties": {"address": "Gasometerstrasse 24", "electric": 4, "id": "pb_449", "manual": 13, "name": "Gasometerstrasse", "provider": "publibike", "timeStamp": "01/30/2020, 09:18:14", "zip": 8005}, "type": "Feature"}, {"geometry": {"coordinates": [8.4981964, 47.3859194], "type": "Point"}, "properties": {"address": "Baslerstrasse 57", "electric": 10, "id": "pb_455", "manual": 7, "name": "Letzipark", "provider": "publibike", "timeStamp": "01/30/2020, 09:18:14", "zip": 8048}, "type": "Feature"}, {"geometry": {"coordinates": [8.515252, 47.381915], "type": "Point"}, "properties": {"address": "Sihlfeldstrasse 175", "electric": 1, "id": "pb_451", "manual": 3, "name": "Hardplatz", "provider": "publibike", "timeStamp": "01/30/2020, 09:18:14", "zip": 8004}, "type": "Feature"}, {"geometry": {"coordinates": [8.5064743, 47.4188324], "type": "Point"}, "properties": {"address": "Wehntalerstrasse 541", "electric": 3, "id": "pb_427", "manual": 2, "name": "Zehntenhausplatz", "provider": "publibike", "timeStamp": "01/30/2020, 09:18:14", "zip": 8046}, "type": "Feature"}, {"geometry": {"coordinates": [8.537729, 47.379719], "type": "Point"}, "properties": {"address": "Sihlquai/HB", "electric": 5, "id": "pb_513", "manual": 6, "name": "Sihlquai", "provider": "publibike", "timeStamp": "01/30/2020, 09:18:14", "zip": 8005}, "type": "Feature"}, {"geometry": {"coordinates": [8.596202, 47.397885], "type": "Point"}, "properties": {"address": "Bahnhof Stettbach", "electric": 3, "id": "pb_514", "manual": 0, "name": "Bahnhof Stettbach", "provider": "publibike", "timeStamp": "01/30/2020, 09:18:14", "zip": 8051}, "type": "Feature"}, {"geometry": {"coordinates": [8.5543974, 47.3690153], "type": "Point"}, "properties": {"address": "Kasinostrasse 10", "electric": 6, "id": "pb_515", "manual": 0, "name": "Hottingerplatz", "provider": "publibike", "timeStamp": "01/30/2020, 09:18:14", "zip": 8032}, "type": "Feature"}, {"geometry": {"coordinates": [8.534444, 47.351525], "type": "Point"}, "properties": {"address": "Mobile Station Z\u00fcrich 1", "electric": 0, "id": "pb_282", "manual": 0, "name": "Theaterspektakel", "provider": "publibike", "timeStamp": "01/30/2020, 09:18:14", "zip": 8002}, "type": "Feature"}, {"geometry": {"coordinates": [8.516257, 47.367656], "type": "Point"}, "properties": {"address": "Goldbrunnenstrasse 54", "electric": 5, "id": "pb_538", "manual": 1, "name": "Kirche B\u00fchl", "provider": "publibike", "timeStamp": "01/30/2020, 09:18:14", "zip": 8055}, "type": "Feature"}, {"geometry": {"coordinates": [8.555639, 47.416873], "type": "Point"}, "properties": {"address": "Leutschenbachstrasse 50", "electric": 1, "id": "pb_537", "manual": 4, "name": "Leutschenpark", "provider": "publibike", "timeStamp": "01/30/2020, 09:18:14", "zip": 8050}, "type": "Feature"}, {"geometry": {"coordinates": [8.546464, 47.403822], "type": "Point"}, "properties": {"address": "Berninastrasse 45", "electric": 11, "id": "pb_540", "manual": 2, "name": "Berninaplatz", "provider": "publibike", "timeStamp": "01/30/2020, 09:18:14", "zip": 8057}, "type": "Feature"}, {"geometry": {"coordinates": [8.523134, 47.369004], "type": "Point"}, "properties": {"address": "Erlachstrasse 3", "electric": 0, "id": "pb_385", "manual": 7, "name": "Aegerten", "provider": "publibike", "timeStamp": "01/30/2020, 09:18:14", "zip": 8003}, "type": "Feature"}, {"geometry": {"coordinates": [8.49038, 47.381591], "type": "Point"}, "properties": {"address": "Rautistrasse 60", "electric": 3, "id": "pb_536", "manual": 6, "name": "Freilager", "provider": "publibike", "timeStamp": "01/30/2020, 09:18:14", "zip": 8048}, "type": "Feature"}, {"geometry": {"coordinates": [8.496511, 47.375247], "type": "Point"}, "properties": {"address": "Letzigraben 139", "electric": 1, "id": "pb_444", "manual": 2, "name": "Sackzelg", "provider": "publibike", "timeStamp": "01/30/2020, 09:18:14", "zip": 8047}, "type": "Feature"}, {"geometry": {"coordinates": [8.58131, 47.402801], "type": "Point"}, "properties": {"address": "Altwiesenstrasse 104", "electric": 1, "id": "pb_539", "manual": 5, "name": "Glattwiesen", "provider": "publibike", "timeStamp": "01/30/2020, 09:18:14", "zip": 8051}, "type": "Feature"}, {"geometry": {"coordinates": [8.52689, 47.3767], "type": "Point"}, "properties": {"address": "Molkenstrasse 5", "electric": 0, "id": "pb_560", "manual": 5, "name": "Helvetiaplatz", "provider": "publibike", "timeStamp": "01/30/2020, 09:18:14", "zip": 8004}, "type": "Feature"}, {"geometry": {"coordinates": [8.525602, 47.374241], "type": "Point"}, "properties": {"address": "Badenerstrasse 90", "electric": 0, "id": "pb_559", "manual": 3, "name": "Bezirksgeb\u00e4ude", "provider": "publibike", "timeStamp": "01/30/2020, 09:18:14", "zip": 8004}, "type": "Feature"}, {"geometry": {"coordinates": [8.535082, 47.345248], "type": "Point"}, "properties": {"address": "Bachstrasse 15", "electric": 5, "id": "pb_564", "manual": 5, "name": "GZ Wollishofen", "provider": "publibike", "timeStamp": "01/30/2020, 09:18:14", "zip": 8038}, "type": "Feature"}, {"geometry": {"coordinates": [8.514841, 47.370238], "type": "Point"}, "properties": {"address": "Schrennengasse 37", "electric": 0, "id": "pb_562", "manual": 3, "name": "Goldbrunnenplatz", "provider": "publibike", "timeStamp": "01/30/2020, 09:18:14", "zip": 8003}, "type": "Feature"}, {"geometry": {"coordinates": [8.514138, 47.374206], "type": "Point"}, "properties": {"address": "Idaplatz 4", "electric": 4, "id": "pb_557", "manual": 3, "name": "Idaplatz", "provider": "publibike", "timeStamp": "01/30/2020, 09:18:14", "zip": 8003}, "type": "Feature"}, {"geometry": {"coordinates": [8.518432, 47.369549], "type": "Point"}, "properties": {"address": "Brinerstrasse 2", "electric": 3, "id": "pb_558", "manual": 8, "name": "Schmiede Wiedikon", "provider": "publibike", "timeStamp": "01/30/2020, 09:18:14", "zip": 8003}, "type": "Feature"}, {"geometry": {"coordinates": [8.537546, 47.391289], "type": "Point"}, "properties": {"address": "Rotbuchstrasse 15", "electric": 1, "id": "pb_556", "manual": 0, "name": "Schaffhauserplatz", "provider": "publibike", "timeStamp": "01/30/2020, 09:18:14", "zip": 8006}, "type": "Feature"}, {"geometry": {"coordinates": [8.541541, 47.413733], "type": "Point"}, "properties": {"address": "Therese-Giehse-Strasse 11", "electric": 3, "id": "pb_561", "manual": 2, "name": "Center Eleven", "provider": "publibike", "timeStamp": "01/30/2020, 09:18:14", "zip": 8050}, "type": "Feature"}, {"geometry": {"coordinates": [8.534227, 47.360004], "type": "Point"}, "properties": {"address": "Alfred Escher-Strasse 76", "electric": 14, "id": "pb_563", "manual": 5, "name": "Mythenschloss", "provider": "publibike", "timeStamp": "01/30/2020, 09:18:14", "zip": 8002}, "type": "Feature"}, {"geometry": {"coordinates": [8.50373, 47.396172], "type": "Point"}, "properties": {"address": "Hardeggstrasse 6", "electric": 2, "id": "pb_566", "manual": 4, "name": "Am Wasser", "provider": "publibike", "timeStamp": "01/30/2020, 09:18:14", "zip": 8049}, "type": "Feature"}, {"geometry": {"coordinates": [8.532432, 47.381174], "type": "Point"}, "properties": {"address": "Klingenstrasse 9", "electric": 7, "id": "pb_565", "manual": 3, "name": "Zollstrasse", "provider": "publibike", "timeStamp": "01/30/2020, 09:18:14", "zip": 8005}, "type": "Feature"}, {"geometry": {"coordinates": [8.497982, 47.381447], "type": "Point"}, "properties": {"address": "Dennlerstrasse 23", "electric": 3, "id": "pb_567", "manual": 5, "name": "Dennlerstrasse", "provider": "publibike", "timeStamp": "01/30/2020, 09:18:14", "zip": 8047}, "type": "Feature"}, {"geometry": {"coordinates": [8.528049, 47.347701], "type": "Point"}, "properties": {"address": "Mutschellenstrasse 114", "electric": 2, "id": "pb_568", "manual": 2, "name": "Jugendherberge", "provider": "publibike", "timeStamp": "01/30/2020, 09:18:14", "zip": 8038}, "type": "Feature"}, {"geometry": {"coordinates": [8.539016, 47.405751], "type": "Point"}, "properties": {"address": "Ringstrasse 82", "electric": 6, "id": "pb_569", "manual": 2, "name": "Freibad Allenmoos", "provider": "publibike", "timeStamp": "01/30/2020, 09:18:14", "zip": 8057}, "type": "Feature"}, {"geometry": {"coordinates": [8.534974, 47.402164], "type": "Point"}, "properties": {"address": "Brache Guggach", "electric": 1, "id": "pb_572", "manual": 1, "name": "Radiostudio", "provider": "publibike", "timeStamp": "01/30/2020, 09:18:14", "zip": 8057}, "type": "Feature"}, {"geometry": {"coordinates": [8.547901, 47.375556], "type": "Point"}, "properties": {"address": "Karl-Schmid-Strasse 4", "electric": 2, "id": "pb_571", "manual": 0, "name": "ETH/Zoologisches Museum", "provider": "publibike", "timeStamp": "01/30/2020, 09:18:14", "zip": 8006}, "type": "Feature"}, {"geometry": {"coordinates": [8.54482, 47.367215], "type": "Point"}, "properties": {"charge": 98, "id": "smide_2901", "name": "ZH 267278", "provider": "smide", "range": 49.0, "size": 20, "time": "01/30/2020, 09:19:48"}, "type": "Feature"}, {"geometry": {"coordinates": [8.561108, 47.350155], "type": "Point"}, "properties": {"charge": 100, "id": "smide_2895", "name": "ZH 267279", "provider": "smide", "range": 50.0, "size": 20, "time": "01/30/2020, 09:19:48"}, "type": "Feature"}, {"geometry": {"coordinates": [8.539983, 47.379051], "type": "Point"}, "properties": {"charge": 57, "id": "smide_2874", "name": "ZH 267288", "provider": "smide", "range": 28.0, "size": 17, "time": "01/30/2020, 09:19:48"}, "type": "Feature"}, {"geometry": {"coordinates": [8.540786, 47.37833], "type": "Point"}, "properties": {"charge": 41, "id": "smide_2871", "name": "ZH 267086", "provider": "smide", "range": 20.0, "size": 20, "time": "01/30/2020, 09:19:48"}, "type": "Feature"}, {"geometry": {"coordinates": [8.550925, 47.380045], "type": "Point"}, "properties": {"charge": 83, "id": "smide_2867", "name": "ZH 267090", "provider": "smide", "range": 41.0, "size": 20, "time": "01/30/2020, 09:19:48"}, "type": "Feature"}, {"geometry": {"coordinates": [8.555121, 47.384895], "type": "Point"}, "properties": {"charge": 59, "id": "smide_2861", "name": "ZH 267096", "provider": "smide", "range": 29.0, "size": 17, "time": "01/30/2020, 09:19:48"}, "type": "Feature"}, {"geometry": {"coordinates": [8.530828, 47.379228], "type": "Point"}, "properties": {"charge": 23, "id": "smide_2860", "name": "ZH 267097", "provider": "smide", "range": 11.0, "size": 17, "time": "01/30/2020, 09:19:48"}, "type": "Feature"}, {"geometry": {"coordinates": [8.513688, 47.377821], "type": "Point"}, "properties": {"charge": 85, "id": "smide_2859", "name": "ZH 267098", "provider": "smide", "range": 42.0, "size": 17, "time": "01/30/2020, 09:19:48"}, "type": "Feature"}, {"geometry": {"coordinates": [8.541861, 47.378313], "type": "Point"}, "properties": {"charge": 75, "id": "smide_2856", "name": "ZH 267101", "provider": "smide", "range": 37.0, "size": 17, "time": "01/30/2020, 09:19:48"}, "type": "Feature"}, {"geometry": {"coordinates": [8.582668, 47.35084], "type": "Point"}, "properties": {"charge": 91, "id": "smide_2855", "name": "ZH 267102", "provider": "smide", "range": 45.0, "size": 17, "time": "01/30/2020, 09:19:48"}, "type": "Feature"}, {"geometry": {"coordinates": [8.510496, 47.398488], "type": "Point"}, "properties": {"charge": 89, "id": "smide_2854", "name": "ZH 267103", "provider": "smide", "range": 44.0, "size": 17, "time": "01/30/2020, 09:19:48"}, "type": "Feature"}, {"geometry": {"coordinates": [8.545576, 47.368488], "type": "Point"}, "properties": {"charge": 57, "id": "smide_2833", "name": "ZH 267182", "provider": "smide", "range": 28.0, "size": 20, "time": "01/30/2020, 09:19:48"}, "type": "Feature"}, {"geometry": {"coordinates": [8.570165, 47.352376], "type": "Point"}, "properties": {"charge": 71, "id": "smide_2831", "name": "ZH 267180", "provider": "smide", "range": 35.0, "size": 20, "time": "01/30/2020, 09:19:48"}, "type": "Feature"}, {"geometry": {"coordinates": [8.522888, 47.371058], "type": "Point"}, "properties": {"charge": 88, "id": "smide_2829", "name": "ZH 267049", "provider": "smide", "range": 44.0, "size": 20, "time": "01/30/2020, 09:19:48"}, "type": "Feature"}, {"geometry": {"coordinates": [8.506045, 47.418961], "type": "Point"}, "properties": {"charge": 100, "id": "smide_2804", "name": "ZH266903", "provider": "smide", "range": 50.0, "size": 20, "time": "01/30/2020, 09:19:48"}, "type": "Feature"}, {"geometry": {"coordinates": [8.541276, 47.379038], "type": "Point"}, "properties": {"charge": 81, "id": "smide_2798", "name": "ZH266888", "provider": "smide", "range": 40.0, "size": 17, "time": "01/30/2020, 09:19:48"}, "type": "Feature"}, {"geometry": {"coordinates": [8.535583, 47.359486], "type": "Point"}, "properties": {"charge": 85, "id": "smide_2793", "name": "ZH266883", "provider": "smide", "range": 42.0, "size": 17, "time": "01/30/2020, 09:19:48"}, "type": "Feature"}, {"geometry": {"coordinates": [8.52776, 47.35874], "type": "Point"}, "properties": {"charge": 49, "id": "smide_2790", "name": "ZH266880", "provider": "smide", "range": 24.0, "size": 17, "time": "01/30/2020, 09:19:48"}, "type": "Feature"}, {"geometry": {"coordinates": [8.555378, 47.384291], "type": "Point"}, "properties": {"charge": 22, "id": "smide_2781", "name": "ZH 266871", "provider": "smide", "range": 11.0, "size": 17, "time": "01/30/2020, 09:19:48"}, "type": "Feature"}, {"geometry": {"coordinates": [8.542033, 47.412006], "type": "Point"}, "properties": {"charge": 37, "id": "smide_2780", "name": "ST1 X #1", "provider": "smide", "range": 18.0, "size": 17, "time": "01/30/2020, 09:19:48"}, "type": "Feature"}, {"geometry": {"coordinates": [8.514466, 47.36314], "type": "Point"}, "properties": {"charge": 93, "id": "smide_2775", "name": "ZH267283", "provider": "smide", "range": 46.0, "size": 20, "time": "01/30/2020, 09:19:48"}, "type": "Feature"}, {"geometry": {"coordinates": [8.545184, 47.423556], "type": "Point"}, "properties": {"charge": 93, "id": "smide_2773", "name": "ZH266561", "provider": "smide", "range": 46.0, "size": 17, "time": "01/30/2020, 09:19:48"}, "type": "Feature"}, {"geometry": {"coordinates": [8.489604, 47.373888], "type": "Point"}, "properties": {"charge": 13, "id": "smide_2763", "name": "ZH266641", "provider": "smide", "range": 6.0, "size": 17, "time": "01/30/2020, 09:19:48"}, "type": "Feature"}, {"geometry": {"coordinates": [8.560196, 47.382033], "type": "Point"}, "properties": {"charge": 52, "id": "smide_2761", "name": "ZH266642", "provider": "smide", "range": 26.0, "size": 20, "time": "01/30/2020, 09:19:48"}, "type": "Feature"}, {"geometry": {"coordinates": [8.547793, 47.36888], "type": "Point"}, "properties": {"charge": 89, "id": "smide_2758", "name": "ZH266638 M", "provider": "smide", "range": 44.0, "size": 17, "time": "01/30/2020, 09:19:48"}, "type": "Feature"}, {"geometry": {"coordinates": [8.523982, 47.371584], "type": "Point"}, "properties": {"charge": 79, "id": "smide_2752", "name": "BE343856", "provider": "smide", "range": 39.0, "size": 17, "time": "01/30/2020, 09:19:48"}, "type": "Feature"}, {"geometry": {"coordinates": [8.55268, 47.38868], "type": "Point"}, "properties": {"charge": 100, "id": "smide_2751", "name": "BE343857", "provider": "smide", "range": 50.0, "size": 17, "time": "01/30/2020, 09:19:48"}, "type": "Feature"}, {"geometry": {"coordinates": [8.490947, 47.390948], "type": "Point"}, "properties": {"charge": 55, "id": "smide_2749", "name": "BE343867", "provider": "smide", "range": 27.0, "size": 17, "time": "01/30/2020, 09:19:48"}, "type": "Feature"}, {"geometry": {"coordinates": [8.527802, 47.369256], "type": "Point"}, "properties": {"charge": 20, "id": "smide_2748", "name": "BE335758", "provider": "smide", "range": 10.0, "size": 17, "time": "01/30/2020, 09:19:48"}, "type": "Feature"}, {"geometry": {"coordinates": [8.514367, 47.35734], "type": "Point"}, "properties": {"charge": 74, "id": "smide_2746", "name": "BE335817", "provider": "smide", "range": 37.0, "size": 17, "time": "01/30/2020, 09:19:48"}, "type": "Feature"}, {"geometry": {"coordinates": [8.551559, 47.420768], "type": "Point"}, "properties": {"charge": 100, "id": "smide_2747", "name": "BE335820", "provider": "smide", "range": 50.0, "size": 17, "time": "01/30/2020, 09:19:48"}, "type": "Feature"}, {"geometry": {"coordinates": [8.492926, 47.380572], "type": "Point"}, "properties": {"charge": 38, "id": "smide_2745", "name": "BE335818", "provider": "smide", "range": 19.0, "size": 17, "time": "01/30/2020, 09:19:48"}, "type": "Feature"}, {"geometry": {"coordinates": [8.56041, 47.368544], "type": "Point"}, "properties": {"charge": 51, "id": "smide_2742", "name": "BE343866", "provider": "smide", "range": 25.0, "size": 17, "time": "01/30/2020, 09:19:48"}, "type": "Feature"}, {"geometry": {"coordinates": [8.547185, 47.376032], "type": "Point"}, "properties": {"charge": 20, "id": "smide_2740", "name": "BE343875", "provider": "smide", "range": 10.0, "size": 17, "time": "01/30/2020, 09:19:48"}, "type": "Feature"}, {"geometry": {"coordinates": [8.544711, 47.418831], "type": "Point"}, "properties": {"charge": 95, "id": "smide_2738", "name": "BE343865", "provider": "smide", "range": 47.0, "size": 17, "time": "01/30/2020, 09:19:48"}, "type": "Feature"}, {"geometry": {"coordinates": [8.514348, 47.357296], "type": "Point"}, "properties": {"charge": 81, "id": "smide_2737", "name": "BE336149", "provider": "smide", "range": 40.0, "size": 17, "time": "01/30/2020, 09:19:48"}, "type": "Feature"}, {"geometry": {"coordinates": [8.538651, 47.37402], "type": "Point"}, "properties": {"charge": 81, "id": "smide_2734", "name": "BE343876", "provider": "smide", "range": 40.0, "size": 17, "time": "01/30/2020, 09:19:48"}, "type": "Feature"}, {"geometry": {"coordinates": [8.529707, 47.371304], "type": "Point"}, "properties": {"charge": 27, "id": "smide_2733", "name": "BE343873", "provider": "smide", "range": 13.0, "size": 17, "time": "01/30/2020, 09:19:48"}, "type": "Feature"}, {"geometry": {"coordinates": [8.49444, 47.36588], "type": "Point"}, "properties": {"charge": 87, "id": "smide_2732", "name": "BE343870", "provider": "smide", "range": 43.0, "size": 17, "time": "01/30/2020, 09:19:48"}, "type": "Feature"}, {"geometry": {"coordinates": [8.564716, 47.372816], "type": "Point"}, "properties": {"charge": 84, "id": "smide_2729", "name": "BE343878", "provider": "smide", "range": 42.0, "size": 17, "time": "01/30/2020, 09:19:48"}, "type": "Feature"}, {"geometry": {"coordinates": [8.515186, 47.396176], "type": "Point"}, "properties": {"charge": 36, "id": "smide_2725", "name": "ZH261545", "provider": "smide", "range": 18.0, "size": 0, "time": "01/30/2020, 09:19:48"}, "type": "Feature"}, {"geometry": {"coordinates": [8.546013, 47.367433], "type": "Point"}, "properties": {"charge": 76, "id": "smide_2718", "name": "ZH259019", "provider": "smide", "range": 38.0, "size": 20, "time": "01/30/2020, 09:19:48"}, "type": "Feature"}, {"geometry": {"coordinates": [8.518355, 47.398112], "type": "Point"}, "properties": {"charge": 57, "id": "smide_2717", "name": "ZH263287", "provider": "smide", "range": 28.0, "size": 17, "time": "01/30/2020, 09:19:48"}, "type": "Feature"}, {"geometry": {"coordinates": [8.541456, 47.369986], "type": "Point"}, "properties": {"charge": 30, "id": "smide_2716", "name": "ZH254606", "provider": "smide", "range": 15.0, "size": 17, "time": "01/30/2020, 09:19:48"}, "type": "Feature"}, {"geometry": {"coordinates": [8.537416, 47.340576], "type": "Point"}, "properties": {"charge": 88, "id": "smide_2715", "name": "ZH254605", "provider": "smide", "range": 44.0, "size": 17, "time": "01/30/2020, 09:19:48"}, "type": "Feature"}, {"geometry": {"coordinates": [8.553406, 47.402248], "type": "Point"}, "properties": {"charge": 23, "id": "smide_2710", "name": "ZH256460", "provider": "smide", "range": 11.0, "size": 17, "time": "01/30/2020, 09:19:48"}, "type": "Feature"}, {"geometry": {"coordinates": [8.546615, 47.368196], "type": "Point"}, "properties": {"charge": 100, "id": "smide_2712", "name": "ZH256462", "provider": "smide", "range": 50.0, "size": 17, "time": "01/30/2020, 09:19:48"}, "type": "Feature"}, {"geometry": {"coordinates": [8.529027, 47.387872], "type": "Point"}, "properties": {"charge": 74, "id": "smide_2711", "name": "ZH256463", "provider": "smide", "range": 37.0, "size": 17, "time": "01/30/2020, 09:19:48"}, "type": "Feature"}, {"geometry": {"coordinates": [8.56387, 47.348135], "type": "Point"}, "properties": {"charge": 74, "id": "smide_2709", "name": "ZH256466", "provider": "smide", "range": 37.0, "size": 20, "time": "01/30/2020, 09:19:48"}, "type": "Feature"}, {"geometry": {"coordinates": [8.549397, 47.422052], "type": "Point"}, "properties": {"charge": 83, "id": "smide_2707", "name": "ZH256467", "provider": "smide", "range": 41.0, "size": 20, "time": "01/30/2020, 09:19:48"}, "type": "Feature"}, {"geometry": {"coordinates": [8.483114, 47.384756], "type": "Point"}, "properties": {"charge": 53, "id": "smide_2708", "name": "ZH256464", "provider": "smide", "range": 26.0, "size": 17, "time": "01/30/2020, 09:19:48"}, "type": "Feature"}, {"geometry": {"coordinates": [8.536798, 47.379812], "type": "Point"}, "properties": {"charge": 79, "id": "smide_2706", "name": "ZH256322", "provider": "smide", "range": 39.0, "size": 20, "time": "01/30/2020, 09:19:48"}, "type": "Feature"}, {"geometry": {"coordinates": [8.537049, 47.41914], "type": "Point"}, "properties": {"charge": 34, "id": "smide_2705", "name": "ZH256471", "provider": "smide", "range": 17.0, "size": 20, "time": "01/30/2020, 09:19:48"}, "type": "Feature"}, {"geometry": {"coordinates": [8.563319, 47.372284], "type": "Point"}, "properties": {"charge": 100, "id": "smide_2701", "name": "ZH256468", "provider": "smide", "range": 50.0, "size": 20, "time": "01/30/2020, 09:19:48"}, "type": "Feature"}, {"geometry": {"coordinates": [8.507048, 47.407084], "type": "Point"}, "properties": {"charge": 95, "id": "smide_2700", "name": "ZH256470", "provider": "smide", "range": 47.0, "size": 20, "time": "01/30/2020, 09:19:48"}, "type": "Feature"}, {"geometry": {"coordinates": [8.568397, 47.36764], "type": "Point"}, "properties": {"charge": 30, "id": "smide_2699", "name": "ZH254611", "provider": "smide", "range": 15.0, "size": 20, "time": "01/30/2020, 09:19:48"}, "type": "Feature"}, {"geometry": {"coordinates": [8.511289, 47.370884], "type": "Point"}, "properties": {"charge": 42, "id": "smide_2696", "name": "ZH254616", "provider": "smide", "range": 21.0, "size": 20, "time": "01/30/2020, 09:19:48"}, "type": "Feature"}, {"geometry": {"coordinates": [8.514262, 47.361864], "type": "Point"}, "properties": {"charge": 88, "id": "smide_2694", "name": "ZH254610", "provider": "smide", "range": 44.0, "size": 20, "time": "01/30/2020, 09:19:48"}, "type": "Feature"}, {"geometry": {"coordinates": [8.510551, 47.398421], "type": "Point"}, "properties": {"charge": 86, "id": "smide_2691", "name": "ZH254622", "provider": "smide", "range": 43.0, "size": 20, "time": "01/30/2020, 09:19:48"}, "type": "Feature"}, {"geometry": {"coordinates": [8.56526, 47.357768], "type": "Point"}, "properties": {"charge": 63, "id": "smide_2690", "name": "ZH254625", "provider": "smide", "range": 31.0, "size": 20, "time": "01/30/2020, 09:19:48"}, "type": "Feature"}, {"geometry": {"coordinates": [8.495324, 47.42384], "type": "Point"}, "properties": {"charge": 85, "id": "smide_2689", "name": "ZH254623", "provider": "smide", "range": 42.0, "size": 20, "time": "01/30/2020, 09:19:48"}, "type": "Feature"}, {"geometry": {"coordinates": [8.537701, 47.411664], "type": "Point"}, "properties": {"charge": 75, "id": "smide_2687", "name": "ZH263529", "provider": "smide", "range": 37.0, "size": 20, "time": "01/30/2020, 09:19:48"}, "type": "Feature"}, {"geometry": {"coordinates": [8.57277, 47.380564], "type": "Point"}, "properties": {"charge": 81, "id": "smide_2684", "name": "ZH254626", "provider": "smide", "range": 40.0, "size": 20, "time": "01/30/2020, 09:19:48"}, "type": "Feature"}, {"geometry": {"coordinates": [8.535986, 47.368916], "type": "Point"}, "properties": {"charge": 62, "id": "smide_2683", "name": "ZH254620", "provider": "smide", "range": 31.0, "size": 20, "time": "01/30/2020, 09:19:48"}, "type": "Feature"}, {"geometry": {"coordinates": [8.587508, 47.403164], "type": "Point"}, "properties": {"charge": 71, "id": "smide_2680", "name": "ZH254619", "provider": "smide", "range": 35.0, "size": 20, "time": "01/30/2020, 09:19:48"}, "type": "Feature"}, {"geometry": {"coordinates": [8.576501, 47.351172], "type": "Point"}, "properties": {"charge": 89, "id": "smide_2679", "name": "ZH258489", "provider": "smide", "range": 44.0, "size": 17, "time": "01/30/2020, 09:19:48"}, "type": "Feature"}, {"geometry": {"coordinates": [8.525992, 47.372924], "type": "Point"}, "properties": {"charge": 47, "id": "smide_2671", "name": "ZH258645", "provider": "smide", "range": 23.0, "size": 17, "time": "01/30/2020, 09:19:48"}, "type": "Feature"}, {"geometry": {"coordinates": [8.476624, 47.387376], "type": "Point"}, "properties": {"charge": 72, "id": "smide_2669", "name": "ZH263294", "provider": "smide", "range": 36.0, "size": 17, "time": "01/30/2020, 09:19:48"}, "type": "Feature"}, {"geometry": {"coordinates": [8.502105, 47.369008], "type": "Point"}, "properties": {"charge": 72, "id": "smide_2668", "name": "ZH258640", "provider": "smide", "range": 36.0, "size": 17, "time": "01/30/2020, 09:19:48"}, "type": "Feature"}, {"geometry": {"coordinates": [8.551271, 47.363892], "type": "Point"}, "properties": {"charge": 28, "id": "smide_2666", "name": "ZH258653", "provider": "smide", "range": 14.0, "size": 17, "time": "01/30/2020, 09:19:48"}, "type": "Feature"}, {"geometry": {"coordinates": [8.52149, 47.36162], "type": "Point"}, "properties": {"charge": 99, "id": "smide_2665", "name": "ZH258644", "provider": "smide", "range": 49.0, "size": 17, "time": "01/30/2020, 09:19:48"}, "type": "Feature"}, {"geometry": {"coordinates": [8.551102, 47.414752], "type": "Point"}, "properties": {"charge": 60, "id": "smide_2663", "name": "ZH258649", "provider": "smide", "range": 30.0, "size": 17, "time": "01/30/2020, 09:19:48"}, "type": "Feature"}, {"geometry": {"coordinates": [8.54493, 47.368396], "type": "Point"}, "properties": {"charge": 46, "id": "smide_2662", "name": "ZH258643", "provider": "smide", "range": 23.0, "size": 17, "time": "01/30/2020, 09:19:48"}, "type": "Feature"}, {"geometry": {"coordinates": [8.560884, 47.372772], "type": "Point"}, "properties": {"charge": 99, "id": "smide_2648", "name": "ZH257930", "provider": "smide", "range": 49.0, "size": 20, "time": "01/30/2020, 09:19:48"}, "type": "Feature"}, {"geometry": {"coordinates": [8.568975, 47.351875], "type": "Point"}, "properties": {"charge": 66, "id": "smide_2657", "name": "ZH257936", "provider": "smide", "range": 33.0, "size": 17, "time": "01/30/2020, 09:19:48"}, "type": "Feature"}, {"geometry": {"coordinates": [8.541215, 47.37864], "type": "Point"}, "properties": {"charge": 90, "id": "smide_2647", "name": "ZH257932", "provider": "smide", "range": 45.0, "size": 20, "time": "01/30/2020, 09:19:48"}, "type": "Feature"}, {"geometry": {"coordinates": [8.519574, 47.370608], "type": "Point"}, "properties": {"charge": 72, "id": "smide_2645", "name": "ZH257933", "provider": "smide", "range": 36.0, "size": 20, "time": "01/30/2020, 09:19:48"}, "type": "Feature"}, {"geometry": {"coordinates": [8.498563, 47.399153], "type": "Point"}, "properties": {"charge": 87, "id": "smide_3", "name": "ZH253765", "provider": "smide", "range": 43.0, "size": 20, "time": "01/30/2020, 09:19:48"}, "type": "Feature"}, {"geometry": {"coordinates": [8.510898, 47.37177], "type": "Point"}, "properties": {"charge": 30, "id": "smide_105", "name": "ZH253804", "provider": "smide", "range": 15.0, "size": 17, "time": "01/30/2020, 09:19:48"}, "type": "Feature"}, {"geometry": {"coordinates": [8.541718, 47.407628], "type": "Point"}, "properties": {"charge": 17, "id": "smide_186", "name": "ZH253751", "provider": "smide", "range": 8.0, "size": 20, "time": "01/30/2020, 09:19:48"}, "type": "Feature"}, {"geometry": {"coordinates": [8.571173, 47.352488], "type": "Point"}, "properties": {"charge": 93, "id": "smide_173", "name": "ZH258501", "provider": "smide", "range": 46.0, "size": 17, "time": "01/30/2020, 09:19:48"}, "type": "Feature"}, {"geometry": {"coordinates": [8.559257, 47.406004], "type": "Point"}, "properties": {"charge": 73, "id": "smide_77", "name": "ZH261548", "provider": "smide", "range": 36.0, "size": 20, "time": "01/30/2020, 09:19:48"}, "type": "Feature"}, {"geometry": {"coordinates": [8.508283, 47.400612], "type": "Point"}, "properties": {"charge": 27, "id": "smide_200", "name": "ZH253801", "provider": "smide", "range": 13.0, "size": 20, "time": "01/30/2020, 09:19:48"}, "type": "Feature"}, {"geometry": {"coordinates": [8.538638, 47.337776], "type": "Point"}, "properties": {"charge": 87, "id": "smide_197", "name": "ZH253864", "provider": "smide", "range": 43.0, "size": 20, "time": "01/30/2020, 09:19:48"}, "type": "Feature"}, {"geometry": {"coordinates": [8.554535, 47.367632], "type": "Point"}, "properties": {"charge": 55, "id": "smide_199", "name": "ZH253766", "provider": "smide", "range": 27.0, "size": 20, "time": "01/30/2020, 09:19:48"}, "type": "Feature"}, {"geometry": {"coordinates": [8.544453, 47.370504], "type": "Point"}, "properties": {"charge": 75, "id": "smide_8", "name": "ZH253861", "provider": "smide", "range": 37.0, "size": 17, "time": "01/30/2020, 09:19:48"}, "type": "Feature"}, {"geometry": {"coordinates": [8.52563, 47.368845], "type": "Point"}, "properties": {"charge": 100, "id": "smide_45", "name": "ZH253716", "provider": "smide", "range": 50.0, "size": 17, "time": "01/30/2020, 09:19:48"}, "type": "Feature"}, {"geometry": {"coordinates": [8.535539, 47.359324], "type": "Point"}, "properties": {"charge": 79, "id": "smide_188", "name": "ZH261543", "provider": "smide", "range": 39.0, "size": 20, "time": "01/30/2020, 09:19:48"}, "type": "Feature"}, {"geometry": {"coordinates": [8.511289, 47.408896], "type": "Point"}, "properties": {"charge": 23, "id": "smide_143", "name": "ZH253778", "provider": "smide", "range": 11.0, "size": 17, "time": "01/30/2020, 09:19:48"}, "type": "Feature"}, {"geometry": {"coordinates": [8.542063, 47.413343], "type": "Point"}, "properties": {"charge": 28, "id": "smide_180", "name": "ZH253824", "provider": "smide", "range": 14.0, "size": 20, "time": "01/30/2020, 09:19:48"}, "type": "Feature"}, {"geometry": {"coordinates": [8.549114, 47.399084], "type": "Point"}, "properties": {"charge": 95, "id": "smide_20", "name": "ZH253770", "provider": "smide", "range": 47.0, "size": 20, "time": "01/30/2020, 09:19:48"}, "type": "Feature"}, {"geometry": {"coordinates": [8.509379, 47.354928], "type": "Point"}, "properties": {"charge": 90, "id": "smide_50", "name": "ZH253853", "provider": "smide", "range": 45.0, "size": 17, "time": "01/30/2020, 09:19:48"}, "type": "Feature"}, {"geometry": {"coordinates": [8.534118, 47.364952], "type": "Point"}, "properties": {"charge": 56, "id": "smide_165", "name": "ZH253752", "provider": "smide", "range": 28.0, "size": 17, "time": "01/30/2020, 09:19:48"}, "type": "Feature"}, {"geometry": {"coordinates": [8.545314, 47.423648], "type": "Point"}, "properties": {"charge": 45, "id": "smide_119", "name": "ZH253686", "provider": "smide", "range": 22.0, "size": 20, "time": "01/30/2020, 09:19:48"}, "type": "Feature"}, {"geometry": {"coordinates": [8.523634, 47.358652], "type": "Point"}, "properties": {"charge": 85, "id": "smide_76", "name": "ZH253764", "provider": "smide", "range": 42.0, "size": 17, "time": "01/30/2020, 09:19:48"}, "type": "Feature"}, {"geometry": {"coordinates": [8.541327, 47.371828], "type": "Point"}, "properties": {"charge": 76, "id": "smide_129", "name": "ZH261378", "provider": "smide", "range": 38.0, "size": 17, "time": "01/30/2020, 09:19:48"}, "type": "Feature"}, {"geometry": {"coordinates": [8.519203, 47.368768], "type": "Point"}, "properties": {"charge": 92, "id": "smide_49", "name": "ZH253873", "provider": "smide", "range": 46.0, "size": 17, "time": "01/30/2020, 09:19:48"}, "type": "Feature"}, {"geometry": {"coordinates": [8.529874, 47.344288], "type": "Point"}, "properties": {"charge": 26, "id": "smide_37", "name": "ZH261377", "provider": "smide", "range": 13.0, "size": 20, "time": "01/30/2020, 09:19:48"}, "type": "Feature"}, {"geometry": {"coordinates": [8.53316, 47.366505], "type": "Point"}, "properties": {"charge": 95, "id": "smide_191", "name": "ZH253762", "provider": "smide", "range": 47.0, "size": 17, "time": "01/30/2020, 09:19:48"}, "type": "Feature"}, {"geometry": {"coordinates": [8.547508, 47.364893], "type": "Point"}, "properties": {"charge": 61, "id": "smide_202", "name": "ZH253830", "provider": "smide", "range": 30.0, "size": 17, "time": "01/30/2020, 09:19:48"}, "type": "Feature"}, {"geometry": {"coordinates": [8.509596, 47.393748], "type": "Point"}, "properties": {"charge": 98, "id": "smide_47", "name": "ZH253858", "provider": "smide", "range": 49.0, "size": 17, "time": "01/30/2020, 09:19:48"}, "type": "Feature"}, {"geometry": {"coordinates": [8.551505, 47.37998], "type": "Point"}, "properties": {"charge": 52, "id": "smide_150", "name": "ZH253703", "provider": "smide", "range": 26.0, "size": 20, "time": "01/30/2020, 09:19:48"}, "type": "Feature"}, {"geometry": {"coordinates": [8.502117, 47.369028], "type": "Point"}, "properties": {"charge": 19, "id": "smide_181", "name": "ZH253815", "provider": "smide", "range": 9.0, "size": 17, "time": "01/30/2020, 09:19:48"}, "type": "Feature"}, {"geometry": {"coordinates": [8.559446, 47.404104], "type": "Point"}, "properties": {"charge": 20, "id": "smide_66", "name": "ZH253818", "provider": "smide", "range": 10.0, "size": 20, "time": "01/30/2020, 09:19:48"}, "type": "Feature"}, {"geometry": {"coordinates": [8.546843, 47.407801], "type": "Point"}, "properties": {"charge": 22, "id": "smide_17", "name": "ZH253793", "provider": "smide", "range": 11.0, "size": 17, "time": "01/30/2020, 09:19:48"}, "type": "Feature"}, {"geometry": {"coordinates": [8.582835, 47.350992], "type": "Point"}, "properties": {"charge": 79, "id": "smide_127", "name": "ZH253808", "provider": "smide", "range": 39.0, "size": 20, "time": "01/30/2020, 09:19:48"}, "type": "Feature"}, {"geometry": {"coordinates": [8.539218, 47.415823], "type": "Point"}, "properties": {"charge": 92, "id": "smide_145", "name": "ZH253780", "provider": "smide", "range": 46.0, "size": 20, "time": "01/30/2020, 09:19:48"}, "type": "Feature"}, {"geometry": {"coordinates": [8.559223, 47.360136], "type": "Point"}, "properties": {"charge": 46, "id": "smide_203", "name": "ZH261547", "provider": "smide", "range": 23.0, "size": 17, "time": "01/30/2020, 09:19:48"}, "type": "Feature"}, {"geometry": {"coordinates": [8.585777, 47.400496], "type": "Point"}, "properties": {"charge": 17, "id": "smide_164", "name": "ZH253775", "provider": "smide", "range": 8.0, "size": 17, "time": "01/30/2020, 09:19:48"}, "type": "Feature"}, {"geometry": {"coordinates": [8.54805, 47.36626], "type": "Point"}, "properties": {"charge": 47, "id": "smide_189", "name": "ZH253845", "provider": "smide", "range": 23.0, "size": 20, "time": "01/30/2020, 09:19:48"}, "type": "Feature"}, {"geometry": {"coordinates": [8.552519, 47.3818], "type": "Point"}, "properties": {"charge": 36, "id": "smide_81", "name": "ZH253753", "provider": "smide", "range": 18.0, "size": 17, "time": "01/30/2020, 09:19:48"}, "type": "Feature"}, {"geometry": {"coordinates": [8.514714, 47.392512], "type": "Point"}, "properties": {"charge": 41, "id": "smide_148", "name": "ZH253844", "provider": "smide", "range": 20.0, "size": 20, "time": "01/30/2020, 09:19:48"}, "type": "Feature"}, {"geometry": {"coordinates": [8.50333, 47.396784], "type": "Point"}, "properties": {"charge": 81, "id": "smide_171", "name": "ZH253689", "provider": "smide", "range": 40.0, "size": 20, "time": "01/30/2020, 09:19:48"}, "type": "Feature"}, {"geometry": {"coordinates": [8.531833, 47.346908], "type": "Point"}, "properties": {"charge": 95, "id": "smide_93", "name": "ZH253681", "provider": "smide", "range": 47.0, "size": 17, "time": "01/30/2020, 09:19:48"}, "type": "Feature"}, {"geometry": {"coordinates": [8.573297, 47.352504], "type": "Point"}, "properties": {"charge": 88, "id": "smide_67", "name": "ZH253779", "provider": "smide", "range": 44.0, "size": 17, "time": "01/30/2020, 09:19:48"}, "type": "Feature"}, {"geometry": {"coordinates": [8.516893, 47.38966], "type": "Point"}, "properties": {"charge": 15, "id": "smide_133", "name": "ZH253848", "provider": "smide", "range": 7.0, "size": 20, "time": "01/30/2020, 09:19:48"}, "type": "Feature"}, {"geometry": {"coordinates": [8.479938, 47.385528], "type": "Point"}, "properties": {"charge": 69, "id": "smide_118", "name": "ZH253759", "provider": "smide", "range": 34.0, "size": 20, "time": "01/30/2020, 09:19:48"}, "type": "Feature"}, {"geometry": {"coordinates": [8.524381, 47.392684], "type": "Point"}, "properties": {"charge": 70, "id": "smide_142", "name": "ZH258745", "provider": "smide", "range": 35.0, "size": 17, "time": "01/30/2020, 09:19:48"}, "type": "Feature"}, {"geometry": {"coordinates": [8.539553, 47.379131], "type": "Point"}, "properties": {"charge": 80, "id": "smide_166", "name": "ZH253728", "provider": "smide", "range": 40.0, "size": 17, "time": "01/30/2020, 09:19:48"}, "type": "Feature"}, {"geometry": {"coordinates": [8.48742, 47.367612], "type": "Point"}, "properties": {"charge": 95, "id": "smide_126", "name": "ZH268400", "provider": "smide", "range": 47.0, "size": 17, "time": "01/30/2020, 09:19:48"}, "type": "Feature"}, {"geometry": {"coordinates": [8.490661, 47.372055], "type": "Point"}, "properties": {"charge": 97, "id": "smide_44", "name": "ZH253837", "provider": "smide", "range": 48.0, "size": 17, "time": "01/30/2020, 09:19:48"}, "type": "Feature"}, {"geometry": {"coordinates": [8.53017, 47.390111], "type": "Point"}, "properties": {"charge": 26, "id": "smide_98", "name": "ZH256321", "provider": "smide", "range": 13.0, "size": 17, "time": "01/30/2020, 09:19:48"}, "type": "Feature"}, {"geometry": {"coordinates": [8.57198, 47.35516], "type": "Point"}, "properties": {"charge": 100, "id": "smide_154", "name": "ZH253744", "provider": "smide", "range": 50.0, "size": 20, "time": "01/30/2020, 09:19:48"}, "type": "Feature"}, {"geometry": {"coordinates": [8.512816, 47.398904], "type": "Point"}, "properties": {"charge": 35, "id": "smide_92", "name": "ZH253798", "provider": "smide", "range": 17.0, "size": 17, "time": "01/30/2020, 09:19:48"}, "type": "Feature"}, {"geometry": {"coordinates": [8.487251, 47.383985], "type": "Point"}, "properties": {"charge": 87, "id": "smide_167", "name": "ZH253854", "provider": "smide", "range": 43.0, "size": 17, "time": "01/30/2020, 09:19:48"}, "type": "Feature"}, {"geometry": {"coordinates": [8.532184, 47.384224], "type": "Point"}, "properties": {"charge": 99, "id": "smide_65", "name": "ZH253810", "provider": "smide", "range": 49.0, "size": 17, "time": "01/30/2020, 09:19:48"}, "type": "Feature"}, {"geometry": {"coordinates": [8.535626, 47.38698], "type": "Point"}, "properties": {"charge": 60, "id": "smide_111", "name": "ZH253763", "provider": "smide", "range": 30.0, "size": 17, "time": "01/30/2020, 09:19:48"}, "type": "Feature"}, {"geometry": {"coordinates": [8.560362, 47.382072], "type": "Point"}, "properties": {"charge": 43, "id": "smide_40", "name": "ZH253690", "provider": "smide", "range": 21.0, "size": 20, "time": "01/30/2020, 09:19:48"}, "type": "Feature"}, {"geometry": {"coordinates": [8.563869, 47.34814], "type": "Point"}, "properties": {"charge": 42, "id": "smide_1", "name": "ZH253776", "provider": "smide", "range": 21.0, "size": 17, "time": "01/30/2020, 09:19:48"}, "type": "Feature"}, {"geometry": {"coordinates": [8.556523, 47.353268], "type": "Point"}, "properties": {"charge": 100, "id": "smide_28", "name": "ZH253831", "provider": "smide", "range": 50.0, "size": 17, "time": "01/30/2020, 09:19:48"}, "type": "Feature"}, {"geometry": {"coordinates": [8.516886, 47.398275], "type": "Point"}, "properties": {"charge": 100, "id": "smide_14", "name": "ZH253749", "provider": "smide", "range": 50.0, "size": 20, "time": "01/30/2020, 09:19:48"}, "type": "Feature"}, {"geometry": {"coordinates": [8.548277, 47.377844], "type": "Point"}, "properties": {"charge": 49, "id": "smide_130", "name": "ZH253847", "provider": "smide", "range": 24.0, "size": 20, "time": "01/30/2020, 09:19:48"}, "type": "Feature"}, {"geometry": {"coordinates": [8.549763, 47.410644], "type": "Point"}, "properties": {"charge": 74, "id": "smide_24", "name": "ZH253696", "provider": "smide", "range": 37.0, "size": 20, "time": "01/30/2020, 09:19:48"}, "type": "Feature"}, {"geometry": {"coordinates": [8.50216, 47.369112], "type": "Point"}, "properties": {"charge": 100, "id": "smide_83", "name": "ZH253869", "provider": "smide", "range": 50.0, "size": 20, "time": "01/30/2020, 09:19:48"}, "type": "Feature"}, {"geometry": {"coordinates": [8.489128, 47.386232], "type": "Point"}, "properties": {"charge": 73, "id": "smide_193", "name": "ZH253738", "provider": "smide", "range": 36.0, "size": 20, "time": "01/30/2020, 09:19:48"}, "type": "Feature"}, {"geometry": {"coordinates": [8.510125, 47.425196], "type": "Point"}, "properties": {"charge": 100, "id": "smide_158", "name": "ZH253870", "provider": "smide", "range": 50.0, "size": 20, "time": "01/30/2020, 09:19:48"}, "type": "Feature"}, {"geometry": {"coordinates": [8.494248, 47.424272], "type": "Point"}, "properties": {"charge": 22, "id": "smide_100", "name": "ZH253862", "provider": "smide", "range": 11.0, "size": 20, "time": "01/30/2020, 09:19:48"}, "type": "Feature"}, {"geometry": {"coordinates": [8.49657, 47.378425], "type": "Point"}, "properties": {"charge": 51, "id": "smide_134", "name": "ZH253741", "provider": "smide", "range": 25.0, "size": 20, "time": "01/30/2020, 09:19:48"}, "type": "Feature"}, {"geometry": {"coordinates": [8.53062, 47.348181], "type": "Point"}, "properties": {"charge": 61, "id": "smide_141", "name": "ZH253800", "provider": "smide", "range": 30.0, "size": 20, "time": "01/30/2020, 09:19:48"}, "type": "Feature"}, {"geometry": {"coordinates": [8.560131, 47.370345], "type": "Point"}, "properties": {"charge": 73, "id": "smide_149", "name": "ZH253743", "provider": "smide", "range": 36.0, "size": 20, "time": "01/30/2020, 09:19:48"}, "type": "Feature"}, {"geometry": {"coordinates": [8.509359, 47.39528], "type": "Point"}, "properties": {"charge": 16, "id": "smide_16", "name": "ZH253713", "provider": "smide", "range": 8.0, "size": 20, "time": "01/30/2020, 09:19:48"}, "type": "Feature"}, {"geometry": {"coordinates": [8.536032, 47.40694], "type": "Point"}, "properties": {"charge": 93, "id": "smide_74", "name": "ZH253693", "provider": "smide", "range": 46.0, "size": 20, "time": "01/30/2020, 09:19:48"}, "type": "Feature"}, {"geometry": {"coordinates": [8.536871, 47.37304], "type": "Point"}, "properties": {"charge": 78, "id": "smide_161", "name": "ZH253691", "provider": "smide", "range": 39.0, "size": 20, "time": "01/30/2020, 09:19:48"}, "type": "Feature"}, {"geometry": {"coordinates": [8.534755, 47.36417], "type": "Point"}, "properties": {"charge": 88, "id": "smide_183", "name": "ZH253868", "provider": "smide", "range": 44.0, "size": 17, "time": "01/30/2020, 09:19:48"}, "type": "Feature"}, {"geometry": {"coordinates": [8.483365, 47.37464], "type": "Point"}, "properties": {"charge": 100, "id": "smide_42", "name": "ZH253846", "provider": "smide", "range": 50.0, "size": 20, "time": "01/30/2020, 09:19:48"}, "type": "Feature"}, {"geometry": {"coordinates": [8.537105, 47.419132], "type": "Point"}, "properties": {"charge": 100, "id": "smide_4", "name": "ZH253740", "provider": "smide", "range": 50.0, "size": 20, "time": "01/30/2020, 09:19:48"}, "type": "Feature"}, {"geometry": {"coordinates": [8.561714, 47.415796], "type": "Point"}, "properties": {"charge": 79, "id": "smide_160", "name": "ZH253722", "provider": "smide", "range": 39.0, "size": 17, "time": "01/30/2020, 09:19:48"}, "type": "Feature"}, {"geometry": {"coordinates": [8.548351, 47.37779], "type": "Point"}, "properties": {"charge": 46, "id": "smide_137", "name": "ZH258502", "provider": "smide", "range": 23.0, "size": 17, "time": "01/30/2020, 09:19:48"}, "type": "Feature"}, {"geometry": {"coordinates": [8.518043, 47.369948], "type": "Point"}, "properties": {"charge": 24, "id": "smide_178", "name": "ZH253803", "provider": "smide", "range": 12.0, "size": 17, "time": "01/30/2020, 09:19:48"}, "type": "Feature"}, {"geometry": {"coordinates": [8.547446, 47.422341], "type": "Point"}, "properties": {"charge": 66, "id": "smide_55", "name": "ZH253875", "provider": "smide", "range": 33.0, "size": 17, "time": "01/30/2020, 09:19:48"}, "type": "Feature"}, {"geometry": {"coordinates": [8.517037, 47.398444], "type": "Point"}, "properties": {"charge": 59, "id": "smide_96", "name": "ZH256146", "provider": "smide", "range": 29.0, "size": 20, "time": "01/30/2020, 09:19:48"}, "type": "Feature"}, {"geometry": {"coordinates": [8.511665, 47.377432], "type": "Point"}, "properties": {"charge": 93, "id": "smide_58", "name": "ZH259246", "provider": "smide", "range": 46.0, "size": 20, "time": "01/30/2020, 09:19:48"}, "type": "Feature"}, {"geometry": {"coordinates": [8.561743, 47.350488], "type": "Point"}, "properties": {"charge": 98, "id": "smide_54", "name": "ZH253874", "provider": "smide", "range": 49.0, "size": 20, "time": "01/30/2020, 09:19:48"}, "type": "Feature"}, {"geometry": {"coordinates": [8.552375, 47.376328], "type": "Point"}, "properties": {"charge": 52, "id": "smide_175", "name": "ZH253730", "provider": "smide", "range": 26.0, "size": 17, "time": "01/30/2020, 09:19:48"}, "type": "Feature"}, {"geometry": {"coordinates": [8.564537, 47.369404], "type": "Point"}, "properties": {"charge": 98, "id": "smide_163", "name": "ZH256147", "provider": "smide", "range": 49.0, "size": 20, "time": "01/30/2020, 09:19:48"}, "type": "Feature"}, {"geometry": {"coordinates": [8.544827, 47.367888], "type": "Point"}, "properties": {"charge": 69, "id": "smide_122", "name": "ZH253850", "provider": "smide", "range": 34.0, "size": 20, "time": "01/30/2020, 09:19:48"}, "type": "Feature"}, {"geometry": {"coordinates": [8.561538, 47.350051], "type": "Point"}, "properties": {"charge": 42, "id": "smide_38", "name": "ZH253851", "provider": "smide", "range": 21.0, "size": 20, "time": "01/30/2020, 09:19:48"}, "type": "Feature"}, {"geometry": {"coordinates": [8.514376, 47.35738], "type": "Point"}, "properties": {"charge": 53, "id": "smide_6", "name": "ZH253787", "provider": "smide", "range": 26.0, "size": 17, "time": "01/30/2020, 09:19:48"}, "type": "Feature"}, {"geometry": {"coordinates": [8.548857, 47.379736], "type": "Point"}, "properties": {"charge": 60, "id": "smide_18", "name": "ZH253859", "provider": "smide", "range": 30.0, "size": 17, "time": "01/30/2020, 09:19:48"}, "type": "Feature"}, {"geometry": {"coordinates": [8.518692, 47.391072], "type": "Point"}, "properties": {"charge": 12, "id": "smide_12", "name": "ZH253685", "provider": "smide", "range": 6.0, "size": 17, "time": "01/30/2020, 09:19:48"}, "type": "Feature"}, {"geometry": {"coordinates": [8.532048, 47.352604], "type": "Point"}, "properties": {"charge": 24, "id": "smide_192", "name": "ZH253706", "provider": "smide", "range": 12.0, "size": 20, "time": "01/30/2020, 09:19:48"}, "type": "Feature"}, {"geometry": {"coordinates": [8.559466, 47.41588], "type": "Point"}, "properties": {"charge": 99, "id": "smide_39", "name": "ZH253714", "provider": "smide", "range": 49.0, "size": 20, "time": "01/30/2020, 09:19:48"}, "type": "Feature"}, {"geometry": {"coordinates": [8.557676, 47.352403], "type": "Point"}, "properties": {"charge": 100, "id": "smide_5", "name": "ZH261443", "provider": "smide", "range": 50.0, "size": 20, "time": "01/30/2020, 09:19:48"}, "type": "Feature"}, {"geometry": {"coordinates": [8.562248, 47.377275], "type": "Point"}, "properties": {"charge": 21, "id": "smide_85", "name": "ZH253729", "provider": "smide", "range": 10.0, "size": 17, "time": "01/30/2020, 09:19:48"}, "type": "Feature"}, {"geometry": {"coordinates": [8.546015, 47.410308], "type": "Point"}, "properties": {"charge": 71, "id": "smide_29", "name": "ZH253723", "provider": "smide", "range": 35.0, "size": 17, "time": "01/30/2020, 09:19:48"}, "type": "Feature"}, {"geometry": {"coordinates": [8.540788, 47.378468], "type": "Point"}, "properties": {"charge": 81, "id": "smide_48", "name": "ZH253849", "provider": "smide", "range": 40.0, "size": 20, "time": "01/30/2020, 09:19:48"}, "type": "Feature"}, {"geometry": {"coordinates": [8.53163166666667, 47.3648033333333], "type": "Point"}, "properties": {"charge": 71, "id": "bird_9d0d4605-59ac-440d-b448-19a466103df1", "provider": "bird", "timeStamp": "01/30/2020, 09:19:48"}, "type": "Feature"}, {"geometry": {"coordinates": [8.5218, 47.3658216666667], "type": "Point"}, "properties": {"charge": 69, "id": "bird_e88009d9-b1af-42de-a3d3-2d6b8b3a00de", "provider": "bird", "timeStamp": "01/30/2020, 09:19:48"}, "type": "Feature"}, {"geometry": {"coordinates": [8.5253, 47.3945816666667], "type": "Point"}, "properties": {"charge": 30, "id": "bird_34226415-f3c1-4e27-b28a-33d350bd433e", "provider": "bird", "timeStamp": "01/30/2020, 09:19:48"}, "type": "Feature"}, {"geometry": {"coordinates": [8.53168, 47.3651316666667], "type": "Point"}, "properties": {"charge": 31, "id": "bird_1b60946e-5204-450c-a898-9581bb19439f", "provider": "bird", "timeStamp": "01/30/2020, 09:19:48"}, "type": "Feature"}, {"geometry": {"coordinates": [8.52551666666667, 47.3944433333333], "type": "Point"}, "properties": {"charge": 85, "id": "bird_c029c9c2-b31f-444d-b4ad-891283e477ea", "provider": "bird", "timeStamp": "01/30/2020, 09:19:48"}, "type": "Feature"}, {"geometry": {"coordinates": [8.53176333333333, 47.365375], "type": "Point"}, "properties": {"charge": 47, "id": "bird_937a18bc-4b86-42e8-8f96-fa688c3a0505", "provider": "bird", "timeStamp": "01/30/2020, 09:19:48"}, "type": "Feature"}, {"geometry": {"coordinates": [8.52111, 47.36668], "type": "Point"}, "properties": {"charge": 27, "id": "bird_6f783e5e-2bde-463e-8ada-c27c4bf3a2cc", "provider": "bird", "timeStamp": "01/30/2020, 09:19:48"}, "type": "Feature"}, {"geometry": {"coordinates": [8.53182333333333, 47.3654633333333], "type": "Point"}, "properties": {"charge": 48, "id": "bird_8e634515-b1ca-474f-9e02-bed64b6832ce", "provider": "bird", "timeStamp": "01/30/2020, 09:19:48"}, "type": "Feature"}, {"geometry": {"coordinates": [8.531855, 47.3654783333333], "type": "Point"}, "properties": {"charge": 27, "id": "bird_6c63cbbf-4dfe-4b45-9fbd-abab51b2251f", "provider": "bird", "timeStamp": "01/30/2020, 09:19:48"}, "type": "Feature"}, {"geometry": {"coordinates": [8.53218833333333, 47.3655466666667], "type": "Point"}, "properties": {"charge": 34, "id": "bird_919dd6a9-7e40-4d1e-980d-554890686216", "provider": "bird", "timeStamp": "01/30/2020, 09:19:48"}, "type": "Feature"}, {"geometry": {"coordinates": [8.51309666666667, 47.371055], "type": "Point"}, "properties": {"charge": 60, "id": "bird_ce91d98f-c56f-4103-9154-fcb4e17fc84b", "provider": "bird", "timeStamp": "01/30/2020, 09:19:48"}, "type": "Feature"}, {"geometry": {"coordinates": [8.50890333333333, 47.38211], "type": "Point"}, "properties": {"charge": 31, "id": "bird_bf749641-f8d8-43be-9d51-f45be4b50b0d", "provider": "bird", "timeStamp": "01/30/2020, 09:19:48"}, "type": "Feature"}, {"geometry": {"coordinates": [8.536545, 47.3663066666667], "type": "Point"}, "properties": {"charge": 75, "id": "bird_88256453-d05c-4333-8651-6a50205b5ba5", "provider": "bird", "timeStamp": "01/30/2020, 09:19:48"}, "type": "Feature"}, {"geometry": {"coordinates": [8.53654333333333, 47.3663716666667], "type": "Point"}, "properties": {"charge": 21, "id": "bird_d059bb1e-3366-4e74-909c-35b51bb507e2", "provider": "bird", "timeStamp": "01/30/2020, 09:19:48"}, "type": "Feature"}, {"geometry": {"coordinates": [8.5142, 47.3894916666667], "type": "Point"}, "properties": {"charge": 10, "id": "bird_e02d28de-8d47-4d14-8019-974e0c0d4e56", "provider": "bird", "timeStamp": "01/30/2020, 09:19:48"}, "type": "Feature"}, {"geometry": {"coordinates": [8.52960166666667, 47.3941566666667], "type": "Point"}, "properties": {"charge": 73, "id": "bird_24a5139b-0c9c-4e79-8ce9-d0ad93cefe6b", "provider": "bird", "timeStamp": "01/30/2020, 09:19:48"}, "type": "Feature"}, {"geometry": {"coordinates": [8.518005, 47.391555], "type": "Point"}, "properties": {"charge": 89, "id": "bird_0969a9b0-74da-4ad2-ac72-b020120eb32b", "provider": "bird", "timeStamp": "01/30/2020, 09:19:48"}, "type": "Feature"}, {"geometry": {"coordinates": [8.53241166666667, 47.3939483333333], "type": "Point"}, "properties": {"charge": 42, "id": "bird_43500f9b-7ec5-44d9-ba78-e2b9e8677dcf", "provider": "bird", "timeStamp": "01/30/2020, 09:19:48"}, "type": "Feature"}, {"geometry": {"coordinates": [8.51018166666667, 47.3759383333333], "type": "Point"}, "properties": {"charge": 60, "id": "bird_60a3f545-4770-4b14-ab7b-2bbd2e5185ee", "provider": "bird", "timeStamp": "01/30/2020, 09:19:48"}, "type": "Feature"}, {"geometry": {"coordinates": [8.54095666666667, 47.36824], "type": "Point"}, "properties": {"charge": 12, "id": "bird_aed8a4ef-4275-44e7-8e93-5d20f1239bae", "provider": "bird", "timeStamp": "01/30/2020, 09:19:48"}, "type": "Feature"}, {"geometry": {"coordinates": [8.54090333333333, 47.3682516666667], "type": "Point"}, "properties": {"charge": 64, "id": "bird_83c72349-9aae-4c61-b0a7-902e754456ef", "provider": "bird", "timeStamp": "01/30/2020, 09:19:48"}, "type": "Feature"}, {"geometry": {"coordinates": [8.509685, 47.3784483333333], "type": "Point"}, "properties": {"charge": 80, "id": "bird_3e25f1f3-b576-4e93-a84b-e73b4a2791a0", "provider": "bird", "timeStamp": "01/30/2020, 09:19:48"}, "type": "Feature"}, {"geometry": {"coordinates": [8.53732833333333, 47.367165], "type": "Point"}, "properties": {"charge": 43, "id": "bird_8e9a4467-5d39-4d14-a159-af37a6275781", "provider": "bird", "timeStamp": "01/30/2020, 09:19:48"}, "type": "Feature"}, {"geometry": {"coordinates": [8.52936, 47.39375], "type": "Point"}, "properties": {"charge": 96, "id": "bird_1dba2a90-acbc-4cb5-8949-3f100ef86595", "provider": "bird", "timeStamp": "01/30/2020, 09:19:48"}, "type": "Feature"}, {"geometry": {"coordinates": [8.52926333333333, 47.3937183333333], "type": "Point"}, "properties": {"charge": 91, "id": "bird_7b5dd720-a514-4152-bdba-86934ca836ce", "provider": "bird", "timeStamp": "01/30/2020, 09:19:48"}, "type": "Feature"}, {"geometry": {"coordinates": [8.51550333333333, 47.3704116666667], "type": "Point"}, "properties": {"charge": 67, "id": "bird_b03c9824-06c2-43c2-9f93-b3c373df5373", "provider": "bird", "timeStamp": "01/30/2020, 09:19:48"}, "type": "Feature"}, {"geometry": {"coordinates": [8.52937166666667, 47.3937066666667], "type": "Point"}, "properties": {"charge": 93, "id": "bird_8dcd5a08-cd73-4b09-b652-80abe2ee67e1", "provider": "bird", "timeStamp": "01/30/2020, 09:19:48"}, "type": "Feature"}, {"geometry": {"coordinates": [8.52920166666667, 47.3936383333333], "type": "Point"}, "properties": {"charge": 96, "id": "bird_07c4620f-1480-469c-bed7-63ab2828bf4c", "provider": "bird", "timeStamp": "01/30/2020, 09:19:48"}, "type": "Feature"}, {"geometry": {"coordinates": [8.513315, 47.3723866666667], "type": "Point"}, "properties": {"charge": 66, "id": "bird_76b56fa6-424c-4a98-b816-cc6651af94d8", "provider": "bird", "timeStamp": "01/30/2020, 09:19:48"}, "type": "Feature"}, {"geometry": {"coordinates": [8.510095, 47.3780516666667], "type": "Point"}, "properties": {"charge": 70, "id": "bird_7656c2f7-23ac-4d71-a8f8-e0e0d3749297", "provider": "bird", "timeStamp": "01/30/2020, 09:19:48"}, "type": "Feature"}, {"geometry": {"coordinates": [8.51319166666667, 47.3874666666667], "type": "Point"}, "properties": {"charge": 73, "id": "bird_daf78aca-b701-49b0-b55c-7cd6d94445f5", "provider": "bird", "timeStamp": "01/30/2020, 09:19:48"}, "type": "Feature"}, {"geometry": {"coordinates": [8.51519166666667, 47.389195], "type": "Point"}, "properties": {"charge": 91, "id": "bird_1b56c684-0fa1-4cd3-ac58-69d754fb31d2", "provider": "bird", "timeStamp": "01/30/2020, 09:19:48"}, "type": "Feature"}, {"geometry": {"coordinates": [8.51906833333333, 47.3686516666667], "type": "Point"}, "properties": {"charge": 21, "id": "bird_96afc39b-286d-4072-baeb-7dc1c7cabe8c", "provider": "bird", "timeStamp": "01/30/2020, 09:19:48"}, "type": "Feature"}, {"geometry": {"coordinates": [8.51909666666667, 47.3686866666667], "type": "Point"}, "properties": {"charge": 16, "id": "bird_22d59842-0698-471d-9faa-48a1227fb387", "provider": "bird", "timeStamp": "01/30/2020, 09:19:48"}, "type": "Feature"}, {"geometry": {"coordinates": [8.5191, 47.368695], "type": "Point"}, "properties": {"charge": 16, "id": "bird_49df8b36-4d13-4cdc-a62c-96a30369e8d2", "provider": "bird", "timeStamp": "01/30/2020, 09:19:48"}, "type": "Feature"}, {"geometry": {"coordinates": [8.51908833333333, 47.3687216666667], "type": "Point"}, "properties": {"charge": 13, "id": "bird_c8614e1f-3570-454f-ac8f-dc9e8c1bc100", "provider": "bird", "timeStamp": "01/30/2020, 09:19:48"}, "type": "Feature"}, {"geometry": {"coordinates": [8.52921, 47.39347], "type": "Point"}, "properties": {"charge": 93, "id": "bird_972145d7-4adf-48d1-9d31-52c4536f0aa3", "provider": "bird", "timeStamp": "01/30/2020, 09:19:48"}, "type": "Feature"}, {"geometry": {"coordinates": [8.52923666666667, 47.3934666666667], "type": "Point"}, "properties": {"charge": 98, "id": "bird_44238b20-f91a-45bf-97c5-3eb9ae1376d9", "provider": "bird", "timeStamp": "01/30/2020, 09:19:48"}, "type": "Feature"}, {"geometry": {"coordinates": [8.51913, 47.3687366666667], "type": "Point"}, "properties": {"charge": 25, "id": "bird_3ee58353-3a48-4737-9542-31c945df83b3", "provider": "bird", "timeStamp": "01/30/2020, 09:19:48"}, "type": "Feature"}, {"geometry": {"coordinates": [8.52629666666667, 47.3931966666667], "type": "Point"}, "properties": {"charge": 69, "id": "bird_4faa1086-c7f0-4147-8ac9-5d762141bddb", "provider": "bird", "timeStamp": "01/30/2020, 09:19:48"}, "type": "Feature"}, {"geometry": {"coordinates": [8.51073666666667, 47.3770066666667], "type": "Point"}, "properties": {"charge": 47, "id": "bird_1f0fb49e-1e7c-4d45-9e42-d8aeb04bf580", "provider": "bird", "timeStamp": "01/30/2020, 09:19:48"}, "type": "Feature"}, {"geometry": {"coordinates": [8.528055, 47.3667333333333], "type": "Point"}, "properties": {"charge": 37, "id": "bird_987e7f39-9a41-42c0-a977-c3743f9e8ef4", "provider": "bird", "timeStamp": "01/30/2020, 09:19:48"}, "type": "Feature"}, {"geometry": {"coordinates": [8.518135, 47.3694233333333], "type": "Point"}, "properties": {"charge": 30, "id": "bird_12eea7b5-c2bc-489a-9260-52334ce7f974", "provider": "bird", "timeStamp": "01/30/2020, 09:19:48"}, "type": "Feature"}, {"geometry": {"coordinates": [8.51531833333333, 47.3712433333333], "type": "Point"}, "properties": {"charge": 82, "id": "bird_2b9871fb-2e4c-4638-9a81-52ed73f5f728", "provider": "bird", "timeStamp": "01/30/2020, 09:19:48"}, "type": "Feature"}, {"geometry": {"coordinates": [8.516185, 47.3893433333333], "type": "Point"}, "properties": {"charge": 80, "id": "bird_d57d5312-81d7-43cf-b122-cd85ce62a8df", "provider": "bird", "timeStamp": "01/30/2020, 09:19:48"}, "type": "Feature"}, {"geometry": {"coordinates": [8.51122, 47.37682], "type": "Point"}, "properties": {"charge": 27, "id": "bird_cc4537c5-bbe5-4085-8176-d27d3c791bf6", "provider": "bird", "timeStamp": "01/30/2020, 09:19:48"}, "type": "Feature"}, {"geometry": {"coordinates": [8.54602166666667, 47.3727066666667], "type": "Point"}, "properties": {"charge": 29, "id": "bird_2ca096f2-d941-4152-95ce-8b771a995515", "provider": "bird", "timeStamp": "01/30/2020, 09:19:48"}, "type": "Feature"}, {"geometry": {"coordinates": [8.51690166666667, 47.3896033333333], "type": "Point"}, "properties": {"charge": 92, "id": "bird_4383fcf4-35eb-47db-990e-abf81960cb8c", "provider": "bird", "timeStamp": "01/30/2020, 09:19:48"}, "type": "Feature"}, {"geometry": {"coordinates": [8.51126166666667, 47.38255], "type": "Point"}, "properties": {"charge": 62, "id": "bird_5c8287f5-8198-4f5a-b1bd-29e20f640979", "provider": "bird", "timeStamp": "01/30/2020, 09:19:48"}, "type": "Feature"}, {"geometry": {"coordinates": [8.54314833333333, 47.37067], "type": "Point"}, "properties": {"charge": 69, "id": "bird_9ae5654e-dc54-452b-b892-546e89924631", "provider": "bird", "timeStamp": "01/30/2020, 09:19:48"}, "type": "Feature"}, {"geometry": {"coordinates": [8.52833, 47.3926283333333], "type": "Point"}, "properties": {"charge": 38, "id": "bird_c3833c67-b2df-462a-965b-c9dc5f96eef2", "provider": "bird", "timeStamp": "01/30/2020, 09:19:48"}, "type": "Feature"}, {"geometry": {"coordinates": [8.53683, 47.3681983333333], "type": "Point"}, "properties": {"charge": 19, "id": "bird_35900668-9719-4842-b7cb-6532bb981563", "provider": "bird", "timeStamp": "01/30/2020, 09:19:48"}, "type": "Feature"}, {"geometry": {"coordinates": [8.540505, 47.3695416666667], "type": "Point"}, "properties": {"charge": 38, "id": "bird_15957986-4bc6-4bf2-953a-32a85bf4b2a4", "provider": "bird", "timeStamp": "01/30/2020, 09:19:48"}, "type": "Feature"}, {"geometry": {"coordinates": [8.51524333333333, 47.3877366666667], "type": "Point"}, "properties": {"charge": 58, "id": "bird_ff36fe86-75b7-4f85-90db-1e8652654d17", "provider": "bird", "timeStamp": "01/30/2020, 09:19:48"}, "type": "Feature"}, {"geometry": {"coordinates": [8.536295, 47.3681333333333], "type": "Point"}, "properties": {"charge": 57, "id": "bird_f7ca1b4d-8186-42d5-8236-9721df2220a7", "provider": "bird", "timeStamp": "01/30/2020, 09:19:48"}, "type": "Feature"}, {"geometry": {"coordinates": [8.54043, 47.3695716666667], "type": "Point"}, "properties": {"charge": 44, "id": "bird_6b31a9d8-93dc-4a25-b69d-8e16b7362be7", "provider": "bird", "timeStamp": "01/30/2020, 09:19:48"}, "type": "Feature"}, {"geometry": {"coordinates": [8.54042166666667, 47.369575], "type": "Point"}, "properties": {"charge": 12, "id": "bird_96bae552-a3a5-4039-b32a-d6609b867d9f", "provider": "bird", "timeStamp": "01/30/2020, 09:19:48"}, "type": "Feature"}, {"geometry": {"coordinates": [8.54043, 47.36958], "type": "Point"}, "properties": {"charge": 11, "id": "bird_88c8fce0-fb9c-4f5d-bf88-2c8f1488cee8", "provider": "bird", "timeStamp": "01/30/2020, 09:19:48"}, "type": "Feature"}, {"geometry": {"coordinates": [8.54044666666667, 47.3696066666667], "type": "Point"}, "properties": {"charge": 11, "id": "bird_94eecb62-303e-47ff-a319-6e2cea89a8f8", "provider": "bird", "timeStamp": "01/30/2020, 09:19:48"}, "type": "Feature"}, {"geometry": {"coordinates": [8.540425, 47.3695983333333], "type": "Point"}, "properties": {"charge": 13, "id": "bird_5519e1ec-5b51-4a5a-8956-411cb5aa3ae9", "provider": "bird", "timeStamp": "01/30/2020, 09:19:48"}, "type": "Feature"}, {"geometry": {"coordinates": [8.54041, 47.3695983333333], "type": "Point"}, "properties": {"charge": 11, "id": "bird_4b3d336a-6ef9-4eee-bf86-fa6af883ab8c", "provider": "bird", "timeStamp": "01/30/2020, 09:19:48"}, "type": "Feature"}, {"geometry": {"coordinates": [8.54039833333333, 47.3696016666667], "type": "Point"}, "properties": {"charge": 17, "id": "bird_5b64243e-bdf3-4ccf-8205-9c4d272ff34f", "provider": "bird", "timeStamp": "01/30/2020, 09:19:48"}, "type": "Feature"}, {"geometry": {"coordinates": [8.54814, 47.3774266666667], "type": "Point"}, "properties": {"charge": 69, "id": "bird_bf4fd5aa-e40f-4fe7-922c-57d34c4104d3", "provider": "bird", "timeStamp": "01/30/2020, 09:19:48"}, "type": "Feature"}, {"geometry": {"coordinates": [8.53163666666667, 47.3675033333333], "type": "Point"}, "properties": {"charge": 27, "id": "bird_d0406750-b783-4ceb-92b3-39ccfa31b0eb", "provider": "bird", "timeStamp": "01/30/2020, 09:19:48"}, "type": "Feature"}, {"geometry": {"coordinates": [8.54039833333333, 47.3696216666667], "type": "Point"}, "properties": {"charge": 11, "id": "bird_80a72823-7b18-4b91-96c9-fe77306a8bf3", "provider": "bird", "timeStamp": "01/30/2020, 09:19:48"}, "type": "Feature"}, {"geometry": {"coordinates": [8.54386, 47.3719066666667], "type": "Point"}, "properties": {"charge": 40, "id": "bird_de203de1-431b-422b-9c95-1e6e23876523", "provider": "bird", "timeStamp": "01/30/2020, 09:19:48"}, "type": "Feature"}, {"geometry": {"coordinates": [8.54390166666667, 47.37212], "type": "Point"}, "properties": {"charge": 30, "id": "bird_667b4059-d4a7-4e60-a5c1-9e1157668b90", "provider": "bird", "timeStamp": "01/30/2020, 09:19:48"}, "type": "Feature"}, {"geometry": {"coordinates": [8.53996, 47.390155], "type": "Point"}, "properties": {"charge": 35, "id": "bird_af6b4e7b-df99-4333-bcae-2547588f7246", "provider": "bird", "timeStamp": "01/30/2020, 09:19:48"}, "type": "Feature"}, {"geometry": {"coordinates": [8.53542333333333, 47.3915633333333], "type": "Point"}, "properties": {"charge": 83, "id": "bird_019455d8-bb92-4b84-b4ba-5c75f19ab485", "provider": "bird", "timeStamp": "01/30/2020, 09:19:48"}, "type": "Feature"}, {"geometry": {"coordinates": [8.53832833333333, 47.390595], "type": "Point"}, "properties": {"charge": 10, "id": "bird_267f251c-7840-4594-bea1-8a05968627df", "provider": "bird", "timeStamp": "01/30/2020, 09:19:48"}, "type": "Feature"}, {"geometry": {"coordinates": [8.54770833333333, 47.3800583333333], "type": "Point"}, "properties": {"charge": 25, "id": "bird_e699c456-dd64-47c8-a871-b0b95b50edb2", "provider": "bird", "timeStamp": "01/30/2020, 09:19:48"}, "type": "Feature"}, {"geometry": {"coordinates": [8.54288166666667, 47.3718216666667], "type": "Point"}, "properties": {"charge": 33, "id": "bird_e7662f69-564b-413d-983e-ea2c4e1312cf", "provider": "bird", "timeStamp": "01/30/2020, 09:19:48"}, "type": "Feature"}, {"geometry": {"coordinates": [8.53303, 47.368225], "type": "Point"}, "properties": {"charge": 43, "id": "bird_f57aa683-285c-44f1-94a1-01b9a3599828", "provider": "bird", "timeStamp": "01/30/2020, 09:19:48"}, "type": "Feature"}, {"geometry": {"coordinates": [8.54479333333333, 47.373645], "type": "Point"},