{"features": [{"geometry": {"coordinates": [8.540062, 47.374392], "type": "Point"}, "properties": {"address": "Uraniastrasse 7", "electric": 6, "id": "pb_60", "manual": 8, "name": "Demo Station Werdm\u00fchleplatz", "provider": "publibike", "timeStamp": "01/30/2020, 02:39:39", "zip": 8001}, "type": "Feature"}, {"geometry": {"coordinates": [8.5452956, 47.4099615], "type": "Point"}, "properties": {"address": "Querstrasse 8", "electric": 3, "id": "pb_61", "manual": 1, "name": "Marktplatz", "provider": "publibike", "timeStamp": "01/30/2020, 02:39:39", "zip": 8050}, "type": "Feature"}, {"geometry": {"coordinates": [8.5156327, 47.3795837], "type": "Point"}, "properties": {"address": "Bullingerstrasse 5", "electric": 4, "id": "pb_80", "manual": 9, "name": "Bullingerplatz", "provider": "publibike", "timeStamp": "01/30/2020, 02:39:39", "zip": 8004}, "type": "Feature"}, {"geometry": {"coordinates": [8.5104051, 47.3899342], "type": "Point"}, "properties": {"address": "Pfingstweidstrasse 96e", "electric": 2, "id": "pb_81", "manual": 3, "name": "Herdern", "provider": "publibike", "timeStamp": "01/30/2020, 02:39:39", "zip": 8001}, "type": "Feature"}, {"geometry": {"coordinates": [8.535718, 47.359675], "type": "Point"}, "properties": {"address": "Mythenquai 50", "electric": 0, "id": "pb_82", "manual": 0, "name": "Hafen Enge", "provider": "publibike", "timeStamp": "01/30/2020, 02:39:39", "zip": 8002}, "type": "Feature"}, {"geometry": {"coordinates": [8.520370505, 47.358663827], "type": "Point"}, "properties": {"address": "Bubenbergstrasse 1", "electric": 5, "id": "pb_83", "manual": 2, "name": "Comerge", "provider": "publibike", "timeStamp": "01/30/2020, 02:39:39", "zip": 8045}, "type": "Feature"}, {"geometry": {"coordinates": [8.5412505, 47.3789825], "type": "Point"}, "properties": {"address": "Museumstrasse 2", "electric": 3, "id": "pb_84", "manual": 8, "name": "Landesmuseum", "provider": "publibike", "timeStamp": "01/30/2020, 02:39:39", "zip": 8001}, "type": "Feature"}, {"geometry": {"coordinates": [8.5235479, 47.3716661], "type": "Point"}, "properties": {"address": "Birmensdorferstrasse 80", "electric": 4, "id": "pb_85", "manual": 6, "name": "Bahnhof Wiedikon", "provider": "publibike", "timeStamp": "01/30/2020, 02:39:39", "zip": 8003}, "type": "Feature"}, {"geometry": {"coordinates": [8.506822854, 47.40781197], "type": "Point"}, "properties": {"address": "Stefano-Franscini-Platz 5", "electric": 4, "id": "pb_86", "manual": 0, "name": "ETH H\u00f6nggerberg", "provider": "publibike", "timeStamp": "01/30/2020, 02:39:39", "zip": 8093}, "type": "Feature"}, {"geometry": {"coordinates": [8.536101, 47.371083], "type": "Point"}, "properties": {"address": "Pelikanplatz 5", "electric": 4, "id": "pb_87", "manual": 1, "name": "Pelikanplatz", "provider": "publibike", "timeStamp": "01/30/2020, 02:39:39", "zip": 8001}, "type": "Feature"}, {"geometry": {"coordinates": [8.5257822, 47.3651936], "type": "Point"}, "properties": {"address": "H\u00fcrlimannplatz 90", "electric": 0, "id": "pb_88", "manual": 4, "name": "H\u00fcrlimannplatz", "provider": "publibike", "timeStamp": "01/30/2020, 02:39:39", "zip": 8002}, "type": "Feature"}, {"geometry": {"coordinates": [8.5313344, 47.3713591], "type": "Point"}, "properties": {"address": "Selnaustrasse 32", "electric": 7, "id": "pb_89", "manual": 2, "name": "Stauffacherbr\u00fccke", "provider": "publibike", "timeStamp": "01/30/2020, 02:39:39", "zip": 8001}, "type": "Feature"}, {"geometry": {"coordinates": [8.5056978, 47.3917964], "type": "Point"}, "properties": {"address": "Sportweg 25", "electric": 5, "id": "pb_90", "manual": 4, "name": "Sportweg", "provider": "publibike", "timeStamp": "01/30/2020, 02:39:39", "zip": 8005}, "type": "Feature"}, {"geometry": {"coordinates": [8.5181701, 47.3917837], "type": "Point"}, "properties": {"address": "Hardturmstrasse 11", "electric": 1, "id": "pb_91", "manual": 3, "name": "Puls 5", "provider": "publibike", "timeStamp": "01/30/2020, 02:39:39", "zip": 8005}, "type": "Feature"}, {"geometry": {"coordinates": [8.5286468, 47.3820827], "type": "Point"}, "properties": {"address": "R\u00f6ntgenstrasse 6", "electric": 2, "id": "pb_92", "manual": 1, "name": "R\u00f6ntgenstrasse", "provider": "publibike", "timeStamp": "01/30/2020, 02:39:39", "zip": 8005}, "type": "Feature"}, {"geometry": {"coordinates": [8.531935, 47.384918], "type": "Point"}, "properties": {"address": "Kornhausbr\u00fccke 1", "electric": 1, "id": "pb_93", "manual": 8, "name": "Limmatplatz", "provider": "publibike", "timeStamp": "01/30/2020, 02:39:39", "zip": 8005}, "type": "Feature"}, {"geometry": {"coordinates": [8.5354006, 47.3758639], "type": "Point"}, "properties": {"address": "Gessnerallee 15", "electric": 1, "id": "pb_94", "manual": 1, "name": "Gessnerallee", "provider": "publibike", "timeStamp": "01/30/2020, 02:39:39", "zip": 8001}, "type": "Feature"}, {"geometry": {"coordinates": [8.523818, 47.377148], "type": "Point"}, "properties": {"address": "Stauffacherstrasse 127", "electric": 10, "id": "pb_95", "manual": 8, "name": "B\u00e4ckeranlage", "provider": "publibike", "timeStamp": "01/30/2020, 02:39:39", "zip": 8004}, "type": "Feature"}, {"geometry": {"coordinates": [8.531836, 47.378548], "type": "Point"}, "properties": {"address": "Lagerstrasse 44", "electric": 2, "id": "pb_96", "manual": 5, "name": "Gustav-Gull-Platz", "provider": "publibike", "timeStamp": "01/30/2020, 02:39:39", "zip": 8004}, "type": "Feature"}, {"geometry": {"coordinates": [8.5104883, 47.3771535], "type": "Point"}, "properties": {"address": "Zurlindenstrasse 291", "electric": 2, "id": "pb_97", "manual": 6, "name": "Zurlindenstrasse", "provider": "publibike", "timeStamp": "01/30/2020, 02:39:39", "zip": 8003}, "type": "Feature"}, {"geometry": {"coordinates": [8.5333139, 47.3731102], "type": "Point"}, "properties": {"address": "Sihlstrasse 81", "electric": 3, "id": "pb_98", "manual": 2, "name": "Sihlstrasse", "provider": "publibike", "timeStamp": "01/30/2020, 02:39:39", "zip": 8001}, "type": "Feature"}, {"geometry": {"coordinates": [8.520532, 47.374951], "type": "Point"}, "properties": {"address": "Feldstrasse 24", "electric": 1, "id": "pb_99", "manual": 7, "name": "Kalkbreite", "provider": "publibike", "timeStamp": "01/30/2020, 02:39:39", "zip": 8004}, "type": "Feature"}, {"geometry": {"coordinates": [8.539046, 47.368064], "type": "Point"}, "properties": {"address": "Talstrasse 12", "electric": 2, "id": "pb_100", "manual": 1, "name": "Z\u00fcrcher Kantonalbank", "provider": "publibike", "timeStamp": "01/30/2020, 02:39:39", "zip": 8001}, "type": "Feature"}, {"geometry": {"coordinates": [8.5348427, 47.3625938], "type": "Point"}, "properties": {"address": "Breitingerstrasse 5", "electric": 0, "id": "pb_101", "manual": 3, "name": "Rentenanstalt", "provider": "publibike", "timeStamp": "01/30/2020, 02:39:39", "zip": 8002}, "type": "Feature"}, {"geometry": {"coordinates": [8.5166922, 47.3897772], "type": "Point"}, "properties": {"address": "Technoparkstrasse 4", "electric": 0, "id": "pb_102", "manual": 0, "name": "Turbinenplatz", "provider": "publibike", "timeStamp": "01/30/2020, 02:39:39", "zip": 8005}, "type": "Feature"}, {"geometry": {"coordinates": [8.539312, 47.3739964], "type": "Point"}, "properties": {"address": "Oetenbachgasse 14", "electric": 6, "id": "pb_104", "manual": 10, "name": "Rennweg", "provider": "publibike", "timeStamp": "01/30/2020, 02:39:39", "zip": 8001}, "type": "Feature"}, {"geometry": {"coordinates": [8.5360685, 47.3775022], "type": "Point"}, "properties": {"address": "Kasernenstrasse 101", "electric": 13, "id": "pb_105", "manual": 23, "name": "Sihlpost", "provider": "publibike", "timeStamp": "01/30/2020, 02:39:39", "zip": 8004}, "type": "Feature"}, {"geometry": {"coordinates": [8.53545, 47.382798], "type": "Point"}, "properties": {"address": "Ausstellungsstrasse 44", "electric": 9, "id": "pb_106", "manual": 8, "name": "Museum f\u00fcr Gestaltung", "provider": "publibike", "timeStamp": "01/30/2020, 02:39:39", "zip": 8005}, "type": "Feature"}, {"geometry": {"coordinates": [8.5306155, 47.3647902], "type": "Point"}, "properties": {"address": "Gutenbergstrasse 1", "electric": 6, "id": "pb_107", "manual": 2, "name": "Bederbr\u00fccke", "provider": "publibike", "timeStamp": "01/30/2020, 02:39:39", "zip": 8002}, "type": "Feature"}, {"geometry": {"coordinates": [8.518982, 47.386741], "type": "Point"}, "properties": {"address": "Geroldstrasse 4", "electric": 5, "id": "pb_108", "manual": 10, "name": "Bahnhof Hardbr\u00fccke", "provider": "publibike", "timeStamp": "01/30/2020, 02:39:39", "zip": 8005}, "type": "Feature"}, {"geometry": {"coordinates": [8.53001018, 47.37247535], "type": "Point"}, "properties": {"address": "Werdstrasse 21", "electric": 0, "id": "pb_109", "manual": 0, "name": "Tamedia", "provider": "publibike", "timeStamp": "01/30/2020, 02:39:39", "zip": 8004}, "type": "Feature"}, {"geometry": {"coordinates": [8.4860017, 47.396401], "type": "Point"}, "properties": {"address": "Gr\u00fcnauring 37", "electric": 7, "id": "pb_110", "manual": 6, "name": "Gr\u00fcnau", "provider": "publibike", "timeStamp": "01/30/2020, 02:39:39", "zip": 8064}, "type": "Feature"}, {"geometry": {"coordinates": [8.548519, 47.376756], "type": "Point"}, "properties": {"address": "R\u00e4mistrasse 101", "electric": 1, "id": "pb_111", "manual": 0, "name": "ETH Zentrum", "provider": "publibike", "timeStamp": "01/30/2020, 02:39:39", "zip": 8006}, "type": "Feature"}, {"geometry": {"coordinates": [8.520449, 47.388151], "type": "Point"}, "properties": {"address": "Josefstrasse 224", "electric": 2, "id": "pb_112", "manual": 2, "name": "Steinfelsareal", "provider": "publibike", "timeStamp": "01/30/2020, 02:39:39", "zip": 8005}, "type": "Feature"}, {"geometry": {"coordinates": [8.520482, 47.37209], "type": "Point"}, "properties": {"address": "Weststrasse 115", "electric": 10, "id": "pb_124", "manual": 6, "name": "Weststrasse", "provider": "publibike", "timeStamp": "01/30/2020, 02:39:39", "zip": 8003}, "type": "Feature"}, {"geometry": {"coordinates": [8.496727, 47.378521], "type": "Point"}, "properties": {"address": "Albisriederstrasse 200", "electric": 3, "id": "pb_125", "manual": 1, "name": "Utogrund", "provider": "publibike", "timeStamp": "01/30/2020, 02:39:39", "zip": 8047}, "type": "Feature"}, {"geometry": {"coordinates": [8.510418, 47.381356], "type": "Point"}, "properties": {"address": "Bullingerstrasse 73", "electric": 9, "id": "pb_126", "manual": 4, "name": "Hardau", "provider": "publibike", "timeStamp": "01/30/2020, 02:39:39", "zip": 8004}, "type": "Feature"}, {"geometry": {"coordinates": [8.525525, 47.361567], "type": "Point"}, "properties": {"address": "Klopstockstrasse 23", "electric": 6, "id": "pb_127", "manual": 0, "name": "Klopstockwiese", "provider": "publibike", "timeStamp": "01/30/2020, 02:39:39", "zip": 8002}, "type": "Feature"}, {"geometry": {"coordinates": [8.518143, 47.363148], "type": "Point"}, "properties": {"address": "Haldenstrasse 8", "electric": 11, "id": "pb_128", "manual": 4, "name": "Binz", "provider": "publibike", "timeStamp": "01/30/2020, 02:39:39", "zip": 8045}, "type": "Feature"}, {"geometry": {"coordinates": [8.542726, 47.379952], "type": "Point"}, "properties": {"address": "Walchestrasse 11", "electric": 0, "id": "pb_129", "manual": 4, "name": "Stampfenbachplatz", "provider": "publibike", "timeStamp": "01/30/2020, 02:39:39", "zip": 8006}, "type": "Feature"}, {"geometry": {"coordinates": [8.488108, 47.391366], "type": "Point"}, "properties": {"address": "Altstetterplatz 1", "electric": 7, "id": "pb_130", "manual": 8, "name": "Bahnhof Altstetten", "provider": "publibike", "timeStamp": "01/30/2020, 02:39:39", "zip": 8048}, "type": "Feature"}, {"geometry": {"coordinates": [8.554114, 47.365119], "type": "Point"}, "properties": {"address": "Kreuzplatz 2", "electric": 7, "id": "pb_131", "manual": 6, "name": "Kreuzplatz", "provider": "publibike", "timeStamp": "01/30/2020, 02:39:39", "zip": 8032}, "type": "Feature"}, {"geometry": {"coordinates": [8.549852, 47.35594], "type": "Point"}, "properties": {"address": "H\u00f6schgasse 3", "electric": 3, "id": "pb_132", "manual": 8, "name": "Blatterwiese", "provider": "publibike", "timeStamp": "01/30/2020, 02:39:39", "zip": 8008}, "type": "Feature"}, {"geometry": {"coordinates": [8.554501, 47.36162], "type": "Point"}, "properties": {"address": "Feldeggstrasse 80", "electric": 2, "id": "pb_133", "manual": 3, "name": "Villa Bleuler", "provider": "publibike", "timeStamp": "01/30/2020, 02:39:39", "zip": 8008}, "type": "Feature"}, {"geometry": {"coordinates": [8.557088, 47.358557], "type": "Point"}, "properties": {"address": "M\u00fchlebachstrasse 131", "electric": 1, "id": "pb_134", "manual": 2, "name": "M\u00fchlebachstrasse", "provider": "publibike", "timeStamp": "01/30/2020, 02:39:39", "zip": 8008}, "type": "Feature"}, {"geometry": {"coordinates": [8.547639, 47.361266], "type": "Point"}, "properties": {"address": "Utoquai 50", "electric": 9, "id": "pb_135", "manual": 7, "name": "Seebad Utoquai", "provider": "publibike", "timeStamp": "01/30/2020, 02:39:39", "zip": 8008}, "type": "Feature"}, {"geometry": {"coordinates": [8.548045, 47.370869], "type": "Point"}, "properties": {"address": "Heimplatz 1", "electric": 5, "id": "pb_137", "manual": 1, "name": "Kunsthaus", "provider": "publibike", "timeStamp": "01/30/2020, 02:39:39", "zip": 8001}, "type": "Feature"}, {"geometry": {"coordinates": [8.543447, 47.375933], "type": "Point"}, "properties": {"address": "Limmatquai 138", "electric": 2, "id": "pb_138", "manual": 11, "name": "Central", "provider": "publibike", "timeStamp": "01/30/2020, 02:39:39", "zip": 8001}, "type": "Feature"}, {"geometry": {"coordinates": [8.549356, 47.408827], "type": "Point"}, "properties": {"address": "Tramstrasse 35", "electric": 2, "id": "pb_139", "manual": 4, "name": "ewz Tramstrasse", "provider": "publibike", "timeStamp": "01/30/2020, 02:39:39", "zip": 8050}, "type": "Feature"}, {"geometry": {"coordinates": [8.533736, 47.366904], "type": "Point"}, "properties": {"address": "Bleicherweg 33", "electric": 2, "id": "pb_140", "manual": 4, "name": "Bleicherweg", "provider": "publibike", "timeStamp": "01/30/2020, 02:39:39", "zip": 8002}, "type": "Feature"}, {"geometry": {"coordinates": [8.544935, 47.366752], "type": "Point"}, "properties": {"address": "Bellevueplatz 2", "electric": 18, "id": "pb_141", "manual": 25, "name": "Bellevue", "provider": "publibike", "timeStamp": "01/30/2020, 02:39:39", "zip": 8001}, "type": "Feature"}, {"geometry": {"coordinates": [8.5285533, 47.3742296], "type": "Point"}, "properties": {"address": "Stauffacherstrasse 41", "electric": 1, "id": "pb_142", "manual": 2, "name": "Stauffacher", "provider": "publibike", "timeStamp": "01/30/2020, 02:39:39", "zip": 8004}, "type": "Feature"}, {"geometry": {"coordinates": [8.523722, 47.3899], "type": "Point"}, "properties": {"address": "Limmatstrasse 310", "electric": 0, "id": "pb_143", "manual": 6, "name": "Escher-Wyss-Platz", "provider": "publibike", "timeStamp": "01/30/2020, 02:39:39", "zip": 8005}, "type": "Feature"}, {"geometry": {"coordinates": [8.491061, 47.392336], "type": "Point"}, "properties": {"address": "Vulkanplatz 1", "electric": 6, "id": "pb_149", "manual": 8, "name": "Vulkanplatz", "provider": "publibike", "timeStamp": "01/30/2020, 02:39:39", "zip": 8048}, "type": "Feature"}, {"geometry": {"coordinates": [8.52306, 47.359872], "type": "Point"}, "properties": {"address": "Giessh\u00fcbelstrasse 15", "electric": 8, "id": "pb_150", "manual": 4, "name": "Utoplatz", "provider": "publibike", "timeStamp": "01/30/2020, 02:39:39", "zip": 8045}, "type": "Feature"}, {"geometry": {"coordinates": [8.486284, 47.387685], "type": "Point"}, "properties": {"address": "Lindenplatz 1", "electric": 11, "id": "pb_151", "manual": 6, "name": "Lindenplatz", "provider": "publibike", "timeStamp": "01/30/2020, 02:39:39", "zip": 8048}, "type": "Feature"}, {"geometry": {"coordinates": [8.49163, 47.389823], "type": "Point"}, "properties": {"address": "Hohlstrasse 563", "electric": 6, "id": "pb_152", "manual": 12, "name": "Luggweg", "provider": "publibike", "timeStamp": "01/30/2020, 02:39:39", "zip": 8048}, "type": "Feature"}, {"geometry": {"coordinates": [8.52174, 47.365272], "type": "Point"}, "properties": {"address": "Manessestrasse 87", "electric": 10, "id": "pb_153", "manual": 8, "name": "Manesseplatz", "provider": "publibike", "timeStamp": "01/30/2020, 02:39:39", "zip": 8045}, "type": "Feature"}, {"geometry": {"coordinates": [8.52714, 47.372329], "type": "Point"}, "properties": {"address": "Werdstrasse 75", "electric": 1, "id": "pb_154", "manual": 3, "name": "Werd", "provider": "publibike", "timeStamp": "01/30/2020, 02:39:39", "zip": 8004}, "type": "Feature"}, {"geometry": {"coordinates": [8.543042, 47.374711], "type": "Point"}, "properties": {"address": "Limmatquai 100", "electric": 0, "id": "pb_155", "manual": 0, "name": "Rudolf-Brun-Br\u00fccke", "provider": "publibike", "timeStamp": "01/30/2020, 02:39:39", "zip": 8001}, "type": "Feature"}, {"geometry": {"coordinates": [8.490837, 47.386596], "type": "Point"}, "properties": {"address": "Badenerstrasse 627", "electric": 2, "id": "pb_156", "manual": 6, "name": "Luggwegstrasse VBZ", "provider": "publibike", "timeStamp": "01/30/2020, 02:39:39", "zip": 8048}, "type": "Feature"}, {"geometry": {"coordinates": [8.535119, 47.355189], "type": "Point"}, "properties": {"address": "Mythenquai 95", "electric": 1, "id": "pb_157", "manual": 2, "name": "Strandbad Mythenquai", "provider": "publibike", "timeStamp": "01/30/2020, 02:39:39", "zip": 8002}, "type": "Feature"}, {"geometry": {"coordinates": [8.545505, 47.373675], "type": "Point"}, "properties": {"address": "Predigerpatz 21", "electric": 1, "id": "pb_158", "manual": 6, "name": "Predigerplatz", "provider": "publibike", "timeStamp": "01/30/2020, 02:39:39", "zip": 8001}, "type": "Feature"}, {"geometry": {"coordinates": [8.515558, 47.371868], "type": "Point"}, "properties": {"address": "Aemtlerstrasse 23", "electric": 7, "id": "pb_159", "manual": 5, "name": "Zwinglihaus", "provider": "publibike", "timeStamp": "01/30/2020, 02:39:39", "zip": 8003}, "type": "Feature"}, {"geometry": {"coordinates": [8.524629, 47.386072], "type": "Point"}, "properties": {"address": "Josefstrasse 188", "electric": 3, "id": "pb_160", "manual": 3, "name": "Josefwiese", "provider": "publibike", "timeStamp": "01/30/2020, 02:39:39", "zip": 8005}, "type": "Feature"}, {"geometry": {"coordinates": [8.527138, 47.387531], "type": "Point"}, "properties": {"address": "R\u00f6ntgenstrasse 87", "electric": 2, "id": "pb_164", "manual": 4, "name": "Markthalle", "provider": "publibike", "timeStamp": "01/30/2020, 02:39:39", "zip": 8005}, "type": "Feature"}, {"geometry": {"coordinates": [8.552717, 47.359978], "type": "Point"}, "properties": {"address": "Seefeldstrasse 96", "electric": 5, "id": "pb_263", "manual": 11, "name": "Feldeggstrasse", "provider": "publibike", "timeStamp": "01/30/2020, 02:39:39", "zip": 8008}, "type": "Feature"}, {"geometry": {"coordinates": [8.553189, 47.353198], "type": "Point"}, "properties": {"address": "Bellerivestrasse 170", "electric": 6, "id": "pb_264", "manual": 1, "name": "Lake Side", "provider": "publibike", "timeStamp": "01/30/2020, 02:39:39", "zip": 8008}, "type": "Feature"}, {"geometry": {"coordinates": [8.543437, 47.369256], "type": "Point"}, "properties": {"address": "Limmatquai 18", "electric": 0, "id": "pb_265", "manual": 0, "name": "Helmhaus", "provider": "publibike", "timeStamp": "01/30/2020, 02:39:39", "zip": 8032}, "type": "Feature"}, {"geometry": {"coordinates": [8.516676, 47.375819], "type": "Point"}, "properties": {"address": "Badenerstrasse 246", "electric": 14, "id": "pb_266", "manual": 10, "name": "Lochergut", "provider": "publibike", "timeStamp": "01/30/2020, 02:39:39", "zip": 8004}, "type": "Feature"}, {"geometry": {"coordinates": [8.514605, 47.389862], "type": "Point"}, "properties": {"address": "Pfingstweidstrasse 60", "electric": 1, "id": "pb_273", "manual": 0, "name": "Westpark", "provider": "publibike", "timeStamp": "01/30/2020, 02:39:39", "zip": 8005}, "type": "Feature"}, {"geometry": {"coordinates": [8.541239126, 47.375991201], "type": "Point"}, "properties": {"address": "Beatenplatz 1", "electric": 5, "id": "pb_274", "manual": 9, "name": "Beatenplatz", "provider": "publibike", "timeStamp": "01/30/2020, 02:39:39", "zip": 8001}, "type": "Feature"}, {"geometry": {"coordinates": [8.5417135, 47.3942197], "type": "Point"}, "properties": {"address": "Scheuchzerstrasse 181", "electric": 7, "id": "pb_275", "manual": 0, "name": "Pauluskirche", "provider": "publibike", "timeStamp": "01/30/2020, 02:39:39", "zip": 8057}, "type": "Feature"}, {"geometry": {"coordinates": [8.5528182, 47.414558], "type": "Point"}, "properties": {"address": "Hagenholzstrasse 51", "electric": 1, "id": "pb_276", "manual": 8, "name": "Airgate", "provider": "publibike", "timeStamp": "01/30/2020, 02:39:39", "zip": 8050}, "type": "Feature"}, {"geometry": {"coordinates": [8.537816, 47.413514], "type": "Point"}, "properties": {"address": "Birchstrasse 183", "electric": 5, "id": "pb_277", "manual": 3, "name": "Lamprechtweg", "provider": "publibike", "timeStamp": "01/30/2020, 02:39:39", "zip": 8050}, "type": "Feature"}, {"geometry": {"coordinates": [8.545602, 47.417701], "type": "Point"}, "properties": {"address": "Felsenrainstrasse 2", "electric": 5, "id": "pb_278", "manual": 7, "name": "Emil-Oberh\u00e4nsli", "provider": "publibike", "timeStamp": "01/30/2020, 02:39:39", "zip": 8050}, "type": "Feature"}, {"geometry": {"coordinates": [8.533647, 47.39808], "type": "Point"}, "properties": {"address": "Bucheggplatz 2", "electric": 6, "id": "pb_279", "manual": 0, "name": "Bucheggplatz", "provider": "publibike", "timeStamp": "01/30/2020, 02:39:39", "zip": 8057}, "type": "Feature"}, {"geometry": {"coordinates": [8.523549, 47.392347], "type": "Point"}, "properties": {"address": "Wipkingerplatz 4", "electric": 4, "id": "pb_280", "manual": 8, "name": "Wipkingerplatz", "provider": "publibike", "timeStamp": "01/30/2020, 02:39:39", "zip": 8037}, "type": "Feature"}, {"geometry": {"coordinates": [8.548562, 47.36691], "type": "Point"}, "properties": {"address": "Galerie \u00fcber Gleis 2/3", "electric": 20, "id": "pb_285", "manual": 5, "name": "Bahnhof Stadelhofen", "provider": "publibike", "timeStamp": "01/30/2020, 02:39:39", "zip": 8001}, "type": "Feature"}, {"geometry": {"coordinates": [8.493822, 47.3985553], "type": "Point"}, "properties": {"address": "Meierwiesenstrasse 12-4", "electric": 3, "id": "pb_286", "manual": 2, "name": "T\u00fcffenwies", "provider": "publibike", "timeStamp": "01/30/2020, 02:39:39", "zip": 8064}, "type": "Feature"}, {"geometry": {"coordinates": [8.552432, 47.3801757], "type": "Point"}, "properties": {"address": "Hochstrasse 34", "electric": 0, "id": "pb_356", "manual": 2, "name": "Siriuswiese", "provider": "publibike", "timeStamp": "01/30/2020, 02:39:39", "zip": 8044}, "type": "Feature"}, {"geometry": {"coordinates": [8.527298, 47.370141], "type": "Point"}, "properties": {"address": "Hallwylstrasse 71", "electric": 0, "id": "pb_357", "manual": 3, "name": "Hallwylstrasse", "provider": "publibike", "timeStamp": "01/30/2020, 02:39:39", "zip": 8004}, "type": "Feature"}, {"geometry": {"coordinates": [8.5414185, 47.3972455], "type": "Point"}, "properties": {"address": "Schaffhauserstrasse 137", "electric": 3, "id": "pb_358", "manual": 0, "name": "Milchbuck", "provider": "publibike", "timeStamp": "01/30/2020, 02:39:39", "zip": 8057}, "type": "Feature"}, {"geometry": {"coordinates": [8.512381, 47.393409], "type": "Point"}, "properties": {"address": "Hardturmstrasse 161", "electric": 2, "id": "pb_359", "manual": 0, "name": "Fischerweg", "provider": "publibike", "timeStamp": "01/30/2020, 02:39:39", "zip": 8005}, "type": "Feature"}, {"geometry": {"coordinates": [8.5421457, 47.3876979], "type": "Point"}, "properties": {"address": "Turnerstrasse 47", "electric": 1, "id": "pb_360", "manual": 5, "name": "Kirche Unterstrass", "provider": "publibike", "timeStamp": "01/30/2020, 02:39:39", "zip": 8006}, "type": "Feature"}, {"geometry": {"coordinates": [8.522117, 47.394554], "type": "Point"}, "properties": {"address": "Dorfstrasse 40", "electric": 2, "id": "pb_361", "manual": 4, "name": "Dorfstrasse", "provider": "publibike", "timeStamp": "01/30/2020, 02:39:39", "zip": 8037}, "type": "Feature"}, {"geometry": {"coordinates": [8.530437, 47.37271], "type": "Point"}, "properties": {"address": "Werdstrasse 25", "electric": 2, "id": "pb_362", "manual": 1, "name": "Stauffachertor", "provider": "publibike", "timeStamp": "01/30/2020, 02:39:39", "zip": 8004}, "type": "Feature"}, {"geometry": {"coordinates": [8.541712, 47.416155], "type": "Point"}, "properties": {"address": "Eggb\u00fchlstrasse 21", "electric": 4, "id": "pb_363", "manual": 4, "name": "Wahlenpark", "provider": "publibike", "timeStamp": "01/30/2020, 02:39:39", "zip": 8050}, "type": "Feature"}, {"geometry": {"coordinates": [8.5595335, 47.3708387], "type": "Point"}, "properties": {"address": "Dolderstrasse 32", "electric": 5, "id": "pb_364", "manual": 1, "name": "Kinderspital", "provider": "publibike", "timeStamp": "01/30/2020, 02:39:39", "zip": 8032}, "type": "Feature"}, {"geometry": {"coordinates": [8.536433, 47.388689], "type": "Point"}, "properties": {"address": "Kornhausstrasse 30", "electric": 4, "id": "pb_365", "manual": 3, "name": "Kornhausstrasse", "provider": "publibike", "timeStamp": "01/30/2020, 02:39:39", "zip": 8006}, "type": "Feature"}, {"geometry": {"coordinates": [8.55033, 47.407098], "type": "Point"}, "properties": {"address": "Schwamendingenstrasse 41", "electric": 7, "id": "pb_366", "manual": 4, "name": "Dorflinde", "provider": "publibike", "timeStamp": "01/30/2020, 02:39:39", "zip": 8050}, "type": "Feature"}, {"geometry": {"coordinates": [8.560476, 47.368199], "type": "Point"}, "properties": {"address": "R\u00f6merhofplatz 5", "electric": 9, "id": "pb_367", "manual": 0, "name": "R\u00f6merhof", "provider": "publibike", "timeStamp": "01/30/2020, 02:39:39", "zip": 8032}, "type": "Feature"}, {"geometry": {"coordinates": [8.5609218, 47.3619068], "type": "Point"}, "properties": {"address": "Forchstrasse 99", "electric": 3, "id": "pb_368", "manual": 3, "name": "Hegibachplatz", "provider": "publibike", "timeStamp": "01/30/2020, 02:39:39", "zip": 8032}, "type": "Feature"}, {"geometry": {"coordinates": [8.5721264, 47.4039985], "type": "Point"}, "properties": {"address": "Winterthurerstrasse 519", "electric": 9, "id": "pb_370", "manual": 4, "name": "Schwamendingerplatz", "provider": "publibike", "timeStamp": "01/30/2020, 02:39:39", "zip": 8051}, "type": "Feature"}, {"geometry": {"coordinates": [8.520168, 47.378556], "type": "Point"}, "properties": {"address": "Herman-Greulich-Strasse 56", "electric": 3, "id": "pb_384", "manual": 9, "name": "Hermann-Greulich-Weg", "provider": "publibike", "timeStamp": "01/30/2020, 02:39:39", "zip": 8004}, "type": "Feature"}, {"geometry": {"coordinates": [8.547912, 47.384923], "type": "Point"}, "properties": {"address": "Culmannstrasse", "electric": 0, "id": "pb_386", "manual": 2, "name": "Rigiplatz", "provider": "publibike", "timeStamp": "01/30/2020, 02:39:39", "zip": 8006}, "type": "Feature"}, {"geometry": {"coordinates": [8.543768, 47.411057], "type": "Point"}, "properties": {"address": "Hofwiesenstrasse 369", "electric": 6, "id": "pb_387", "manual": 3, "name": "Bahnhof Oerlikon S\u00fcd", "provider": "publibike", "timeStamp": "01/30/2020, 02:39:39", "zip": 8050}, "type": "Feature"}, {"geometry": {"coordinates": [8.544185, 47.412732], "type": "Point"}, "properties": {"address": "Jungholzstrasse 6", "electric": 2, "id": "pb_388", "manual": 1, "name": "Max-Frisch-Platz", "provider": "publibike", "timeStamp": "01/30/2020, 02:39:39", "zip": 8050}, "type": "Feature"}, {"geometry": {"coordinates": [8.558096, 47.413032], "type": "Point"}, "properties": {"address": "Andreasstrasse", "electric": 10, "id": "pb_389", "manual": 11, "name": "Hunziker-Areal", "provider": "publibike", "timeStamp": "01/30/2020, 02:39:39", "zip": 8050}, "type": "Feature"}, {"geometry": {"coordinates": [8.533265, 47.412873], "type": "Point"}, "properties": {"address": "Regina-K\u00e4gi-Strasse 1", "electric": 4, "id": "pb_390", "manual": 4, "name": "Luis-H\u00e4fliger-Park", "provider": "publibike", "timeStamp": "01/30/2020, 02:39:39", "zip": 8050}, "type": "Feature"}, {"geometry": {"coordinates": [8.499265, 47.401852], "type": "Point"}, "properties": {"address": "Limmattalstrasse 177", "electric": 0, "id": "pb_391", "manual": 0, "name": "Meierhofplatz", "provider": "publibike", "timeStamp": "01/30/2020, 02:39:39", "zip": 8049}, "type": "Feature"}, {"geometry": {"coordinates": [8.528356, 47.393255], "type": "Point"}, "properties": {"address": "R\u00f6schibachstrasse 73", "electric": 0, "id": "pb_392", "manual": 0, "name": "R\u00f6schibachplatz", "provider": "publibike", "timeStamp": "01/30/2020, 02:39:39", "zip": 8037}, "type": "Feature"}, {"geometry": {"coordinates": [8.538067, 47.415721], "type": "Point"}, "properties": {"address": "Birchstrasse 191", "electric": 6, "id": "pb_393", "manual": 2, "name": "Oerliker Park", "provider": "publibike", "timeStamp": "01/30/2020, 02:39:39", "zip": 8050}, "type": "Feature"}, {"geometry": {"coordinates": [8.5420304, 47.3669233], "type": "Point"}, "properties": {"address": "Stadthausquai 1", "electric": 1, "id": "pb_395", "manual": 8, "name": "B\u00fcrkliplatz", "provider": "publibike", "timeStamp": "01/30/2020, 02:39:39", "zip": 8001}, "type": "Feature"}, {"geometry": {"coordinates": [8.535767, 47.409881], "type": "Point"}, "properties": {"address": "Regensbergstrasse 195", "electric": 2, "id": "pb_396", "manual": 1, "name": "Holunderhof", "provider": "publibike", "timeStamp": "01/30/2020, 02:39:39", "zip": 8050}, "type": "Feature"}, {"geometry": {"coordinates": [8.5116245, 47.3616199], "type": "Point"}, "properties": {"address": "Grubenstrasse 42", "electric": 0, "id": "pb_431", "manual": 0, "name": "Binz Center", "provider": "publibike", "timeStamp": "01/30/2020, 02:39:39", "zip": 8045}, "type": "Feature"}, {"geometry": {"coordinates": [8.547195, 47.382089], "type": "Point"}, "properties": {"address": "Nelkenstrasse 24", "electric": 1, "id": "pb_430", "manual": 0, "name": "Stapferstube", "provider": "publibike", "timeStamp": "01/30/2020, 02:39:39", "zip": 8006}, "type": "Feature"}, {"geometry": {"coordinates": [8.5787183, 47.4039845], "type": "Point"}, "properties": {"address": "Kronwiesenstrasse 35", "electric": 3, "id": "pb_426", "manual": 3, "name": "Kronwiesen", "provider": "publibike", "timeStamp": "01/30/2020, 02:39:39", "zip": 8051}, "type": "Feature"}, {"geometry": {"coordinates": [8.508131, 47.420757], "type": "Point"}, "properties": {"address": "Riedenhaldenstrasse 20-18", "electric": 10, "id": "pb_425", "manual": 5, "name": "Bahnhof Affoltern", "provider": "publibike", "timeStamp": "01/30/2020, 02:39:39", "zip": 8046}, "type": "Feature"}, {"geometry": {"coordinates": [8.532464, 47.406988], "type": "Point"}, "properties": {"address": "K\u00fcnzlistrasse 41", "electric": 3, "id": "pb_424", "manual": 4, "name": "Birchd\u00f6rfli", "provider": "publibike", "timeStamp": "01/30/2020, 02:39:39", "zip": 8057}, "type": "Feature"}, {"geometry": {"coordinates": [8.5777038, 47.4080095], "type": "Point"}, "properties": {"address": "Luegislandstrasse 412", "electric": 6, "id": "pb_429", "manual": 6, "name": "Luegisland", "provider": "publibike", "timeStamp": "01/30/2020, 02:39:39", "zip": 8051}, "type": "Feature"}, {"geometry": {"coordinates": [8.58841, 47.40158], "type": "Point"}, "properties": {"address": "Hirzenbachstrasse 2-4", "electric": 5, "id": "pb_428", "manual": 2, "name": "Hirzenbachstrasse", "provider": "publibike", "timeStamp": "01/30/2020, 02:39:39", "zip": 8051}, "type": "Feature"}, {"geometry": {"coordinates": [8.5563463, 47.4095467], "type": "Point"}, "properties": {"address": "K\u00fchriedweg", "electric": 4, "id": "pb_445", "manual": 4, "name": "Hallenbad Oerlikon", "provider": "publibike", "timeStamp": "01/30/2020, 02:39:39", "zip": 8050}, "type": "Feature"}, {"geometry": {"coordinates": [8.537971, 47.364871], "type": "Point"}, "properties": {"address": "General-Guisan-Quai 17", "electric": 0, "id": "pb_454", "manual": 3, "name": "General-Guisan-Quai", "provider": "publibike", "timeStamp": "01/30/2020, 02:39:39", "zip": 8002}, "type": "Feature"}, {"geometry": {"coordinates": [8.560587, 47.350578], "type": "Point"}, "properties": {"address": "Bellerivestrasse 245", "electric": 9, "id": "pb_450", "manual": 7, "name": "Bahnhof Tiefenbrunnen", "provider": "publibike", "timeStamp": "01/30/2020, 02:39:39", "zip": 8008}, "type": "Feature"}, {"geometry": {"coordinates": [8.5269416, 47.3563719], "type": "Point"}, "properties": {"address": "Waffenplatzstrasse 89", "electric": 6, "id": "pb_452", "manual": 3, "name": "Rieterplatz", "provider": "publibike", "timeStamp": "01/30/2020, 02:39:39", "zip": 8002}, "type": "Feature"}, {"geometry": {"coordinates": [8.514176, 47.3663708], "type": "Point"}, "properties": {"address": "Talwiesenstrasse 92", "electric": 7, "id": "pb_446", "manual": 4, "name": "Binzallee", "provider": "publibike", "timeStamp": "01/30/2020, 02:39:39", "zip": 8055}, "type": "Feature"}, {"geometry": {"coordinates": [8.5070564, 47.371455], "type": "Point"}, "properties": {"address": "Gutstrasse 87", "electric": 3, "id": "pb_447", "manual": 4, "name": "Gutstrasse", "provider": "publibike", "timeStamp": "01/30/2020, 02:39:39", "zip": 8055}, "type": "Feature"}, {"geometry": {"coordinates": [8.4941268, 47.3836391], "type": "Point"}, "properties": {"address": "Flurstrasse 62", "electric": 0, "id": "pb_453", "manual": 1, "name": "Flurpark", "provider": "publibike", "timeStamp": "01/30/2020, 02:39:39", "zip": 8048}, "type": "Feature"}, {"geometry": {"coordinates": [8.500343, 47.380778], "type": "Point"}, "properties": {"address": "Edelweissstrasse 32", "electric": 6, "id": "pb_448", "manual": 2, "name": "Bl\u00fcemliquartier", "provider": "publibike", "timeStamp": "01/30/2020, 02:39:39", "zip": 8048}, "type": "Feature"}, {"geometry": {"coordinates": [8.528796, 47.383858], "type": "Point"}, "properties": {"address": "Gasometerstrasse 24", "electric": 6, "id": "pb_449", "manual": 13, "name": "Gasometerstrasse", "provider": "publibike", "timeStamp": "01/30/2020, 02:39:39", "zip": 8005}, "type": "Feature"}, {"geometry": {"coordinates": [8.4981964, 47.3859194], "type": "Point"}, "properties": {"address": "Baslerstrasse 57", "electric": 10, "id": "pb_455", "manual": 7, "name": "Letzipark", "provider": "publibike", "timeStamp": "01/30/2020, 02:39:39", "zip": 8048}, "type": "Feature"}, {"geometry": {"coordinates": [8.515252, 47.381915], "type": "Point"}, "properties": {"address": "Sihlfeldstrasse 175", "electric": 1, "id": "pb_451", "manual": 3, "name": "Hardplatz", "provider": "publibike", "timeStamp": "01/30/2020, 02:39:39", "zip": 8004}, "type": "Feature"}, {"geometry": {"coordinates": [8.5064743, 47.4188324], "type": "Point"}, "properties": {"address": "Wehntalerstrasse 541", "electric": 7, "id": "pb_427", "manual": 2, "name": "Zehntenhausplatz", "provider": "publibike", "timeStamp": "01/30/2020, 02:39:39", "zip": 8046}, "type": "Feature"}, {"geometry": {"coordinates": [8.537729, 47.379719], "type": "Point"}, "properties": {"address": "Sihlquai/HB", "electric": 7, "id": "pb_513", "manual": 7, "name": "Sihlquai", "provider": "publibike", "timeStamp": "01/30/2020, 02:39:39", "zip": 8005}, "type": "Feature"}, {"geometry": {"coordinates": [8.596202, 47.397885], "type": "Point"}, "properties": {"address": "Bahnhof Stettbach", "electric": 1, "id": "pb_514", "manual": 1, "name": "Bahnhof Stettbach", "provider": "publibike", "timeStamp": "01/30/2020, 02:39:39", "zip": 8051}, "type": "Feature"}, {"geometry": {"coordinates": [8.5543974, 47.3690153], "type": "Point"}, "properties": {"address": "Kasinostrasse 10", "electric": 7, "id": "pb_515", "manual": 0, "name": "Hottingerplatz", "provider": "publibike", "timeStamp": "01/30/2020, 02:39:39", "zip": 8032}, "type": "Feature"}, {"geometry": {"coordinates": [8.534444, 47.351525], "type": "Point"}, "properties": {"address": "Mobile Station Z\u00fcrich 1", "electric": 0, "id": "pb_282", "manual": 0, "name": "Theaterspektakel", "provider": "publibike", "timeStamp": "01/30/2020, 02:39:39", "zip": 8002}, "type": "Feature"}, {"geometry": {"coordinates": [8.516257, 47.367656], "type": "Point"}, "properties": {"address": "Goldbrunnenstrasse 54", "electric": 5, "id": "pb_538", "manual": 1, "name": "Kirche B\u00fchl", "provider": "publibike", "timeStamp": "01/30/2020, 02:39:39", "zip": 8055}, "type": "Feature"}, {"geometry": {"coordinates": [8.555639, 47.416873], "type": "Point"}, "properties": {"address": "Leutschenbachstrasse 50", "electric": 1, "id": "pb_537", "manual": 4, "name": "Leutschenpark", "provider": "publibike", "timeStamp": "01/30/2020, 02:39:39", "zip": 8050}, "type": "Feature"}, {"geometry": {"coordinates": [8.546464, 47.403822], "type": "Point"}, "properties": {"address": "Berninastrasse 45", "electric": 14, "id": "pb_540", "manual": 3, "name": "Berninaplatz", "provider": "publibike", "timeStamp": "01/30/2020, 02:39:39", "zip": 8057}, "type": "Feature"}, {"geometry": {"coordinates": [8.523134, 47.369004], "type": "Point"}, "properties": {"address": "Erlachstrasse 3", "electric": 6, "id": "pb_385", "manual": 8, "name": "Aegerten", "provider": "publibike", "timeStamp": "01/30/2020, 02:39:39", "zip": 8003}, "type": "Feature"}, {"geometry": {"coordinates": [8.49038, 47.381591], "type": "Point"}, "properties": {"address": "Rautistrasse 60", "electric": 5, "id": "pb_536", "manual": 7, "name": "Freilager", "provider": "publibike", "timeStamp": "01/30/2020, 02:39:39", "zip": 8048}, "type": "Feature"}, {"geometry": {"coordinates": [8.496511, 47.375247], "type": "Point"}, "properties": {"address": "Letzigraben 139", "electric": 2, "id": "pb_444", "manual": 2, "name": "Sackzelg", "provider": "publibike", "timeStamp": "01/30/2020, 02:39:39", "zip": 8047}, "type": "Feature"}, {"geometry": {"coordinates": [8.58131, 47.402801], "type": "Point"}, "properties": {"address": "Altwiesenstrasse 104", "electric": 2, "id": "pb_539", "manual": 5, "name": "Glattwiesen", "provider": "publibike", "timeStamp": "01/30/2020, 02:39:39", "zip": 8051}, "type": "Feature"}, {"geometry": {"coordinates": [8.52689, 47.3767], "type": "Point"}, "properties": {"address": "Molkenstrasse 5", "electric": 1, "id": "pb_560", "manual": 7, "name": "Helvetiaplatz", "provider": "publibike", "timeStamp": "01/30/2020, 02:39:39", "zip": 8004}, "type": "Feature"}, {"geometry": {"coordinates": [8.525602, 47.374241], "type": "Point"}, "properties": {"address": "Badenerstrasse 90", "electric": 0, "id": "pb_559", "manual": 4, "name": "Bezirksgeb\u00e4ude", "provider": "publibike", "timeStamp": "01/30/2020, 02:39:39", "zip": 8004}, "type": "Feature"}, {"geometry": {"coordinates": [8.535082, 47.345248], "type": "Point"}, "properties": {"address": "Bachstrasse 15", "electric": 5, "id": "pb_564", "manual": 4, "name": "GZ Wollishofen", "provider": "publibike", "timeStamp": "01/30/2020, 02:39:39", "zip": 8038}, "type": "Feature"}, {"geometry": {"coordinates": [8.514841, 47.370238], "type": "Point"}, "properties": {"address": "Schrennengasse 37", "electric": 0, "id": "pb_562", "manual": 9, "name": "Goldbrunnenplatz", "provider": "publibike", "timeStamp": "01/30/2020, 02:39:39", "zip": 8003}, "type": "Feature"}, {"geometry": {"coordinates": [8.514138, 47.374206], "type": "Point"}, "properties": {"address": "Idaplatz 4", "electric": 6, "id": "pb_557", "manual": 3, "name": "Idaplatz", "provider": "publibike", "timeStamp": "01/30/2020, 02:39:39", "zip": 8003}, "type": "Feature"}, {"geometry": {"coordinates": [8.518432, 47.369549], "type": "Point"}, "properties": {"address": "Brinerstrasse 2", "electric": 4, "id": "pb_558", "manual": 9, "name": "Schmiede Wiedikon", "provider": "publibike", "timeStamp": "01/30/2020, 02:39:39", "zip": 8003}, "type": "Feature"}, {"geometry": {"coordinates": [8.537546, 47.391289], "type": "Point"}, "properties": {"address": "Rotbuchstrasse 15", "electric": 1, "id": "pb_556", "manual": 4, "name": "Schaffhauserplatz", "provider": "publibike", "timeStamp": "01/30/2020, 02:39:39", "zip": 8006}, "type": "Feature"}, {"geometry": {"coordinates": [8.541541, 47.413733], "type": "Point"}, "properties": {"address": "Therese-Giehse-Strasse 11", "electric": 2, "id": "pb_561", "manual": 2, "name": "Center Eleven", "provider": "publibike", "timeStamp": "01/30/2020, 02:39:39", "zip": 8050}, "type": "Feature"}, {"geometry": {"coordinates": [8.534227, 47.360004], "type": "Point"}, "properties": {"address": "Alfred Escher-Strasse 76", "electric": 0, "id": "pb_563", "manual": 3, "name": "Mythenschloss", "provider": "publibike", "timeStamp": "01/30/2020, 02:39:39", "zip": 8002}, "type": "Feature"}, {"geometry": {"coordinates": [8.50373, 47.396172], "type": "Point"}, "properties": {"address": "Hardeggstrasse 6", "electric": 2, "id": "pb_566", "manual": 4, "name": "Am Wasser", "provider": "publibike", "timeStamp": "01/30/2020, 02:39:39", "zip": 8049}, "type": "Feature"}, {"geometry": {"coordinates": [8.532432, 47.381174], "type": "Point"}, "properties": {"address": "Klingenstrasse 9", "electric": 7, "id": "pb_565", "manual": 3, "name": "Zollstrasse", "provider": "publibike", "timeStamp": "01/30/2020, 02:39:39", "zip": 8005}, "type": "Feature"}, {"geometry": {"coordinates": [8.497982, 47.381447], "type": "Point"}, "properties": {"address": "Dennlerstrasse 23", "electric": 3, "id": "pb_567", "manual": 5, "name": "Dennlerstrasse", "provider": "publibike", "timeStamp": "01/30/2020, 02:39:39", "zip": 8047}, "type": "Feature"}, {"geometry": {"coordinates": [8.528049, 47.347701], "type": "Point"}, "properties": {"address": "Mutschellenstrasse 114", "electric": 5, "id": "pb_568", "manual": 5, "name": "Jugendherberge", "provider": "publibike", "timeStamp": "01/30/2020, 02:39:39", "zip": 8038}, "type": "Feature"}, {"geometry": {"coordinates": [8.539016, 47.405751], "type": "Point"}, "properties": {"address": "Ringstrasse 82", "electric": 7, "id": "pb_569", "manual": 2, "name": "Freibad Allenmoos", "provider": "publibike", "timeStamp": "01/30/2020, 02:39:39", "zip": 8057}, "type": "Feature"}, {"geometry": {"coordinates": [8.534974, 47.402164], "type": "Point"}, "properties": {"address": "Brache Guggach", "electric": 1, "id": "pb_572", "manual": 2, "name": "Radiostudio", "provider": "publibike", "timeStamp": "01/30/2020, 02:39:39", "zip": 8057}, "type": "Feature"}, {"geometry": {"coordinates": [8.547901, 47.375556], "type": "Point"}, "properties": {"address": "Karl-Schmid-Strasse 4", "electric": 0, "id": "pb_571", "manual": 0, "name": "ETH/Zoologisches Museum", "provider": "publibike", "timeStamp": "01/30/2020, 02:39:39", "zip": 8006}, "type": "Feature"}, {"geometry": {"coordinates": [8.54481, 47.390508], "type": "Point"}, "properties": {"charge": 100, "id": "smide_2901", "name": "ZH 267278", "provider": "smide", "range": 50.0, "size": 20, "time": "01/30/2020, 02:39:17"}, "type": "Feature"}, {"geometry": {"coordinates": [8.561526, 47.350056], "type": "Point"}, "properties": {"charge": 100, "id": "smide_2895", "name": "ZH 267279", "provider": "smide", "range": 50.0, "size": 20, "time": "01/30/2020, 02:39:17"}, "type": "Feature"}, {"geometry": {"coordinates": [8.502183, 47.362393], "type": "Point"}, "properties": {"charge": 36, "id": "smide_2880", "name": "ZH267289", "provider": "smide", "range": 18.0, "size": 17, "time": "01/30/2020, 02:39:17"}, "type": "Feature"}, {"geometry": {"coordinates": [8.554888, 47.382258], "type": "Point"}, "properties": {"charge": 61, "id": "smide_2874", "name": "ZH 267288", "provider": "smide", "range": 30.0, "size": 17, "time": "01/30/2020, 02:39:17"}, "type": "Feature"}, {"geometry": {"coordinates": [8.517943, 47.398735], "type": "Point"}, "properties": {"charge": 46, "id": "smide_2871", "name": "ZH 267086", "provider": "smide", "range": 23.0, "size": 20, "time": "01/30/2020, 02:39:17"}, "type": "Feature"}, {"geometry": {"coordinates": [8.552588, 47.380153], "type": "Point"}, "properties": {"charge": 84, "id": "smide_2867", "name": "ZH 267090", "provider": "smide", "range": 42.0, "size": 20, "time": "01/30/2020, 02:39:17"}, "type": "Feature"}, {"geometry": {"coordinates": [8.55478, 47.377165], "type": "Point"}, "properties": {"charge": 73, "id": "smide_2861", "name": "ZH 267096", "provider": "smide", "range": 36.0, "size": 17, "time": "01/30/2020, 02:39:17"}, "type": "Feature"}, {"geometry": {"coordinates": [8.530771, 47.379445], "type": "Point"}, "properties": {"charge": 24, "id": "smide_2860", "name": "ZH 267097", "provider": "smide", "range": 12.0, "size": 17, "time": "01/30/2020, 02:39:17"}, "type": "Feature"}, {"geometry": {"coordinates": [8.518236, 47.36769], "type": "Point"}, "properties": {"charge": 90, "id": "smide_2859", "name": "ZH 267098", "provider": "smide", "range": 45.0, "size": 17, "time": "01/30/2020, 02:39:17"}, "type": "Feature"}, {"geometry": {"coordinates": [8.562958, 47.382513], "type": "Point"}, "properties": {"charge": 80, "id": "smide_2856", "name": "ZH 267101", "provider": "smide", "range": 40.0, "size": 17, "time": "01/30/2020, 02:39:17"}, "type": "Feature"}, {"geometry": {"coordinates": [8.582698, 47.350883], "type": "Point"}, "properties": {"charge": 92, "id": "smide_2855", "name": "ZH 267102", "provider": "smide", "range": 46.0, "size": 17, "time": "01/30/2020, 02:39:17"}, "type": "Feature"}, {"geometry": {"coordinates": [8.510701, 47.398476], "type": "Point"}, "properties": {"charge": 90, "id": "smide_2854", "name": "ZH 267103", "provider": "smide", "range": 45.0, "size": 17, "time": "01/30/2020, 02:39:17"}, "type": "Feature"}, {"geometry": {"coordinates": [8.544741, 47.367513], "type": "Point"}, "properties": {"charge": 58, "id": "smide_2833", "name": "ZH 267182", "provider": "smide", "range": 28.0, "size": 20, "time": "01/30/2020, 02:39:17"}, "type": "Feature"}, {"geometry": {"coordinates": [8.570105, 47.352368], "type": "Point"}, "properties": {"charge": 72, "id": "smide_2831", "name": "ZH 267180", "provider": "smide", "range": 36.0, "size": 20, "time": "01/30/2020, 02:39:17"}, "type": "Feature"}, {"geometry": {"coordinates": [8.533876, 47.376955], "type": "Point"}, "properties": {"charge": 92, "id": "smide_2829", "name": "ZH 267049", "provider": "smide", "range": 46.0, "size": 20, "time": "01/30/2020, 02:39:17"}, "type": "Feature"}, {"geometry": {"coordinates": [8.506045, 47.418961], "type": "Point"}, "properties": {"charge": 100, "id": "smide_2804", "name": "ZH266903", "provider": "smide", "range": 50.0, "size": 20, "time": "01/30/2020, 02:39:17"}, "type": "Feature"}, {"geometry": {"coordinates": [8.552998, 47.398205], "type": "Point"}, "properties": {"charge": 86, "id": "smide_2798", "name": "ZH266888", "provider": "smide", "range": 43.0, "size": 17, "time": "01/30/2020, 02:39:17"}, "type": "Feature"}, {"geometry": {"coordinates": [8.52186, 47.395328], "type": "Point"}, "properties": {"charge": 92, "id": "smide_2793", "name": "ZH266883", "provider": "smide", "range": 46.0, "size": 17, "time": "01/30/2020, 02:39:17"}, "type": "Feature"}, {"geometry": {"coordinates": [8.528325, 47.35896], "type": "Point"}, "properties": {"charge": 50, "id": "smide_2790", "name": "ZH266880", "provider": "smide", "range": 25.0, "size": 17, "time": "01/30/2020, 02:39:17"}, "type": "Feature"}, {"geometry": {"coordinates": [8.516288, 47.36989], "type": "Point"}, "properties": {"charge": 87, "id": "smide_2785", "name": "ZH266875", "provider": "smide", "range": 43.0, "size": 17, "time": "01/30/2020, 02:39:17"}, "type": "Feature"}, {"geometry": {"coordinates": [8.555768, 47.384278], "type": "Point"}, "properties": {"charge": 24, "id": "smide_2781", "name": "ZH 266871", "provider": "smide", "range": 12.0, "size": 17, "time": "01/30/2020, 02:39:17"}, "type": "Feature"}, {"geometry": {"coordinates": [8.535663, 47.406085], "type": "Point"}, "properties": {"charge": 41, "id": "smide_2780", "name": "ST1 X #1", "provider": "smide", "range": 20.0, "size": 17, "time": "01/30/2020, 02:39:17"}, "type": "Feature"}, {"geometry": {"coordinates": [8.497454, 47.358936], "type": "Point"}, "properties": {"charge": 94, "id": "smide_2775", "name": "ZH267283", "provider": "smide", "range": 47.0, "size": 20, "time": "01/30/2020, 02:39:17"}, "type": "Feature"}, {"geometry": {"coordinates": [8.545222, 47.423556], "type": "Point"}, "properties": {"charge": 93, "id": "smide_2773", "name": "ZH266561", "provider": "smide", "range": 46.0, "size": 17, "time": "01/30/2020, 02:39:17"}, "type": "Feature"}, {"geometry": {"coordinates": [8.489548, 47.373908], "type": "Point"}, "properties": {"charge": 17, "id": "smide_2763", "name": "ZH266641", "provider": "smide", "range": 8.0, "size": 17, "time": "01/30/2020, 02:39:17"}, "type": "Feature"}, {"geometry": {"coordinates": [8.560371, 47.382066], "type": "Point"}, "properties": {"charge": 55, "id": "smide_2761", "name": "ZH266642", "provider": "smide", "range": 27.0, "size": 20, "time": "01/30/2020, 02:39:17"}, "type": "Feature"}, {"geometry": {"coordinates": [8.564301, 47.369348], "type": "Point"}, "properties": {"charge": 90, "id": "smide_2758", "name": "ZH266638 M", "provider": "smide", "range": 45.0, "size": 17, "time": "01/30/2020, 02:39:17"}, "type": "Feature"}, {"geometry": {"coordinates": [8.524165, 47.371552], "type": "Point"}, "properties": {"charge": 86, "id": "smide_2752", "name": "BE343856", "provider": "smide", "range": 43.0, "size": 17, "time": "01/30/2020, 02:39:17"}, "type": "Feature"}, {"geometry": {"coordinates": [8.552621, 47.38868], "type": "Point"}, "properties": {"charge": 100, "id": "smide_2751", "name": "BE343857", "provider": "smide", "range": 50.0, "size": 17, "time": "01/30/2020, 02:39:17"}, "type": "Feature"}, {"geometry": {"coordinates": [8.49087, 47.390968], "type": "Point"}, "properties": {"charge": 55, "id": "smide_2749", "name": "BE343867", "provider": "smide", "range": 27.0, "size": 17, "time": "01/30/2020, 02:39:17"}, "type": "Feature"}, {"geometry": {"coordinates": [8.517476, 47.378048], "type": "Point"}, "properties": {"charge": 27, "id": "smide_2748", "name": "BE335758", "provider": "smide", "range": 13.0, "size": 17, "time": "01/30/2020, 02:39:17"}, "type": "Feature"}, {"geometry": {"coordinates": [8.510847, 47.36664], "type": "Point"}, "properties": {"charge": 93, "id": "smide_2746", "name": "BE335817", "provider": "smide", "range": 46.0, "size": 17, "time": "01/30/2020, 02:39:17"}, "type": "Feature"}, {"geometry": {"coordinates": [8.551569, 47.420752], "type": "Point"}, "properties": {"charge": 100, "id": "smide_2747", "name": "BE335820", "provider": "smide", "range": 50.0, "size": 17, "time": "01/30/2020, 02:39:17"}, "type": "Feature"}, {"geometry": {"coordinates": [8.490286, 47.38126], "type": "Point"}, "properties": {"charge": 45, "id": "smide_2745", "name": "BE335818", "provider": "smide", "range": 22.0, "size": 17, "time": "01/30/2020, 02:39:17"}, "type": "Feature"}, {"geometry": {"coordinates": [8.56041, 47.368544], "type": "Point"}, "properties": {"charge": 51, "id": "smide_2742", "name": "BE343866", "provider": "smide", "range": 25.0, "size": 17, "time": "01/30/2020, 02:39:17"}, "type": "Feature"}, {"geometry": {"coordinates": [8.54626, 47.375708], "type": "Point"}, "properties": {"charge": 29, "id": "smide_2740", "name": "BE343875", "provider": "smide", "range": 14.0, "size": 17, "time": "01/30/2020, 02:39:17"}, "type": "Feature"}, {"geometry": {"coordinates": [8.544693, 47.418975], "type": "Point"}, "properties": {"charge": 95, "id": "smide_2738", "name": "BE343865", "provider": "smide", "range": 47.0, "size": 17, "time": "01/30/2020, 02:39:17"}, "type": "Feature"}, {"geometry": {"coordinates": [8.565408, 47.376968], "type": "Point"}, "properties": {"charge": 95, "id": "smide_2737", "name": "BE336149", "provider": "smide", "range": 47.0, "size": 17, "time": "01/30/2020, 02:39:17"}, "type": "Feature"}, {"geometry": {"coordinates": [8.56022, 47.381384], "type": "Point"}, "properties": {"charge": 91, "id": "smide_2734", "name": "BE343876", "provider": "smide", "range": 45.0, "size": 17, "time": "01/30/2020, 02:39:17"}, "type": "Feature"}, {"geometry": {"coordinates": [8.549238, 47.361792], "type": "Point"}, "properties": {"charge": 32, "id": "smide_2733", "name": "BE343873", "provider": "smide", "range": 16.0, "size": 17, "time": "01/30/2020, 02:39:17"}, "type": "Feature"}, {"geometry": {"coordinates": [8.494485, 47.365896], "type": "Point"}, "properties": {"charge": 87, "id": "smide_2732", "name": "BE343870", "provider": "smide", "range": 43.0, "size": 17, "time": "01/30/2020, 02:39:17"}, "type": "Feature"}, {"geometry": {"coordinates": [8.564701, 47.372812], "type": "Point"}, "properties": {"charge": 84, "id": "smide_2729", "name": "BE343878", "provider": "smide", "range": 42.0, "size": 17, "time": "01/30/2020, 02:39:17"}, "type": "Feature"}, {"geometry": {"coordinates": [8.515105, 47.395898], "type": "Point"}, "properties": {"charge": 37, "id": "smide_2725", "name": "ZH261545", "provider": "smide", "range": 18.0, "size": 0, "time": "01/30/2020, 02:39:17"}, "type": "Feature"}, {"geometry": {"coordinates": [8.583001, 47.351741], "type": "Point"}, "properties": {"charge": 81, "id": "smide_2718", "name": "ZH259019", "provider": "smide", "range": 40.0, "size": 20, "time": "01/30/2020, 02:39:17"}, "type": "Feature"}, {"geometry": {"coordinates": [8.518333, 47.398056], "type": "Point"}, "properties": {"charge": 57, "id": "smide_2717", "name": "ZH263287", "provider": "smide", "range": 28.0, "size": 17, "time": "01/30/2020, 02:39:17"}, "type": "Feature"}, {"geometry": {"coordinates": [8.532156, 47.382133], "type": "Point"}, "properties": {"charge": 38, "id": "smide_2716", "name": "ZH254606", "provider": "smide", "range": 19.0, "size": 17, "time": "01/30/2020, 02:39:17"}, "type": "Feature"}, {"geometry": {"coordinates": [8.537456, 47.340576], "type": "Point"}, "properties": {"charge": 88, "id": "smide_2715", "name": "ZH254605", "provider": "smide", "range": 44.0, "size": 17, "time": "01/30/2020, 02:39:17"}, "type": "Feature"}, {"geometry": {"coordinates": [8.553491, 47.402132], "type": "Point"}, "properties": {"charge": 23, "id": "smide_2710", "name": "ZH256460", "provider": "smide", "range": 11.0, "size": 17, "time": "01/30/2020, 02:39:17"}, "type": "Feature"}, {"geometry": {"coordinates": [8.546729, 47.368356], "type": "Point"}, "properties": {"charge": 100, "id": "smide_2712", "name": "ZH256462", "provider": "smide", "range": 50.0, "size": 17, "time": "01/30/2020, 02:39:17"}, "type": "Feature"}, {"geometry": {"coordinates": [8.516712, 47.375792], "type": "Point"}, "properties": {"charge": 84, "id": "smide_2711", "name": "ZH256463", "provider": "smide", "range": 42.0, "size": 17, "time": "01/30/2020, 02:39:17"}, "type": "Feature"}, {"geometry": {"coordinates": [8.563956, 47.348205], "type": "Point"}, "properties": {"charge": 74, "id": "smide_2709", "name": "ZH256466", "provider": "smide", "range": 37.0, "size": 20, "time": "01/30/2020, 02:39:17"}, "type": "Feature"}, {"geometry": {"coordinates": [8.542024, 47.424604], "type": "Point"}, "properties": {"charge": 84, "id": "smide_2707", "name": "ZH256467", "provider": "smide", "range": 42.0, "size": 20, "time": "01/30/2020, 02:39:17"}, "type": "Feature"}, {"geometry": {"coordinates": [8.48315, 47.38472], "type": "Point"}, "properties": {"charge": 53, "id": "smide_2708", "name": "ZH256464", "provider": "smide", "range": 26.0, "size": 17, "time": "01/30/2020, 02:39:17"}, "type": "Feature"}, {"geometry": {"coordinates": [8.520446, 47.396136], "type": "Point"}, "properties": {"charge": 83, "id": "smide_2706", "name": "ZH256322", "provider": "smide", "range": 41.0, "size": 20, "time": "01/30/2020, 02:39:17"}, "type": "Feature"}, {"geometry": {"coordinates": [8.537143, 47.419128], "type": "Point"}, "properties": {"charge": 34, "id": "smide_2705", "name": "ZH256471", "provider": "smide", "range": 17.0, "size": 20, "time": "01/30/2020, 02:39:17"}, "type": "Feature"}, {"geometry": {"coordinates": [8.563309, 47.372364], "type": "Point"}, "properties": {"charge": 100, "id": "smide_2701", "name": "ZH256468", "provider": "smide", "range": 50.0, "size": 20, "time": "01/30/2020, 02:39:17"}, "type": "Feature"}, {"geometry": {"coordinates": [8.516794, 47.398272], "type": "Point"}, "properties": {"charge": 100, "id": "smide_2700", "name": "ZH256470", "provider": "smide", "range": 50.0, "size": 20, "time": "01/30/2020, 02:39:17"}, "type": "Feature"}, {"geometry": {"coordinates": [8.564769, 47.368092], "type": "Point"}, "properties": {"charge": 35, "id": "smide_2699", "name": "ZH254611", "provider": "smide", "range": 17.0, "size": 20, "time": "01/30/2020, 02:39:17"}, "type": "Feature"}, {"geometry": {"coordinates": [8.511346, 47.370896], "type": "Point"}, "properties": {"charge": 43, "id": "smide_2696", "name": "ZH254616", "provider": "smide", "range": 21.0, "size": 20, "time": "01/30/2020, 02:39:17"}, "type": "Feature"}, {"geometry": {"coordinates": [8.539395, 47.38804], "type": "Point"}, "properties": {"charge": 93, "id": "smide_2694", "name": "ZH254610", "provider": "smide", "range": 46.0, "size": 20, "time": "01/30/2020, 02:39:17"}, "type": "Feature"}, {"geometry": {"coordinates": [8.510595, 47.398386], "type": "Point"}, "properties": {"charge": 86, "id": "smide_2691", "name": "ZH254622", "provider": "smide", "range": 43.0, "size": 20, "time": "01/30/2020, 02:39:17"}, "type": "Feature"}, {"geometry": {"coordinates": [8.565506, 47.358215], "type": "Point"}, "properties": {"charge": 64, "id": "smide_2690", "name": "ZH254625", "provider": "smide", "range": 32.0, "size": 20, "time": "01/30/2020, 02:39:17"}, "type": "Feature"}, {"geometry": {"coordinates": [8.495336, 47.4237], "type": "Point"}, "properties": {"charge": 85, "id": "smide_2689", "name": "ZH254623", "provider": "smide", "range": 42.0, "size": 20, "time": "01/30/2020, 02:39:17"}, "type": "Feature"}, {"geometry": {"coordinates": [8.541275, 47.413496], "type": "Point"}, "properties": {"charge": 78, "id": "smide_2687", "name": "ZH263529", "provider": "smide", "range": 39.0, "size": 20, "time": "01/30/2020, 02:39:17"}, "type": "Feature"}, {"geometry": {"coordinates": [8.572769, 47.380592], "type": "Point"}, "properties": {"charge": 81, "id": "smide_2684", "name": "ZH254626", "provider": "smide", "range": 40.0, "size": 20, "time": "01/30/2020, 02:39:17"}, "type": "Feature"}, {"geometry": {"coordinates": [8.53612, 47.368506], "type": "Point"}, "properties": {"charge": 63, "id": "smide_2683", "name": "ZH254620", "provider": "smide", "range": 31.0, "size": 20, "time": "01/30/2020, 02:39:17"}, "type": "Feature"}, {"geometry": {"coordinates": [8.587504, 47.403212], "type": "Point"}, "properties": {"charge": 71, "id": "smide_2680", "name": "ZH254619", "provider": "smide", "range": 35.0, "size": 20, "time": "01/30/2020, 02:39:17"}, "type": "Feature"}, {"geometry": {"coordinates": [8.576522, 47.351152], "type": "Point"}, "properties": {"charge": 89, "id": "smide_2679", "name": "ZH258489", "provider": "smide", "range": 44.0, "size": 17, "time": "01/30/2020, 02:39:17"}, "type": "Feature"}, {"geometry": {"coordinates": [8.526099, 47.372868], "type": "Point"}, "properties": {"charge": 47, "id": "smide_2671", "name": "ZH258645", "provider": "smide", "range": 23.0, "size": 17, "time": "01/30/2020, 02:39:17"}, "type": "Feature"}, {"geometry": {"coordinates": [8.476605, 47.387392], "type": "Point"}, "properties": {"charge": 72, "id": "smide_2669", "name": "ZH263294", "provider": "smide", "range": 36.0, "size": 17, "time": "01/30/2020, 02:39:17"}, "type": "Feature"}, {"geometry": {"coordinates": [8.502102, 47.368932], "type": "Point"}, "properties": {"charge": 79, "id": "smide_2668", "name": "ZH258640", "provider": "smide", "range": 39.0, "size": 17, "time": "01/30/2020, 02:39:17"}, "type": "Feature"}, {"geometry": {"coordinates": [8.564521, 47.369384], "type": "Point"}, "properties": {"charge": 41, "id": "smide_2666", "name": "ZH258653", "provider": "smide", "range": 20.0, "size": 17, "time": "01/30/2020, 02:39:17"}, "type": "Feature"}, {"geometry": {"coordinates": [8.521643, 47.361508], "type": "Point"}, "properties": {"charge": 100, "id": "smide_2665", "name": "ZH258644", "provider": "smide", "range": 50.0, "size": 17, "time": "01/30/2020, 02:39:17"}, "type": "Feature"}, {"geometry": {"coordinates": [8.544393, 47.393492], "type": "Point"}, "properties": {"charge": 93, "id": "smide_2664", "name": "ZH258652", "provider": "smide", "range": 46.0, "size": 17, "time": "01/30/2020, 02:39:17"}, "type": "Feature"}, {"geometry": {"coordinates": [8.508363, 47.353832], "type": "Point"}, "properties": {"charge": 76, "id": "smide_2663", "name": "ZH258649", "provider": "smide", "range": 38.0, "size": 17, "time": "01/30/2020, 02:39:17"}, "type": "Feature"}, {"geometry": {"coordinates": [8.544882, 47.36848], "type": "Point"}, "properties": {"charge": 46, "id": "smide_2662", "name": "ZH258643", "provider": "smide", "range": 23.0, "size": 17, "time": "01/30/2020, 02:39:17"}, "type": "Feature"}, {"geometry": {"coordinates": [8.560991, 47.372744], "type": "Point"}, "properties": {"charge": 99, "id": "smide_2648", "name": "ZH257930", "provider": "smide", "range": 49.0, "size": 20, "time": "01/30/2020, 02:39:17"}, "type": "Feature"}, {"geometry": {"coordinates": [8.569175, 47.351793], "type": "Point"}, "properties": {"charge": 67, "id": "smide_2657", "name": "ZH257936", "provider": "smide", "range": 33.0, "size": 17, "time": "01/30/2020, 02:39:17"}, "type": "Feature"}, {"geometry": {"coordinates": [8.557472, 47.371876], "type": "Point"}, "properties": {"charge": 94, "id": "smide_2647", "name": "ZH257932", "provider": "smide", "range": 47.0, "size": 20, "time": "01/30/2020, 02:39:17"}, "type": "Feature"}, {"geometry": {"coordinates": [8.519646, 47.370452], "type": "Point"}, "properties": {"charge": 72, "id": "smide_2645", "name": "ZH257933", "provider": "smide", "range": 36.0, "size": 20, "time": "01/30/2020, 02:39:17"}, "type": "Feature"}, {"geometry": {"coordinates": [8.498545, 47.399276], "type": "Point"}, "properties": {"charge": 87, "id": "smide_3", "name": "ZH253765", "provider": "smide", "range": 43.0, "size": 20, "time": "01/30/2020, 02:39:17"}, "type": "Feature"}, {"geometry": {"coordinates": [8.511043, 47.371693], "type": "Point"}, "properties": {"charge": 30, "id": "smide_105", "name": "ZH253804", "provider": "smide", "range": 15.0, "size": 17, "time": "01/30/2020, 02:39:17"}, "type": "Feature"}, {"geometry": {"coordinates": [8.540259, 47.415268], "type": "Point"}, "properties": {"charge": 40, "id": "smide_186", "name": "ZH253751", "provider": "smide", "range": 20.0, "size": 20, "time": "01/30/2020, 02:39:17"}, "type": "Feature"}, {"geometry": {"coordinates": [8.57117, 47.352504], "type": "Point"}, "properties": {"charge": 93, "id": "smide_173", "name": "ZH258501", "provider": "smide", "range": 46.0, "size": 17, "time": "01/30/2020, 02:39:17"}, "type": "Feature"}, {"geometry": {"coordinates": [8.559309, 47.405992], "type": "Point"}, "properties": {"charge": 73, "id": "smide_77", "name": "ZH261548", "provider": "smide", "range": 36.0, "size": 20, "time": "01/30/2020, 02:39:17"}, "type": "Feature"}, {"geometry": {"coordinates": [8.508372, 47.400536], "type": "Point"}, "properties": {"charge": 27, "id": "smide_200", "name": "ZH253801", "provider": "smide", "range": 13.0, "size": 20, "time": "01/30/2020, 02:39:17"}, "type": "Feature"}, {"geometry": {"coordinates": [8.53894, 47.337661], "type": "Point"}, "properties": {"charge": 89, "id": "smide_197", "name": "ZH253864", "provider": "smide", "range": 44.0, "size": 20, "time": "01/30/2020, 02:39:17"}, "type": "Feature"}, {"geometry": {"coordinates": [8.514081, 47.366356], "type": "Point"}, "properties": {"charge": 65, "id": "smide_199", "name": "ZH253766", "provider": "smide", "range": 32.0, "size": 20, "time": "01/30/2020, 02:39:17"}, "type": "Feature"}, {"geometry": {"coordinates": [8.54454, 47.3704], "type": "Point"}, "properties": {"charge": 75, "id": "smide_8", "name": "ZH253861", "provider": "smide", "range": 37.0, "size": 17, "time": "01/30/2020, 02:39:17"}, "type": "Feature"}, {"geometry": {"coordinates": [8.525825, 47.368956], "type": "Point"}, "properties": {"charge": 100, "id": "smide_45", "name": "ZH253716", "provider": "smide", "range": 50.0, "size": 17, "time": "01/30/2020, 02:39:17"}, "type": "Feature"}, {"geometry": {"coordinates": [8.510413, 47.39052], "type": "Point"}, "properties": {"charge": 85, "id": "smide_188", "name": "ZH261543", "provider": "smide", "range": 42.0, "size": 20, "time": "01/30/2020, 02:39:17"}, "type": "Feature"}, {"geometry": {"coordinates": [8.542056, 47.424608], "type": "Point"}, "properties": {"charge": 18, "id": "smide_101", "name": "ZH253814", "provider": "smide", "range": 9.0, "size": 17, "time": "01/30/2020, 02:39:17"}, "type": "Feature"}, {"geometry": {"coordinates": [8.555623, 47.384416], "type": "Point"}, "properties": {"charge": 42, "id": "smide_143", "name": "ZH253778", "provider": "smide", "range": 21.0, "size": 17, "time": "01/30/2020, 02:39:17"}, "type": "Feature"}, {"geometry": {"coordinates": [8.541321, 47.413473], "type": "Point"}, "properties": {"charge": 32, "id": "smide_180", "name": "ZH253824", "provider": "smide", "range": 16.0, "size": 20, "time": "01/30/2020, 02:39:17"}, "type": "Feature"}, {"geometry": {"coordinates": [8.549126, 47.399056], "type": "Point"}, "properties": {"charge": 95, "id": "smide_20", "name": "ZH253770", "provider": "smide", "range": 47.0, "size": 20, "time": "01/30/2020, 02:39:17"}, "type": "Feature"}, {"geometry": {"coordinates": [8.509338, 47.354908], "type": "Point"}, "properties": {"charge": 90, "id": "smide_50", "name": "ZH253853", "provider": "smide", "range": 45.0, "size": 17, "time": "01/30/2020, 02:39:17"}, "type": "Feature"}, {"geometry": {"coordinates": [8.490778, 47.380133], "type": "Point"}, "properties": {"charge": 23, "id": "smide_30", "name": "ZH253813", "provider": "smide", "range": 11.0, "size": 20, "time": "01/30/2020, 02:39:17"}, "type": "Feature"}, {"geometry": {"coordinates": [8.544393, 47.382631], "type": "Point"}, "properties": {"charge": 32, "id": "smide_10", "name": "ZH253855", "provider": "smide", "range": 16.0, "size": 17, "time": "01/30/2020, 02:39:17"}, "type": "Feature"}, {"geometry": {"coordinates": [8.561028, 47.383472], "type": "Point"}, "properties": {"charge": 66, "id": "smide_165", "name": "ZH253752", "provider": "smide", "range": 33.0, "size": 17, "time": "01/30/2020, 02:39:17"}, "type": "Feature"}, {"geometry": {"coordinates": [8.545399, 47.42352], "type": "Point"}, "properties": {"charge": 45, "id": "smide_119", "name": "ZH253686", "provider": "smide", "range": 22.0, "size": 20, "time": "01/30/2020, 02:39:17"}, "type": "Feature"}, {"geometry": {"coordinates": [8.532572, 47.416296], "type": "Point"}, "properties": {"charge": 100, "id": "smide_76", "name": "ZH253764", "provider": "smide", "range": 50.0, "size": 17, "time": "01/30/2020, 02:39:17"}, "type": "Feature"}, {"geometry": {"coordinates": [8.541485, 47.371924], "type": "Point"}, "properties": {"charge": 76, "id": "smide_129", "name": "ZH261378", "provider": "smide", "range": 38.0, "size": 17, "time": "01/30/2020, 02:39:17"}, "type": "Feature"}, {"geometry": {"coordinates": [8.507378, 47.365888], "type": "Point"}, "properties": {"charge": 99, "id": "smide_49", "name": "ZH253873", "provider": "smide", "range": 49.0, "size": 17, "time": "01/30/2020, 02:39:17"}, "type": "Feature"}, {"geometry": {"coordinates": [8.549924, 47.397836], "type": "Point"}, "properties": {"charge": 44, "id": "smide_94", "name": "ZH253754", "provider": "smide", "range": 22.0, "size": 17, "time": "01/30/2020, 02:39:17"}, "type": "Feature"}, {"geometry": {"coordinates": [8.529981, 47.344256], "type": "Point"}, "properties": {"charge": 26, "id": "smide_37", "name": "ZH261377", "provider": "smide", "range": 13.0, "size": 20, "time": "01/30/2020, 02:39:17"}, "type": "Feature"}, {"geometry": {"coordinates": [8.533705, 47.366781], "type": "Point"}, "properties": {"charge": 97, "id": "smide_191", "name": "ZH253762", "provider": "smide", "range": 48.0, "size": 17, "time": "01/30/2020, 02:39:17"}, "type": "Feature"}, {"geometry": {"coordinates": [8.56288, 47.382391], "type": "Point"}, "properties": {"charge": 64, "id": "smide_202", "name": "ZH253830", "provider": "smide", "range": 32.0, "size": 17, "time": "01/30/2020, 02:39:17"}, "type": "Feature"}, {"geometry": {"coordinates": [8.561581, 47.369436], "type": "Point"}, "properties": {"charge": 93, "id": "smide_56", "name": "ZH261442", "provider": "smide", "range": 46.0, "size": 20, "time": "01/30/2020, 02:39:17"}, "type": "Feature"}, {"geometry": {"coordinates": [8.52985, 47.392275], "type": "Point"}, "properties": {"charge": 100, "id": "smide_47", "name": "ZH253858", "provider": "smide", "range": 50.0, "size": 17, "time": "01/30/2020, 02:39:17"}, "type": "Feature"}, {"geometry": {"coordinates": [8.551432, 47.379956], "type": "Point"}, "properties": {"charge": 52, "id": "smide_150", "name": "ZH253703", "provider": "smide", "range": 26.0, "size": 20, "time": "01/30/2020, 02:39:17"}, "type": "Feature"}, {"geometry": {"coordinates": [8.520463, 47.358332], "type": "Point"}, "properties": {"charge": 26, "id": "smide_181", "name": "ZH253815", "provider": "smide", "range": 13.0, "size": 17, "time": "01/30/2020, 02:39:17"}, "type": "Feature"}, {"geometry": {"coordinates": [8.529263, 47.382052], "type": "Point"}, "properties": {"charge": 26, "id": "smide_66", "name": "ZH253818", "provider": "smide", "range": 13.0, "size": 20, "time": "01/30/2020, 02:39:17"}, "type": "Feature"}, {"geometry": {"coordinates": [8.546923, 47.407863], "type": "Point"}, "properties": {"charge": 24, "id": "smide_17", "name": "ZH253793", "provider": "smide", "range": 12.0, "size": 17, "time": "01/30/2020, 02:39:17"}, "type": "Feature"}, {"geometry": {"coordinates": [8.582811, 47.35098], "type": "Point"}, "properties": {"charge": 79, "id": "smide_127", "name": "ZH253808", "provider": "smide", "range": 39.0, "size": 20, "time": "01/30/2020, 02:39:17"}, "type": "Feature"}, {"geometry": {"coordinates": [8.539218, 47.415823], "type": "Point"}, "properties": {"charge": 99, "id": "smide_145", "name": "ZH253780", "provider": "smide", "range": 49.0, "size": 20, "time": "01/30/2020, 02:39:17"}, "type": "Feature"}, {"geometry": {"coordinates": [8.567186, 47.361068], "type": "Point"}, "properties": {"charge": 58, "id": "smide_114", "name": "ZH253878", "provider": "smide", "range": 28.0, "size": 20, "time": "01/30/2020, 02:39:17"}, "type": "Feature"}, {"geometry": {"coordinates": [8.559322, 47.359928], "type": "Point"}, "properties": {"charge": 46, "id": "smide_203", "name": "ZH261547", "provider": "smide", "range": 23.0, "size": 17, "time": "01/30/2020, 02:39:17"}, "type": "Feature"}, {"geometry": {"coordinates": [8.533169, 47.417168], "type": "Point"}, "properties": {"charge": 76, "id": "smide_21", "name": "ZH253841", "provider": "smide", "range": 38.0, "size": 17, "time": "01/30/2020, 02:39:17"}, "type": "Feature"}, {"geometry": {"coordinates": [8.585854, 47.400456], "type": "Point"}, "properties": {"charge": 17, "id": "smide_164", "name": "ZH253775", "provider": "smide", "range": 8.0, "size": 17, "time": "01/30/2020, 02:39:17"}, "type": "Feature"}, {"geometry": {"coordinates": [8.52469, 47.338744], "type": "Point"}, "properties": {"charge": 53, "id": "smide_189", "name": "ZH253845", "provider": "smide", "range": 26.0, "size": 20, "time": "01/30/2020, 02:39:17"}, "type": "Feature"}, {"geometry": {"coordinates": [8.552462, 47.381768], "type": "Point"}, "properties": {"charge": 45, "id": "smide_81", "name": "ZH253753", "provider": "smide", "range": 22.0, "size": 17, "time": "01/30/2020, 02:39:17"}, "type": "Feature"}, {"geometry": {"coordinates": [8.544378, 47.384092], "type": "Point"}, "properties": {"charge": 45, "id": "smide_148", "name": "ZH253844", "provider": "smide", "range": 22.0, "size": 20, "time": "01/30/2020, 02:39:17"}, "type": "Feature"}, {"geometry": {"coordinates": [8.503418, 47.39662], "type": "Point"}, "properties": {"charge": 81, "id": "smide_171", "name": "ZH253689", "provider": "smide", "range": 40.0, "size": 20, "time": "01/30/2020, 02:39:17"}, "type": "Feature"}, {"geometry": {"coordinates": [8.524381, 47.395824], "type": "Point"}, "properties": {"charge": 24, "id": "smide_93", "name": "ZH253681", "provider": "smide", "range": 12.0, "size": 17, "time": "01/30/2020, 02:39:17"}, "type": "Feature"}, {"geometry": {"coordinates": [8.57322, 47.352384], "type": "Point"}, "properties": {"charge": 88, "id": "smide_67", "name": "ZH253779", "provider": "smide", "range": 44.0, "size": 17, "time": "01/30/2020, 02:39:17"}, "type": "Feature"}, {"geometry": {"coordinates": [8.567904, 47.360088], "type": "Point"}, "properties": {"charge": 31, "id": "smide_133", "name": "ZH253848", "provider": "smide", "range": 15.0, "size": 20, "time": "01/30/2020, 02:39:17"}, "type": "Feature"}, {"geometry": {"coordinates": [8.480005, 47.385338], "type": "Point"}, "properties": {"charge": 70, "id": "smide_118", "name": "ZH253759", "provider": "smide", "range": 35.0, "size": 20, "time": "01/30/2020, 02:39:17"}, "type": "Feature"}, {"geometry": {"coordinates": [8.553797, 47.38188], "type": "Point"}, "properties": {"charge": 80, "id": "smide_142", "name": "ZH258745", "provider": "smide", "range": 40.0, "size": 17, "time": "01/30/2020, 02:39:17"}, "type": "Feature"}, {"geometry": {"coordinates": [8.539373, 47.388088], "type": "Point"}, "properties": {"charge": 90, "id": "smide_166", "name": "ZH253728", "provider": "smide", "range": 45.0, "size": 17, "time": "01/30/2020, 02:39:17"}, "type": "Feature"}, {"geometry": {"coordinates": [8.487407, 47.367596], "type": "Point"}, "properties": {"charge": 95, "id": "smide_126", "name": "ZH268400", "provider": "smide", "range": 47.0, "size": 17, "time": "01/30/2020, 02:39:17"}, "type": "Feature"}, {"geometry": {"coordinates": [8.49071, 47.372066], "type": "Point"}, "properties": {"charge": 99, "id": "smide_44", "name": "ZH253837", "provider": "smide", "range": 49.0, "size": 17, "time": "01/30/2020, 02:39:17"}, "type": "Feature"}, {"geometry": {"coordinates": [8.530208, 47.390331], "type": "Point"}, "properties": {"charge": 26, "id": "smide_98", "name": "ZH256321", "provider": "smide", "range": 13.0, "size": 17, "time": "01/30/2020, 02:39:17"}, "type": "Feature"}, {"geometry": {"coordinates": [8.571992, 47.355128], "type": "Point"}, "properties": {"charge": 100, "id": "smide_154", "name": "ZH253744", "provider": "smide", "range": 50.0, "size": 20, "time": "01/30/2020, 02:39:17"}, "type": "Feature"}, {"geometry": {"coordinates": [8.512829, 47.398904], "type": "Point"}, "properties": {"charge": 35, "id": "smide_92", "name": "ZH253798", "provider": "smide", "range": 17.0, "size": 17, "time": "01/30/2020, 02:39:17"}, "type": "Feature"}, {"geometry": {"coordinates": [8.48703, 47.383615], "type": "Point"}, "properties": {"charge": 87, "id": "smide_167", "name": "ZH253854", "provider": "smide", "range": 43.0, "size": 17, "time": "01/30/2020, 02:39:17"}, "type": "Feature"}, {"geometry": {"coordinates": [8.560148, 47.372408], "type": "Point"}, "properties": {"charge": 100, "id": "smide_65", "name": "ZH253810", "provider": "smide", "range": 50.0, "size": 17, "time": "01/30/2020, 02:39:17"}, "type": "Feature"}, {"geometry": {"coordinates": [8.53561, 47.386992], "type": "Point"}, "properties": {"charge": 60, "id": "smide_111", "name": "ZH253763", "provider": "smide", "range": 30.0, "size": 17, "time": "01/30/2020, 02:39:17"}, "type": "Feature"}, {"geometry": {"coordinates": [8.498698, 47.402172], "type": "Point"}, "properties": {"charge": 67, "id": "smide_40", "name": "ZH253690", "provider": "smide", "range": 33.0, "size": 20, "time": "01/30/2020, 02:39:17"}, "type": "Feature"}, {"geometry": {"coordinates": [8.563931, 47.34814], "type": "Point"}, "properties": {"charge": 42, "id": "smide_1", "name": "ZH253776", "provider": "smide", "range": 21.0, "size": 17, "time": "01/30/2020, 02:39:17"}, "type": "Feature"}, {"geometry": {"coordinates": [8.556817, 47.353248], "type": "Point"}, "properties": {"charge": 100, "id": "smide_28", "name": "ZH253831", "provider": "smide", "range": 50.0, "size": 17, "time": "01/30/2020, 02:39:17"}, "type": "Feature"}, {"geometry": {"coordinates": [8.516766, 47.398401], "type": "Point"}, "properties": {"charge": 100, "id": "smide_14", "name": "ZH253749", "provider": "smide", "range": 50.0, "size": 20, "time": "01/30/2020, 02:39:17"}, "type": "Feature"}, {"geometry": {"coordinates": [8.554605, 47.40286], "type": "Point"}, "properties": {"charge": 62, "id": "smide_130", "name": "ZH253847", "provider": "smide", "range": 31.0, "size": 20, "time": "01/30/2020, 02:39:17"}, "type": "Feature"}, {"geometry": {"coordinates": [8.549767, 47.41064], "type": "Point"}, "properties": {"charge": 74, "id": "smide_24", "name": "ZH253696", "provider": "smide", "range": 37.0, "size": 20, "time": "01/30/2020, 02:39:17"}, "type": "Feature"}, {"geometry": {"coordinates": [8.536225, 47.389252], "type": "Point"}, "properties": {"charge": 70, "id": "smide_83", "name": "ZH253869", "provider": "smide", "range": 35.0, "size": 20, "time": "01/30/2020, 02:39:17"}, "type": "Feature"}, {"geometry": {"coordinates": [8.489133, 47.386324], "type": "Point"}, "properties": {"charge": 73, "id": "smide_193", "name": "ZH253738", "provider": "smide", "range": 36.0, "size": 20, "time": "01/30/2020, 02:39:17"}, "type": "Feature"}, {"geometry": {"coordinates": [8.510376, 47.425541], "type": "Point"}, "properties": {"charge": 100, "id": "smide_158", "name": "ZH253870", "provider": "smide", "range": 50.0, "size": 20, "time": "01/30/2020, 02:39:17"}, "type": "Feature"}, {"geometry": {"coordinates": [8.494208, 47.424244], "type": "Point"}, "properties": {"charge": 22, "id": "smide_100", "name": "ZH253862", "provider": "smide", "range": 11.0, "size": 20, "time": "01/30/2020, 02:39:17"}, "type": "Feature"}, {"geometry": {"coordinates": [8.496573, 47.378413], "type": "Point"}, "properties": {"charge": 53, "id": "smide_134", "name": "ZH253741", "provider": "smide", "range": 26.0, "size": 20, "time": "01/30/2020, 02:39:17"}, "type": "Feature"}, {"geometry": {"coordinates": [8.530726, 47.348128], "type": "Point"}, "properties": {"charge": 62, "id": "smide_141", "name": "ZH253800", "provider": "smide", "range": 31.0, "size": 20, "time": "01/30/2020, 02:39:17"}, "type": "Feature"}, {"geometry": {"coordinates": [8.560041, 47.370408], "type": "Point"}, "properties": {"charge": 73, "id": "smide_149", "name": "ZH253743", "provider": "smide", "range": 36.0, "size": 20, "time": "01/30/2020, 02:39:17"}, "type": "Feature"}, {"geometry": {"coordinates": [8.509402, 47.39522], "type": "Point"}, "properties": {"charge": 16, "id": "smide_16", "name": "ZH253713", "provider": "smide", "range": 8.0, "size": 20, "time": "01/30/2020, 02:39:17"}, "type": "Feature"}, {"geometry": {"coordinates": [8.536015, 47.406952], "type": "Point"}, "properties": {"charge": 99, "id": "smide_74", "name": "ZH253693", "provider": "smide", "range": 49.0, "size": 20, "time": "01/30/2020, 02:39:17"}, "type": "Feature"}, {"geometry": {"coordinates": [8.54121, 47.377503], "type": "Point"}, "properties": {"charge": 64, "id": "smide_33", "name": "ZH253782", "provider": "smide", "range": 32.0, "size": 20, "time": "01/30/2020, 02:39:17"}, "type": "Feature"}, {"geometry": {"coordinates": [8.518048, 47.34092], "type": "Point"}, "properties": {"charge": 87, "id": "smide_161", "name": "ZH253691", "provider": "smide", "range": 43.0, "size": 20, "time": "01/30/2020, 02:39:17"}, "type": "Feature"}, {"geometry": {"coordinates": [8.517568, 47.367486], "type": "Point"}, "properties": {"charge": 93, "id": "smide_183", "name": "ZH253868", "provider": "smide", "range": 46.0, "size": 17, "time": "01/30/2020, 02:39:17"}, "type": "Feature"}, {"geometry": {"coordinates": [8.483372, 47.374648], "type": "Point"}, "properties": {"charge": 100, "id": "smide_42", "name": "ZH253846", "provider": "smide", "range": 50.0, "size": 20, "time": "01/30/2020, 02:39:17"}, "type": "Feature"}, {"geometry": {"coordinates": [8.537128, 47.419112], "type": "Point"}, "properties": {"charge": 100, "id": "smide_4", "name": "ZH253740", "provider": "smide", "range": 50.0, "size": 20, "time": "01/30/2020, 02:39:17"}, "type": "Feature"}, {"geometry": {"coordinates": [8.563521, 47.40946], "type": "Point"}, "properties": {"charge": 79, "id": "smide_160", "name": "ZH253722", "provider": "smide", "range": 39.0, "size": 17, "time": "01/30/2020, 02:39:17"}, "type": "Feature"}, {"geometry": {"coordinates": [8.547566, 47.378225], "type": "Point"}, "properties": {"charge": 50, "id": "smide_137", "name": "ZH258502", "provider": "smide", "range": 25.0, "size": 17, "time": "01/30/2020, 02:39:17"}, "type": "Feature"}, {"geometry": {"coordinates": [8.5181, 47.369932], "type": "Point"}, "properties": {"charge": 24, "id": "smide_178", "name": "ZH253803", "provider": "smide", "range": 12.0, "size": 17, "time": "01/30/2020, 02:39:17"}, "type": "Feature"}, {"geometry": {"coordinates": [8.487253, 47.384255], "type": "Point"}, "properties": {"charge": 97, "id": "smide_55", "name": "ZH253875", "provider": "smide", "range": 48.0, "size": 17, "time": "01/30/2020, 02:39:17"}, "type": "Feature"}, {"geometry": {"coordinates": [8.51709, 47.398408], "type": "Point"}, "properties": {"charge": 59, "id": "smide_96", "name": "ZH256146", "provider": "smide", "range": 29.0, "size": 20, "time": "01/30/2020, 02:39:17"}, "type": "Feature"}, {"geometry": {"coordinates": [8.527673, 47.410196], "type": "Point"}, "properties": {"charge": 100, "id": "smide_58", "name": "ZH259246", "provider": "smide", "range": 50.0, "size": 20, "time": "01/30/2020, 02:39:17"}, "type": "Feature"}, {"geometry": {"coordinates": [8.562938, 47.366104], "type": "Point"}, "properties": {"charge": 100, "id": "smide_54", "name": "ZH253874", "provider": "smide", "range": 50.0, "size": 20, "time": "01/30/2020, 02:39:17"}, "type": "Feature"}, {"geometry": {"coordinates": [8.550444, 47.379816], "type": "Point"}, "properties": {"charge": 56, "id": "smide_175", "name": "ZH253730", "provider": "smide", "range": 28.0, "size": 17, "time": "01/30/2020, 02:39:17"}, "type": "Feature"}, {"geometry": {"coordinates": [8.564654, 47.369352], "type": "Point"}, "properties": {"charge": 98, "id": "smide_163", "name": "ZH256147", "provider": "smide", "range": 49.0, "size": 20, "time": "01/30/2020, 02:39:17"}, "type": "Feature"}, {"geometry": {"coordinates": [8.513251, 47.374288], "type": "Point"}, "properties": {"charge": 100, "id": "smide_112", "name": "ZH263530", "provider": "smide", "range": 50.0, "size": 20, "time": "01/30/2020, 02:39:17"}, "type": "Feature"}, {"geometry": {"coordinates": [8.55186, 47.389168], "type": "Point"}, "properties": {"charge": 74, "id": "smide_122", "name": "ZH253850", "provider": "smide", "range": 37.0, "size": 20, "time": "01/30/2020, 02:39:17"}, "type": "Feature"}, {"geometry": {"coordinates": [8.561438, 47.350076], "type": "Point"}, "properties": {"charge": 42, "id": "smide_38", "name": "ZH253851", "provider": "smide", "range": 21.0, "size": 20, "time": "01/30/2020, 02:39:17"}, "type": "Feature"}, {"geometry": {"coordinates": [8.502197, 47.370248], "type": "Point"}, "properties": {"charge": 72, "id": "smide_6", "name": "ZH253787", "provider": "smide", "range": 36.0, "size": 17, "time": "01/30/2020, 02:39:17"}, "type": "Feature"}, {"geometry": {"coordinates": [8.553782, 47.412244], "type": "Point"}, "properties": {"charge": 76, "id": "smide_18", "name": "ZH253859", "provider": "smide", "range": 38.0, "size": 17, "time": "01/30/2020, 02:39:17"}, "type": "Feature"}, {"geometry": {"coordinates": [8.520331, 47.372076], "type": "Point"}, "properties": {"charge": 24, "id": "smide_12", "name": "ZH253685", "provider": "smide", "range": 12.0, "size": 17, "time": "01/30/2020, 02:39:17"}, "type": "Feature"}, {"geometry": {"coordinates": [8.532012, 47.35262], "type": "Point"}, "properties": {"charge": 24, "id": "smide_192", "name": "ZH253706", "provider": "smide", "range": 12.0, "size": 20, "time": "01/30/2020, 02:39:17"}, "type": "Feature"}, {"geometry": {"coordinates": [8.559244, 47.415972], "type": "Point"}, "properties": {"charge": 100, "id": "smide_39", "name": "ZH253714", "provider": "smide", "range": 50.0, "size": 20, "time": "01/30/2020, 02:39:17"}, "type": "Feature"}, {"geometry": {"coordinates": [8.557591, 47.351745], "type": "Point"}, "properties": {"charge": 100, "id": "smide_5", "name": "ZH261443", "provider": "smide", "range": 50.0, "size": 20, "time": "01/30/2020, 02:39:17"}, "type": "Feature"}, {"geometry": {"coordinates": [8.561955, 47.377163], "type": "Point"}, "properties": {"charge": 23, "id": "smide_85", "name": "ZH253729", "provider": "smide", "range": 11.0, "size": 17, "time": "01/30/2020, 02:39:17"}, "type": "Feature"}, {"geometry": {"coordinates": [8.546055, 47.410212], "type": "Point"}, "properties": {"charge": 73, "id": "smide_29", "name": "ZH253723", "provider": "smide", "range": 36.0, "size": 17, "time": "01/30/2020, 02:39:17"}, "type": "Feature"}, {"geometry": {"coordinates": [8.544478, 47.387392], "type": "Point"}, "properties": {"charge": 86, "id": "smide_48", "name": "ZH253849", "provider": "smide", "range": 43.0, "size": 20, "time": "01/30/2020, 02:39:17"}, "type": "Feature"}, {"geometry": {"coordinates": [8.517685, 47.414332], "type": "Point"}, "properties": {"charge": 41, "id": "smide_46", "name": "ZH253843", "provider": "smide", "range": 20.0, "size": 20, "time": "01/30/2020, 02:39:17"}, "type": "Feature"}, {"geometry": {"coordinates": [8.52964, 47.39413], "type": "Point"}, "properties": {"charge": 78, "id": "bird_24a5139b-0c9c-4e79-8ce9-d0ad93cefe6b", "provider": "bird", "timeStamp": "01/30/2020, 02:39:16"}, "type": "Feature"}, {"geometry": {"coordinates": [8.53245833333333, 47.3939633333333], "type": "Point"}, "properties": {"charge": 48, "id": "bird_43500f9b-7ec5-44d9-ba78-e2b9e8677dcf", "provider": "bird", "timeStamp": "01/30/2020, 02:39:16"}, "type": "Feature"}, {"geometry": {"coordinates": [8.51020833333333, 47.375935], "type": "Point"}, "properties": {"charge": 64, "id": "bird_60a3f545-4770-4b14-ab7b-2bbd2e5185ee", "provider": "bird", "timeStamp": "01/30/2020, 02:39:16"}, "type": "Feature"}, {"geometry": {"coordinates": [8.54103833333333, 47.3682633333333], "type": "Point"}, "properties": {"charge": 19, "id": "bird_aed8a4ef-4275-44e7-8e93-5d20f1239bae", "provider": "bird", "timeStamp": "01/30/2020, 02:39:16"}, "type": "Feature"}, {"geometry": {"coordinates": [8.540875, 47.3682483333333], "type": "Point"}, "properties": {"charge": 69, "id": "bird_83c72349-9aae-4c61-b0a7-902e754456ef", "provider": "bird", "timeStamp": "01/30/2020, 02:39:16"}, "type": "Feature"}, {"geometry": {"coordinates": [8.50967166666667, 47.3784216666667], "type": "Point"}, "properties": {"charge": 84, "id": "bird_3e25f1f3-b576-4e93-a84b-e73b4a2791a0", "provider": "bird", "timeStamp": "01/30/2020, 02:39:16"}, "type": "Feature"}, {"geometry": {"coordinates": [8.52938333333333, 47.3937683333333], "type": "Point"}, "properties": {"charge": 100, "id": "bird_1dba2a90-acbc-4cb5-8949-3f100ef86595", "provider": "bird", "timeStamp": "01/30/2020, 02:39:16"}, "type": "Feature"}, {"geometry": {"coordinates": [8.52931666666667, 47.3937333333333], "type": "Point"}, "properties": {"charge": 98, "id": "bird_7b5dd720-a514-4152-bdba-86934ca836ce", "provider": "bird", "timeStamp": "01/30/2020, 02:39:16"}, "type": "Feature"}, {"geometry": {"coordinates": [8.52925166666667, 47.39365], "type": "Point"}, "properties": {"charge": 98, "id": "bird_8dcd5a08-cd73-4b09-b652-80abe2ee67e1", "provider": "bird", "timeStamp": "01/30/2020, 02:39:16"}, "type": "Feature"}, {"geometry": {"coordinates": [8.52921666666667, 47.3936233333333], "type": "Point"}, "properties": {"charge": 98, "id": "bird_07c4620f-1480-469c-bed7-63ab2828bf4c", "provider": "bird", "timeStamp": "01/30/2020, 02:39:16"}, "type": "Feature"}, {"geometry": {"coordinates": [8.51563333333333, 47.3704916666667], "type": "Point"}, "properties": {"charge": 72, "id": "bird_b03c9824-06c2-43c2-9f93-b3c373df5373", "provider": "bird", "timeStamp": "01/30/2020, 02:39:16"}, "type": "Feature"}, {"geometry": {"coordinates": [8.51330333333333, 47.3724366666667], "type": "Point"}, "properties": {"charge": 69, "id": "bird_76b56fa6-424c-4a98-b816-cc6651af94d8", "provider": "bird", "timeStamp": "01/30/2020, 02:39:16"}, "type": "Feature"}, {"geometry": {"coordinates": [8.51012833333333, 47.37807], "type": "Point"}, "properties": {"charge": 76, "id": "bird_7656c2f7-23ac-4d71-a8f8-e0e0d3749297", "provider": "bird", "timeStamp": "01/30/2020, 02:39:16"}, "type": "Feature"}, {"geometry": {"coordinates": [8.519115, 47.3686866666667], "type": "Point"}, "properties": {"charge": 16, "id": "bird_bdc908e7-66af-4f8d-8f9c-f21feeaf9003", "provider": "bird", "timeStamp": "01/30/2020, 02:39:16"}, "type": "Feature"}, {"geometry": {"coordinates": [8.51908166666667, 47.3687016666667], "type": "Point"}, "properties": {"charge": 21, "id": "bird_96afc39b-286d-4072-baeb-7dc1c7cabe8c", "provider": "bird", "timeStamp": "01/30/2020, 02:39:16"}, "type": "Feature"}, {"geometry": {"coordinates": [8.519135, 47.3686783333333], "type": "Point"}, "properties": {"charge": 22, "id": "bird_22d59842-0698-471d-9faa-48a1227fb387", "provider": "bird", "timeStamp": "01/30/2020, 02:39:16"}, "type": "Feature"}, {"geometry": {"coordinates": [8.52923666666667, 47.39349], "type": "Point"}, "properties": {"charge": 100, "id": "bird_44238b20-f91a-45bf-97c5-3eb9ae1376d9", "provider": "bird", "timeStamp": "01/30/2020, 02:39:16"}, "type": "Feature"}, {"geometry": {"coordinates": [8.5191, 47.3686983333333], "type": "Point"}, "properties": {"charge": 10, "id": "bird_5914b3d3-9086-406d-ac5f-a5b4df81a867", "provider": "bird", "timeStamp": "01/30/2020, 02:39:16"}, "type": "Feature"}, {"geometry": {"coordinates": [8.51912, 47.368695], "type": "Point"}, "properties": {"charge": 18, "id": "bird_c8614e1f-3570-454f-ac8f-dc9e8c1bc100", "provider": "bird", "timeStamp": "01/30/2020, 02:39:16"}, "type": "Feature"}, {"geometry": {"coordinates": [8.51912666666667, 47.3686983333333], "type": "Point"}, "properties": {"charge": 20, "id": "bird_49df8b36-4d13-4cdc-a62c-96a30369e8d2", "provider": "bird", "timeStamp": "01/30/2020, 02:39:16"}, "type": "Feature"}, {"geometry": {"coordinates": [8.51377166666667, 47.3878216666667], "type": "Point"}, "properties": {"charge": 78, "id": "bird_daf78aca-b701-49b0-b55c-7cd6d94445f5", "provider": "bird", "timeStamp": "01/30/2020, 02:39:16"}, "type": "Feature"}, {"geometry": {"coordinates": [8.51914166666667, 47.3686983333333], "type": "Point"}, "properties": {"charge": 25, "id": "bird_3ee58353-3a48-4737-9542-31c945df83b3", "provider": "bird", "timeStamp": "01/30/2020, 02:39:16"}, "type": "Feature"}, {"geometry": {"coordinates": [8.523955, 47.3928266666667], "type": "Point"}, "properties": {"charge": 24, "id": "bird_c9600e90-18b9-4c08-8587-5f5785b49d05", "provider": "bird", "timeStamp": "01/30/2020, 02:39:16"}, "type": "Feature"}, {"geometry": {"coordinates": [8.52921666666667, 47.3934433333333], "type": "Point"}, "properties": {"charge": 98, "id": "bird_972145d7-4adf-48d1-9d31-52c4536f0aa3", "provider": "bird", "timeStamp": "01/30/2020, 02:39:16"}, "type": "Feature"}, {"geometry": {"coordinates": [8.52923833333333, 47.39344], "type": "Point"}, "properties": {"charge": 98, "id": "bird_5407e547-2912-4289-b83c-913886a43dbb", "provider": "bird", "timeStamp": "01/30/2020, 02:39:16"}, "type": "Feature"}, {"geometry": {"coordinates": [8.51297333333333, 47.3868866666667], "type": "Point"}, "properties": {"charge": 27, "id": "bird_5cc56673-c5f4-4589-a62b-d665a52c7dc7", "provider": "bird", "timeStamp": "01/30/2020, 02:39:16"}, "type": "Feature"}, {"geometry": {"coordinates": [8.52647, 47.3931966666667], "type": "Point"}, "properties": {"charge": 71, "id": "bird_4faa1086-c7f0-4147-8ac9-5d762141bddb", "provider": "bird", "timeStamp": "01/30/2020, 02:39:16"}, "type": "Feature"}, {"geometry": {"coordinates": [8.51078666666667, 47.3770783333333], "type": "Point"}, "properties": {"charge": 54, "id": "bird_1f0fb49e-1e7c-4d45-9e42-d8aeb04bf580", "provider": "bird", "timeStamp": "01/30/2020, 02:39:16"}, "type": "Feature"}, {"geometry": {"coordinates": [8.52804333333333, 47.366745], "type": "Point"}, "properties": {"charge": 39, "id": "bird_987e7f39-9a41-42c0-a977-c3743f9e8ef4", "provider": "bird", "timeStamp": "01/30/2020, 02:39:16"}, "type": "Feature"}, {"geometry": {"coordinates": [8.51805666666667, 47.3694233333333], "type": "Point"}, "properties": {"charge": 33, "id": "bird_12eea7b5-c2bc-489a-9260-52334ce7f974", "provider": "bird", "timeStamp": "01/30/2020, 02:39:16"}, "type": "Feature"}, {"geometry": {"coordinates": [8.51371833333333, 47.3873066666667], "type": "Point"}, "properties": {"charge": 61, "id": "bird_9b550e03-bada-42c6-bfbe-b3412ee5aa76", "provider": "bird", "timeStamp": "01/30/2020, 02:39:16"}, "type": "Feature"}, {"geometry": {"coordinates": [8.513915, 47.387325], "type": "Point"}, "properties": {"charge": 74, "id": "bird_23d4de70-810a-44f7-9b34-f7ed00283825", "provider": "bird", "timeStamp": "01/30/2020, 02:39:16"}, "type": "Feature"}, {"geometry": {"coordinates": [8.51538333333333, 47.3714516666667], "type": "Point"}, "properties": {"charge": 82, "id": "bird_2b9871fb-2e4c-4638-9a81-52ed73f5f728", "provider": "bird", "timeStamp": "01/30/2020, 02:39:16"}, "type": "Feature"}, {"geometry": {"coordinates": [8.54605166666667, 47.3727533333333], "type": "Point"}, "properties": {"charge": 34, "id": "bird_2ca096f2-d941-4152-95ce-8b771a995515", "provider": "bird", "timeStamp": "01/30/2020, 02:39:16"}, "type": "Feature"}, {"geometry": {"coordinates": [8.54326166666667, 47.3706633333333], "type": "Point"}, "properties": {"charge": 54, "id": "bird_eb13e671-5ba2-4f39-8084-3c3f2bd63cf5", "provider": "bird", "timeStamp": "01/30/2020, 02:39:16"}, "type": "Feature"}, {"geometry": {"coordinates": [8.51129166666667, 47.38248], "type": "Point"}, "properties": {"charge": 64, "id": "bird_5c8287f5-8198-4f5a-b1bd-29e20f640979", "provider": "bird", "timeStamp": "01/30/2020, 02:39:16"}, "type": "Feature"}, {"geometry": {"coordinates": [8.54297, 47.370605], "type": "Point"}, "properties": {"charge": 73, "id": "bird_9ae5654e-dc54-452b-b892-546e89924631", "provider": "bird", "timeStamp": "01/30/2020, 02:39:16"}, "type": "Feature"}, {"geometry": {"coordinates": [8.51514166666667, 47.3878216666667], "type": "Point"}, "properties": {"charge": 63, "id": "bird_ff36fe86-75b7-4f85-90db-1e8652654d17", "provider": "bird", "timeStamp": "01/30/2020, 02:39:16"}, "type": "Feature"}, {"geometry": {"coordinates": [8.52829, 47.3926583333333], "type": "Point"}, "properties": {"charge": 43, "id": "bird_c3833c67-b2df-462a-965b-c9dc5f96eef2", "provider": "bird", "timeStamp": "01/30/2020, 02:39:16"}, "type": "Feature"}, {"geometry": {"coordinates": [8.54047166666667, 47.3695566666667], "type": "Point"}, "properties": {"charge": 43, "id": "bird_15957986-4bc6-4bf2-953a-32a85bf4b2a4", "provider": "bird", "timeStamp": "01/30/2020, 02:39:16"}, "type": "Feature"}, {"geometry": {"coordinates": [8.54042333333333, 47.3695633333333], "type": "Point"}, "properties": {"charge": 19, "id": "bird_96bae552-a3a5-4039-b32a-d6609b867d9f", "provider": "bird", "timeStamp": "01/30/2020, 02:39:16"}, "type": "Feature"}, {"geometry": {"coordinates": [8.54820666666667, 47.37746], "type": "Point"}, "properties": {"charge": 73, "id": "bird_bf4fd5aa-e40f-4fe7-922c-57d34c4104d3", "provider": "bird", "timeStamp": "01/30/2020, 02:39:16"}, "type": "Feature"}, {"geometry": {"coordinates": [8.540455, 47.3696016666667], "type": "Point"}, "properties": {"charge": 13, "id": "bird_c34d7e7f-8f2e-4891-ab30-4a33035ee2c2", "provider": "bird", "timeStamp": "01/30/2020, 02:39:16"}, "type": "Feature"}, {"geometry": {"coordinates": [8.54041833333333, 47.36959], "type": "Point"}, "properties": {"charge": 17, "id": "bird_5b64243e-bdf3-4ccf-8205-9c4d272ff34f", "provider": "bird", "timeStamp": "01/30/2020, 02:39:16"}, "type": "Feature"}, {"geometry": {"coordinates": [8.54036666666667, 47.369575], "type": "Point"}, "properties": {"charge": 15, "id": "bird_df2aaf53-ea27-40d4-92dc-ecc70fcc1304", "provider": "bird", "timeStamp": "01/30/2020, 02:39:16"}, "type": "Feature"}, {"geometry": {"coordinates": [8.54042833333333, 47.3696216666667], "type": "Point"}, "properties": {"charge": 51, "id": "bird_6b31a9d8-93dc-4a25-b69d-8e16b7362be7", "provider": "bird", "timeStamp": "01/30/2020, 02:39:16"}, "type": "Feature"}, {"geometry": {"coordinates": [8.54041333333333, 47.3696216666667], "type": "Point"}, "properties": {"charge": 11, "id": "bird_88c8fce0-fb9c-4f5d-bf88-2c8f1488cee8", "provider": "bird", "timeStamp": "01/30/2020, 02:39:16"}, "type": "Feature"}, {"geometry": {"coordinates": [8.54023666666667, 47.3695416666667], "type": "Point"}, "properties": {"charge": 16, "id": "bird_94eecb62-303e-47ff-a319-6e2cea89a8f8", "provider": "bird", "timeStamp": "01/30/2020, 02:39:16"}, "type": "Feature"}, {"geometry": {"coordinates": [8.53616, 47.3681716666667], "type": "Point"}, "properties": {"charge": 62, "id": "bird_f7ca1b4d-8186-42d5-8236-9721df2220a7", "provider": "bird", "timeStamp": "01/30/2020, 02:39:16"}, "type": "Feature"}, {"geometry": {"coordinates": [8.53669166666667, 47.3683083333333], "type": "Point"}, "properties": {"charge": 26, "id": "bird_35900668-9719-4842-b7cb-6532bb981563", "provider": "bird", "timeStamp": "01/30/2020, 02:39:16"}, "type": "Feature"}, {"geometry": {"coordinates": [8.54032166666667, 47.36959], "type": "Point"}, "properties": {"charge": 15, "id": "bird_0af74b34-0f2d-4015-8d67-e8b01f0812da", "provider": "bird", "timeStamp": "01/30/2020, 02:39:16"}, "type": "Feature"}, {"geometry": {"coordinates": [8.54033, 47.369595], "type": "Point"}, "properties": {"charge": 11, "id": "bird_4b3d336a-6ef9-4eee-bf86-fa6af883ab8c", "provider": "bird", "timeStamp": "01/30/2020, 02:39:16"}, "type": "Feature"}, {"geometry": {"coordinates": [8.54036, 47.3696133333333], "type": "Point"}, "properties": {"charge": 15, "id": "bird_83cdb857-3c2e-40f4-a9f3-fd6044573e7a", "provider": "bird", "timeStamp": "01/30/2020, 02:39:16"}, "type": "Feature"}, {"geometry": {"coordinates": [8.54031833333333, 47.3696216666667], "type": "Point"}, "properties": {"charge": 18, "id": "bird_5519e1ec-5b51-4a5a-8956-411cb5aa3ae9", "provider": "bird", "timeStamp": "01/30/2020, 02:39:16"}, "type": "Feature"}, {"geometry": {"coordinates": [8.54036666666667, 47.3696716666667], "type": "Point"}, "properties": {"charge": 12, "id": "bird_c073e2cd-0f0e-46ab-aa24-7a02d63186a5", "provider": "bird", "timeStamp": "01/30/2020, 02:39:16"}, "type": "Feature"}, {"geometry": {"coordinates": [8.54040333333333, 47.36969], "type": "Point"}, "properties": {"charge": 10, "id": "bird_945f8066-3254-4459-81cb-42c4691e8a0b", "provider": "bird", "timeStamp": "01/30/2020, 02:39:16"}, "type": "Feature"}, {"geometry": {"coordinates": [8.54036833333333, 47.369675], "type": "Point"}, "properties": {"charge": 16, "id": "bird_80a72823-7b18-4b91-96c9-fe77306a8bf3", "provider": "bird", "timeStamp": "01/30/2020, 02:39:16"}, "type": "Feature"}, {"geometry": {"coordinates": [8.54370333333333, 47.3718683333333], "type": "Point"}, "properties": {"charge": 45, "id": "bird_de203de1-431b-422b-9c95-1e6e23876523", "provider": "bird", "timeStamp": "01/30/2020, 02:39:16"}, "type": "Feature"}, {"geometry": {"coordinates": [8.543835, 47.37209], "type": "Point"}, "properties": {"charge": 35, "id": "bird_667b4059-d4a7-4e60-a5c1-9e1157668b90", "provider": "bird", "timeStamp": "01/30/2020, 02:39:16"}, "type": "Feature"}, {"geometry": {"coordinates": [8.53996166666667, 47.3901666666667], "type": "Point"}, "properties": {"charge": 39, "id": "bird_af6b4e7b-df99-4333-bcae-2547588f7246", "provider": "bird", "timeStamp": "01/30/2020, 02:39:16"}, "type": "Feature"}, {"geometry": {"coordinates": [8.535445, 47.3915933333333], "type": "Point"},