{"features": [{"geometry": {"coordinates": [8.540062, 47.374392], "type": "Point"}, "properties": {"address": "Uraniastrasse 7", "electric": 7, "id": "pb_60", "manual": 12, "name": "Demo Station Werdm\u00fchleplatz", "provider": "publibike", "timeStamp": "01/31/2020, 12:18:23", "zip": 8001}, "type": "Feature"}, {"geometry": {"coordinates": [8.5452956, 47.4099615], "type": "Point"}, "properties": {"address": "Querstrasse 8", "electric": 2, "id": "pb_61", "manual": 1, "name": "Marktplatz", "provider": "publibike", "timeStamp": "01/31/2020, 12:18:23", "zip": 8050}, "type": "Feature"}, {"geometry": {"coordinates": [8.5156327, 47.3795837], "type": "Point"}, "properties": {"address": "Bullingerstrasse 5", "electric": 0, "id": "pb_80", "manual": 5, "name": "Bullingerplatz", "provider": "publibike", "timeStamp": "01/31/2020, 12:18:23", "zip": 8004}, "type": "Feature"}, {"geometry": {"coordinates": [8.5104051, 47.3899342], "type": "Point"}, "properties": {"address": "Pfingstweidstrasse 96e", "electric": 4, "id": "pb_81", "manual": 4, "name": "Herdern", "provider": "publibike", "timeStamp": "01/31/2020, 12:18:23", "zip": 8001}, "type": "Feature"}, {"geometry": {"coordinates": [8.535718, 47.359675], "type": "Point"}, "properties": {"address": "Mythenquai 50", "electric": 16, "id": "pb_82", "manual": 9, "name": "Hafen Enge", "provider": "publibike", "timeStamp": "01/31/2020, 12:18:23", "zip": 8002}, "type": "Feature"}, {"geometry": {"coordinates": [8.520370505, 47.358663827], "type": "Point"}, "properties": {"address": "Bubenbergstrasse 1", "electric": 3, "id": "pb_83", "manual": 4, "name": "Comerge", "provider": "publibike", "timeStamp": "01/31/2020, 12:18:23", "zip": 8045}, "type": "Feature"}, {"geometry": {"coordinates": [8.5412505, 47.3789825], "type": "Point"}, "properties": {"address": "Museumstrasse 2", "electric": 7, "id": "pb_84", "manual": 9, "name": "Landesmuseum", "provider": "publibike", "timeStamp": "01/31/2020, 12:18:23", "zip": 8001}, "type": "Feature"}, {"geometry": {"coordinates": [8.5235479, 47.3716661], "type": "Point"}, "properties": {"address": "Birmensdorferstrasse 80", "electric": 2, "id": "pb_85", "manual": 4, "name": "Bahnhof Wiedikon", "provider": "publibike", "timeStamp": "01/31/2020, 12:18:23", "zip": 8003}, "type": "Feature"}, {"geometry": {"coordinates": [8.506822854, 47.40781197], "type": "Point"}, "properties": {"address": "Stefano-Franscini-Platz 5", "electric": 14, "id": "pb_86", "manual": 0, "name": "ETH H\u00f6nggerberg", "provider": "publibike", "timeStamp": "01/31/2020, 12:18:23", "zip": 8093}, "type": "Feature"}, {"geometry": {"coordinates": [8.536101, 47.371083], "type": "Point"}, "properties": {"address": "Pelikanplatz 5", "electric": 5, "id": "pb_87", "manual": 8, "name": "Pelikanplatz", "provider": "publibike", "timeStamp": "01/31/2020, 12:18:23", "zip": 8001}, "type": "Feature"}, {"geometry": {"coordinates": [8.5257822, 47.3651936], "type": "Point"}, "properties": {"address": "H\u00fcrlimannplatz 90", "electric": 26, "id": "pb_88", "manual": 17, "name": "H\u00fcrlimannplatz", "provider": "publibike", "timeStamp": "01/31/2020, 12:18:23", "zip": 8002}, "type": "Feature"}, {"geometry": {"coordinates": [8.5313344, 47.3713591], "type": "Point"}, "properties": {"address": "Selnaustrasse 32", "electric": 11, "id": "pb_89", "manual": 6, "name": "Stauffacherbr\u00fccke", "provider": "publibike", "timeStamp": "01/31/2020, 12:18:23", "zip": 8001}, "type": "Feature"}, {"geometry": {"coordinates": [8.5056978, 47.3917964], "type": "Point"}, "properties": {"address": "Sportweg 25", "electric": 3, "id": "pb_90", "manual": 7, "name": "Sportweg", "provider": "publibike", "timeStamp": "01/31/2020, 12:18:23", "zip": 8005}, "type": "Feature"}, {"geometry": {"coordinates": [8.5181701, 47.3917837], "type": "Point"}, "properties": {"address": "Hardturmstrasse 11", "electric": 3, "id": "pb_91", "manual": 2, "name": "Puls 5", "provider": "publibike", "timeStamp": "01/31/2020, 12:18:23", "zip": 8005}, "type": "Feature"}, {"geometry": {"coordinates": [8.5286468, 47.3820827], "type": "Point"}, "properties": {"address": "R\u00f6ntgenstrasse 6", "electric": 2, "id": "pb_92", "manual": 4, "name": "R\u00f6ntgenstrasse", "provider": "publibike", "timeStamp": "01/31/2020, 12:18:23", "zip": 8005}, "type": "Feature"}, {"geometry": {"coordinates": [8.531935, 47.384918], "type": "Point"}, "properties": {"address": "Kornhausbr\u00fccke 1", "electric": 0, "id": "pb_93", "manual": 2, "name": "Limmatplatz", "provider": "publibike", "timeStamp": "01/31/2020, 12:18:23", "zip": 8005}, "type": "Feature"}, {"geometry": {"coordinates": [8.5354006, 47.3758639], "type": "Point"}, "properties": {"address": "Gessnerallee 15", "electric": 2, "id": "pb_94", "manual": 1, "name": "Gessnerallee", "provider": "publibike", "timeStamp": "01/31/2020, 12:18:23", "zip": 8001}, "type": "Feature"}, {"geometry": {"coordinates": [8.523818, 47.377148], "type": "Point"}, "properties": {"address": "Stauffacherstrasse 127", "electric": 0, "id": "pb_95", "manual": 6, "name": "B\u00e4ckeranlage", "provider": "publibike", "timeStamp": "01/31/2020, 12:18:23", "zip": 8004}, "type": "Feature"}, {"geometry": {"coordinates": [8.531836, 47.378548], "type": "Point"}, "properties": {"address": "Lagerstrasse 44", "electric": 29, "id": "pb_96", "manual": 18, "name": "Gustav-Gull-Platz", "provider": "publibike", "timeStamp": "01/31/2020, 12:18:23", "zip": 8004}, "type": "Feature"}, {"geometry": {"coordinates": [8.5104883, 47.3771535], "type": "Point"}, "properties": {"address": "Zurlindenstrasse 291", "electric": 0, "id": "pb_97", "manual": 2, "name": "Zurlindenstrasse", "provider": "publibike", "timeStamp": "01/31/2020, 12:18:23", "zip": 8003}, "type": "Feature"}, {"geometry": {"coordinates": [8.5333139, 47.3731102], "type": "Point"}, "properties": {"address": "Sihlstrasse 81", "electric": 10, "id": "pb_98", "manual": 2, "name": "Sihlstrasse", "provider": "publibike", "timeStamp": "01/31/2020, 12:18:23", "zip": 8001}, "type": "Feature"}, {"geometry": {"coordinates": [8.520532, 47.374951], "type": "Point"}, "properties": {"address": "Feldstrasse 24", "electric": 0, "id": "pb_99", "manual": 1, "name": "Kalkbreite", "provider": "publibike", "timeStamp": "01/31/2020, 12:18:23", "zip": 8004}, "type": "Feature"}, {"geometry": {"coordinates": [8.539046, 47.368064], "type": "Point"}, "properties": {"address": "Talstrasse 12", "electric": 1, "id": "pb_100", "manual": 4, "name": "Z\u00fcrcher Kantonalbank", "provider": "publibike", "timeStamp": "01/31/2020, 12:18:23", "zip": 8001}, "type": "Feature"}, {"geometry": {"coordinates": [8.5348427, 47.3625938], "type": "Point"}, "properties": {"address": "Breitingerstrasse 5", "electric": 1, "id": "pb_101", "manual": 3, "name": "Rentenanstalt", "provider": "publibike", "timeStamp": "01/31/2020, 12:18:23", "zip": 8002}, "type": "Feature"}, {"geometry": {"coordinates": [8.5166922, 47.3897772], "type": "Point"}, "properties": {"address": "Technoparkstrasse 4", "electric": 4, "id": "pb_102", "manual": 8, "name": "Turbinenplatz", "provider": "publibike", "timeStamp": "01/31/2020, 12:18:23", "zip": 8005}, "type": "Feature"}, {"geometry": {"coordinates": [8.539312, 47.3739964], "type": "Point"}, "properties": {"address": "Oetenbachgasse 14", "electric": 5, "id": "pb_104", "manual": 10, "name": "Rennweg", "provider": "publibike", "timeStamp": "01/31/2020, 12:18:23", "zip": 8001}, "type": "Feature"}, {"geometry": {"coordinates": [8.5360685, 47.3775022], "type": "Point"}, "properties": {"address": "Kasernenstrasse 101", "electric": 7, "id": "pb_105", "manual": 37, "name": "Sihlpost", "provider": "publibike", "timeStamp": "01/31/2020, 12:18:23", "zip": 8004}, "type": "Feature"}, {"geometry": {"coordinates": [8.53545, 47.382798], "type": "Point"}, "properties": {"address": "Ausstellungsstrasse 44", "electric": 16, "id": "pb_106", "manual": 4, "name": "Museum f\u00fcr Gestaltung", "provider": "publibike", "timeStamp": "01/31/2020, 12:18:23", "zip": 8005}, "type": "Feature"}, {"geometry": {"coordinates": [8.5306155, 47.3647902], "type": "Point"}, "properties": {"address": "Gutenbergstrasse 1", "electric": 1, "id": "pb_107", "manual": 1, "name": "Bederbr\u00fccke", "provider": "publibike", "timeStamp": "01/31/2020, 12:18:23", "zip": 8002}, "type": "Feature"}, {"geometry": {"coordinates": [8.518982, 47.386741], "type": "Point"}, "properties": {"address": "Geroldstrasse 4", "electric": 2, "id": "pb_108", "manual": 1, "name": "Bahnhof Hardbr\u00fccke", "provider": "publibike", "timeStamp": "01/31/2020, 12:18:23", "zip": 8005}, "type": "Feature"}, {"geometry": {"coordinates": [8.53001018, 47.37247535], "type": "Point"}, "properties": {"address": "Werdstrasse 21", "electric": 9, "id": "pb_109", "manual": 3, "name": "Tamedia", "provider": "publibike", "timeStamp": "01/31/2020, 12:18:23", "zip": 8004}, "type": "Feature"}, {"geometry": {"coordinates": [8.4860017, 47.396401], "type": "Point"}, "properties": {"address": "Gr\u00fcnauring 37", "electric": 5, "id": "pb_110", "manual": 5, "name": "Gr\u00fcnau", "provider": "publibike", "timeStamp": "01/31/2020, 12:18:23", "zip": 8064}, "type": "Feature"}, {"geometry": {"coordinates": [8.548519, 47.376756], "type": "Point"}, "properties": {"address": "R\u00e4mistrasse 101", "electric": 26, "id": "pb_111", "manual": 3, "name": "ETH Zentrum", "provider": "publibike", "timeStamp": "01/31/2020, 12:18:23", "zip": 8006}, "type": "Feature"}, {"geometry": {"coordinates": [8.520449, 47.388151], "type": "Point"}, "properties": {"address": "Josefstrasse 224", "electric": 0, "id": "pb_112", "manual": 1, "name": "Steinfelsareal", "provider": "publibike", "timeStamp": "01/31/2020, 12:18:23", "zip": 8005}, "type": "Feature"}, {"geometry": {"coordinates": [8.520482, 47.37209], "type": "Point"}, "properties": {"address": "Weststrasse 115", "electric": 1, "id": "pb_124", "manual": 4, "name": "Weststrasse", "provider": "publibike", "timeStamp": "01/31/2020, 12:18:23", "zip": 8003}, "type": "Feature"}, {"geometry": {"coordinates": [8.496727, 47.378521], "type": "Point"}, "properties": {"address": "Albisriederstrasse 200", "electric": 4, "id": "pb_125", "manual": 2, "name": "Utogrund", "provider": "publibike", "timeStamp": "01/31/2020, 12:18:23", "zip": 8047}, "type": "Feature"}, {"geometry": {"coordinates": [8.510418, 47.381356], "type": "Point"}, "properties": {"address": "Bullingerstrasse 73", "electric": 6, "id": "pb_126", "manual": 7, "name": "Hardau", "provider": "publibike", "timeStamp": "01/31/2020, 12:18:23", "zip": 8004}, "type": "Feature"}, {"geometry": {"coordinates": [8.525525, 47.361567], "type": "Point"}, "properties": {"address": "Klopstockstrasse 23", "electric": 3, "id": "pb_127", "manual": 3, "name": "Klopstockwiese", "provider": "publibike", "timeStamp": "01/31/2020, 12:18:23", "zip": 8002}, "type": "Feature"}, {"geometry": {"coordinates": [8.518143, 47.363148], "type": "Point"}, "properties": {"address": "Haldenstrasse 8", "electric": 1, "id": "pb_128", "manual": 4, "name": "Binz", "provider": "publibike", "timeStamp": "01/31/2020, 12:18:23", "zip": 8045}, "type": "Feature"}, {"geometry": {"coordinates": [8.542726, 47.379952], "type": "Point"}, "properties": {"address": "Walchestrasse 11", "electric": 5, "id": "pb_129", "manual": 1, "name": "Stampfenbachplatz", "provider": "publibike", "timeStamp": "01/31/2020, 12:18:23", "zip": 8006}, "type": "Feature"}, {"geometry": {"coordinates": [8.488108, 47.391366], "type": "Point"}, "properties": {"address": "Altstetterplatz 1", "electric": 5, "id": "pb_130", "manual": 3, "name": "Bahnhof Altstetten", "provider": "publibike", "timeStamp": "01/31/2020, 12:18:23", "zip": 8048}, "type": "Feature"}, {"geometry": {"coordinates": [8.554114, 47.365119], "type": "Point"}, "properties": {"address": "Kreuzplatz 2", "electric": 3, "id": "pb_131", "manual": 3, "name": "Kreuzplatz", "provider": "publibike", "timeStamp": "01/31/2020, 12:18:23", "zip": 8032}, "type": "Feature"}, {"geometry": {"coordinates": [8.549852, 47.35594], "type": "Point"}, "properties": {"address": "H\u00f6schgasse 3", "electric": 2, "id": "pb_132", "manual": 8, "name": "Blatterwiese", "provider": "publibike", "timeStamp": "01/31/2020, 12:18:23", "zip": 8008}, "type": "Feature"}, {"geometry": {"coordinates": [8.554501, 47.36162], "type": "Point"}, "properties": {"address": "Feldeggstrasse 80", "electric": 2, "id": "pb_133", "manual": 3, "name": "Villa Bleuler", "provider": "publibike", "timeStamp": "01/31/2020, 12:18:23", "zip": 8008}, "type": "Feature"}, {"geometry": {"coordinates": [8.557088, 47.358557], "type": "Point"}, "properties": {"address": "M\u00fchlebachstrasse 131", "electric": 0, "id": "pb_134", "manual": 1, "name": "M\u00fchlebachstrasse", "provider": "publibike", "timeStamp": "01/31/2020, 12:18:23", "zip": 8008}, "type": "Feature"}, {"geometry": {"coordinates": [8.547639, 47.361266], "type": "Point"}, "properties": {"address": "Utoquai 50", "electric": 9, "id": "pb_135", "manual": 10, "name": "Seebad Utoquai", "provider": "publibike", "timeStamp": "01/31/2020, 12:18:23", "zip": 8008}, "type": "Feature"}, {"geometry": {"coordinates": [8.548045, 47.370869], "type": "Point"}, "properties": {"address": "Heimplatz 1", "electric": 13, "id": "pb_137", "manual": 1, "name": "Kunsthaus", "provider": "publibike", "timeStamp": "01/31/2020, 12:18:23", "zip": 8001}, "type": "Feature"}, {"geometry": {"coordinates": [8.543447, 47.375933], "type": "Point"}, "properties": {"address": "Limmatquai 138", "electric": 5, "id": "pb_138", "manual": 7, "name": "Central", "provider": "publibike", "timeStamp": "01/31/2020, 12:18:23", "zip": 8001}, "type": "Feature"}, {"geometry": {"coordinates": [8.549356, 47.408827], "type": "Point"}, "properties": {"address": "Tramstrasse 35", "electric": 2, "id": "pb_139", "manual": 4, "name": "ewz Tramstrasse", "provider": "publibike", "timeStamp": "01/31/2020, 12:18:23", "zip": 8050}, "type": "Feature"}, {"geometry": {"coordinates": [8.533736, 47.366904], "type": "Point"}, "properties": {"address": "Bleicherweg 33", "electric": 5, "id": "pb_140", "manual": 13, "name": "Bleicherweg", "provider": "publibike", "timeStamp": "01/31/2020, 12:18:23", "zip": 8002}, "type": "Feature"}, {"geometry": {"coordinates": [8.544935, 47.366752], "type": "Point"}, "properties": {"address": "Bellevueplatz 2", "electric": 8, "id": "pb_141", "manual": 20, "name": "Bellevue", "provider": "publibike", "timeStamp": "01/31/2020, 12:18:23", "zip": 8001}, "type": "Feature"}, {"geometry": {"coordinates": [8.5285533, 47.3742296], "type": "Point"}, "properties": {"address": "Stauffacherstrasse 41", "electric": 2, "id": "pb_142", "manual": 4, "name": "Stauffacher", "provider": "publibike", "timeStamp": "01/31/2020, 12:18:23", "zip": 8004}, "type": "Feature"}, {"geometry": {"coordinates": [8.523722, 47.3899], "type": "Point"}, "properties": {"address": "Limmatstrasse 310", "electric": 0, "id": "pb_143", "manual": 2, "name": "Escher-Wyss-Platz", "provider": "publibike", "timeStamp": "01/31/2020, 12:18:23", "zip": 8005}, "type": "Feature"}, {"geometry": {"coordinates": [8.491061, 47.392336], "type": "Point"}, "properties": {"address": "Vulkanplatz 1", "electric": 1, "id": "pb_149", "manual": 8, "name": "Vulkanplatz", "provider": "publibike", "timeStamp": "01/31/2020, 12:18:23", "zip": 8048}, "type": "Feature"}, {"geometry": {"coordinates": [8.52306, 47.359872], "type": "Point"}, "properties": {"address": "Giessh\u00fcbelstrasse 15", "electric": 4, "id": "pb_150", "manual": 3, "name": "Utoplatz", "provider": "publibike", "timeStamp": "01/31/2020, 12:18:23", "zip": 8045}, "type": "Feature"}, {"geometry": {"coordinates": [8.486284, 47.387685], "type": "Point"}, "properties": {"address": "Lindenplatz 1", "electric": 5, "id": "pb_151", "manual": 5, "name": "Lindenplatz", "provider": "publibike", "timeStamp": "01/31/2020, 12:18:23", "zip": 8048}, "type": "Feature"}, {"geometry": {"coordinates": [8.49163, 47.389823], "type": "Point"}, "properties": {"address": "Hohlstrasse 563", "electric": 6, "id": "pb_152", "manual": 10, "name": "Luggweg", "provider": "publibike", "timeStamp": "01/31/2020, 12:18:23", "zip": 8048}, "type": "Feature"}, {"geometry": {"coordinates": [8.52174, 47.365272], "type": "Point"}, "properties": {"address": "Manessestrasse 87", "electric": 0, "id": "pb_153", "manual": 8, "name": "Manesseplatz", "provider": "publibike", "timeStamp": "01/31/2020, 12:18:23", "zip": 8045}, "type": "Feature"}, {"geometry": {"coordinates": [8.52714, 47.372329], "type": "Point"}, "properties": {"address": "Werdstrasse 75", "electric": 7, "id": "pb_154", "manual": 5, "name": "Werd", "provider": "publibike", "timeStamp": "01/31/2020, 12:18:23", "zip": 8004}, "type": "Feature"}, {"geometry": {"coordinates": [8.543042, 47.374711], "type": "Point"}, "properties": {"address": "Limmatquai 100", "electric": 0, "id": "pb_155", "manual": 0, "name": "Rudolf-Brun-Br\u00fccke", "provider": "publibike", "timeStamp": "01/31/2020, 12:18:23", "zip": 8001}, "type": "Feature"}, {"geometry": {"coordinates": [8.490837, 47.386596], "type": "Point"}, "properties": {"address": "Badenerstrasse 627", "electric": 4, "id": "pb_156", "manual": 6, "name": "Luggwegstrasse VBZ", "provider": "publibike", "timeStamp": "01/31/2020, 12:18:23", "zip": 8048}, "type": "Feature"}, {"geometry": {"coordinates": [8.535119, 47.355189], "type": "Point"}, "properties": {"address": "Mythenquai 95", "electric": 1, "id": "pb_157", "manual": 4, "name": "Strandbad Mythenquai", "provider": "publibike", "timeStamp": "01/31/2020, 12:18:23", "zip": 8002}, "type": "Feature"}, {"geometry": {"coordinates": [8.545505, 47.373675], "type": "Point"}, "properties": {"address": "Predigerpatz 21", "electric": 6, "id": "pb_158", "manual": 5, "name": "Predigerplatz", "provider": "publibike", "timeStamp": "01/31/2020, 12:18:23", "zip": 8001}, "type": "Feature"}, {"geometry": {"coordinates": [8.515558, 47.371868], "type": "Point"}, "properties": {"address": "Aemtlerstrasse 23", "electric": 2, "id": "pb_159", "manual": 0, "name": "Zwinglihaus", "provider": "publibike", "timeStamp": "01/31/2020, 12:18:23", "zip": 8003}, "type": "Feature"}, {"geometry": {"coordinates": [8.524629, 47.386072], "type": "Point"}, "properties": {"address": "Josefstrasse 188", "electric": 0, "id": "pb_160", "manual": 2, "name": "Josefwiese", "provider": "publibike", "timeStamp": "01/31/2020, 12:18:23", "zip": 8005}, "type": "Feature"}, {"geometry": {"coordinates": [8.527138, 47.387531], "type": "Point"}, "properties": {"address": "R\u00f6ntgenstrasse 87", "electric": 1, "id": "pb_164", "manual": 4, "name": "Markthalle", "provider": "publibike", "timeStamp": "01/31/2020, 12:18:23", "zip": 8005}, "type": "Feature"}, {"geometry": {"coordinates": [8.552717, 47.359978], "type": "Point"}, "properties": {"address": "Seefeldstrasse 96", "electric": 2, "id": "pb_263", "manual": 14, "name": "Feldeggstrasse", "provider": "publibike", "timeStamp": "01/31/2020, 12:18:23", "zip": 8008}, "type": "Feature"}, {"geometry": {"coordinates": [8.553189, 47.353198], "type": "Point"}, "properties": {"address": "Bellerivestrasse 170", "electric": 4, "id": "pb_264", "manual": 1, "name": "Lake Side", "provider": "publibike", "timeStamp": "01/31/2020, 12:18:23", "zip": 8008}, "type": "Feature"}, {"geometry": {"coordinates": [8.543437, 47.369256], "type": "Point"}, "properties": {"address": "Limmatquai 18", "electric": 0, "id": "pb_265", "manual": 0, "name": "Helmhaus", "provider": "publibike", "timeStamp": "01/31/2020, 12:18:23", "zip": 8032}, "type": "Feature"}, {"geometry": {"coordinates": [8.516676, 47.375819], "type": "Point"}, "properties": {"address": "Badenerstrasse 246", "electric": 1, "id": "pb_266", "manual": 1, "name": "Lochergut", "provider": "publibike", "timeStamp": "01/31/2020, 12:18:23", "zip": 8004}, "type": "Feature"}, {"geometry": {"coordinates": [8.514605, 47.389862], "type": "Point"}, "properties": {"address": "Pfingstweidstrasse 60", "electric": 1, "id": "pb_273", "manual": 7, "name": "Westpark", "provider": "publibike", "timeStamp": "01/31/2020, 12:18:23", "zip": 8005}, "type": "Feature"}, {"geometry": {"coordinates": [8.541239126, 47.375991201], "type": "Point"}, "properties": {"address": "Beatenplatz 1", "electric": 2, "id": "pb_274", "manual": 3, "name": "Beatenplatz", "provider": "publibike", "timeStamp": "01/31/2020, 12:18:23", "zip": 8001}, "type": "Feature"}, {"geometry": {"coordinates": [8.5417135, 47.3942197], "type": "Point"}, "properties": {"address": "Scheuchzerstrasse 181", "electric": 5, "id": "pb_275", "manual": 1, "name": "Pauluskirche", "provider": "publibike", "timeStamp": "01/31/2020, 12:18:23", "zip": 8057}, "type": "Feature"}, {"geometry": {"coordinates": [8.5528182, 47.414558], "type": "Point"}, "properties": {"address": "Hagenholzstrasse 51", "electric": 3, "id": "pb_276", "manual": 10, "name": "Airgate", "provider": "publibike", "timeStamp": "01/31/2020, 12:18:23", "zip": 8050}, "type": "Feature"}, {"geometry": {"coordinates": [8.537816, 47.413514], "type": "Point"}, "properties": {"address": "Birchstrasse 183", "electric": 4, "id": "pb_277", "manual": 4, "name": "Lamprechtweg", "provider": "publibike", "timeStamp": "01/31/2020, 12:18:23", "zip": 8050}, "type": "Feature"}, {"geometry": {"coordinates": [8.545602, 47.417701], "type": "Point"}, "properties": {"address": "Felsenrainstrasse 2", "electric": 3, "id": "pb_278", "manual": 7, "name": "Emil-Oberh\u00e4nsli", "provider": "publibike", "timeStamp": "01/31/2020, 12:18:23", "zip": 8050}, "type": "Feature"}, {"geometry": {"coordinates": [8.533647, 47.39808], "type": "Point"}, "properties": {"address": "Bucheggplatz 2", "electric": 0, "id": "pb_279", "manual": 3, "name": "Bucheggplatz", "provider": "publibike", "timeStamp": "01/31/2020, 12:18:23", "zip": 8057}, "type": "Feature"}, {"geometry": {"coordinates": [8.523549, 47.392347], "type": "Point"}, "properties": {"address": "Wipkingerplatz 4", "electric": 3, "id": "pb_280", "manual": 8, "name": "Wipkingerplatz", "provider": "publibike", "timeStamp": "01/31/2020, 12:18:23", "zip": 8037}, "type": "Feature"}, {"geometry": {"coordinates": [8.548562, 47.36691], "type": "Point"}, "properties": {"address": "Galerie \u00fcber Gleis 2/3", "electric": 15, "id": "pb_285", "manual": 0, "name": "Bahnhof Stadelhofen", "provider": "publibike", "timeStamp": "01/31/2020, 12:18:23", "zip": 8001}, "type": "Feature"}, {"geometry": {"coordinates": [8.493822, 47.3985553], "type": "Point"}, "properties": {"address": "Meierwiesenstrasse 12-4", "electric": 3, "id": "pb_286", "manual": 0, "name": "T\u00fcffenwies", "provider": "publibike", "timeStamp": "01/31/2020, 12:18:23", "zip": 8064}, "type": "Feature"}, {"geometry": {"coordinates": [8.552432, 47.3801757], "type": "Point"}, "properties": {"address": "Hochstrasse 34", "electric": 4, "id": "pb_356", "manual": 1, "name": "Siriuswiese", "provider": "publibike", "timeStamp": "01/31/2020, 12:18:23", "zip": 8044}, "type": "Feature"}, {"geometry": {"coordinates": [8.527298, 47.370141], "type": "Point"}, "properties": {"address": "Hallwylstrasse 71", "electric": 3, "id": "pb_357", "manual": 2, "name": "Hallwylstrasse", "provider": "publibike", "timeStamp": "01/31/2020, 12:18:23", "zip": 8004}, "type": "Feature"}, {"geometry": {"coordinates": [8.5414185, 47.3972455], "type": "Point"}, "properties": {"address": "Schaffhauserstrasse 137", "electric": 2, "id": "pb_358", "manual": 1, "name": "Milchbuck", "provider": "publibike", "timeStamp": "01/31/2020, 12:18:23", "zip": 8057}, "type": "Feature"}, {"geometry": {"coordinates": [8.512381, 47.393409], "type": "Point"}, "properties": {"address": "Hardturmstrasse 161", "electric": 2, "id": "pb_359", "manual": 3, "name": "Fischerweg", "provider": "publibike", "timeStamp": "01/31/2020, 12:18:23", "zip": 8005}, "type": "Feature"}, {"geometry": {"coordinates": [8.5421457, 47.3876979], "type": "Point"}, "properties": {"address": "Turnerstrasse 47", "electric": 1, "id": "pb_360", "manual": 0, "name": "Kirche Unterstrass", "provider": "publibike", "timeStamp": "01/31/2020, 12:18:23", "zip": 8006}, "type": "Feature"}, {"geometry": {"coordinates": [8.522117, 47.394554], "type": "Point"}, "properties": {"address": "Dorfstrasse 40", "electric": 2, "id": "pb_361", "manual": 3, "name": "Dorfstrasse", "provider": "publibike", "timeStamp": "01/31/2020, 12:18:23", "zip": 8037}, "type": "Feature"}, {"geometry": {"coordinates": [8.530437, 47.37271], "type": "Point"}, "properties": {"address": "Werdstrasse 25", "electric": 0, "id": "pb_362", "manual": 2, "name": "Stauffachertor", "provider": "publibike", "timeStamp": "01/31/2020, 12:18:23", "zip": 8004}, "type": "Feature"}, {"geometry": {"coordinates": [8.541712, 47.416155], "type": "Point"}, "properties": {"address": "Eggb\u00fchlstrasse 21", "electric": 8, "id": "pb_363", "manual": 4, "name": "Wahlenpark", "provider": "publibike", "timeStamp": "01/31/2020, 12:18:23", "zip": 8050}, "type": "Feature"}, {"geometry": {"coordinates": [8.5595335, 47.3708387], "type": "Point"}, "properties": {"address": "Dolderstrasse 32", "electric": 3, "id": "pb_364", "manual": 4, "name": "Kinderspital", "provider": "publibike", "timeStamp": "01/31/2020, 12:18:23", "zip": 8032}, "type": "Feature"}, {"geometry": {"coordinates": [8.536433, 47.388689], "type": "Point"}, "properties": {"address": "Kornhausstrasse 30", "electric": 2, "id": "pb_365", "manual": 3, "name": "Kornhausstrasse", "provider": "publibike", "timeStamp": "01/31/2020, 12:18:23", "zip": 8006}, "type": "Feature"}, {"geometry": {"coordinates": [8.55033, 47.407098], "type": "Point"}, "properties": {"address": "Schwamendingenstrasse 41", "electric": 0, "id": "pb_366", "manual": 4, "name": "Dorflinde", "provider": "publibike", "timeStamp": "01/31/2020, 12:18:23", "zip": 8050}, "type": "Feature"}, {"geometry": {"coordinates": [8.560476, 47.368199], "type": "Point"}, "properties": {"address": "R\u00f6merhofplatz 5", "electric": 1, "id": "pb_367", "manual": 0, "name": "R\u00f6merhof", "provider": "publibike", "timeStamp": "01/31/2020, 12:18:23", "zip": 8032}, "type": "Feature"}, {"geometry": {"coordinates": [8.5609218, 47.3619068], "type": "Point"}, "properties": {"address": "Forchstrasse 99", "electric": 3, "id": "pb_368", "manual": 0, "name": "Hegibachplatz", "provider": "publibike", "timeStamp": "01/31/2020, 12:18:23", "zip": 8032}, "type": "Feature"}, {"geometry": {"coordinates": [8.5721264, 47.4039985], "type": "Point"}, "properties": {"address": "Winterthurerstrasse 519", "electric": 4, "id": "pb_370", "manual": 4, "name": "Schwamendingerplatz", "provider": "publibike", "timeStamp": "01/31/2020, 12:18:23", "zip": 8051}, "type": "Feature"}, {"geometry": {"coordinates": [8.520168, 47.378556], "type": "Point"}, "properties": {"address": "Herman-Greulich-Strasse 56", "electric": 2, "id": "pb_384", "manual": 6, "name": "Hermann-Greulich-Weg", "provider": "publibike", "timeStamp": "01/31/2020, 12:18:23", "zip": 8004}, "type": "Feature"}, {"geometry": {"coordinates": [8.547912, 47.384923], "type": "Point"}, "properties": {"address": "Culmannstrasse", "electric": 1, "id": "pb_386", "manual": 3, "name": "Rigiplatz", "provider": "publibike", "timeStamp": "01/31/2020, 12:18:23", "zip": 8006}, "type": "Feature"}, {"geometry": {"coordinates": [8.543768, 47.411057], "type": "Point"}, "properties": {"address": "Hofwiesenstrasse 369", "electric": 1, "id": "pb_387", "manual": 4, "name": "Bahnhof Oerlikon S\u00fcd", "provider": "publibike", "timeStamp": "01/31/2020, 12:18:23", "zip": 8050}, "type": "Feature"}, {"geometry": {"coordinates": [8.544185, 47.412732], "type": "Point"}, "properties": {"address": "Jungholzstrasse 6", "electric": 2, "id": "pb_388", "manual": 3, "name": "Max-Frisch-Platz", "provider": "publibike", "timeStamp": "01/31/2020, 12:18:23", "zip": 8050}, "type": "Feature"}, {"geometry": {"coordinates": [8.558096, 47.413032], "type": "Point"}, "properties": {"address": "Andreasstrasse", "electric": 0, "id": "pb_389", "manual": 10, "name": "Hunziker-Areal", "provider": "publibike", "timeStamp": "01/31/2020, 12:18:23", "zip": 8050}, "type": "Feature"}, {"geometry": {"coordinates": [8.533265, 47.412873], "type": "Point"}, "properties": {"address": "Regina-K\u00e4gi-Strasse 1", "electric": 11, "id": "pb_390", "manual": 5, "name": "Luis-H\u00e4fliger-Park", "provider": "publibike", "timeStamp": "01/31/2020, 12:18:23", "zip": 8050}, "type": "Feature"}, {"geometry": {"coordinates": [8.499265, 47.401852], "type": "Point"}, "properties": {"address": "Limmattalstrasse 177", "electric": 4, "id": "pb_391", "manual": 3, "name": "Meierhofplatz", "provider": "publibike", "timeStamp": "01/31/2020, 12:18:23", "zip": 8049}, "type": "Feature"}, {"geometry": {"coordinates": [8.528356, 47.393255], "type": "Point"}, "properties": {"address": "R\u00f6schibachstrasse 73", "electric": 9, "id": "pb_392", "manual": 11, "name": "R\u00f6schibachplatz", "provider": "publibike", "timeStamp": "01/31/2020, 12:18:23", "zip": 8037}, "type": "Feature"}, {"geometry": {"coordinates": [8.538067, 47.415721], "type": "Point"}, "properties": {"address": "Birchstrasse 191", "electric": 5, "id": "pb_393", "manual": 0, "name": "Oerliker Park", "provider": "publibike", "timeStamp": "01/31/2020, 12:18:23", "zip": 8050}, "type": "Feature"}, {"geometry": {"coordinates": [8.5420304, 47.3669233], "type": "Point"}, "properties": {"address": "Stadthausquai 1", "electric": 2, "id": "pb_395", "manual": 9, "name": "B\u00fcrkliplatz", "provider": "publibike", "timeStamp": "01/31/2020, 12:18:23", "zip": 8001}, "type": "Feature"}, {"geometry": {"coordinates": [8.535767, 47.409881], "type": "Point"}, "properties": {"address": "Regensbergstrasse 195", "electric": 2, "id": "pb_396", "manual": 0, "name": "Holunderhof", "provider": "publibike", "timeStamp": "01/31/2020, 12:18:23", "zip": 8050}, "type": "Feature"}, {"geometry": {"coordinates": [8.5116245, 47.3616199], "type": "Point"}, "properties": {"address": "Grubenstrasse 42", "electric": 3, "id": "pb_431", "manual": 2, "name": "Binz Center", "provider": "publibike", "timeStamp": "01/31/2020, 12:18:23", "zip": 8045}, "type": "Feature"}, {"geometry": {"coordinates": [8.547195, 47.382089], "type": "Point"}, "properties": {"address": "Nelkenstrasse 24", "electric": 1, "id": "pb_430", "manual": 1, "name": "Stapferstube", "provider": "publibike", "timeStamp": "01/31/2020, 12:18:23", "zip": 8006}, "type": "Feature"}, {"geometry": {"coordinates": [8.5787183, 47.4039845], "type": "Point"}, "properties": {"address": "Kronwiesenstrasse 35", "electric": 3, "id": "pb_426", "manual": 3, "name": "Kronwiesen", "provider": "publibike", "timeStamp": "01/31/2020, 12:18:23", "zip": 8051}, "type": "Feature"}, {"geometry": {"coordinates": [8.508131, 47.420757], "type": "Point"}, "properties": {"address": "Riedenhaldenstrasse 20-18", "electric": 10, "id": "pb_425", "manual": 5, "name": "Bahnhof Affoltern", "provider": "publibike", "timeStamp": "01/31/2020, 12:18:23", "zip": 8046}, "type": "Feature"}, {"geometry": {"coordinates": [8.532464, 47.406988], "type": "Point"}, "properties": {"address": "K\u00fcnzlistrasse 41", "electric": 2, "id": "pb_424", "manual": 3, "name": "Birchd\u00f6rfli", "provider": "publibike", "timeStamp": "01/31/2020, 12:18:23", "zip": 8057}, "type": "Feature"}, {"geometry": {"coordinates": [8.5777038, 47.4080095], "type": "Point"}, "properties": {"address": "Luegislandstrasse 412", "electric": 6, "id": "pb_429", "manual": 4, "name": "Luegisland", "provider": "publibike", "timeStamp": "01/31/2020, 12:18:23", "zip": 8051}, "type": "Feature"}, {"geometry": {"coordinates": [8.58841, 47.40158], "type": "Point"}, "properties": {"address": "Hirzenbachstrasse 2-4", "electric": 0, "id": "pb_428", "manual": 0, "name": "Hirzenbachstrasse", "provider": "publibike", "timeStamp": "01/31/2020, 12:18:23", "zip": 8051}, "type": "Feature"}, {"geometry": {"coordinates": [8.5563463, 47.4095467], "type": "Point"}, "properties": {"address": "K\u00fchriedweg", "electric": 3, "id": "pb_445", "manual": 6, "name": "Hallenbad Oerlikon", "provider": "publibike", "timeStamp": "01/31/2020, 12:18:23", "zip": 8050}, "type": "Feature"}, {"geometry": {"coordinates": [8.537971, 47.364871], "type": "Point"}, "properties": {"address": "General-Guisan-Quai 17", "electric": 0, "id": "pb_454", "manual": 3, "name": "General-Guisan-Quai", "provider": "publibike", "timeStamp": "01/31/2020, 12:18:23", "zip": 8002}, "type": "Feature"}, {"geometry": {"coordinates": [8.560587, 47.350578], "type": "Point"}, "properties": {"address": "Bellerivestrasse 245", "electric": 10, "id": "pb_450", "manual": 7, "name": "Bahnhof Tiefenbrunnen", "provider": "publibike", "timeStamp": "01/31/2020, 12:18:23", "zip": 8008}, "type": "Feature"}, {"geometry": {"coordinates": [8.5269416, 47.3563719], "type": "Point"}, "properties": {"address": "Waffenplatzstrasse 89", "electric": 4, "id": "pb_452", "manual": 2, "name": "Rieterplatz", "provider": "publibike", "timeStamp": "01/31/2020, 12:18:23", "zip": 8002}, "type": "Feature"}, {"geometry": {"coordinates": [8.514176, 47.3663708], "type": "Point"}, "properties": {"address": "Talwiesenstrasse 92", "electric": 4, "id": "pb_446", "manual": 0, "name": "Binzallee", "provider": "publibike", "timeStamp": "01/31/2020, 12:18:23", "zip": 8055}, "type": "Feature"}, {"geometry": {"coordinates": [8.5070564, 47.371455], "type": "Point"}, "properties": {"address": "Gutstrasse 87", "electric": 3, "id": "pb_447", "manual": 0, "name": "Gutstrasse", "provider": "publibike", "timeStamp": "01/31/2020, 12:18:23", "zip": 8055}, "type": "Feature"}, {"geometry": {"coordinates": [8.4941268, 47.3836391], "type": "Point"}, "properties": {"address": "Flurstrasse 62", "electric": 0, "id": "pb_453", "manual": 0, "name": "Flurpark", "provider": "publibike", "timeStamp": "01/31/2020, 12:18:23", "zip": 8048}, "type": "Feature"}, {"geometry": {"coordinates": [8.500343, 47.380778], "type": "Point"}, "properties": {"address": "Edelweissstrasse 32", "electric": 6, "id": "pb_448", "manual": 2, "name": "Bl\u00fcemliquartier", "provider": "publibike", "timeStamp": "01/31/2020, 12:18:23", "zip": 8048}, "type": "Feature"}, {"geometry": {"coordinates": [8.528796, 47.383858], "type": "Point"}, "properties": {"address": "Gasometerstrasse 24", "electric": 1, "id": "pb_449", "manual": 10, "name": "Gasometerstrasse", "provider": "publibike", "timeStamp": "01/31/2020, 12:18:23", "zip": 8005}, "type": "Feature"}, {"geometry": {"coordinates": [8.4981964, 47.3859194], "type": "Point"}, "properties": {"address": "Baslerstrasse 57", "electric": 5, "id": "pb_455", "manual": 4, "name": "Letzipark", "provider": "publibike", "timeStamp": "01/31/2020, 12:18:23", "zip": 8048}, "type": "Feature"}, {"geometry": {"coordinates": [8.515252, 47.381915], "type": "Point"}, "properties": {"address": "Sihlfeldstrasse 175", "electric": 0, "id": "pb_451", "manual": 5, "name": "Hardplatz", "provider": "publibike", "timeStamp": "01/31/2020, 12:18:23", "zip": 8004}, "type": "Feature"}, {"geometry": {"coordinates": [8.5064743, 47.4188324], "type": "Point"}, "properties": {"address": "Wehntalerstrasse 541", "electric": 0, "id": "pb_427", "manual": 1, "name": "Zehntenhausplatz", "provider": "publibike", "timeStamp": "01/31/2020, 12:18:23", "zip": 8046}, "type": "Feature"}, {"geometry": {"coordinates": [8.537729, 47.379719], "type": "Point"}, "properties": {"address": "Sihlquai/HB", "electric": 11, "id": "pb_513", "manual": 7, "name": "Sihlquai", "provider": "publibike", "timeStamp": "01/31/2020, 12:18:23", "zip": 8005}, "type": "Feature"}, {"geometry": {"coordinates": [8.596202, 47.397885], "type": "Point"}, "properties": {"address": "Bahnhof Stettbach", "electric": 6, "id": "pb_514", "manual": 2, "name": "Bahnhof Stettbach", "provider": "publibike", "timeStamp": "01/31/2020, 12:18:23", "zip": 8051}, "type": "Feature"}, {"geometry": {"coordinates": [8.5543974, 47.3690153], "type": "Point"}, "properties": {"address": "Kasinostrasse 10", "electric": 8, "id": "pb_515", "manual": 1, "name": "Hottingerplatz", "provider": "publibike", "timeStamp": "01/31/2020, 12:18:23", "zip": 8032}, "type": "Feature"}, {"geometry": {"coordinates": [8.534444, 47.351525], "type": "Point"}, "properties": {"address": "Mobile Station Z\u00fcrich 1", "electric": 0, "id": "pb_282", "manual": 0, "name": "Theaterspektakel", "provider": "publibike", "timeStamp": "01/31/2020, 12:18:23", "zip": 8002}, "type": "Feature"}, {"geometry": {"coordinates": [8.516257, 47.367656], "type": "Point"}, "properties": {"address": "Goldbrunnenstrasse 54", "electric": 3, "id": "pb_538", "manual": 0, "name": "Kirche B\u00fchl", "provider": "publibike", "timeStamp": "01/31/2020, 12:18:23", "zip": 8055}, "type": "Feature"}, {"geometry": {"coordinates": [8.555639, 47.416873], "type": "Point"}, "properties": {"address": "Leutschenbachstrasse 50", "electric": 1, "id": "pb_537", "manual": 4, "name": "Leutschenpark", "provider": "publibike", "timeStamp": "01/31/2020, 12:18:23", "zip": 8050}, "type": "Feature"}, {"geometry": {"coordinates": [8.546464, 47.403822], "type": "Point"}, "properties": {"address": "Berninastrasse 45", "electric": 11, "id": "pb_540", "manual": 2, "name": "Berninaplatz", "provider": "publibike", "timeStamp": "01/31/2020, 12:18:23", "zip": 8057}, "type": "Feature"}, {"geometry": {"coordinates": [8.523134, 47.369004], "type": "Point"}, "properties": {"address": "Erlachstrasse 3", "electric": 0, "id": "pb_385", "manual": 5, "name": "Aegerten", "provider": "publibike", "timeStamp": "01/31/2020, 12:18:23", "zip": 8003}, "type": "Feature"}, {"geometry": {"coordinates": [8.49038, 47.381591], "type": "Point"}, "properties": {"address": "Rautistrasse 60", "electric": 3, "id": "pb_536", "manual": 5, "name": "Freilager", "provider": "publibike", "timeStamp": "01/31/2020, 12:18:23", "zip": 8048}, "type": "Feature"}, {"geometry": {"coordinates": [8.496511, 47.375247], "type": "Point"}, "properties": {"address": "Letzigraben 139", "electric": 4, "id": "pb_444", "manual": 1, "name": "Sackzelg", "provider": "publibike", "timeStamp": "01/31/2020, 12:18:23", "zip": 8047}, "type": "Feature"}, {"geometry": {"coordinates": [8.58131, 47.402801], "type": "Point"}, "properties": {"address": "Altwiesenstrasse 104", "electric": 0, "id": "pb_539", "manual": 4, "name": "Glattwiesen", "provider": "publibike", "timeStamp": "01/31/2020, 12:18:23", "zip": 8051}, "type": "Feature"}, {"geometry": {"coordinates": [8.52689, 47.3767], "type": "Point"}, "properties": {"address": "Molkenstrasse 5", "electric": 1, "id": "pb_560", "manual": 3, "name": "Helvetiaplatz", "provider": "publibike", "timeStamp": "01/31/2020, 12:18:23", "zip": 8004}, "type": "Feature"}, {"geometry": {"coordinates": [8.525602, 47.374241], "type": "Point"}, "properties": {"address": "Badenerstrasse 90", "electric": 1, "id": "pb_559", "manual": 7, "name": "Bezirksgeb\u00e4ude", "provider": "publibike", "timeStamp": "01/31/2020, 12:18:23", "zip": 8004}, "type": "Feature"}, {"geometry": {"coordinates": [8.535082, 47.345248], "type": "Point"}, "properties": {"address": "Bachstrasse 15", "electric": 2, "id": "pb_564", "manual": 5, "name": "GZ Wollishofen", "provider": "publibike", "timeStamp": "01/31/2020, 12:18:23", "zip": 8038}, "type": "Feature"}, {"geometry": {"coordinates": [8.514841, 47.370238], "type": "Point"}, "properties": {"address": "Schrennengasse 37", "electric": 0, "id": "pb_562", "manual": 4, "name": "Goldbrunnenplatz", "provider": "publibike", "timeStamp": "01/31/2020, 12:18:23", "zip": 8003}, "type": "Feature"}, {"geometry": {"coordinates": [8.514138, 47.374206], "type": "Point"}, "properties": {"address": "Idaplatz 4", "electric": 0, "id": "pb_557", "manual": 1, "name": "Idaplatz", "provider": "publibike", "timeStamp": "01/31/2020, 12:18:23", "zip": 8003}, "type": "Feature"}, {"geometry": {"coordinates": [8.518432, 47.369549], "type": "Point"}, "properties": {"address": "Brinerstrasse 2", "electric": 0, "id": "pb_558", "manual": 5, "name": "Schmiede Wiedikon", "provider": "publibike", "timeStamp": "01/31/2020, 12:18:23", "zip": 8003}, "type": "Feature"}, {"geometry": {"coordinates": [8.537546, 47.391289], "type": "Point"}, "properties": {"address": "Rotbuchstrasse 15", "electric": 0, "id": "pb_556", "manual": 1, "name": "Schaffhauserplatz", "provider": "publibike", "timeStamp": "01/31/2020, 12:18:23", "zip": 8006}, "type": "Feature"}, {"geometry": {"coordinates": [8.541541, 47.413733], "type": "Point"}, "properties": {"address": "Therese-Giehse-Strasse 11", "electric": 4, "id": "pb_561", "manual": 2, "name": "Center Eleven", "provider": "publibike", "timeStamp": "01/31/2020, 12:18:23", "zip": 8050}, "type": "Feature"}, {"geometry": {"coordinates": [8.534227, 47.360004], "type": "Point"}, "properties": {"address": "Alfred Escher-Strasse 76", "electric": 12, "id": "pb_563", "manual": 6, "name": "Mythenschloss", "provider": "publibike", "timeStamp": "01/31/2020, 12:18:23", "zip": 8002}, "type": "Feature"}, {"geometry": {"coordinates": [8.50373, 47.396172], "type": "Point"}, "properties": {"address": "Hardeggstrasse 6", "electric": 1, "id": "pb_566", "manual": 4, "name": "Am Wasser", "provider": "publibike", "timeStamp": "01/31/2020, 12:18:23", "zip": 8049}, "type": "Feature"}, {"geometry": {"coordinates": [8.532432, 47.381174], "type": "Point"}, "properties": {"address": "Klingenstrasse 9", "electric": 5, "id": "pb_565", "manual": 3, "name": "Zollstrasse", "provider": "publibike", "timeStamp": "01/31/2020, 12:18:23", "zip": 8005}, "type": "Feature"}, {"geometry": {"coordinates": [8.497982, 47.381447], "type": "Point"}, "properties": {"address": "Dennlerstrasse 23", "electric": 7, "id": "pb_567", "manual": 5, "name": "Dennlerstrasse", "provider": "publibike", "timeStamp": "01/31/2020, 12:18:23", "zip": 8047}, "type": "Feature"}, {"geometry": {"coordinates": [8.528049, 47.347701], "type": "Point"}, "properties": {"address": "Mutschellenstrasse 114", "electric": 5, "id": "pb_568", "manual": 1, "name": "Jugendherberge", "provider": "publibike", "timeStamp": "01/31/2020, 12:18:23", "zip": 8038}, "type": "Feature"}, {"geometry": {"coordinates": [8.539016, 47.405751], "type": "Point"}, "properties": {"address": "Ringstrasse 82", "electric": 6, "id": "pb_569", "manual": 2, "name": "Freibad Allenmoos", "provider": "publibike", "timeStamp": "01/31/2020, 12:18:23", "zip": 8057}, "type": "Feature"}, {"geometry": {"coordinates": [8.534974, 47.402164], "type": "Point"}, "properties": {"address": "Brache Guggach", "electric": 5, "id": "pb_572", "manual": 0, "name": "Radiostudio", "provider": "publibike", "timeStamp": "01/31/2020, 12:18:23", "zip": 8057}, "type": "Feature"}, {"geometry": {"coordinates": [8.547901, 47.375556], "type": "Point"}, "properties": {"address": "Karl-Schmid-Strasse 4", "electric": 4, "id": "pb_571", "manual": 2, "name": "ETH/Zoologisches Museum", "provider": "publibike", "timeStamp": "01/31/2020, 12:18:23", "zip": 8006}, "type": "Feature"}, {"geometry": {"coordinates": [8.549306, 47.361848], "type": "Point"}, "properties": {"charge": 80, "id": "smide_2901", "name": "ZH 267278", "provider": "smide", "range": 40.0, "size": 20, "time": "01/31/2020, 12:19:56"}, "type": "Feature"}, {"geometry": {"coordinates": [8.561765, 47.35039], "type": "Point"}, "properties": {"charge": 98, "id": "smide_2895", "name": "ZH 267279", "provider": "smide", "range": 49.0, "size": 20, "time": "01/31/2020, 12:19:56"}, "type": "Feature"}, {"geometry": {"coordinates": [8.545548, 47.374913], "type": "Point"}, "properties": {"charge": 20, "id": "smide_2880", "name": "ZH267289", "provider": "smide", "range": 10.0, "size": 17, "time": "01/31/2020, 12:19:56"}, "type": "Feature"}, {"geometry": {"coordinates": [8.546671, 47.412483], "type": "Point"}, "properties": {"charge": 30, "id": "smide_2874", "name": "ZH 267288", "provider": "smide", "range": 15.0, "size": 17, "time": "01/31/2020, 12:19:56"}, "type": "Feature"}, {"geometry": {"coordinates": [8.540121, 47.37886], "type": "Point"}, "properties": {"charge": 100, "id": "smide_2871", "name": "ZH 267086", "provider": "smide", "range": 50.0, "size": 20, "time": "01/31/2020, 12:19:56"}, "type": "Feature"}, {"geometry": {"coordinates": [8.50944, 47.41355], "type": "Point"}, "properties": {"charge": 66, "id": "smide_2867", "name": "ZH 267090", "provider": "smide", "range": 33.0, "size": 20, "time": "01/31/2020, 12:19:56"}, "type": "Feature"}, {"geometry": {"coordinates": [8.544456, 47.37827], "type": "Point"}, "properties": {"charge": 55, "id": "smide_2861", "name": "ZH 267096", "provider": "smide", "range": 27.0, "size": 17, "time": "01/31/2020, 12:19:56"}, "type": "Feature"}, {"geometry": {"coordinates": [8.57583, 47.34978], "type": "Point"}, "properties": {"charge": 91, "id": "smide_2860", "name": "ZH 267097", "provider": "smide", "range": 45.0, "size": 17, "time": "01/31/2020, 12:19:56"}, "type": "Feature"}, {"geometry": {"coordinates": [8.537215, 47.419153], "type": "Point"}, "properties": {"charge": 47, "id": "smide_2859", "name": "ZH 267098", "provider": "smide", "range": 23.0, "size": 17, "time": "01/31/2020, 12:19:56"}, "type": "Feature"}, {"geometry": {"coordinates": [8.518051, 47.388311], "type": "Point"}, "properties": {"charge": 57, "id": "smide_2856", "name": "ZH 267101", "provider": "smide", "range": 28.0, "size": 17, "time": "01/31/2020, 12:19:56"}, "type": "Feature"}, {"geometry": {"coordinates": [8.582826, 47.35091], "type": "Point"}, "properties": {"charge": 87, "id": "smide_2855", "name": "ZH 267102", "provider": "smide", "range": 43.0, "size": 17, "time": "01/31/2020, 12:19:56"}, "type": "Feature"}, {"geometry": {"coordinates": [8.505153, 47.40754], "type": "Point"}, "properties": {"charge": 80, "id": "smide_2854", "name": "ZH 267103", "provider": "smide", "range": 40.0, "size": 17, "time": "01/31/2020, 12:19:56"}, "type": "Feature"}, {"geometry": {"coordinates": [8.545321, 47.368585], "type": "Point"}, "properties": {"charge": 47, "id": "smide_2833", "name": "ZH 267182", "provider": "smide", "range": 23.0, "size": 20, "time": "01/31/2020, 12:19:56"}, "type": "Feature"}, {"geometry": {"coordinates": [8.569991, 47.352401], "type": "Point"}, "properties": {"charge": 65, "id": "smide_2831", "name": "ZH 267180", "provider": "smide", "range": 32.0, "size": 20, "time": "01/31/2020, 12:19:56"}, "type": "Feature"}, {"geometry": {"coordinates": [8.513611, 47.363198], "type": "Point"}, "properties": {"charge": 77, "id": "smide_2829", "name": "ZH 267049", "provider": "smide", "range": 38.0, "size": 20, "time": "01/31/2020, 12:19:56"}, "type": "Feature"}, {"geometry": {"coordinates": [8.506045, 47.418961], "type": "Point"}, "properties": {"charge": 100, "id": "smide_2804", "name": "ZH266903", "provider": "smide", "range": 50.0, "size": 20, "time": "01/31/2020, 12:19:56"}, "type": "Feature"}, {"geometry": {"coordinates": [8.544415, 47.368418], "type": "Point"}, "properties": {"charge": 73, "id": "smide_2798", "name": "ZH266888", "provider": "smide", "range": 36.0, "size": 17, "time": "01/31/2020, 12:19:56"}, "type": "Feature"}, {"geometry": {"coordinates": [8.509565, 47.39333], "type": "Point"}, "properties": {"charge": 67, "id": "smide_2793", "name": "ZH266883", "provider": "smide", "range": 33.0, "size": 17, "time": "01/31/2020, 12:19:56"}, "type": "Feature"}, {"geometry": {"coordinates": [8.527831, 47.358778], "type": "Point"}, "properties": {"charge": 45, "id": "smide_2790", "name": "ZH266880", "provider": "smide", "range": 22.0, "size": 17, "time": "01/31/2020, 12:19:56"}, "type": "Feature"}, {"geometry": {"coordinates": [8.514416, 47.357295], "type": "Point"}, "properties": {"charge": 74, "id": "smide_2785", "name": "ZH266875", "provider": "smide", "range": 37.0, "size": 17, "time": "01/31/2020, 12:19:56"}, "type": "Feature"}, {"geometry": {"coordinates": [8.558878, 47.411901], "type": "Point"}, "properties": {"charge": 100, "id": "smide_2781", "name": "ZH 266871", "provider": "smide", "range": 50.0, "size": 17, "time": "01/31/2020, 12:19:56"}, "type": "Feature"}, {"geometry": {"coordinates": [8.511573, 47.408718], "type": "Point"}, "properties": {"charge": 15, "id": "smide_2780", "name": "ST1 X #1", "provider": "smide", "range": 7.0, "size": 17, "time": "01/31/2020, 12:19:56"}, "type": "Feature"}, {"geometry": {"coordinates": [8.543237, 47.424252], "type": "Point"}, "properties": {"charge": 76, "id": "smide_2773", "name": "ZH266561", "provider": "smide", "range": 38.0, "size": 17, "time": "01/31/2020, 12:19:56"}, "type": "Feature"}, {"geometry": {"coordinates": [8.546591, 47.376588], "type": "Point"}, "properties": {"charge": 89, "id": "smide_2763", "name": "ZH266641", "provider": "smide", "range": 44.0, "size": 17, "time": "01/31/2020, 12:19:56"}, "type": "Feature"}, {"geometry": {"coordinates": [8.560328, 47.382221], "type": "Point"}, "properties": {"charge": 45, "id": "smide_2761", "name": "ZH266642", "provider": "smide", "range": 22.0, "size": 20, "time": "01/31/2020, 12:19:56"}, "type": "Feature"}, {"geometry": {"coordinates": [8.547851, 47.368776], "type": "Point"}, "properties": {"charge": 73, "id": "smide_2758", "name": "ZH266638 M", "provider": "smide", "range": 36.0, "size": 17, "time": "01/31/2020, 12:19:56"}, "type": "Feature"}, {"geometry": {"coordinates": [8.51008, 47.384208], "type": "Point"}, "properties": {"charge": 69, "id": "smide_2752", "name": "BE343856", "provider": "smide", "range": 34.0, "size": 17, "time": "01/31/2020, 12:19:56"}, "type": "Feature"}, {"geometry": {"coordinates": [8.510947, 47.3922], "type": "Point"}, "properties": {"charge": 90, "id": "smide_2751", "name": "BE343857", "provider": "smide", "range": 45.0, "size": 17, "time": "01/31/2020, 12:19:56"}, "type": "Feature"}, {"geometry": {"coordinates": [8.491128, 47.390836], "type": "Point"}, "properties": {"charge": 49, "id": "smide_2749", "name": "BE343867", "provider": "smide", "range": 24.0, "size": 17, "time": "01/31/2020, 12:19:56"}, "type": "Feature"}, {"geometry": {"coordinates": [8.527894, 47.369256], "type": "Point"}, "properties": {"charge": 100, "id": "smide_2748", "name": "BE335758", "provider": "smide", "range": 50.0, "size": 17, "time": "01/31/2020, 12:19:56"}, "type": "Feature"}, {"geometry": {"coordinates": [8.544872, 47.368432], "type": "Point"}, "properties": {"charge": 87, "id": "smide_2746", "name": "BE335817", "provider": "smide", "range": 43.0, "size": 17, "time": "01/31/2020, 12:19:56"}, "type": "Feature"}, {"geometry": {"coordinates": [8.551508, 47.420752], "type": "Point"}, "properties": {"charge": 94, "id": "smide_2747", "name": "BE335820", "provider": "smide", "range": 47.0, "size": 17, "time": "01/31/2020, 12:19:56"}, "type": "Feature"}, {"geometry": {"coordinates": [8.516947, 47.398216], "type": "Point"}, "properties": {"charge": 56, "id": "smide_2743", "name": "BE343864", "provider": "smide", "range": 28.0, "size": 17, "time": "01/31/2020, 12:19:56"}, "type": "Feature"}, {"geometry": {"coordinates": [8.501984, 47.369196], "type": "Point"}, "properties": {"charge": 100, "id": "smide_2741", "name": "BE343874", "provider": "smide", "range": 50.0, "size": 17, "time": "01/31/2020, 12:19:56"}, "type": "Feature"}, {"geometry": {"coordinates": [8.521481, 47.365076], "type": "Point"}, "properties": {"charge": 77, "id": "smide_2740", "name": "BE343875", "provider": "smide", "range": 38.0, "size": 17, "time": "01/31/2020, 12:19:56"}, "type": "Feature"}, {"geometry": {"coordinates": [8.487158, 47.384076], "type": "Point"}, "properties": {"charge": 78, "id": "smide_2738", "name": "BE343865", "provider": "smide", "range": 39.0, "size": 17, "time": "01/31/2020, 12:19:56"}, "type": "Feature"}, {"geometry": {"coordinates": [8.551502, 47.384112], "type": "Point"}, "properties": {"charge": 44, "id": "smide_2737", "name": "BE336149", "provider": "smide", "range": 22.0, "size": 17, "time": "01/31/2020, 12:19:56"}, "type": "Feature"}, {"geometry": {"coordinates": [8.532191, 47.37316], "type": "Point"}, "properties": {"charge": 70, "id": "smide_2734", "name": "BE343876", "provider": "smide", "range": 35.0, "size": 17, "time": "01/31/2020, 12:19:56"}, "type": "Feature"}, {"geometry": {"coordinates": [8.478418, 47.389624], "type": "Point"}, "properties": {"charge": 78, "id": "smide_2732", "name": "BE343870", "provider": "smide", "range": 39.0, "size": 17, "time": "01/31/2020, 12:19:56"}, "type": "Feature"}, {"geometry": {"coordinates": [8.549418, 47.381], "type": "Point"}, "properties": {"charge": 69, "id": "smide_2729", "name": "BE343878", "provider": "smide", "range": 34.0, "size": 17, "time": "01/31/2020, 12:19:56"}, "type": "Feature"}, {"geometry": {"coordinates": [8.511888, 47.390143], "type": "Point"}, "properties": {"charge": 20, "id": "smide_2725", "name": "ZH261545", "provider": "smide", "range": 10.0, "size": 0, "time": "01/31/2020, 12:19:56"}, "type": "Feature"}, {"geometry": {"coordinates": [8.563293, 47.382601], "type": "Point"}, "properties": {"charge": 59, "id": "smide_2718", "name": "ZH259019", "provider": "smide", "range": 29.0, "size": 20, "time": "01/31/2020, 12:19:56"}, "type": "Feature"}, {"geometry": {"coordinates": [8.540922, 47.378424], "type": "Point"}, "properties": {"charge": 50, "id": "smide_2717", "name": "ZH263287", "provider": "smide", "range": 25.0, "size": 17, "time": "01/31/2020, 12:19:56"}, "type": "Feature"}, {"geometry": {"coordinates": [8.529528, 47.383173], "type": "Point"}, "properties": {"charge": 15, "id": "smide_2716", "name": "ZH254606", "provider": "smide", "range": 7.0, "size": 17, "time": "01/31/2020, 12:19:56"}, "type": "Feature"}, {"geometry": {"coordinates": [8.546529, 47.376732], "type": "Point"}, "properties": {"charge": 65, "id": "smide_2715", "name": "ZH254605", "provider": "smide", "range": 32.0, "size": 17, "time": "01/31/2020, 12:19:56"}, "type": "Feature"}, {"geometry": {"coordinates": [8.572769, 47.380564], "type": "Point"}, "properties": {"charge": 79, "id": "smide_2710", "name": "ZH256460", "provider": "smide", "range": 39.0, "size": 17, "time": "01/31/2020, 12:19:56"}, "type": "Feature"}, {"geometry": {"coordinates": [8.512759, 47.36002], "type": "Point"}, "properties": {"charge": 88, "id": "smide_2712", "name": "ZH256462", "provider": "smide", "range": 44.0, "size": 17, "time": "01/31/2020, 12:19:56"}, "type": "Feature"}, {"geometry": {"coordinates": [8.56012, 47.372392], "type": "Point"}, "properties": {"charge": 61, "id": "smide_2711", "name": "ZH256463", "provider": "smide", "range": 30.0, "size": 17, "time": "01/31/2020, 12:19:56"}, "type": "Feature"}, {"geometry": {"coordinates": [8.563941, 47.348166], "type": "Point"}, "properties": {"charge": 74, "id": "smide_2709", "name": "ZH256466", "provider": "smide", "range": 37.0, "size": 20, "time": "01/31/2020, 12:19:56"}, "type": "Feature"}, {"geometry": {"coordinates": [8.545457, 47.412988], "type": "Point"}, "properties": {"charge": 72, "id": "smide_2707", "name": "ZH256467", "provider": "smide", "range": 36.0, "size": 20, "time": "01/31/2020, 12:19:56"}, "type": "Feature"}, {"geometry": {"coordinates": [8.499847, 47.371656], "type": "Point"}, "properties": {"charge": 33, "id": "smide_2708", "name": "ZH256464", "provider": "smide", "range": 16.0, "size": 17, "time": "01/31/2020, 12:19:56"}, "type": "Feature"}, {"geometry": {"coordinates": [8.54688, 47.407684], "type": "Point"}, "properties": {"charge": 21, "id": "smide_2705", "name": "ZH256471", "provider": "smide", "range": 10.0, "size": 20, "time": "01/31/2020, 12:19:56"}, "type": "Feature"}, {"geometry": {"coordinates": [8.563108, 47.372372], "type": "Point"}, "properties": {"charge": 100, "id": "smide_2701", "name": "ZH256468", "provider": "smide", "range": 50.0, "size": 20, "time": "01/31/2020, 12:19:56"}, "type": "Feature"}, {"geometry": {"coordinates": [8.508363, 47.40666], "type": "Point"}, "properties": {"charge": 100, "id": "smide_2700", "name": "ZH256470", "provider": "smide", "range": 50.0, "size": 20, "time": "01/31/2020, 12:19:56"}, "type": "Feature"}, {"geometry": {"coordinates": [8.568398, 47.367616], "type": "Point"}, "properties": {"charge": 100, "id": "smide_2699", "name": "ZH254611", "provider": "smide", "range": 50.0, "size": 20, "time": "01/31/2020, 12:19:56"}, "type": "Feature"}, {"geometry": {"coordinates": [8.502098, 47.368968], "type": "Point"}, "properties": {"charge": 100, "id": "smide_2694", "name": "ZH254610", "provider": "smide", "range": 50.0, "size": 20, "time": "01/31/2020, 12:19:56"}, "type": "Feature"}, {"geometry": {"coordinates": [8.535888, 47.402491], "type": "Point"}, "properties": {"charge": 69, "id": "smide_2691", "name": "ZH254622", "provider": "smide", "range": 34.0, "size": 20, "time": "01/31/2020, 12:19:56"}, "type": "Feature"}, {"geometry": {"coordinates": [8.5531, 47.373685], "type": "Point"}, "properties": {"charge": 41, "id": "smide_2690", "name": "ZH254625", "provider": "smide", "range": 20.0, "size": 20, "time": "01/31/2020, 12:19:56"}, "type": "Feature"}, {"geometry": {"coordinates": [8.495283, 47.423956], "type": "Point"}, "properties": {"charge": 85, "id": "smide_2689", "name": "ZH254623", "provider": "smide", "range": 42.0, "size": 20, "time": "01/31/2020, 12:19:56"}, "type": "Feature"}, {"geometry": {"coordinates": [8.542939, 47.41108], "type": "Point"}, "properties": {"charge": 65, "id": "smide_2687", "name": "ZH263529", "provider": "smide", "range": 32.0, "size": 20, "time": "01/31/2020, 12:19:56"}, "type": "Feature"}, {"geometry": {"coordinates": [8.563378, 47.382368], "type": "Point"}, "properties": {"charge": 78, "id": "smide_2684", "name": "ZH254626", "provider": "smide", "range": 39.0, "size": 20, "time": "01/31/2020, 12:19:56"}, "type": "Feature"}, {"geometry": {"coordinates": [8.5606, 47.350591], "type": "Point"}, "properties": {"charge": 49, "id": "smide_2683", "name": "ZH254620", "provider": "smide", "range": 24.0, "size": 20, "time": "01/31/2020, 12:19:56"}, "type": "Feature"}, {"geometry": {"coordinates": [8.587461, 47.403164], "type": "Point"}, "properties": {"charge": 71, "id": "smide_2680", "name": "ZH254619", "provider": "smide", "range": 35.0, "size": 20, "time": "01/31/2020, 12:19:56"}, "type": "Feature"}, {"geometry": {"coordinates": [8.576485, 47.35116], "type": "Point"}, "properties": {"charge": 83, "id": "smide_2679", "name": "ZH258489", "provider": "smide", "range": 41.0, "size": 17, "time": "01/31/2020, 12:19:56"}, "type": "Feature"}, {"geometry": {"coordinates": [8.545457, 47.412968], "type": "Point"}, "properties": {"charge": 20, "id": "smide_2671", "name": "ZH258645", "provider": "smide", "range": 10.0, "size": 17, "time": "01/31/2020, 12:19:56"}, "type": "Feature"}, {"geometry": {"coordinates": [8.550688, 47.414628], "type": "Point"}, "properties": {"charge": 95, "id": "smide_2669", "name": "ZH263294", "provider": "smide", "range": 47.0, "size": 17, "time": "01/31/2020, 12:19:56"}, "type": "Feature"}, {"geometry": {"coordinates": [8.552642, 47.384684], "type": "Point"}, "properties": {"charge": 77, "id": "smide_2666", "name": "ZH258653", "provider": "smide", "range": 38.0, "size": 17, "time": "01/31/2020, 12:19:56"}, "type": "Feature"}, {"geometry": {"coordinates": [8.508264, 47.393468], "type": "Point"}, "properties": {"charge": 91, "id": "smide_2665", "name": "ZH258644", "provider": "smide", "range": 45.0, "size": 17, "time": "01/31/2020, 12:19:56"}, "type": "Feature"}, {"geometry": {"coordinates": [8.540965, 47.377204], "type": "Point"}, "properties": {"charge": 52, "id": "smide_2664", "name": "ZH258652", "provider": "smide", "range": 26.0, "size": 17, "time": "01/31/2020, 12:19:56"}, "type": "Feature"}, {"geometry": {"coordinates": [8.568445, 47.366828], "type": "Point"}, "properties": {"charge": 35, "id": "smide_2662", "name": "ZH258643", "provider": "smide", "range": 17.0, "size": 17, "time": "01/31/2020, 12:19:56"}, "type": "Feature"}, {"geometry": {"coordinates": [8.558731, 47.416964], "type": "Point"}, "properties": {"charge": 85, "id": "smide_2648", "name": "ZH257930", "provider": "smide", "range": 42.0, "size": 20, "time": "01/31/2020, 12:19:56"}, "type": "Feature"}, {"geometry": {"coordinates": [8.569998, 47.352495], "type": "Point"}, "properties": {"charge": 60, "id": "smide_2657", "name": "ZH257936", "provider": "smide", "range": 30.0, "size": 17, "time": "01/31/2020, 12:19:56"}, "type": "Feature"}, {"geometry": {"coordinates": [8.540748, 47.378456], "type": "Point"}, "properties": {"charge": 83, "id": "smide_2647", "name": "ZH257932", "provider": "smide", "range": 41.0, "size": 20, "time": "01/31/2020, 12:19:56"}, "type": "Feature"}, {"geometry": {"coordinates": [8.524948, 47.364152], "type": "Point"}, "properties": {"charge": 66, "id": "smide_2645", "name": "ZH257933", "provider": "smide", "range": 33.0, "size": 20, "time": "01/31/2020, 12:19:56"}, "type": "Feature"}, {"geometry": {"coordinates": [8.498828, 47.39942], "type": "Point"}, "properties": {"charge": 87, "id": "smide_3", "name": "ZH253765", "provider": "smide", "range": 43.0, "size": 20, "time": "01/31/2020, 12:19:56"}, "type": "Feature"}, {"geometry": {"coordinates": [8.542114, 47.407588], "type": "Point"}, "properties": {"charge": 91, "id": "smide_186", "name": "ZH253751", "provider": "smide", "range": 45.0, "size": 20, "time": "01/31/2020, 12:19:56"}, "type": "Feature"}, {"geometry": {"coordinates": [8.571173, 47.352504], "type": "Point"}, "properties": {"charge": 93, "id": "smide_173", "name": "ZH258501", "provider": "smide", "range": 46.0, "size": 17, "time": "01/31/2020, 12:19:56"}, "type": "Feature"}, {"geometry": {"coordinates": [8.55928, 47.405968], "type": "Point"}, "properties": {"charge": 73, "id": "smide_77", "name": "ZH261548", "provider": "smide", "range": 36.0, "size": 20, "time": "01/31/2020, 12:19:56"}, "type": "Feature"}, {"geometry": {"coordinates": [8.508435, 47.400428], "type": "Point"}, "properties": {"charge": 100, "id": "smide_200", "name": "ZH253801", "provider": "smide", "range": 50.0, "size": 20, "time": "01/31/2020, 12:19:56"}, "type": "Feature"}, {"geometry": {"coordinates": [8.541901, 47.369876], "type": "Point"}, "properties": {"charge": 75, "id": "smide_197", "name": "ZH253864", "provider": "smide", "range": 37.0, "size": 20, "time": "01/31/2020, 12:19:56"}, "type": "Feature"}, {"geometry": {"coordinates": [8.559004, 47.414896], "type": "Point"}, "properties": {"charge": 24, "id": "smide_199", "name": "ZH253766", "provider": "smide", "range": 12.0, "size": 20, "time": "01/31/2020, 12:19:56"}, "type": "Feature"}, {"geometry": {"coordinates": [8.560384, 47.382072], "type": "Point"}, "properties": {"charge": 57, "id": "smide_8", "name": "ZH253861", "provider": "smide", "range": 28.0, "size": 17, "time": "01/31/2020, 12:19:56"}, "type": "Feature"}, {"geometry": {"coordinates": [8.563216, 47.382461], "type": "Point"}, "properties": {"charge": 76, "id": "smide_45", "name": "ZH253716", "provider": "smide", "range": 38.0, "size": 17, "time": "01/31/2020, 12:19:56"}, "type": "Feature"}, {"geometry": {"coordinates": [8.542695, 47.3712], "type": "Point"}, "properties": {"charge": 63, "id": "smide_188", "name": "ZH261543", "provider": "smide", "range": 31.0, "size": 20, "time": "01/31/2020, 12:19:56"}, "type": "Feature"}, {"geometry": {"coordinates": [8.513017, 47.39178], "type": "Point"}, "properties": {"charge": 81, "id": "smide_101", "name": "ZH253814", "provider": "smide", "range": 40.0, "size": 17, "time": "01/31/2020, 12:19:56"}, "type": "Feature"}, {"geometry": {"coordinates": [8.500415, 47.368652], "type": "Point"}, "properties": {"charge": 92, "id": "smide_9", "name": "ZH253796", "provider": "smide", "range": 46.0, "size": 17, "time": "01/31/2020, 12:19:56"}, "type": "Feature"}, {"geometry": {"coordinates": [8.557963, 47.422248], "type": "Point"}, "properties": {"charge": 89, "id": "smide_143", "name": "ZH253778", "provider": "smide", "range": 44.0, "size": 17, "time": "01/31/2020, 12:19:56"}, "type": "Feature"}, {"geometry": {"coordinates": [8.540445, 47.411573], "type": "Point"}, "properties": {"charge": 25, "id": "smide_180", "name": "ZH253824", "provider": "smide", "range": 12.0, "size": 20, "time": "01/31/2020, 12:19:56"}, "type": "Feature"}, {"geometry": {"coordinates": [8.564082, 47.349184], "type": "Point"}, "properties": {"charge": 80, "id": "smide_20", "name": "ZH253770", "provider": "smide", "range": 40.0, "size": 20, "time": "01/31/2020, 12:19:56"}, "type": "Feature"}, {"geometry": {"coordinates": [8.554876, 47.377376], "type": "Point"}, "properties": {"charge": 86, "id": "smide_50", "name": "ZH253853", "provider": "smide", "range": 43.0, "size": 17, "time": "01/31/2020, 12:19:56"}, "type": "Feature"}, {"geometry": {"coordinates": [8.536931, 47.390255], "type": "Point"}, "properties": {"charge": 83, "id": "smide_30", "name": "ZH253813", "provider": "smide", "range": 41.0, "size": 20, "time": "01/31/2020, 12:19:56"}, "type": "Feature"}, {"geometry": {"coordinates": [8.53856, 47.379278], "type": "Point"}, "properties": {"charge": 20, "id": "smide_10", "name": "ZH253855", "provider": "smide", "range": 10.0, "size": 17, "time": "01/31/2020, 12:19:56"}, "type": "Feature"}, {"geometry": {"coordinates": [8.560491, 47.372208], "type": "Point"}, "properties": {"charge": 63, "id": "smide_179", "name": "ZH253687", "provider": "smide", "range": 31.0, "size": 20, "time": "01/31/2020, 12:19:56"}, "type": "Feature"}, {"geometry": {"coordinates": [8.566637, 47.3634], "type": "Point"}, "properties": {"charge": 60, "id": "smide_84", "name": "ZH253733", "provider": "smide", "range": 30.0, "size": 17, "time": "01/31/2020, 12:19:56"}, "type": "Feature"}, {"geometry": {"coordinates": [8.539253, 47.376936], "type": "Point"}, "properties": {"charge": 53, "id": "smide_165", "name": "ZH253752", "provider": "smide", "range": 26.0, "size": 17, "time": "01/31/2020, 12:19:56"}, "type": "Feature"}, {"geometry": {"coordinates": [8.568531, 47.349184], "type": "Point"}, "properties": {"charge": 53, "id": "smide_76", "name": "ZH253764", "provider": "smide", "range": 26.0, "size": 17, "time": "01/31/2020, 12:19:56"}, "type": "Feature"}, {"geometry": {"coordinates": [8.541449, 47.371868], "type": "Point"}, "properties": {"charge": 76, "id": "smide_129", "name": "ZH261378", "provider": "smide", "range": 38.0, "size": 17, "time": "01/31/2020, 12:19:56"}, "type": "Feature"}, {"geometry": {"coordinates": [8.51826, 47.367766], "type": "Point"}, "properties": {"charge": 65, "id": "smide_49", "name": "ZH253873", "provider": "smide", "range": 32.0, "size": 17, "time": "01/31/2020, 12:19:56"}, "type": "Feature"}, {"geometry": {"coordinates": [8.528309, 47.378248], "type": "Point"}, "properties": {"charge": 95, "id": "smide_94", "name": "ZH253754", "provider": "smide", "range": 47.0, "size": 17, "time": "01/31/2020, 12:19:56"}, "type": "Feature"}, {"geometry": {"coordinates": [8.536845, 47.373076], "type": "Point"}, "properties": {"charge": 16, "id": "smide_37", "name": "ZH261377", "provider": "smide", "range": 8.0, "size": 20, "time": "01/31/2020, 12:19:56"}, "type": "Feature"}, {"geometry": {"coordinates": [8.544361, 47.36905], "type": "Point"}, "properties": {"charge": 89, "id": "smide_191", "name": "ZH253762", "provider": "smide", "range": 44.0, "size": 17, "time": "01/31/2020, 12:19:56"}, "type": "Feature"}, {"geometry": {"coordinates": [8.545305, 47.376875], "type": "Point"}, "properties": {"charge": 50, "id": "smide_202", "name": "ZH253830", "provider": "smide", "range": 25.0, "size": 17, "time": "01/31/2020, 12:19:56"}, "type": "Feature"}, {"geometry": {"coordinates": [8.539715, 47.408884], "type": "Point"}, "properties": {"charge": 73, "id": "smide_56", "name": "ZH261442", "provider": "smide", "range": 36.0, "size": 20, "time": "01/31/2020, 12:19:56"}, "type": "Feature"}, {"geometry": {"coordinates": [8.53018, 47.390303], "type": "Point"}, "properties": {"charge": 85, "id": "smide_47", "name": "ZH253858", "provider": "smide", "range": 42.0, "size": 17, "time": "01/31/2020, 12:19:56"}, "type": "Feature"}, {"geometry": {"coordinates": [8.559432, 47.404108], "type": "Point"}, "properties": {"charge": 100, "id": "smide_66", "name": "ZH253818", "provider": "smide", "range": 50.0, "size": 20, "time": "01/31/2020, 12:19:56"}, "type": "Feature"}, {"geometry": {"coordinates": [8.582854, 47.350932], "type": "Point"}, "properties": {"charge": 77, "id": "smide_127", "name": "ZH253808", "provider": "smide", "range": 38.0, "size": 20, "time": "01/31/2020, 12:19:56"}, "type": "Feature"}, {"geometry": {"coordinates": [8.539981, 47.415771], "type": "Point"}, "properties": {"charge": 91, "id": "smide_145", "name": "ZH253780", "provider": "smide", "range": 45.0, "size": 20, "time": "01/31/2020, 12:19:56"}, "type": "Feature"}, {"geometry": {"coordinates": [8.521601, 47.358124], "type": "Point"}, "properties": {"charge": 45, "id": "smide_114", "name": "ZH253878", "provider": "smide", "range": 22.0, "size": 20, "time": "01/31/2020, 12:19:56"}, "type": "Feature"}, {"geometry": {"coordinates": [8.54009, 47.37902], "type": "Point"}, "properties": {"charge": 13, "id": "smide_203", "name": "ZH261547", "provider": "smide", "range": 6.0, "size": 17, "time": "01/31/2020, 12:19:56"}, "type": "Feature"}, {"geometry": {"coordinates": [8.514774, 47.355424], "type": "Point"}, "properties": {"charge": 65, "id": "smide_21", "name": "ZH253841", "provider": "smide", "range": 32.0, "size": 17, "time": "01/31/2020, 12:19:56"}, "type": "Feature"}, {"geometry": {"coordinates": [8.554669, 47.40304], "type": "Point"}, "properties": {"charge": 60, "id": "smide_81", "name": "ZH253753", "provider": "smide", "range": 30.0, "size": 17, "time": "01/31/2020, 12:19:56"}, "type": "Feature"}, {"geometry": {"coordinates": [8.514746, 47.3926], "type": "Point"}, "properties": {"charge": 41, "id": "smide_148", "name": "ZH253844", "provider": "smide", "range": 20.0, "size": 20, "time": "01/31/2020, 12:19:56"}, "type": "Feature"}, {"geometry": {"coordinates": [8.515025, 47.396088], "type": "Point"}, "properties": {"charge": 71, "id": "smide_93", "name": "ZH253681", "provider": "smide", "range": 35.0, "size": 17, "time": "01/31/2020, 12:19:56"}, "type": "Feature"}, {"geometry": {"coordinates": [8.5734, 47.35244], "type": "Point"}, "properties": {"charge": 88, "id": "smide_67", "name": "ZH253779", "provider": "smide", "range": 44.0, "size": 17, "time": "01/31/2020, 12:19:56"}, "type": "Feature"}, {"geometry": {"coordinates": [8.554549, 47.377836], "type": "Point"}, "properties": {"charge": 84, "id": "smide_133", "name": "ZH253848", "provider": "smide", "range": 42.0, "size": 20, "time": "01/31/2020, 12:19:56"}, "type": "Feature"}, {"geometry": {"coordinates": [8.480191, 47.385473], "type": "Point"}, "properties": {"charge": 65, "id": "smide_118", "name": "ZH253759", "provider": "smide", "range": 32.0, "size": 20, "time": "01/31/2020, 12:19:56"}, "type": "Feature"}, {"geometry": {"coordinates": [8.517499, 47.386436], "type": "Point"}, "properties": {"charge": 64, "id": "smide_142", "name": "ZH258745", "provider": "smide", "range": 32.0, "size": 17, "time": "01/31/2020, 12:19:56"}, "type": "Feature"}, {"geometry": {"coordinates": [8.539301, 47.378933], "type": "Point"}, "properties": {"charge": 75, "id": "smide_166", "name": "ZH253728", "provider": "smide", "range": 37.0, "size": 17, "time": "01/31/2020, 12:19:56"}, "type": "Feature"}, {"geometry": {"coordinates": [8.512735, 47.39184], "type": "Point"}, "properties": {"charge": 91, "id": "smide_126", "name": "ZH268400", "provider": "smide", "range": 45.0, "size": 17, "time": "01/31/2020, 12:19:56"}, "type": "Feature"}, {"geometry": {"coordinates": [8.487546, 47.36783], "type": "Point"}, "properties": {"charge": 67, "id": "smide_44", "name": "ZH253837", "provider": "smide", "range": 33.0, "size": 17, "time": "01/31/2020, 12:19:56"}, "type": "Feature"}, {"geometry": {"coordinates": [8.538098, 47.367643], "type": "Point"}, "properties": {"charge": 76, "id": "smide_98", "name": "ZH256321", "provider": "smide", "range": 38.0, "size": 17, "time": "01/31/2020, 12:19:56"}, "type": "Feature"}, {"geometry": {"coordinates": [8.57198, 47.35516], "type": "Point"}, "properties": {"charge": 100, "id": "smide_154", "name": "ZH253744", "provider": "smide", "range": 50.0, "size": 20, "time": "01/31/2020, 12:19:56"}, "type": "Feature"}, {"geometry": {"coordinates": [8.537131, 47.370852], "type": "Point"}, "properties": {"charge": 93, "id": "smide_92", "name": "ZH253798", "provider": "smide", "range": 46.0, "size": 17, "time": "01/31/2020, 12:19:56"}, "type": "Feature"}, {"geometry": {"coordinates": [8.54781, 47.422375], "type": "Point"}, "properties": {"charge": 67, "id": "smide_167", "name": "ZH253854", "provider": "smide", "range": 33.0, "size": 17, "time": "01/31/2020, 12:19:56"}, "type": "Feature"}, {"geometry": {"coordinates": [8.531691, 47.392272], "type": "Point"}, "properties": {"charge": 31, "id": "smide_111", "name": "ZH253763", "provider": "smide", "range": 15.0, "size": 17, "time": "01/31/2020, 12:19:56"}, "type": "Feature"}, {"geometry": {"coordinates": [8.556741, 47.413944], "type": "Point"}, "properties": {"charge": 23, "id": "smide_40", "name": "ZH253690", "provider": "smide", "range": 11.0, "size": 20, "time": "01/31/2020, 12:19:56"}, "type": "Feature"}, {"geometry": {"coordinates": [8.557769, 47.352048], "type": "Point"}, "properties": {"charge": 99, "id": "smide_1", "name": "ZH253776", "provider": "smide", "range": 49.0, "size": 17, "time": "01/31/2020, 12:19:56"}, "type": "Feature"}, {"geometry": {"coordinates": [8.554282, 47.359268], "type": "Point"}, "properties": {"charge": 100, "id": "smide_28", "name": "ZH253831", "provider": "smide", "range": 50.0, "size": 17, "time": "01/31/2020, 12:19:56"}, "type": "Feature"}, {"geometry": {"coordinates": [8.51684, 47.398245], "type": "Point"}, "properties": {"charge": 98, "id": "smide_14", "name": "ZH253749", "provider": "smide", "range": 49.0, "size": 20, "time": "01/31/2020, 12:19:56"}, "type": "Feature"}, {"geometry": {"coordinates": [8.529129, 47.378884], "type": "Point"}, "properties": {"charge": 65, "id": "smide_130", "name": "ZH253847", "provider": "smide", "range": 32.0, "size": 20, "time": "01/31/2020, 12:19:56"}, "type": "Feature"}, {"geometry": {"coordinates": [8.540846, 47.378416], "type": "Point"}, "properties": {"charge": 48, "id": "smide_24", "name": "ZH253696", "provider": "smide", "range": 24.0, "size": 20, "time": "01/31/2020, 12:19:56"}, "type": "Feature"}, {"geometry": {"coordinates": [8.502127, 47.369032], "type": "Point"}, "properties": {"charge": 99, "id": "smide_136", "name": "ZH253682", "provider": "smide", "range": 49.0, "size": 17, "time": "01/31/2020, 12:19:56"}, "type": "Feature"}, {"geometry": {"coordinates": [8.502097, 47.369052], "type": "Point"}, "properties": {"charge": 67, "id": "smide_83", "name": "ZH253869", "provider": "smide", "range": 33.0, "size": 20, "time": "01/31/2020, 12:19:56"}, "type": "Feature"}, {"geometry": {"coordinates": [8.529067, 47.383016], "type": "Point"}, "properties": {"charge": 62, "id": "smide_193", "name": "ZH253738", "provider": "smide", "range": 31.0, "size": 20, "time": "01/31/2020, 12:19:56"}, "type": "Feature"}, {"geometry": {"coordinates": [8.545181, 47.412256], "type": "Point"}, "properties": {"charge": 100, "id": "smide_73", "name": "ZH261379", "provider": "smide", "range": 50.0, "size": 20, "time": "01/31/2020, 12:19:56"}, "type": "Feature"}, {"geometry": {"coordinates": [8.484025, 47.376011], "type": "Point"}, "properties": {"charge": 100, "id": "smide_158", "name": "ZH253870", "provider": "smide", "range": 50.0, "size": 20, "time": "01/31/2020, 12:19:56"}, "type": "Feature"}, {"geometry": {"coordinates": [8.494289, 47.42428], "type": "Point"}, "properties": {"charge": 21, "id": "smide_100", "name": "ZH253862", "provider": "smide", "range": 10.0, "size": 20, "time": "01/31/2020, 12:19:56"}, "type": "Feature"}, {"geometry": {"coordinates": [8.530608, 47.378923], "type": "Point"}, "properties": {"charge": 20, "id": "smide_134", "name": "ZH253741", "provider": "smide", "range": 10.0, "size": 20, "time": "01/31/2020, 12:19:56"}, "type": "Feature"}, {"geometry": {"coordinates": [8.518043, 47.388273], "type": "Point"}, "properties": {"charge": 41, "id": "smide_141", "name": "ZH253800", "provider": "smide", "range": 20.0, "size": 20, "time": "01/31/2020, 12:19:56"}, "type": "Feature"}, {"geometry": {"coordinates": [8.560238, 47.370313], "type": "Point"}, "properties": {"charge": 73, "id": "smide_149", "name": "ZH253743", "provider": "smide", "range": 36.0, "size": 20, "time": "01/31/2020, 12:19:56"}, "type": "Feature"}, {"geometry": {"coordinates": [8.506799, 47.406572], "type": "Point"}, "properties": {"charge": 100, "id": "smide_16", "name": "ZH253713", "provider": "smide", "range": 50.0, "size": 20, "time": "01/31/2020, 12:19:56"}, "type": "Feature"}, {"geometry": {"coordinates": [8.523642, 47.358772], "type": "Point"}, "properties": {"charge": 77, "id": "smide_74", "name": "ZH253693", "provider": "smide", "range": 38.0, "size": 20, "time": "01/31/2020, 12:19:56"}, "type": "Feature"}, {"geometry": {"coordinates": [8.537431, 47.367638], "type": "Point"}, "properties": {"charge": 100, "id": "smide_33", "name": "ZH253782", "provider": "smide", "range": 50.0, "size": 20, "time": "01/31/2020, 12:19:56"}, "type": "Feature"}, {"geometry": {"coordinates": [8.545945, 47.36822], "type": "Point"}, "properties": {"charge": 76, "id": "smide_161", "name": "ZH253691", "provider": "smide", "range": 38.0, "size": 20, "time": "01/31/2020, 12:19:56"}, "type": "Feature"}, {"geometry": {"coordinates": [8.534795, 47.380803], "type": "Point"}, "properties": {"charge": 61, "id": "smide_183", "name": "ZH253868", "provider": "smide", "range": 30.0, "size": 17, "time": "01/31/2020, 12:19:56"}, "type": "Feature"}, {"geometry": {"coordinates": [8.483375, 47.374632], "type": "Point"}, "properties": {"charge": 100, "id": "smide_42", "name": "ZH253846", "provider": "smide", "range": 50.0, "size": 20, "time": "01/31/2020, 12:19:56"}, "type": "Feature"}, {"geometry": {"coordinates": [8.53933, 47.41928], "type": "Point"}, "properties": {"charge": 97, "id": "smide_4", "name": "ZH253740", "provider": "smide", "range": 48.0, "size": 20, "time": "01/31/2020, 12:19:56"}, "type": "Feature"}, {"geometry": {"coordinates": [8.561633, 47.415776], "type": "Point"}, "properties": {"charge": 57, "id": "smide_160", "name": "ZH253722", "provider": "smide", "range": 28.0, "size": 17, "time": "01/31/2020, 12:19:56"}, "type": "Feature"}, {"geometry": {"coordinates": [8.573296, 47.349133], "type": "Point"}, "properties": {"charge": 98, "id": "smide_137", "name": "ZH258502", "provider": "smide", "range": 49.0, "size": 17, "time": "01/31/2020, 12:19:56"}, "type": "Feature"}, {"geometry": {"coordinates": [8.540082, 47.379036], "type": "Point"}, "properties": {"charge": 100, "id": "smide_178", "name": "ZH253803", "provider": "smide", "range": 50.0, "size": 17, "time": "01/31/2020, 12:19:56"}, "type": "Feature"}, {"geometry": {"coordinates": [8.547931, 47.422585], "type": "Point"}, "properties": {"charge": 71, "id": "smide_55", "name": "ZH253875", "provider": "smide", "range": 35.0, "size": 17, "time": "01/31/2020, 12:19:56"}, "type": "Feature"}, {"geometry": {"coordinates": [8.517097, 47.398388], "type": "Point"}, "properties": {"charge": 59, "id": "smide_96", "name": "ZH256146", "provider": "smide", "range": 29.0, "size": 20, "time": "01/31/2020, 12:19:56"}, "type": "Feature"}, {"geometry": {"coordinates": [8.48138, 47.393876], "type": "Point"}, "properties": {"charge": 60, "id": "smide_58", "name": "ZH259246", "provider": "smide", "range": 30.0, "size": 20, "time": "01/31/2020, 12:19:56"}, "type": "Feature"}, {"geometry": {"coordinates": [8.5021, 47.368984], "type": "Point"}, "properties": {"charge": 81, "id": "smide_54", "name": "ZH253874", "provider": "smide", "range": 40.0, "size": 20, "time": "01/31/2020, 12:19:56"}, "type": "Feature"}, {"geometry": {"coordinates": [8.552011, 47.3897], "type": "Point"}, "properties": {"charge": 100, "id": "smide_175", "name": "ZH253730", "provider": "smide", "range": 50.0, "size": 17, "time": "01/31/2020, 12:19:56"}, "type": "Feature"}, {"geometry": {"coordinates": [8.502133, 47.368996], "type": "Point"}, "properties": {"charge": 100, "id": "smide_95", "name": "ZH253773", "provider": "smide", "range": 50.0, "size": 17, "time": "01/31/2020, 12:19:56"}, "type": "Feature"}, {"geometry": {"coordinates": [8.524166, 47.375604], "type": "Point"}, "properties": {"charge": 90, "id": "smide_163", "name": "ZH256147", "provider": "smide", "range": 45.0, "size": 20, "time": "01/31/2020, 12:19:56"}, "type": "Feature"}, {"geometry": {"coordinates": [8.530947, 47.415384], "type": "Point"}, "properties": {"charge": 71, "id": "smide_112", "name": "ZH263530", "provider": "smide", "range": 35.0, "size": 20, "time": "01/31/2020, 12:19:56"}, "type": "Feature"}, {"geometry": {"coordinates": [8.564316, 47.369376], "type": "Point"}, "properties": {"charge": 46, "id": "smide_122", "name": "ZH253850", "provider": "smide", "range": 23.0, "size": 20, "time": "01/31/2020, 12:19:56"}, "type": "Feature"}, {"geometry": {"coordinates": [8.544886, 47.366421], "type": "Point"}, "properties": {"charge": 100, "id": "smide_38", "name": "ZH253851", "provider": "smide", "range": 50.0, "size": 20, "time": "01/31/2020, 12:19:56"}, "type": "Feature"}, {"geometry": {"coordinates": [8.520428, 47.396144], "type": "Point"}, "properties": {"charge": 94, "id": "smide_6", "name": "ZH253787", "provider": "smide", "range": 47.0, "size": 17, "time": "01/31/2020, 12:19:56"}, "type": "Feature"}, {"geometry": {"coordinates": [8.556896, 47.403988], "type": "Point"}, "properties": {"charge": 48, "id": "smide_18", "name": "ZH253859", "provider": "smide", "range": 24.0, "size": 17, "time": "01/31/2020, 12:19:56"}, "type": "Feature"}, {"geometry": {"coordinates": [8.535901, 47.37152], "type": "Point"}, "properties": {"charge": 81, "id": "smide_12", "name": "ZH253685", "provider": "smide", "range": 40.0, "size": 17, "time": "01/31/2020, 12:19:56"}, "type": "Feature"}, {"geometry": {"coordinates": [8.538022, 47.366452], "type": "Point"}, "properties": {"charge": 19, "id": "smide_192", "name": "ZH253706", "provider": "smide", "range": 9.0, "size": 20, "time": "01/31/2020, 12:19:56"}, "type": "Feature"}, {"geometry": {"coordinates": [8.559418, 47.415776], "type": "Point"}, "properties": {"charge": 99, "id": "smide_39", "name": "ZH253714", "provider": "smide", "range": 49.0, "size": 20, "time": "01/31/2020, 12:19:56"}, "type": "Feature"}, {"geometry": {"coordinates": [8.540745, 47.369715], "type": "Point"}, "properties": {"charge": 84, "id": "smide_5", "name": "ZH261443", "provider": "smide", "range": 42.0, "size": 20, "time": "01/31/2020, 12:19:56"}, "type": "Feature"}, {"geometry": {"coordinates": [8.56246, 47.37765], "type": "Point"}, "properties": {"charge": 100, "id": "smide_85", "name": "ZH253729", "provider": "smide", "range": 50.0, "size": 17, "time": "01/31/2020, 12:19:56"}, "type": "Feature"}, {"geometry": {"coordinates": [8.542521, 47.412172], "type": "Point"}, "properties": {"charge": 42, "id": "smide_29", "name": "ZH253723", "provider": "smide", "range": 21.0, "size": 17, "time": "01/31/2020, 12:19:56"}, "type": "Feature"}, {"geometry": {"coordinates": [8.547614, 47.390968], "type": "Point"}, "properties": {"charge": 55, "id": "smide_48", "name": "ZH253849", "provider": "smide", "range": 27.0, "size": 20, "time": "01/31/2020, 12:19:56"}, "type": "Feature"}, {"geometry": {"coordinates": [8.538456, 47.379308], "type": "Point"}, "properties": {"charge": 17, "id": "smide_46", "name": "ZH253843", "provider": "smide", "range": 8.0, "size": 20, "time": "01/31/2020, 12:19:56"}, "type": "Feature"}, {"geometry": {"coordinates": [8.546215, 47.367825], "type": "Point"}, "properties": {"charge": 36, "id": "bird_2f9c430e-e520-4ff2-97a7-4a124c7e3325", "provider": "bird", "timeStamp": "01/31/2020, 12:19:56"}, "type": "Feature"}, {"geometry": {"coordinates": [8.50579333333333, 47.3802033333333], "type": "Point"}, "properties": {"charge": 65, "id": "bird_9dc20fd2-cf16-4c76-9167-fac748000e6d", "provider": "bird", "timeStamp": "01/31/2020, 12:19:56"}, "type": "Feature"}, {"geometry": {"coordinates": [8.54460666666666, 47.3670466666667], "type": "Point"}, "properties": {"charge": 58, "id": "bird_3cf0c01e-33fe-4c74-b041-7d59c26ab8ac", "provider": "bird", "timeStamp": "01/31/2020, 12:19:56"}, "type": "Feature"}, {"geometry": {"coordinates": [8.50593333333333, 47.3801033333333], "type": "Point"}, "properties": {"charge": 22, "id": "bird_584f4876-f03d-43c2-a44c-8c2113ecc31f", "provider": "bird", "timeStamp": "01/31/2020, 12:19:56"}, "type": "Feature"}, {"geometry": {"coordinates": [8.544195, 47.3668783333333], "type": "Point"}, "properties": {"charge": 42, "id": "bird_9ad006f3-cc8b-4e7f-af92-1e699ecee002", "provider": "bird", "timeStamp": "01/31/2020, 12:19:56"}, "type": "Feature"}, {"geometry": {"coordinates": [8.54634333333333, 47.3681066666667], "type": "Point"}, "properties": {"charge": 75, "id": "bird_270bd5e9-d99f-4881-8403-2cba144568b4", "provider": "bird", "timeStamp": "01/31/2020, 12:19:56"}, "type": "Feature"}, {"geometry": {"coordinates": [8.50614166666667, 47.3800933333333], "type": "Point"}, "properties": {"charge": 87, "id": "bird_6b9b7e33-84b2-4da3-bbb0-0aa86843a2f7", "provider": "bird", "timeStamp": "01/31/2020, 12:19:56"}, "type": "Feature"}, {"geometry": {"coordinates": [8.50614333333333, 47.3801233333333], "type": "Point"}, "properties": {"charge": 92, "id": "bird_1c3196a4-6097-44ce-9ede-21fdc25e8970", "provider": "bird", "timeStamp": "01/31/2020, 12:19:56"}, "type": "Feature"}, {"geometry": {"coordinates": [8.53782166666667, 47.3951533333333], "type": "Point"}, "properties": {"charge": 44, "id": "bird_ba0184d8-8255-4eb4-9d58-6ce9419726a4", "provider": "bird", "timeStamp": "01/31/2020, 12:19:56"}, "type": "Feature"}, {"geometry": {"coordinates": [8.53155166666667, 47.364025], "type": "Point"}, "properties": {"charge": 33, "id": "bird_8034e203-521e-4ffa-865a-f3b7bb69d8b5", "provider": "bird", "timeStamp": "01/31/2020, 12:19:56"}, "type": "Feature"}, {"geometry": {"coordinates": [8.50638833333333, 47.3795966666667], "type": "Point"}, "properties": {"charge": 44, "id": "bird_bc5e0e67-b20a-4d87-b4a4-0739a15af2b6", "provider": "bird", "timeStamp": "01/31/2020, 12:19:56"}, "type": "Feature"}, {"geometry": {"coordinates": [8.50643, 47.379585], "type": "Point"}, "properties": {"charge": 12, "id": "bird_71097457-68ea-440a-9d6a-2400edb1b2f1", "provider": "bird", "timeStamp": "01/31/2020, 12:19:56"}, "type": "Feature"}, {"geometry": {"coordinates": [8.54500166666667, 47.367745], "type": "Point"}, "properties": {"charge": 44, "id": "bird_6769f557-41b0-4cca-bef2-d7253ccb7b21", "provider": "bird", "timeStamp": "01/31/2020, 12:19:56"}, "type": "Feature"}, {"geometry": {"coordinates": [8.533145, 47.3642966666667], "type": "Point"}, "properties": {"charge": 35, "id": "bird_90581f62-bbf2-40e0-9842-388cb0737617", "provider": "bird", "timeStamp": "01/31/2020, 12:19:56"}, "type": "Feature"}, {"geometry": {"coordinates": [8.53159, 47.3642266666667], "type": "Point"}, "properties": {"charge": 64, "id": "bird_3c94ea55-7399-42f1-a165-87ad779b89d7", "provider": "bird", "timeStamp": "01/31/2020, 12:19:56"}, "type": "Feature"}, {"geometry": {"coordinates": [8.54861666666667, 47.37053], "type": "Point"}, "properties": {"charge": 64, "id": "bird_64ecab36-1d1a-4237-af46-6151ed734e33", "provider": "bird", "timeStamp": "01/31/2020, 12:19:56"}, "type": "Feature"}, {"geometry": {"coordinates": [8.539615, 47.3656583333333], "type": "Point"}, "properties": {"charge": 42, "id": "bird_66c6d21c-b06d-4598-9a8a-574d5db23f14", "provider": "bird", "timeStamp": "01/31/2020, 12:19:56"}, "type": "Feature"}, {"geometry": {"coordinates": [8.51254333333333, 47.3902133333333], "type": "Point"}, "properties": {"charge": 21, "id": "bird_bfeaf1c4-f605-4aa2-bee5-3b01dc688e41", "provider": "bird", "timeStamp": "01/31/2020, 12:19:56"}, "type": "Feature"}, {"geometry": {"coordinates": [8.52729166666667, 47.3954766666667], "type": "Point"}, "properties": {"charge": 88, "id": "bird_66be79d9-6347-4afd-8f91-2a30a695cc66", "provider": "bird", "timeStamp": "01/31/2020, 12:19:56"}, "type": "Feature"}, {"geometry": {"coordinates": [8.53106, 47.3645216666667], "type": "Point"}, "properties": {"charge": 43, "id": "bird_b86da5af-8455-4ada-a12f-d9d5663342cc", "provider": "bird", "timeStamp": "01/31/2020, 12:19:56"}, "type": "Feature"}, {"geometry": {"coordinates": [8.510575, 47.3719566666667], "type": "Point"}, "properties": {"charge": 51, "id": "bird_387346c2-7df2-4ff0-bd79-d5c52be29cbd", "provider": "bird", "timeStamp": "01/31/2020, 12:19:56"}, "type": "Feature"}, {"geometry": {"coordinates": [8.51704333333333, 47.3921616666667], "type": "Point"}, "properties": {"charge": 60, "id": "bird_55a849bd-6c5e-4eda-a613-678998d9bb9e", "provider": "bird", "timeStamp": "01/31/2020, 12:19:56"}, "type": "Feature"}, {"geometry": {"coordinates": [8.51350833333333, 47.389515], "type": "Point"}, "properties": {"charge": 70, "id": "bird_33ea7048-98e0-438a-8b2e-56177cab3cad", "provider": "bird", "timeStamp": "01/31/2020, 12:19:56"}, "type": "Feature"}, {"geometry": {"coordinates": [8.51310166666667, 47.37106], "type": "Point"}, "properties": {"charge": 39, "id": "bird_ce91d98f-c56f-4103-9154-fcb4e17fc84b", "provider": "bird", "timeStamp": "01/31/2020, 12:19:56"}, "type": "Feature"}, {"geometry": {"coordinates": [8.51568166666667, 47.3906933333333], "type": "Point"}, "properties": {"charge": 21, "id": "bird_7fb5bb07-aa53-499d-ad8b-9384b8078211", "provider": "bird", "timeStamp": "01/31/2020, 12:19:56"}, "type": "Feature"}, {"geometry": {"coordinates": [8.53135666666667, 47.3943016666667], "type": "Point"}, "properties": {"charge": 67, "id": "bird_39647bc7-9a10-4151-ad81-a198e96ba6a8", "provider": "bird", "timeStamp": "01/31/2020, 12:19:56"}, "type": "Feature"}, {"geometry": {"coordinates": [8.54956333333333, 47.374595], "type": "Point"}, "properties": {"charge": 73, "id": "bird_9ce94e13-bd20-4c81-9917-4b60cc34aec6", "provider": "bird", "timeStamp": "01/31/2020, 12:19:56"}, "type": "Feature"}, {"geometry": {"coordinates": [8.50911666666667, 47.3778716666667], "type": "Point"}, "properties": {"charge": 30, "id": "bird_a11f2690-27e6-4fa8-beb2-cbc4b42a1990", "provider": "bird", "timeStamp": "01/31/2020, 12:19:56"}, "type": "Feature"}, {"geometry": {"coordinates": [8.52496, 47.3662566666667], "type": "Point"}, "properties": {"charge": 73, "id": "bird_6c7bd902-c9fe-4596-943a-cbc2218ba85f", "provider": "bird", "timeStamp": "01/31/2020, 12:19:56"}, "type": "Feature"}, {"geometry": {"coordinates": [8.52959333333333, 47.39415], "type": "Point"}, "properties": {"charge": 57, "id": "bird_24a5139b-0c9c-4e79-8ce9-d0ad93cefe6b", "provider": "bird", "timeStamp": "01/31/2020, 12:19:56"}, "type": "Feature"}, {"geometry": {"coordinates": [8.541045, 47.3680116666667], "type": "Point"}, "properties": {"charge": 38, "id": "bird_e15d51c6-0fb8-4323-9b79-5fa49f91684e", "provider": "bird", "timeStamp": "01/31/2020, 12:19:56"}, "type": "Feature"}, {"geometry": {"coordinates": [8.52495166666667, 47.36631], "type": "Point"}, "properties": {"charge": 70, "id": "bird_50e7ba8a-ef31-4cdf-a3df-70034faaf9e3", "provider": "bird", "timeStamp": "01/31/2020, 12:19:56"}, "type": "Feature"}, {"geometry": {"coordinates": [8.52499, 47.3663333333333], "type": "Point"}, "properties": {"charge": 48, "id": "bird_8e66b09f-6fc8-42a8-a89b-f50bbbf8e2c7", "provider": "bird", "timeStamp": "01/31/2020, 12:19:56"}, "type": "Feature"}, {"geometry": {"coordinates": [8.51903666666667, 47.391785], "type": "Point"}, "properties": {"charge": 52, "id": "bird_69b31635-f52a-430b-af5e-87ed42ba54b2", "provider": "bird", "timeStamp": "01/31/2020, 12:19:56"}, "type": "Feature"}, {"geometry": {"coordinates": [8.54449666666667, 47.37024], "type": "Point"}, "properties": {"charge": 30, "id": "bird_ffc16697-ca99-44cc-9618-da7d0f18f08f", "provider": "bird", "timeStamp": "01/31/2020, 12:19:56"}, "type": "Feature"}, {"geometry": {"coordinates": [8.53394666666667, 47.366425], "type": "Point"}, "properties": {"charge": 19, "id": "bird_87500cc3-e368-4d31-bf4c-90e87107412c", "provider": "bird", "timeStamp": "01/31/2020, 12:19:56"}, "type": "Feature"}, {"geometry": {"coordinates": [8.51288333333333, 47.3875], "type": "Point"}, "properties": {"charge": 54, "id": "bird_daf78aca-b701-49b0-b55c-7cd6d94445f5", "provider": "bird", "timeStamp": "01/31/2020, 12:19:56"}, "type": "Feature"}, {"geometry": {"coordinates": [8.529405, 47.3937833333333], "type": "Point"}, "properties": {"charge": 62, "id": "bird_7b5dd720-a514-4152-bdba-86934ca836ce", "provider": "bird", "timeStamp": "01/31/2020, 12:19:56"}, "type": "Feature"}, {"geometry": {"coordinates": [8.52937833333333, 47.3937416666667], "type": "Point"}, "properties": {"charge": 73, "id": "bird_1dba2a90-acbc-4cb5-8949-3f100ef86595", "provider": "bird", "timeStamp": "01/31/2020, 12:19:56"}, "type": "Feature"}, {"geometry": {"coordinates": [8.51564333333333, 47.37035], "type": "Point"}, "properties": {"charge": 15, "id": "bird_655ac5be-24b3-482c-9935-2037c9fa8420", "provider": "bird", "timeStamp": "01/31/2020, 12:19:56"}, "type": "Feature"}, {"geometry": {"coordinates": [8.52925, 47.3936683333333], "type": "Point"}, "properties": {"charge": 75, "id": "bird_8dcd5a08-cd73-4b09-b652-80abe2ee67e1", "provider": "bird", "timeStamp": "01/31/2020, 12:19:56"}, "type": "Feature"}, {"geometry": {"coordinates": [8.516645, 47.369755], "type": "Point"}, "properties": {"charge": 83, "id": "bird_143edcd3-f99b-4af2-80aa-8c810a423410", "provider": "bird", "timeStamp": "01/31/2020, 12:19:56"}, "type": "Feature"}, {"geometry": {"coordinates": [8.52940333333333, 47.3936533333333], "type": "Point"}, "properties": {"charge": 78, "id": "bird_07c4620f-1480-469c-bed7-63ab2828bf4c", "provider": "bird", "timeStamp": "01/31/2020, 12:19:56"}, "type": "Feature"}, {"geometry": {"coordinates": [8.510115, 47.3780433333333], "type": "Point"}, "properties": {"charge": 47, "id": "bird_7656c2f7-23ac-4d71-a8f8-e0e0d3749297", "provider": "bird", "timeStamp": "01/31/2020, 12:19:56"}, "type": "Feature"}, {"geometry": {"coordinates": [8.51594666666667, 47.3703466666667], "type": "Point"}, "properties": {"charge": 19, "id": "bird_03f6b3df-6214-438a-a3f7-94fb5170b6d5", "provider": "bird", "timeStamp": "01/31/2020, 12:19:56"}, "type": "Feature"}, {"geometry": {"coordinates": [8.52924833333333, 47.3934866666667], "type": "Point"}, "properties": {"charge": 80, "id": "bird_44238b20-f91a-45bf-97c5-3eb9ae1376d9", "provider": "bird", "timeStamp": "01/31/2020, 12:19:56"}, "type": "Feature"}, {"geometry": {"coordinates": [8.51025166666667, 47.3785166666667], "type": "Point"}, "properties": {"charge": 91, "id": "bird_6265dbf3-fd84-4b8b-a2d3-2e269fee9570", "provider": "bird", "timeStamp": "01/31/2020, 12:19:56"}, "type": "Feature"}, {"geometry": {"coordinates": [8.52917666666667, 47.3934366666667], "type": "Point"}, "properties": {"charge": 75, "id": "bird_b114ae4b-4092-4739-a4fa-4fa5ba535431", "provider": "bird", "timeStamp": "01/31/2020, 12:19:56"}, "type": "Feature"}, {"geometry": {"coordinates": [8.526355, 47.3931616666667], "type": "Point"}, "properties": {"charge": 53, "id": "bird_4faa1086-c7f0-4147-8ac9-5d762141bddb", "provider": "bird", "timeStamp": "01/31/2020, 12:19:56"}, "type": "Feature"}, {"geometry": {"coordinates": [8.51076166666667, 47.3770783333333], "type": "Point"}, "properties": {"charge": 34, "id": "bird_1f0fb49e-1e7c-4d45-9e42-d8aeb04bf580", "provider": "bird", "timeStamp": "01/31/2020, 12:19:56"}, "type": "Feature"}, {"geometry": {"coordinates": [8.52812333333333, 47.36671], "type": "Point"}, "properties": {"charge": 21, "id": "bird_987e7f39-9a41-42c0-a977-c3743f9e8ef4", "provider": "bird", "timeStamp": "01/31/2020, 12:19:56"}, "type": "Feature"}, {"geometry": {"coordinates": [8.51820166666667, 47.369445], "type": "Point"}, "properties": {"charge": 10, "id": "bird_12eea7b5-c2bc-489a-9260-52334ce7f974", "provider": "bird", "timeStamp": "01/31/2020, 12:19:56"}, "type": "Feature"}, {"geometry": {"coordinates": [8.516685, 47.38969], "type": "Point"}, "properties": {"charge": 67, "id": "bird_407d79f9-4f30-47fb-99e7-719a511cf66a", "provider": "bird", "timeStamp": "01/31/2020, 12:19:56"}, "type": "Feature"}, {"geometry": {"coordinates": [8.51467166666667, 47.38816], "type": "Point"}, "properties": {"charge": 65, "id": "bird_a4b71347-a87d-4bec-a5d5-a3bcd215d58f", "provider": "bird", "timeStamp": "01/31/2020, 12:19:56"}, "type": "Feature"}, {"geometry": {"coordinates": [8.51069666666667, 47.3783566666667], "type": "Point"}, "properties": {"charge": 75, "id": "bird_19cc1447-1b7a-4a02-9302-86dfaa26cc6b", "provider": "bird", "timeStamp": "01/31/2020, 12:19:56"}, "type": "Feature"}, {"geometry": {"coordinates": [8.51386666666667, 47.3727033333333], "type": "Point"}, "properties": {"charge": 37, "id": "bird_489ce7d7-19a8-4a16-90cc-f5d6094e366e", "provider": "bird", "timeStamp": "01/31/2020, 12:19:56"}, "type": "Feature"}, {"geometry": {"coordinates": [8.51071666666667, 47.3785816666667], "type": "Point"}, "properties": {"charge": 39, "id": "bird_da9b967b-16b8-43bb-8885-2c7f5247e01c", "provider": "bird", "timeStamp": "01/31/2020, 12:19:56"}, "type": "Feature"}, {"geometry": {"coordinates": [8.51626, 47.3890983333333], "type": "Point"}, "properties": {"charge": 62, "id": "bird_d57d5312-81d7-43cf-b122-cd85ce62a8df", "provider": "bird", "timeStamp": "01/31/2020, 12:19:56"}, "type": "Feature"}, {"geometry": {"coordinates": [8.51126666666667, 47.3825416666667], "type": "Point"}, "properties": {"charge": 35, "id": "bird_5c8287f5-8198-4f5a-b1bd-29e20f640979", "provider": "bird", "timeStamp": "01/31/2020, 12:19:56"}, "type": "Feature"}, {"geometry": {"coordinates": [8.53563333333333, 47.3676566666667], "type": "Point"}, "properties": {"charge": 27, "id": "bird_e7a14b7f-4e0a-4d59-808b-f2dd5ab0e8af", "provider": "bird", "timeStamp": "01/31/2020, 12:19:56"}, "type": "Feature"}, {"geometry": {"coordinates": [8.52891333333333, 47.3928333333333], "type": "Point"}, "properties": {"charge": 65, "id": "bird_4b09b17e-50cd-4720-a96d-9ed28ed4f8cf", "provider": "bird", "timeStamp": "01/31/2020, 12:19:56"}, "type": "Feature"}, {"geometry": {"coordinates": [8.52561, 47.3924833333333], "type": "Point"}, "properties": {"charge": 16, "id": "bird_31e493d8-78c7-4857-8600-7088cb3c5ec5", "provider": "bird", "timeStamp": "01/31/2020, 12:19:56"}, "type": "Feature"}, {"geometry": {"coordinates": [8.51723333333333, 47.3893883333333], "type": "Point"}, "properties": {"charge": 24, "id": "bird_86b46bbc-90b5-4db9-8d74-7fac0b7a36ae", "provider": "bird", "timeStamp": "01/31/2020, 12:19:56"}, "type": "Feature"}, {"geometry": {"coordinates": [8.53828166666667, 47.3686033333333], "type": "Point"}, "properties": {"charge": 34, "id": "bird_8382563f-0544-47ce-90d4-209a98db3ce8", "provider": "bird", "timeStamp": "01/31/2020, 12:19:56"}, "type": "Feature"}, {"geometry": {"coordinates": [8.54831333333333, 47.3774983333333], "type": "Point"}, "properties": {"charge": 55, "id": "bird_bf4fd5aa-e40f-4fe7-922c-57d34c4104d3", "provider": "bird", "timeStamp": "01/31/2020, 12:19:56"}, "type": "Feature"}, {"geometry": {"coordinates": [8.51458666666667, 47.3871083333333], "type": "Point"}, "properties": {"charge": 42, "id": "bird_dcdc21f5-3ec6-4182-9365-e3fa418cbb74", "provider": "bird", "timeStamp": "01/31/2020, 12:19:56"}, "type": "Feature"}, {"geometry": {"coordinates": [8.53164, 47.36747], "type": "Point"}, "properties": {"charge": 16, "id": "bird_d0406750-b783-4ceb-92b3-39ccfa31b0eb", "provider": "bird", "timeStamp": "01/31/2020, 12:19:56"}, "type": "Feature"}, {"geometry": {"coordinates": [8.51527333333333, 47.3876683333333], "type": "Point"}, "properties": {"charge": 38, "id": "bird_ff36fe86-75b7-4f85-90db-1e8652654d17", "provider": "bird", "timeStamp": "01/31/2020, 12:19:56"}, "type": "Feature"}, {"geometry": {"coordinates": [8.514935, 47.38734], "type": "Point"}, "properties": {"charge": 60, "id": "bird_2a35a00e-2a2b-4763-85f3-50fc756cb636", "provider": "bird", "timeStamp": "01/31/2020, 12:19:56"}, "type": "Feature"}, {"geometry": {"coordinates": [8.51754166666667, 47.38905], "type": "Point"},