{"features": [{"geometry": {"coordinates": [8.540062, 47.374392], "type": "Point"}, "properties": {"address": "Uraniastrasse 7", "electric": 5, "id": "pb_60", "manual": 5, "name": "Demo Station Werdm\u00fchleplatz", "provider": "publibike", "timeStamp": "01/31/2020, 23:49:14", "zip": 8001}, "type": "Feature"}, {"geometry": {"coordinates": [8.5452956, 47.4099615], "type": "Point"}, "properties": {"address": "Querstrasse 8", "electric": 4, "id": "pb_61", "manual": 2, "name": "Marktplatz", "provider": "publibike", "timeStamp": "01/31/2020, 23:49:14", "zip": 8050}, "type": "Feature"}, {"geometry": {"coordinates": [8.5156327, 47.3795837], "type": "Point"}, "properties": {"address": "Bullingerstrasse 5", "electric": 5, "id": "pb_80", "manual": 4, "name": "Bullingerplatz", "provider": "publibike", "timeStamp": "01/31/2020, 23:49:14", "zip": 8004}, "type": "Feature"}, {"geometry": {"coordinates": [8.5104051, 47.3899342], "type": "Point"}, "properties": {"address": "Pfingstweidstrasse 96e", "electric": 4, "id": "pb_81", "manual": 2, "name": "Herdern", "provider": "publibike", "timeStamp": "01/31/2020, 23:49:14", "zip": 8001}, "type": "Feature"}, {"geometry": {"coordinates": [8.535718, 47.359675], "type": "Point"}, "properties": {"address": "Mythenquai 50", "electric": 0, "id": "pb_82", "manual": 2, "name": "Hafen Enge", "provider": "publibike", "timeStamp": "01/31/2020, 23:49:14", "zip": 8002}, "type": "Feature"}, {"geometry": {"coordinates": [8.520370505, 47.358663827], "type": "Point"}, "properties": {"address": "Bubenbergstrasse 1", "electric": 5, "id": "pb_83", "manual": 4, "name": "Comerge", "provider": "publibike", "timeStamp": "01/31/2020, 23:49:14", "zip": 8045}, "type": "Feature"}, {"geometry": {"coordinates": [8.5412505, 47.3789825], "type": "Point"}, "properties": {"address": "Museumstrasse 2", "electric": 14, "id": "pb_84", "manual": 17, "name": "Landesmuseum", "provider": "publibike", "timeStamp": "01/31/2020, 23:49:14", "zip": 8001}, "type": "Feature"}, {"geometry": {"coordinates": [8.5235479, 47.3716661], "type": "Point"}, "properties": {"address": "Birmensdorferstrasse 80", "electric": 0, "id": "pb_85", "manual": 5, "name": "Bahnhof Wiedikon", "provider": "publibike", "timeStamp": "01/31/2020, 23:49:14", "zip": 8003}, "type": "Feature"}, {"geometry": {"coordinates": [8.506822854, 47.40781197], "type": "Point"}, "properties": {"address": "Stefano-Franscini-Platz 5", "electric": 4, "id": "pb_86", "manual": 5, "name": "ETH H\u00f6nggerberg", "provider": "publibike", "timeStamp": "01/31/2020, 23:49:14", "zip": 8093}, "type": "Feature"}, {"geometry": {"coordinates": [8.536101, 47.371083], "type": "Point"}, "properties": {"address": "Pelikanplatz 5", "electric": 2, "id": "pb_87", "manual": 9, "name": "Pelikanplatz", "provider": "publibike", "timeStamp": "01/31/2020, 23:49:14", "zip": 8001}, "type": "Feature"}, {"geometry": {"coordinates": [8.5257822, 47.3651936], "type": "Point"}, "properties": {"address": "H\u00fcrlimannplatz 90", "electric": 0, "id": "pb_88", "manual": 0, "name": "H\u00fcrlimannplatz", "provider": "publibike", "timeStamp": "01/31/2020, 23:49:14", "zip": 8002}, "type": "Feature"}, {"geometry": {"coordinates": [8.5313344, 47.3713591], "type": "Point"}, "properties": {"address": "Selnaustrasse 32", "electric": 1, "id": "pb_89", "manual": 7, "name": "Stauffacherbr\u00fccke", "provider": "publibike", "timeStamp": "01/31/2020, 23:49:14", "zip": 8001}, "type": "Feature"}, {"geometry": {"coordinates": [8.5056978, 47.3917964], "type": "Point"}, "properties": {"address": "Sportweg 25", "electric": 2, "id": "pb_90", "manual": 6, "name": "Sportweg", "provider": "publibike", "timeStamp": "01/31/2020, 23:49:14", "zip": 8005}, "type": "Feature"}, {"geometry": {"coordinates": [8.5181701, 47.3917837], "type": "Point"}, "properties": {"address": "Hardturmstrasse 11", "electric": 1, "id": "pb_91", "manual": 0, "name": "Puls 5", "provider": "publibike", "timeStamp": "01/31/2020, 23:49:14", "zip": 8005}, "type": "Feature"}, {"geometry": {"coordinates": [8.5286468, 47.3820827], "type": "Point"}, "properties": {"address": "R\u00f6ntgenstrasse 6", "electric": 0, "id": "pb_92", "manual": 0, "name": "R\u00f6ntgenstrasse", "provider": "publibike", "timeStamp": "01/31/2020, 23:49:14", "zip": 8005}, "type": "Feature"}, {"geometry": {"coordinates": [8.531935, 47.384918], "type": "Point"}, "properties": {"address": "Kornhausbr\u00fccke 1", "electric": 0, "id": "pb_93", "manual": 5, "name": "Limmatplatz", "provider": "publibike", "timeStamp": "01/31/2020, 23:49:14", "zip": 8005}, "type": "Feature"}, {"geometry": {"coordinates": [8.5354006, 47.3758639], "type": "Point"}, "properties": {"address": "Gessnerallee 15", "electric": 0, "id": "pb_94", "manual": 5, "name": "Gessnerallee", "provider": "publibike", "timeStamp": "01/31/2020, 23:49:14", "zip": 8001}, "type": "Feature"}, {"geometry": {"coordinates": [8.523818, 47.377148], "type": "Point"}, "properties": {"address": "Stauffacherstrasse 127", "electric": 2, "id": "pb_95", "manual": 8, "name": "B\u00e4ckeranlage", "provider": "publibike", "timeStamp": "01/31/2020, 23:49:14", "zip": 8004}, "type": "Feature"}, {"geometry": {"coordinates": [8.531836, 47.378548], "type": "Point"}, "properties": {"address": "Lagerstrasse 44", "electric": 7, "id": "pb_96", "manual": 9, "name": "Gustav-Gull-Platz", "provider": "publibike", "timeStamp": "01/31/2020, 23:49:14", "zip": 8004}, "type": "Feature"}, {"geometry": {"coordinates": [8.5104883, 47.3771535], "type": "Point"}, "properties": {"address": "Zurlindenstrasse 291", "electric": 7, "id": "pb_97", "manual": 2, "name": "Zurlindenstrasse", "provider": "publibike", "timeStamp": "01/31/2020, 23:49:14", "zip": 8003}, "type": "Feature"}, {"geometry": {"coordinates": [8.5333139, 47.3731102], "type": "Point"}, "properties": {"address": "Sihlstrasse 81", "electric": 3, "id": "pb_98", "manual": 0, "name": "Sihlstrasse", "provider": "publibike", "timeStamp": "01/31/2020, 23:49:14", "zip": 8001}, "type": "Feature"}, {"geometry": {"coordinates": [8.520532, 47.374951], "type": "Point"}, "properties": {"address": "Feldstrasse 24", "electric": 4, "id": "pb_99", "manual": 4, "name": "Kalkbreite", "provider": "publibike", "timeStamp": "01/31/2020, 23:49:14", "zip": 8004}, "type": "Feature"}, {"geometry": {"coordinates": [8.539046, 47.368064], "type": "Point"}, "properties": {"address": "Talstrasse 12", "electric": 5, "id": "pb_100", "manual": 5, "name": "Z\u00fcrcher Kantonalbank", "provider": "publibike", "timeStamp": "01/31/2020, 23:49:14", "zip": 8001}, "type": "Feature"}, {"geometry": {"coordinates": [8.5348427, 47.3625938], "type": "Point"}, "properties": {"address": "Breitingerstrasse 5", "electric": 0, "id": "pb_101", "manual": 2, "name": "Rentenanstalt", "provider": "publibike", "timeStamp": "01/31/2020, 23:49:14", "zip": 8002}, "type": "Feature"}, {"geometry": {"coordinates": [8.5166922, 47.3897772], "type": "Point"}, "properties": {"address": "Technoparkstrasse 4", "electric": 1, "id": "pb_102", "manual": 8, "name": "Turbinenplatz", "provider": "publibike", "timeStamp": "01/31/2020, 23:49:14", "zip": 8005}, "type": "Feature"}, {"geometry": {"coordinates": [8.539312, 47.3739964], "type": "Point"}, "properties": {"address": "Oetenbachgasse 14", "electric": 4, "id": "pb_104", "manual": 13, "name": "Rennweg", "provider": "publibike", "timeStamp": "01/31/2020, 23:49:14", "zip": 8001}, "type": "Feature"}, {"geometry": {"coordinates": [8.5360685, 47.3775022], "type": "Point"}, "properties": {"address": "Kasernenstrasse 101", "electric": 3, "id": "pb_105", "manual": 38, "name": "Sihlpost", "provider": "publibike", "timeStamp": "01/31/2020, 23:49:14", "zip": 8004}, "type": "Feature"}, {"geometry": {"coordinates": [8.53545, 47.382798], "type": "Point"}, "properties": {"address": "Ausstellungsstrasse 44", "electric": 13, "id": "pb_106", "manual": 3, "name": "Museum f\u00fcr Gestaltung", "provider": "publibike", "timeStamp": "01/31/2020, 23:49:14", "zip": 8005}, "type": "Feature"}, {"geometry": {"coordinates": [8.5306155, 47.3647902], "type": "Point"}, "properties": {"address": "Gutenbergstrasse 1", "electric": 3, "id": "pb_107", "manual": 1, "name": "Bederbr\u00fccke", "provider": "publibike", "timeStamp": "01/31/2020, 23:49:14", "zip": 8002}, "type": "Feature"}, {"geometry": {"coordinates": [8.518982, 47.386741], "type": "Point"}, "properties": {"address": "Geroldstrasse 4", "electric": 5, "id": "pb_108", "manual": 6, "name": "Bahnhof Hardbr\u00fccke", "provider": "publibike", "timeStamp": "01/31/2020, 23:49:14", "zip": 8005}, "type": "Feature"}, {"geometry": {"coordinates": [8.53001018, 47.37247535], "type": "Point"}, "properties": {"address": "Werdstrasse 21", "electric": 0, "id": "pb_109", "manual": 2, "name": "Tamedia", "provider": "publibike", "timeStamp": "01/31/2020, 23:49:14", "zip": 8004}, "type": "Feature"}, {"geometry": {"coordinates": [8.4860017, 47.396401], "type": "Point"}, "properties": {"address": "Gr\u00fcnauring 37", "electric": 7, "id": "pb_110", "manual": 5, "name": "Gr\u00fcnau", "provider": "publibike", "timeStamp": "01/31/2020, 23:49:14", "zip": 8064}, "type": "Feature"}, {"geometry": {"coordinates": [8.548519, 47.376756], "type": "Point"}, "properties": {"address": "R\u00e4mistrasse 101", "electric": 0, "id": "pb_111", "manual": 0, "name": "ETH Zentrum", "provider": "publibike", "timeStamp": "01/31/2020, 23:49:14", "zip": 8006}, "type": "Feature"}, {"geometry": {"coordinates": [8.520449, 47.388151], "type": "Point"}, "properties": {"address": "Josefstrasse 224", "electric": 2, "id": "pb_112", "manual": 4, "name": "Steinfelsareal", "provider": "publibike", "timeStamp": "01/31/2020, 23:49:14", "zip": 8005}, "type": "Feature"}, {"geometry": {"coordinates": [8.520482, 47.37209], "type": "Point"}, "properties": {"address": "Weststrasse 115", "electric": 7, "id": "pb_124", "manual": 2, "name": "Weststrasse", "provider": "publibike", "timeStamp": "01/31/2020, 23:49:14", "zip": 8003}, "type": "Feature"}, {"geometry": {"coordinates": [8.496727, 47.378521], "type": "Point"}, "properties": {"address": "Albisriederstrasse 200", "electric": 4, "id": "pb_125", "manual": 2, "name": "Utogrund", "provider": "publibike", "timeStamp": "01/31/2020, 23:49:14", "zip": 8047}, "type": "Feature"}, {"geometry": {"coordinates": [8.510418, 47.381356], "type": "Point"}, "properties": {"address": "Bullingerstrasse 73", "electric": 6, "id": "pb_126", "manual": 6, "name": "Hardau", "provider": "publibike", "timeStamp": "01/31/2020, 23:49:14", "zip": 8004}, "type": "Feature"}, {"geometry": {"coordinates": [8.525525, 47.361567], "type": "Point"}, "properties": {"address": "Klopstockstrasse 23", "electric": 3, "id": "pb_127", "manual": 3, "name": "Klopstockwiese", "provider": "publibike", "timeStamp": "01/31/2020, 23:49:14", "zip": 8002}, "type": "Feature"}, {"geometry": {"coordinates": [8.518143, 47.363148], "type": "Point"}, "properties": {"address": "Haldenstrasse 8", "electric": 10, "id": "pb_128", "manual": 0, "name": "Binz", "provider": "publibike", "timeStamp": "01/31/2020, 23:49:14", "zip": 8045}, "type": "Feature"}, {"geometry": {"coordinates": [8.542726, 47.379952], "type": "Point"}, "properties": {"address": "Walchestrasse 11", "electric": 1, "id": "pb_129", "manual": 1, "name": "Stampfenbachplatz", "provider": "publibike", "timeStamp": "01/31/2020, 23:49:14", "zip": 8006}, "type": "Feature"}, {"geometry": {"coordinates": [8.488108, 47.391366], "type": "Point"}, "properties": {"address": "Altstetterplatz 1", "electric": 5, "id": "pb_130", "manual": 4, "name": "Bahnhof Altstetten", "provider": "publibike", "timeStamp": "01/31/2020, 23:49:14", "zip": 8048}, "type": "Feature"}, {"geometry": {"coordinates": [8.554114, 47.365119], "type": "Point"}, "properties": {"address": "Kreuzplatz 2", "electric": 7, "id": "pb_131", "manual": 6, "name": "Kreuzplatz", "provider": "publibike", "timeStamp": "01/31/2020, 23:49:14", "zip": 8032}, "type": "Feature"}, {"geometry": {"coordinates": [8.549852, 47.35594], "type": "Point"}, "properties": {"address": "H\u00f6schgasse 3", "electric": 3, "id": "pb_132", "manual": 8, "name": "Blatterwiese", "provider": "publibike", "timeStamp": "01/31/2020, 23:49:14", "zip": 8008}, "type": "Feature"}, {"geometry": {"coordinates": [8.554501, 47.36162], "type": "Point"}, "properties": {"address": "Feldeggstrasse 80", "electric": 5, "id": "pb_133", "manual": 3, "name": "Villa Bleuler", "provider": "publibike", "timeStamp": "01/31/2020, 23:49:14", "zip": 8008}, "type": "Feature"}, {"geometry": {"coordinates": [8.557088, 47.358557], "type": "Point"}, "properties": {"address": "M\u00fchlebachstrasse 131", "electric": 3, "id": "pb_134", "manual": 0, "name": "M\u00fchlebachstrasse", "provider": "publibike", "timeStamp": "01/31/2020, 23:49:14", "zip": 8008}, "type": "Feature"}, {"geometry": {"coordinates": [8.547639, 47.361266], "type": "Point"}, "properties": {"address": "Utoquai 50", "electric": 10, "id": "pb_135", "manual": 9, "name": "Seebad Utoquai", "provider": "publibike", "timeStamp": "01/31/2020, 23:49:14", "zip": 8008}, "type": "Feature"}, {"geometry": {"coordinates": [8.548045, 47.370869], "type": "Point"}, "properties": {"address": "Heimplatz 1", "electric": 2, "id": "pb_137", "manual": 3, "name": "Kunsthaus", "provider": "publibike", "timeStamp": "01/31/2020, 23:49:14", "zip": 8001}, "type": "Feature"}, {"geometry": {"coordinates": [8.543447, 47.375933], "type": "Point"}, "properties": {"address": "Limmatquai 138", "electric": 1, "id": "pb_138", "manual": 3, "name": "Central", "provider": "publibike", "timeStamp": "01/31/2020, 23:49:14", "zip": 8001}, "type": "Feature"}, {"geometry": {"coordinates": [8.549356, 47.408827], "type": "Point"}, "properties": {"address": "Tramstrasse 35", "electric": 2, "id": "pb_139", "manual": 2, "name": "ewz Tramstrasse", "provider": "publibike", "timeStamp": "01/31/2020, 23:49:14", "zip": 8050}, "type": "Feature"}, {"geometry": {"coordinates": [8.533736, 47.366904], "type": "Point"}, "properties": {"address": "Bleicherweg 33", "electric": 1, "id": "pb_140", "manual": 11, "name": "Bleicherweg", "provider": "publibike", "timeStamp": "01/31/2020, 23:49:14", "zip": 8002}, "type": "Feature"}, {"geometry": {"coordinates": [8.544935, 47.366752], "type": "Point"}, "properties": {"address": "Bellevueplatz 2", "electric": 23, "id": "pb_141", "manual": 21, "name": "Bellevue", "provider": "publibike", "timeStamp": "01/31/2020, 23:49:14", "zip": 8001}, "type": "Feature"}, {"geometry": {"coordinates": [8.5285533, 47.3742296], "type": "Point"}, "properties": {"address": "Stauffacherstrasse 41", "electric": 2, "id": "pb_142", "manual": 4, "name": "Stauffacher", "provider": "publibike", "timeStamp": "01/31/2020, 23:49:14", "zip": 8004}, "type": "Feature"}, {"geometry": {"coordinates": [8.523722, 47.3899], "type": "Point"}, "properties": {"address": "Limmatstrasse 310", "electric": 4, "id": "pb_143", "manual": 2, "name": "Escher-Wyss-Platz", "provider": "publibike", "timeStamp": "01/31/2020, 23:49:14", "zip": 8005}, "type": "Feature"}, {"geometry": {"coordinates": [8.491061, 47.392336], "type": "Point"}, "properties": {"address": "Vulkanplatz 1", "electric": 0, "id": "pb_149", "manual": 3, "name": "Vulkanplatz", "provider": "publibike", "timeStamp": "01/31/2020, 23:49:14", "zip": 8048}, "type": "Feature"}, {"geometry": {"coordinates": [8.52306, 47.359872], "type": "Point"}, "properties": {"address": "Giessh\u00fcbelstrasse 15", "electric": 11, "id": "pb_150", "manual": 13, "name": "Utoplatz", "provider": "publibike", "timeStamp": "01/31/2020, 23:49:14", "zip": 8045}, "type": "Feature"}, {"geometry": {"coordinates": [8.486284, 47.387685], "type": "Point"}, "properties": {"address": "Lindenplatz 1", "electric": 5, "id": "pb_151", "manual": 6, "name": "Lindenplatz", "provider": "publibike", "timeStamp": "01/31/2020, 23:49:14", "zip": 8048}, "type": "Feature"}, {"geometry": {"coordinates": [8.49163, 47.389823], "type": "Point"}, "properties": {"address": "Hohlstrasse 563", "electric": 0, "id": "pb_152", "manual": 8, "name": "Luggweg", "provider": "publibike", "timeStamp": "01/31/2020, 23:49:14", "zip": 8048}, "type": "Feature"}, {"geometry": {"coordinates": [8.52174, 47.365272], "type": "Point"}, "properties": {"address": "Manessestrasse 87", "electric": 7, "id": "pb_153", "manual": 1, "name": "Manesseplatz", "provider": "publibike", "timeStamp": "01/31/2020, 23:49:14", "zip": 8045}, "type": "Feature"}, {"geometry": {"coordinates": [8.52714, 47.372329], "type": "Point"}, "properties": {"address": "Werdstrasse 75", "electric": 12, "id": "pb_154", "manual": 3, "name": "Werd", "provider": "publibike", "timeStamp": "01/31/2020, 23:49:14", "zip": 8004}, "type": "Feature"}, {"geometry": {"coordinates": [8.543042, 47.374711], "type": "Point"}, "properties": {"address": "Limmatquai 100", "electric": 0, "id": "pb_155", "manual": 0, "name": "Rudolf-Brun-Br\u00fccke", "provider": "publibike", "timeStamp": "01/31/2020, 23:49:14", "zip": 8001}, "type": "Feature"}, {"geometry": {"coordinates": [8.490837, 47.386596], "type": "Point"}, "properties": {"address": "Badenerstrasse 627", "electric": 2, "id": "pb_156", "manual": 7, "name": "Luggwegstrasse VBZ", "provider": "publibike", "timeStamp": "01/31/2020, 23:49:14", "zip": 8048}, "type": "Feature"}, {"geometry": {"coordinates": [8.535119, 47.355189], "type": "Point"}, "properties": {"address": "Mythenquai 95", "electric": 0, "id": "pb_157", "manual": 4, "name": "Strandbad Mythenquai", "provider": "publibike", "timeStamp": "01/31/2020, 23:49:14", "zip": 8002}, "type": "Feature"}, {"geometry": {"coordinates": [8.545505, 47.373675], "type": "Point"}, "properties": {"address": "Predigerpatz 21", "electric": 10, "id": "pb_158", "manual": 6, "name": "Predigerplatz", "provider": "publibike", "timeStamp": "01/31/2020, 23:49:14", "zip": 8001}, "type": "Feature"}, {"geometry": {"coordinates": [8.515558, 47.371868], "type": "Point"}, "properties": {"address": "Aemtlerstrasse 23", "electric": 5, "id": "pb_159", "manual": 1, "name": "Zwinglihaus", "provider": "publibike", "timeStamp": "01/31/2020, 23:49:14", "zip": 8003}, "type": "Feature"}, {"geometry": {"coordinates": [8.524629, 47.386072], "type": "Point"}, "properties": {"address": "Josefstrasse 188", "electric": 1, "id": "pb_160", "manual": 2, "name": "Josefwiese", "provider": "publibike", "timeStamp": "01/31/2020, 23:49:14", "zip": 8005}, "type": "Feature"}, {"geometry": {"coordinates": [8.527138, 47.387531], "type": "Point"}, "properties": {"address": "R\u00f6ntgenstrasse 87", "electric": 3, "id": "pb_164", "manual": 7, "name": "Markthalle", "provider": "publibike", "timeStamp": "01/31/2020, 23:49:14", "zip": 8005}, "type": "Feature"}, {"geometry": {"coordinates": [8.552717, 47.359978], "type": "Point"}, "properties": {"address": "Seefeldstrasse 96", "electric": 5, "id": "pb_263", "manual": 15, "name": "Feldeggstrasse", "provider": "publibike", "timeStamp": "01/31/2020, 23:49:14", "zip": 8008}, "type": "Feature"}, {"geometry": {"coordinates": [8.553189, 47.353198], "type": "Point"}, "properties": {"address": "Bellerivestrasse 170", "electric": 4, "id": "pb_264", "manual": 1, "name": "Lake Side", "provider": "publibike", "timeStamp": "01/31/2020, 23:49:14", "zip": 8008}, "type": "Feature"}, {"geometry": {"coordinates": [8.543437, 47.369256], "type": "Point"}, "properties": {"address": "Limmatquai 18", "electric": 0, "id": "pb_265", "manual": 0, "name": "Helmhaus", "provider": "publibike", "timeStamp": "01/31/2020, 23:49:14", "zip": 8032}, "type": "Feature"}, {"geometry": {"coordinates": [8.516676, 47.375819], "type": "Point"}, "properties": {"address": "Badenerstrasse 246", "electric": 2, "id": "pb_266", "manual": 2, "name": "Lochergut", "provider": "publibike", "timeStamp": "01/31/2020, 23:49:14", "zip": 8004}, "type": "Feature"}, {"geometry": {"coordinates": [8.514605, 47.389862], "type": "Point"}, "properties": {"address": "Pfingstweidstrasse 60", "electric": 1, "id": "pb_273", "manual": 2, "name": "Westpark", "provider": "publibike", "timeStamp": "01/31/2020, 23:49:14", "zip": 8005}, "type": "Feature"}, {"geometry": {"coordinates": [8.541239126, 47.375991201], "type": "Point"}, "properties": {"address": "Beatenplatz 1", "electric": 9, "id": "pb_274", "manual": 5, "name": "Beatenplatz", "provider": "publibike", "timeStamp": "01/31/2020, 23:49:14", "zip": 8001}, "type": "Feature"}, {"geometry": {"coordinates": [8.5417135, 47.3942197], "type": "Point"}, "properties": {"address": "Scheuchzerstrasse 181", "electric": 3, "id": "pb_275", "manual": 0, "name": "Pauluskirche", "provider": "publibike", "timeStamp": "01/31/2020, 23:49:14", "zip": 8057}, "type": "Feature"}, {"geometry": {"coordinates": [8.5528182, 47.414558], "type": "Point"}, "properties": {"address": "Hagenholzstrasse 51", "electric": 2, "id": "pb_276", "manual": 10, "name": "Airgate", "provider": "publibike", "timeStamp": "01/31/2020, 23:49:14", "zip": 8050}, "type": "Feature"}, {"geometry": {"coordinates": [8.537816, 47.413514], "type": "Point"}, "properties": {"address": "Birchstrasse 183", "electric": 3, "id": "pb_277", "manual": 4, "name": "Lamprechtweg", "provider": "publibike", "timeStamp": "01/31/2020, 23:49:14", "zip": 8050}, "type": "Feature"}, {"geometry": {"coordinates": [8.545602, 47.417701], "type": "Point"}, "properties": {"address": "Felsenrainstrasse 2", "electric": 9, "id": "pb_278", "manual": 6, "name": "Emil-Oberh\u00e4nsli", "provider": "publibike", "timeStamp": "01/31/2020, 23:49:14", "zip": 8050}, "type": "Feature"}, {"geometry": {"coordinates": [8.533647, 47.39808], "type": "Point"}, "properties": {"address": "Bucheggplatz 2", "electric": 0, "id": "pb_279", "manual": 2, "name": "Bucheggplatz", "provider": "publibike", "timeStamp": "01/31/2020, 23:49:14", "zip": 8057}, "type": "Feature"}, {"geometry": {"coordinates": [8.523549, 47.392347], "type": "Point"}, "properties": {"address": "Wipkingerplatz 4", "electric": 0, "id": "pb_280", "manual": 9, "name": "Wipkingerplatz", "provider": "publibike", "timeStamp": "01/31/2020, 23:49:14", "zip": 8037}, "type": "Feature"}, {"geometry": {"coordinates": [8.548562, 47.36691], "type": "Point"}, "properties": {"address": "Galerie \u00fcber Gleis 2/3", "electric": 26, "id": "pb_285", "manual": 6, "name": "Bahnhof Stadelhofen", "provider": "publibike", "timeStamp": "01/31/2020, 23:49:14", "zip": 8001}, "type": "Feature"}, {"geometry": {"coordinates": [8.493822, 47.3985553], "type": "Point"}, "properties": {"address": "Meierwiesenstrasse 12-4", "electric": 5, "id": "pb_286", "manual": 1, "name": "T\u00fcffenwies", "provider": "publibike", "timeStamp": "01/31/2020, 23:49:14", "zip": 8064}, "type": "Feature"}, {"geometry": {"coordinates": [8.552432, 47.3801757], "type": "Point"}, "properties": {"address": "Hochstrasse 34", "electric": 6, "id": "pb_356", "manual": 0, "name": "Siriuswiese", "provider": "publibike", "timeStamp": "01/31/2020, 23:49:14", "zip": 8044}, "type": "Feature"}, {"geometry": {"coordinates": [8.527298, 47.370141], "type": "Point"}, "properties": {"address": "Hallwylstrasse 71", "electric": 0, "id": "pb_357", "manual": 1, "name": "Hallwylstrasse", "provider": "publibike", "timeStamp": "01/31/2020, 23:49:14", "zip": 8004}, "type": "Feature"}, {"geometry": {"coordinates": [8.5414185, 47.3972455], "type": "Point"}, "properties": {"address": "Schaffhauserstrasse 137", "electric": 1, "id": "pb_358", "manual": 0, "name": "Milchbuck", "provider": "publibike", "timeStamp": "01/31/2020, 23:49:14", "zip": 8057}, "type": "Feature"}, {"geometry": {"coordinates": [8.512381, 47.393409], "type": "Point"}, "properties": {"address": "Hardturmstrasse 161", "electric": 0, "id": "pb_359", "manual": 0, "name": "Fischerweg", "provider": "publibike", "timeStamp": "01/31/2020, 23:49:14", "zip": 8005}, "type": "Feature"}, {"geometry": {"coordinates": [8.5421457, 47.3876979], "type": "Point"}, "properties": {"address": "Turnerstrasse 47", "electric": 5, "id": "pb_360", "manual": 1, "name": "Kirche Unterstrass", "provider": "publibike", "timeStamp": "01/31/2020, 23:49:14", "zip": 8006}, "type": "Feature"}, {"geometry": {"coordinates": [8.522117, 47.394554], "type": "Point"}, "properties": {"address": "Dorfstrasse 40", "electric": 3, "id": "pb_361", "manual": 1, "name": "Dorfstrasse", "provider": "publibike", "timeStamp": "01/31/2020, 23:49:14", "zip": 8037}, "type": "Feature"}, {"geometry": {"coordinates": [8.530437, 47.37271], "type": "Point"}, "properties": {"address": "Werdstrasse 25", "electric": 0, "id": "pb_362", "manual": 2, "name": "Stauffachertor", "provider": "publibike", "timeStamp": "01/31/2020, 23:49:14", "zip": 8004}, "type": "Feature"}, {"geometry": {"coordinates": [8.541712, 47.416155], "type": "Point"}, "properties": {"address": "Eggb\u00fchlstrasse 21", "electric": 3, "id": "pb_363", "manual": 3, "name": "Wahlenpark", "provider": "publibike", "timeStamp": "01/31/2020, 23:49:14", "zip": 8050}, "type": "Feature"}, {"geometry": {"coordinates": [8.5595335, 47.3708387], "type": "Point"}, "properties": {"address": "Dolderstrasse 32", "electric": 4, "id": "pb_364", "manual": 3, "name": "Kinderspital", "provider": "publibike", "timeStamp": "01/31/2020, 23:49:14", "zip": 8032}, "type": "Feature"}, {"geometry": {"coordinates": [8.536433, 47.388689], "type": "Point"}, "properties": {"address": "Kornhausstrasse 30", "electric": 3, "id": "pb_365", "manual": 5, "name": "Kornhausstrasse", "provider": "publibike", "timeStamp": "01/31/2020, 23:49:14", "zip": 8006}, "type": "Feature"}, {"geometry": {"coordinates": [8.55033, 47.407098], "type": "Point"}, "properties": {"address": "Schwamendingenstrasse 41", "electric": 4, "id": "pb_366", "manual": 5, "name": "Dorflinde", "provider": "publibike", "timeStamp": "01/31/2020, 23:49:14", "zip": 8050}, "type": "Feature"}, {"geometry": {"coordinates": [8.560476, 47.368199], "type": "Point"}, "properties": {"address": "R\u00f6merhofplatz 5", "electric": 11, "id": "pb_367", "manual": 1, "name": "R\u00f6merhof", "provider": "publibike", "timeStamp": "01/31/2020, 23:49:14", "zip": 8032}, "type": "Feature"}, {"geometry": {"coordinates": [8.5609218, 47.3619068], "type": "Point"}, "properties": {"address": "Forchstrasse 99", "electric": 8, "id": "pb_368", "manual": 0, "name": "Hegibachplatz", "provider": "publibike", "timeStamp": "01/31/2020, 23:49:14", "zip": 8032}, "type": "Feature"}, {"geometry": {"coordinates": [8.5721264, 47.4039985], "type": "Point"}, "properties": {"address": "Winterthurerstrasse 519", "electric": 6, "id": "pb_370", "manual": 4, "name": "Schwamendingerplatz", "provider": "publibike", "timeStamp": "01/31/2020, 23:49:14", "zip": 8051}, "type": "Feature"}, {"geometry": {"coordinates": [8.520168, 47.378556], "type": "Point"}, "properties": {"address": "Herman-Greulich-Strasse 56", "electric": 3, "id": "pb_384", "manual": 8, "name": "Hermann-Greulich-Weg", "provider": "publibike", "timeStamp": "01/31/2020, 23:49:14", "zip": 8004}, "type": "Feature"}, {"geometry": {"coordinates": [8.547912, 47.384923], "type": "Point"}, "properties": {"address": "Culmannstrasse", "electric": 5, "id": "pb_386", "manual": 0, "name": "Rigiplatz", "provider": "publibike", "timeStamp": "01/31/2020, 23:49:14", "zip": 8006}, "type": "Feature"}, {"geometry": {"coordinates": [8.543768, 47.411057], "type": "Point"}, "properties": {"address": "Hofwiesenstrasse 369", "electric": 6, "id": "pb_387", "manual": 3, "name": "Bahnhof Oerlikon S\u00fcd", "provider": "publibike", "timeStamp": "01/31/2020, 23:49:14", "zip": 8050}, "type": "Feature"}, {"geometry": {"coordinates": [8.544185, 47.412732], "type": "Point"}, "properties": {"address": "Jungholzstrasse 6", "electric": 4, "id": "pb_388", "manual": 1, "name": "Max-Frisch-Platz", "provider": "publibike", "timeStamp": "01/31/2020, 23:49:14", "zip": 8050}, "type": "Feature"}, {"geometry": {"coordinates": [8.558096, 47.413032], "type": "Point"}, "properties": {"address": "Andreasstrasse", "electric": 2, "id": "pb_389", "manual": 11, "name": "Hunziker-Areal", "provider": "publibike", "timeStamp": "01/31/2020, 23:49:14", "zip": 8050}, "type": "Feature"}, {"geometry": {"coordinates": [8.533265, 47.412873], "type": "Point"}, "properties": {"address": "Regina-K\u00e4gi-Strasse 1", "electric": 7, "id": "pb_390", "manual": 6, "name": "Luis-H\u00e4fliger-Park", "provider": "publibike", "timeStamp": "01/31/2020, 23:49:14", "zip": 8050}, "type": "Feature"}, {"geometry": {"coordinates": [8.499265, 47.401852], "type": "Point"}, "properties": {"address": "Limmattalstrasse 177", "electric": 3, "id": "pb_391", "manual": 2, "name": "Meierhofplatz", "provider": "publibike", "timeStamp": "01/31/2020, 23:49:14", "zip": 8049}, "type": "Feature"}, {"geometry": {"coordinates": [8.528356, 47.393255], "type": "Point"}, "properties": {"address": "R\u00f6schibachstrasse 73", "electric": 4, "id": "pb_392", "manual": 12, "name": "R\u00f6schibachplatz", "provider": "publibike", "timeStamp": "01/31/2020, 23:49:14", "zip": 8037}, "type": "Feature"}, {"geometry": {"coordinates": [8.538067, 47.415721], "type": "Point"}, "properties": {"address": "Birchstrasse 191", "electric": 6, "id": "pb_393", "manual": 1, "name": "Oerliker Park", "provider": "publibike", "timeStamp": "01/31/2020, 23:49:14", "zip": 8050}, "type": "Feature"}, {"geometry": {"coordinates": [8.5420304, 47.3669233], "type": "Point"}, "properties": {"address": "Stadthausquai 1", "electric": 3, "id": "pb_395", "manual": 4, "name": "B\u00fcrkliplatz", "provider": "publibike", "timeStamp": "01/31/2020, 23:49:14", "zip": 8001}, "type": "Feature"}, {"geometry": {"coordinates": [8.535767, 47.409881], "type": "Point"}, "properties": {"address": "Regensbergstrasse 195", "electric": 5, "id": "pb_396", "manual": 0, "name": "Holunderhof", "provider": "publibike", "timeStamp": "01/31/2020, 23:49:14", "zip": 8050}, "type": "Feature"}, {"geometry": {"coordinates": [8.5116245, 47.3616199], "type": "Point"}, "properties": {"address": "Grubenstrasse 42", "electric": 2, "id": "pb_431", "manual": 2, "name": "Binz Center", "provider": "publibike", "timeStamp": "01/31/2020, 23:49:14", "zip": 8045}, "type": "Feature"}, {"geometry": {"coordinates": [8.547195, 47.382089], "type": "Point"}, "properties": {"address": "Nelkenstrasse 24", "electric": 8, "id": "pb_430", "manual": 0, "name": "Stapferstube", "provider": "publibike", "timeStamp": "01/31/2020, 23:49:14", "zip": 8006}, "type": "Feature"}, {"geometry": {"coordinates": [8.5787183, 47.4039845], "type": "Point"}, "properties": {"address": "Kronwiesenstrasse 35", "electric": 3, "id": "pb_426", "manual": 3, "name": "Kronwiesen", "provider": "publibike", "timeStamp": "01/31/2020, 23:49:14", "zip": 8051}, "type": "Feature"}, {"geometry": {"coordinates": [8.508131, 47.420757], "type": "Point"}, "properties": {"address": "Riedenhaldenstrasse 20-18", "electric": 6, "id": "pb_425", "manual": 4, "name": "Bahnhof Affoltern", "provider": "publibike", "timeStamp": "01/31/2020, 23:49:14", "zip": 8046}, "type": "Feature"}, {"geometry": {"coordinates": [8.532464, 47.406988], "type": "Point"}, "properties": {"address": "K\u00fcnzlistrasse 41", "electric": 1, "id": "pb_424", "manual": 4, "name": "Birchd\u00f6rfli", "provider": "publibike", "timeStamp": "01/31/2020, 23:49:14", "zip": 8057}, "type": "Feature"}, {"geometry": {"coordinates": [8.5777038, 47.4080095], "type": "Point"}, "properties": {"address": "Luegislandstrasse 412", "electric": 4, "id": "pb_429", "manual": 3, "name": "Luegisland", "provider": "publibike", "timeStamp": "01/31/2020, 23:49:14", "zip": 8051}, "type": "Feature"}, {"geometry": {"coordinates": [8.58841, 47.40158], "type": "Point"}, "properties": {"address": "Hirzenbachstrasse 2-4", "electric": 0, "id": "pb_428", "manual": 0, "name": "Hirzenbachstrasse", "provider": "publibike", "timeStamp": "01/31/2020, 23:49:14", "zip": 8051}, "type": "Feature"}, {"geometry": {"coordinates": [8.5563463, 47.4095467], "type": "Point"}, "properties": {"address": "K\u00fchriedweg", "electric": 7, "id": "pb_445", "manual": 9, "name": "Hallenbad Oerlikon", "provider": "publibike", "timeStamp": "01/31/2020, 23:49:14", "zip": 8050}, "type": "Feature"}, {"geometry": {"coordinates": [8.537971, 47.364871], "type": "Point"}, "properties": {"address": "General-Guisan-Quai 17", "electric": 0, "id": "pb_454", "manual": 1, "name": "General-Guisan-Quai", "provider": "publibike", "timeStamp": "01/31/2020, 23:49:14", "zip": 8002}, "type": "Feature"}, {"geometry": {"coordinates": [8.560587, 47.350578], "type": "Point"}, "properties": {"address": "Bellerivestrasse 245", "electric": 5, "id": "pb_450", "manual": 6, "name": "Bahnhof Tiefenbrunnen", "provider": "publibike", "timeStamp": "01/31/2020, 23:49:14", "zip": 8008}, "type": "Feature"}, {"geometry": {"coordinates": [8.5269416, 47.3563719], "type": "Point"}, "properties": {"address": "Waffenplatzstrasse 89", "electric": 5, "id": "pb_452", "manual": 1, "name": "Rieterplatz", "provider": "publibike", "timeStamp": "01/31/2020, 23:49:14", "zip": 8002}, "type": "Feature"}, {"geometry": {"coordinates": [8.514176, 47.3663708], "type": "Point"}, "properties": {"address": "Talwiesenstrasse 92", "electric": 8, "id": "pb_446", "manual": 3, "name": "Binzallee", "provider": "publibike", "timeStamp": "01/31/2020, 23:49:14", "zip": 8055}, "type": "Feature"}, {"geometry": {"coordinates": [8.5070564, 47.371455], "type": "Point"}, "properties": {"address": "Gutstrasse 87", "electric": 3, "id": "pb_447", "manual": 5, "name": "Gutstrasse", "provider": "publibike", "timeStamp": "01/31/2020, 23:49:14", "zip": 8055}, "type": "Feature"}, {"geometry": {"coordinates": [8.4941268, 47.3836391], "type": "Point"}, "properties": {"address": "Flurstrasse 62", "electric": 2, "id": "pb_453", "manual": 2, "name": "Flurpark", "provider": "publibike", "timeStamp": "01/31/2020, 23:49:14", "zip": 8048}, "type": "Feature"}, {"geometry": {"coordinates": [8.500343, 47.380778], "type": "Point"}, "properties": {"address": "Edelweissstrasse 32", "electric": 7, "id": "pb_448", "manual": 2, "name": "Bl\u00fcemliquartier", "provider": "publibike", "timeStamp": "01/31/2020, 23:49:14", "zip": 8048}, "type": "Feature"}, {"geometry": {"coordinates": [8.528796, 47.383858], "type": "Point"}, "properties": {"address": "Gasometerstrasse 24", "electric": 6, "id": "pb_449", "manual": 19, "name": "Gasometerstrasse", "provider": "publibike", "timeStamp": "01/31/2020, 23:49:14", "zip": 8005}, "type": "Feature"}, {"geometry": {"coordinates": [8.4981964, 47.3859194], "type": "Point"}, "properties": {"address": "Baslerstrasse 57", "electric": 6, "id": "pb_455", "manual": 4, "name": "Letzipark", "provider": "publibike", "timeStamp": "01/31/2020, 23:49:14", "zip": 8048}, "type": "Feature"}, {"geometry": {"coordinates": [8.515252, 47.381915], "type": "Point"}, "properties": {"address": "Sihlfeldstrasse 175", "electric": 2, "id": "pb_451", "manual": 5, "name": "Hardplatz", "provider": "publibike", "timeStamp": "01/31/2020, 23:49:14", "zip": 8004}, "type": "Feature"}, {"geometry": {"coordinates": [8.5064743, 47.4188324], "type": "Point"}, "properties": {"address": "Wehntalerstrasse 541", "electric": 3, "id": "pb_427", "manual": 4, "name": "Zehntenhausplatz", "provider": "publibike", "timeStamp": "01/31/2020, 23:49:14", "zip": 8046}, "type": "Feature"}, {"geometry": {"coordinates": [8.537729, 47.379719], "type": "Point"}, "properties": {"address": "Sihlquai/HB", "electric": 16, "id": "pb_513", "manual": 10, "name": "Sihlquai", "provider": "publibike", "timeStamp": "01/31/2020, 23:49:14", "zip": 8005}, "type": "Feature"}, {"geometry": {"coordinates": [8.596202, 47.397885], "type": "Point"}, "properties": {"address": "Bahnhof Stettbach", "electric": 3, "id": "pb_514", "manual": 0, "name": "Bahnhof Stettbach", "provider": "publibike", "timeStamp": "01/31/2020, 23:49:14", "zip": 8051}, "type": "Feature"}, {"geometry": {"coordinates": [8.5543974, 47.3690153], "type": "Point"}, "properties": {"address": "Kasinostrasse 10", "electric": 6, "id": "pb_515", "manual": 0, "name": "Hottingerplatz", "provider": "publibike", "timeStamp": "01/31/2020, 23:49:14", "zip": 8032}, "type": "Feature"}, {"geometry": {"coordinates": [8.534444, 47.351525], "type": "Point"}, "properties": {"address": "Mobile Station Z\u00fcrich 1", "electric": 0, "id": "pb_282", "manual": 0, "name": "Theaterspektakel", "provider": "publibike", "timeStamp": "01/31/2020, 23:49:14", "zip": 8002}, "type": "Feature"}, {"geometry": {"coordinates": [8.516257, 47.367656], "type": "Point"}, "properties": {"address": "Goldbrunnenstrasse 54", "electric": 3, "id": "pb_538", "manual": 0, "name": "Kirche B\u00fchl", "provider": "publibike", "timeStamp": "01/31/2020, 23:49:14", "zip": 8055}, "type": "Feature"}, {"geometry": {"coordinates": [8.555639, 47.416873], "type": "Point"}, "properties": {"address": "Leutschenbachstrasse 50", "electric": 0, "id": "pb_537", "manual": 4, "name": "Leutschenpark", "provider": "publibike", "timeStamp": "01/31/2020, 23:49:14", "zip": 8050}, "type": "Feature"}, {"geometry": {"coordinates": [8.546464, 47.403822], "type": "Point"}, "properties": {"address": "Berninastrasse 45", "electric": 8, "id": "pb_540", "manual": 1, "name": "Berninaplatz", "provider": "publibike", "timeStamp": "01/31/2020, 23:49:14", "zip": 8057}, "type": "Feature"}, {"geometry": {"coordinates": [8.523134, 47.369004], "type": "Point"}, "properties": {"address": "Erlachstrasse 3", "electric": 1, "id": "pb_385", "manual": 6, "name": "Aegerten", "provider": "publibike", "timeStamp": "01/31/2020, 23:49:14", "zip": 8003}, "type": "Feature"}, {"geometry": {"coordinates": [8.49038, 47.381591], "type": "Point"}, "properties": {"address": "Rautistrasse 60", "electric": 9, "id": "pb_536", "manual": 6, "name": "Freilager", "provider": "publibike", "timeStamp": "01/31/2020, 23:49:14", "zip": 8048}, "type": "Feature"}, {"geometry": {"coordinates": [8.496511, 47.375247], "type": "Point"}, "properties": {"address": "Letzigraben 139", "electric": 7, "id": "pb_444", "manual": 2, "name": "Sackzelg", "provider": "publibike", "timeStamp": "01/31/2020, 23:49:14", "zip": 8047}, "type": "Feature"}, {"geometry": {"coordinates": [8.58131, 47.402801], "type": "Point"}, "properties": {"address": "Altwiesenstrasse 104", "electric": 0, "id": "pb_539", "manual": 4, "name": "Glattwiesen", "provider": "publibike", "timeStamp": "01/31/2020, 23:49:14", "zip": 8051}, "type": "Feature"}, {"geometry": {"coordinates": [8.52689, 47.3767], "type": "Point"}, "properties": {"address": "Molkenstrasse 5", "electric": 7, "id": "pb_560", "manual": 13, "name": "Helvetiaplatz", "provider": "publibike", "timeStamp": "01/31/2020, 23:49:14", "zip": 8004}, "type": "Feature"}, {"geometry": {"coordinates": [8.525602, 47.374241], "type": "Point"}, "properties": {"address": "Badenerstrasse 90", "electric": 0, "id": "pb_559", "manual": 9, "name": "Bezirksgeb\u00e4ude", "provider": "publibike", "timeStamp": "01/31/2020, 23:49:14", "zip": 8004}, "type": "Feature"}, {"geometry": {"coordinates": [8.535082, 47.345248], "type": "Point"}, "properties": {"address": "Bachstrasse 15", "electric": 5, "id": "pb_564", "manual": 4, "name": "GZ Wollishofen", "provider": "publibike", "timeStamp": "01/31/2020, 23:49:14", "zip": 8038}, "type": "Feature"}, {"geometry": {"coordinates": [8.514841, 47.370238], "type": "Point"}, "properties": {"address": "Schrennengasse 37", "electric": 2, "id": "pb_562", "manual": 3, "name": "Goldbrunnenplatz", "provider": "publibike", "timeStamp": "01/31/2020, 23:49:14", "zip": 8003}, "type": "Feature"}, {"geometry": {"coordinates": [8.514138, 47.374206], "type": "Point"}, "properties": {"address": "Idaplatz 4", "electric": 1, "id": "pb_557", "manual": 3, "name": "Idaplatz", "provider": "publibike", "timeStamp": "01/31/2020, 23:49:14", "zip": 8003}, "type": "Feature"}, {"geometry": {"coordinates": [8.518432, 47.369549], "type": "Point"}, "properties": {"address": "Brinerstrasse 2", "electric": 1, "id": "pb_558", "manual": 8, "name": "Schmiede Wiedikon", "provider": "publibike", "timeStamp": "01/31/2020, 23:49:14", "zip": 8003}, "type": "Feature"}, {"geometry": {"coordinates": [8.537546, 47.391289], "type": "Point"}, "properties": {"address": "Rotbuchstrasse 15", "electric": 4, "id": "pb_556", "manual": 1, "name": "Schaffhauserplatz", "provider": "publibike", "timeStamp": "01/31/2020, 23:49:14", "zip": 8006}, "type": "Feature"}, {"geometry": {"coordinates": [8.541541, 47.413733], "type": "Point"}, "properties": {"address": "Therese-Giehse-Strasse 11", "electric": 2, "id": "pb_561", "manual": 2, "name": "Center Eleven", "provider": "publibike", "timeStamp": "01/31/2020, 23:49:14", "zip": 8050}, "type": "Feature"}, {"geometry": {"coordinates": [8.534227, 47.360004], "type": "Point"}, "properties": {"address": "Alfred Escher-Strasse 76", "electric": 4, "id": "pb_563", "manual": 2, "name": "Mythenschloss", "provider": "publibike", "timeStamp": "01/31/2020, 23:49:14", "zip": 8002}, "type": "Feature"}, {"geometry": {"coordinates": [8.50373, 47.396172], "type": "Point"}, "properties": {"address": "Hardeggstrasse 6", "electric": 1, "id": "pb_566", "manual": 3, "name": "Am Wasser", "provider": "publibike", "timeStamp": "01/31/2020, 23:49:14", "zip": 8049}, "type": "Feature"}, {"geometry": {"coordinates": [8.532432, 47.381174], "type": "Point"}, "properties": {"address": "Klingenstrasse 9", "electric": 0, "id": "pb_565", "manual": 2, "name": "Zollstrasse", "provider": "publibike", "timeStamp": "01/31/2020, 23:49:14", "zip": 8005}, "type": "Feature"}, {"geometry": {"coordinates": [8.497982, 47.381447], "type": "Point"}, "properties": {"address": "Dennlerstrasse 23", "electric": 9, "id": "pb_567", "manual": 1, "name": "Dennlerstrasse", "provider": "publibike", "timeStamp": "01/31/2020, 23:49:14", "zip": 8047}, "type": "Feature"}, {"geometry": {"coordinates": [8.528049, 47.347701], "type": "Point"}, "properties": {"address": "Mutschellenstrasse 114", "electric": 3, "id": "pb_568", "manual": 8, "name": "Jugendherberge", "provider": "publibike", "timeStamp": "01/31/2020, 23:49:14", "zip": 8038}, "type": "Feature"}, {"geometry": {"coordinates": [8.539016, 47.405751], "type": "Point"}, "properties": {"address": "Ringstrasse 82", "electric": 8, "id": "pb_569", "manual": 2, "name": "Freibad Allenmoos", "provider": "publibike", "timeStamp": "01/31/2020, 23:49:14", "zip": 8057}, "type": "Feature"}, {"geometry": {"coordinates": [8.534974, 47.402164], "type": "Point"}, "properties": {"address": "Brache Guggach", "electric": 5, "id": "pb_572", "manual": 1, "name": "Radiostudio", "provider": "publibike", "timeStamp": "01/31/2020, 23:49:14", "zip": 8057}, "type": "Feature"}, {"geometry": {"coordinates": [8.547901, 47.375556], "type": "Point"}, "properties": {"address": "Karl-Schmid-Strasse 4", "electric": 0, "id": "pb_571", "manual": 3, "name": "ETH/Zoologisches Museum", "provider": "publibike", "timeStamp": "01/31/2020, 23:49:14", "zip": 8006}, "type": "Feature"}, {"geometry": {"coordinates": [8.539925, 47.37011], "type": "Point"}, "properties": {"charge": 76, "id": "smide_2901", "name": "ZH 267278", "provider": "smide", "range": 38.0, "size": 20, "time": "01/31/2020, 23:48:50"}, "type": "Feature"}, {"geometry": {"coordinates": [8.569521, 47.352091], "type": "Point"}, "properties": {"charge": 94, "id": "smide_2895", "name": "ZH 267279", "provider": "smide", "range": 47.0, "size": 20, "time": "01/31/2020, 23:48:50"}, "type": "Feature"}, {"geometry": {"coordinates": [8.50262, 47.423606], "type": "Point"}, "properties": {"charge": 95, "id": "smide_2880", "name": "ZH267289", "provider": "smide", "range": 47.0, "size": 17, "time": "01/31/2020, 23:48:50"}, "type": "Feature"}, {"geometry": {"coordinates": [8.556345, 47.410731], "type": "Point"}, "properties": {"charge": 94, "id": "smide_2874", "name": "ZH 267288", "provider": "smide", "range": 47.0, "size": 17, "time": "01/31/2020, 23:48:50"}, "type": "Feature"}, {"geometry": {"coordinates": [8.519126, 47.337338], "type": "Point"}, "properties": {"charge": 83, "id": "smide_2871", "name": "ZH 267086", "provider": "smide", "range": 41.0, "size": 20, "time": "01/31/2020, 23:48:50"}, "type": "Feature"}, {"geometry": {"coordinates": [8.522471, 47.398865], "type": "Point"}, "properties": {"charge": 50, "id": "smide_2867", "name": "ZH 267090", "provider": "smide", "range": 25.0, "size": 20, "time": "01/31/2020, 23:48:50"}, "type": "Feature"}, {"geometry": {"coordinates": [8.54076, 47.39475], "type": "Point"}, "properties": {"charge": 24, "id": "smide_2861", "name": "ZH 267096", "provider": "smide", "range": 12.0, "size": 17, "time": "01/31/2020, 23:48:50"}, "type": "Feature"}, {"geometry": {"coordinates": [8.575941, 47.34977], "type": "Point"}, "properties": {"charge": 90, "id": "smide_2860", "name": "ZH 267097", "provider": "smide", "range": 45.0, "size": 17, "time": "01/31/2020, 23:48:50"}, "type": "Feature"}, {"geometry": {"coordinates": [8.484556, 47.393513], "type": "Point"}, "properties": {"charge": 30, "id": "smide_2859", "name": "ZH 267098", "provider": "smide", "range": 15.0, "size": 17, "time": "01/31/2020, 23:48:50"}, "type": "Feature"}, {"geometry": {"coordinates": [8.543826, 47.377038], "type": "Point"}, "properties": {"charge": 47, "id": "smide_2856", "name": "ZH 267101", "provider": "smide", "range": 23.0, "size": 17, "time": "01/31/2020, 23:48:50"}, "type": "Feature"}, {"geometry": {"coordinates": [8.549446, 47.365638], "type": "Point"}, "properties": {"charge": 84, "id": "smide_2855", "name": "ZH 267102", "provider": "smide", "range": 42.0, "size": 17, "time": "01/31/2020, 23:48:50"}, "type": "Feature"}, {"geometry": {"coordinates": [8.510946, 47.398343], "type": "Point"}, "properties": {"charge": 100, "id": "smide_2854", "name": "ZH 267103", "provider": "smide", "range": 50.0, "size": 17, "time": "01/31/2020, 23:48:50"}, "type": "Feature"}, {"geometry": {"coordinates": [8.544753, 47.368201], "type": "Point"}, "properties": {"charge": 45, "id": "smide_2833", "name": "ZH 267182", "provider": "smide", "range": 22.0, "size": 20, "time": "01/31/2020, 23:48:50"}, "type": "Feature"}, {"geometry": {"coordinates": [8.569891, 47.352456], "type": "Point"}, "properties": {"charge": 62, "id": "smide_2831", "name": "ZH 267180", "provider": "smide", "range": 31.0, "size": 20, "time": "01/31/2020, 23:48:50"}, "type": "Feature"}, {"geometry": {"coordinates": [8.582098, 47.351641], "type": "Point"}, "properties": {"charge": 58, "id": "smide_2829", "name": "ZH 267049", "provider": "smide", "range": 28.0, "size": 20, "time": "01/31/2020, 23:48:50"}, "type": "Feature"}, {"geometry": {"coordinates": [8.506045, 47.418961], "type": "Point"}, "properties": {"charge": 86, "id": "smide_2804", "name": "ZH266903", "provider": "smide", "range": 43.0, "size": 20, "time": "01/31/2020, 23:48:50"}, "type": "Feature"}, {"geometry": {"coordinates": [8.569091, 47.37316], "type": "Point"}, "properties": {"charge": 43, "id": "smide_2798", "name": "ZH266888", "provider": "smide", "range": 21.0, "size": 17, "time": "01/31/2020, 23:48:50"}, "type": "Feature"}, {"geometry": {"coordinates": [8.507466, 47.398536], "type": "Point"}, "properties": {"charge": 60, "id": "smide_2793", "name": "ZH266883", "provider": "smide", "range": 30.0, "size": 17, "time": "01/31/2020, 23:48:50"}, "type": "Feature"}, {"geometry": {"coordinates": [8.545223, 47.369781], "type": "Point"}, "properties": {"charge": 36, "id": "smide_2790", "name": "ZH266880", "provider": "smide", "range": 18.0, "size": 17, "time": "01/31/2020, 23:48:50"}, "type": "Feature"}, {"geometry": {"coordinates": [8.517078, 47.358655], "type": "Point"}, "properties": {"charge": 55, "id": "smide_2785", "name": "ZH266875", "provider": "smide", "range": 27.0, "size": 17, "time": "01/31/2020, 23:48:50"}, "type": "Feature"}, {"geometry": {"coordinates": [8.55505, 47.383811], "type": "Point"}, "properties": {"charge": 90, "id": "smide_2781", "name": "ZH 266871", "provider": "smide", "range": 45.0, "size": 17, "time": "01/31/2020, 23:48:50"}, "type": "Feature"}, {"geometry": {"coordinates": [8.538085, 47.380535], "type": "Point"}, "properties": {"charge": 100, "id": "smide_2780", "name": "ST1 X #1", "provider": "smide", "range": 50.0, "size": 17, "time": "01/31/2020, 23:48:50"}, "type": "Feature"}, {"geometry": {"coordinates": [8.543237, 47.424196], "type": "Point"}, "properties": {"charge": 75, "id": "smide_2773", "name": "ZH266561", "provider": "smide", "range": 37.0, "size": 17, "time": "01/31/2020, 23:48:50"}, "type": "Feature"}, {"geometry": {"coordinates": [8.52489, 47.380212], "type": "Point"}, "properties": {"charge": 70, "id": "smide_2763", "name": "ZH266641", "provider": "smide", "range": 35.0, "size": 17, "time": "01/31/2020, 23:48:50"}, "type": "Feature"}, {"geometry": {"coordinates": [8.56025, 47.382073], "type": "Point"}, "properties": {"charge": 43, "id": "smide_2761", "name": "ZH266642", "provider": "smide", "range": 21.0, "size": 20, "time": "01/31/2020, 23:48:50"}, "type": "Feature"}, {"geometry": {"coordinates": [8.568935, 47.372952], "type": "Point"}, "properties": {"charge": 50, "id": "smide_2758", "name": "ZH266638 M", "provider": "smide", "range": 25.0, "size": 17, "time": "01/31/2020, 23:48:50"}, "type": "Feature"}, {"geometry": {"coordinates": [8.496214, 47.388832], "type": "Point"}, "properties": {"charge": 67, "id": "smide_2752", "name": "BE343856", "provider": "smide", "range": 33.0, "size": 17, "time": "01/31/2020, 23:48:50"}, "type": "Feature"}, {"geometry": {"coordinates": [8.528188, 47.383352], "type": "Point"}, "properties": {"charge": 71, "id": "smide_2751", "name": "BE343857", "provider": "smide", "range": 35.0, "size": 17, "time": "01/31/2020, 23:48:50"}, "type": "Feature"}, {"geometry": {"coordinates": [8.518419, 47.36292], "type": "Point"}, "properties": {"charge": 95, "id": "smide_2748", "name": "BE335758", "provider": "smide", "range": 47.0, "size": 17, "time": "01/31/2020, 23:48:50"}, "type": "Feature"}, {"geometry": {"coordinates": [8.562466, 47.38292], "type": "Point"}, "properties": {"charge": 66, "id": "smide_2746", "name": "BE335817", "provider": "smide", "range": 33.0, "size": 17, "time": "01/31/2020, 23:48:50"}, "type": "Feature"}, {"geometry": {"coordinates": [8.551497, 47.420744], "type": "Point"}, "properties": {"charge": 94, "id": "smide_2747", "name": "BE335820", "provider": "smide", "range": 47.0, "size": 17, "time": "01/31/2020, 23:48:50"}, "type": "Feature"}, {"geometry": {"coordinates": [8.529987, 47.393752], "type": "Point"}, "properties": {"charge": 18, "id": "smide_2745", "name": "BE335818", "provider": "smide", "range": 9.0, "size": 17, "time": "01/31/2020, 23:48:50"}, "type": "Feature"}, {"geometry": {"coordinates": [8.516987, 47.398216], "type": "Point"}, "properties": {"charge": 56, "id": "smide_2743", "name": "BE343864", "provider": "smide", "range": 28.0, "size": 17, "time": "01/31/2020, 23:48:50"}, "type": "Feature"}, {"geometry": {"coordinates": [8.532678, 47.385448], "type": "Point"}, "properties": {"charge": 85, "id": "smide_2742", "name": "BE343866", "provider": "smide", "range": 42.0, "size": 17, "time": "01/31/2020, 23:48:50"}, "type": "Feature"}, {"geometry": {"coordinates": [8.571787, 47.358304], "type": "Point"}, "properties": {"charge": 85, "id": "smide_2741", "name": "BE343874", "provider": "smide", "range": 42.0, "size": 17, "time": "01/31/2020, 23:48:50"}, "type": "Feature"}, {"geometry": {"coordinates": [8.529902, 47.369212], "type": "Point"}, "properties": {"charge": 76, "id": "smide_2740", "name": "BE343875", "provider": "smide", "range": 38.0, "size": 17, "time": "01/31/2020, 23:48:50"}, "type": "Feature"}, {"geometry": {"coordinates": [8.558078, 47.3526], "type": "Point"}, "properties": {"charge": 36, "id": "smide_2737", "name": "BE336149", "provider": "smide", "range": 18.0, "size": 17, "time": "01/31/2020, 23:48:50"}, "type": "Feature"}, {"geometry": {"coordinates": [8.502074, 47.368892], "type": "Point"}, "properties": {"charge": 100, "id": "smide_2736", "name": "BE346639", "provider": "smide", "range": 50.0, "size": 17, "time": "01/31/2020, 23:48:50"}, "type": "Feature"}, {"geometry": {"coordinates": [8.518062, 47.367632], "type": "Point"}, "properties": {"charge": 46, "id": "smide_2734", "name": "BE343876", "provider": "smide", "range": 23.0, "size": 17, "time": "01/31/2020, 23:48:50"}, "type": "Feature"}, {"geometry": {"coordinates": [8.553263, 47.362624], "type": "Point"}, "properties": {"charge": 100, "id": "smide_2733", "name": "BE343873", "provider": "smide", "range": 50.0, "size": 17, "time": "01/31/2020, 23:48:50"}, "type": "Feature"}, {"geometry": {"coordinates": [8.478408, 47.389548], "type": "Point"}, "properties": {"charge": 78, "id": "smide_2732", "name": "BE343870", "provider": "smide", "range": 39.0, "size": 17, "time": "01/31/2020, 23:48:50"}, "type": "Feature"}, {"geometry": {"coordinates": [8.530917, 47.370828], "type": "Point"}, "properties": {"charge": 59, "id": "smide_2729", "name": "BE343878", "provider": "smide", "range": 29.0, "size": 17, "time": "01/31/2020, 23:48:50"}, "type": "Feature"}, {"geometry": {"coordinates": [8.563056, 47.382413], "type": "Point"}, "properties": {"charge": 59, "id": "smide_2718", "name": "ZH259019", "provider": "smide", "range": 29.0, "size": 20, "time": "01/31/2020, 23:48:50"}, "type": "Feature"}, {"geometry": {"coordinates": [8.553579, 47.397616], "type": "Point"}, "properties": {"charge": 35, "id": "smide_2717", "name": "ZH263287", "provider": "smide", "range": 17.0, "size": 17, "time": "01/31/2020, 23:48:50"}, "type": "Feature"}, {"geometry": {"coordinates": [8.526241, 47.388203], "type": "Point"}, "properties": {"charge": 85, "id": "smide_2716", "name": "ZH254606", "provider": "smide", "range": 42.0, "size": 17, "time": "01/31/2020, 23:48:50"}, "type": "Feature"}, {"geometry": {"coordinates": [8.544155, 47.38414], "type": "Point"}, "properties": {"charge": 58, "id": "smide_2715", "name": "ZH254605", "provider": "smide", "range": 28.0, "size": 17, "time": "01/31/2020, 23:48:50"}, "type": "Feature"}, {"geometry": {"coordinates": [8.568383, 47.36764], "type": "Point"}, "properties": {"charge": 73, "id": "smide_2710", "name": "ZH256460", "provider": "smide", "range": 36.0, "size": 17, "time": "01/31/2020, 23:48:50"}, "type": "Feature"}, {"geometry": {"coordinates": [8.515625, 47.368932], "type": "Point"}, "properties": {"charge": 100, "id": "smide_2712", "name": "ZH256462", "provider": "smide", "range": 50.0, "size": 17, "time": "01/31/2020, 23:48:50"}, "type": "Feature"}, {"geometry": {"coordinates": [8.560293, 47.370132], "type": "Point"}, "properties": {"charge": 51, "id": "smide_2711", "name": "ZH256463", "provider": "smide", "range": 25.0, "size": 17, "time": "01/31/2020, 23:48:50"}, "type": "Feature"}, {"geometry": {"coordinates": [8.563975, 47.347981], "type": "Point"}, "properties": {"charge": 74, "id": "smide_2709", "name": "ZH256466", "provider": "smide", "range": 37.0, "size": 20, "time": "01/31/2020, 23:48:50"}, "type": "Feature"}, {"geometry": {"coordinates": [8.544369, 47.416496], "type": "Point"}, "properties": {"charge": 72, "id": "smide_2707", "name": "ZH256467", "provider": "smide", "range": 36.0, "size": 20, "time": "01/31/2020, 23:48:50"}, "type": "Feature"}, {"geometry": {"coordinates": [8.500073, 47.371684], "type": "Point"}, "properties": {"charge": 33, "id": "smide_2708", "name": "ZH256464", "provider": "smide", "range": 16.0, "size": 17, "time": "01/31/2020, 23:48:50"}, "type": "Feature"}, {"geometry": {"coordinates": [8.538931, 47.371664], "type": "Point"}, "properties": {"charge": 100, "id": "smide_2706", "name": "ZH256322", "provider": "smide", "range": 50.0, "size": 20, "time": "01/31/2020, 23:48:50"}, "type": "Feature"}, {"geometry": {"coordinates": [8.537126, 47.419112], "type": "Point"}, "properties": {"charge": 87, "id": "smide_2705", "name": "ZH256471", "provider": "smide", "range": 43.0, "size": 20, "time": "01/31/2020, 23:48:50"}, "type": "Feature"}, {"geometry": {"coordinates": [8.563218, 47.37234], "type": "Point"}, "properties": {"charge": 100, "id": "smide_2701", "name": "ZH256468", "provider": "smide", "range": 50.0, "size": 20, "time": "01/31/2020, 23:48:50"}, "type": "Feature"}, {"geometry": {"coordinates": [8.543776, 47.371992], "type": "Point"}, "properties": {"charge": 85, "id": "smide_2700", "name": "ZH256470", "provider": "smide", "range": 42.0, "size": 20, "time": "01/31/2020, 23:48:50"}, "type": "Feature"}, {"geometry": {"coordinates": [8.568369, 47.36766], "type": "Point"}, "properties": {"charge": 100, "id": "smide_2699", "name": "ZH254611", "provider": "smide", "range": 50.0, "size": 20, "time": "01/31/2020, 23:48:50"}, "type": "Feature"}, {"geometry": {"coordinates": [8.523357, 47.386324], "type": "Point"}, "properties": {"charge": 100, "id": "smide_2696", "name": "ZH254616", "provider": "smide", "range": 50.0, "size": 20, "time": "01/31/2020, 23:48:50"}, "type": "Feature"}, {"geometry": {"coordinates": [8.55182, 47.389164], "type": "Point"}, "properties": {"charge": 88, "id": "smide_2694", "name": "ZH254610", "provider": "smide", "range": 44.0, "size": 20, "time": "01/31/2020, 23:48:50"}, "type": "Feature"}, {"geometry": {"coordinates": [8.552666, 47.381705], "type": "Point"}, "properties": {"charge": 55, "id": "smide_2691", "name": "ZH254622", "provider": "smide", "range": 27.0, "size": 20, "time": "01/31/2020, 23:48:50"}, "type": "Feature"}, {"geometry": {"coordinates": [8.537733, 47.40319], "type": "Point"}, "properties": {"charge": 21, "id": "smide_2690", "name": "ZH254625", "provider": "smide", "range": 10.0, "size": 20, "time": "01/31/2020, 23:48:50"}, "type": "Feature"}, {"geometry": {"coordinates": [8.496705, 47.42388], "type": "Point"}, "properties": {"charge": 85, "id": "smide_2689", "name": "ZH254623", "provider": "smide", "range": 42.0, "size": 20, "time": "01/31/2020, 23:48:50"}, "type": "Feature"}, {"geometry": {"coordinates": [8.542957, 47.410912], "type": "Point"}, "properties": {"charge": 64, "id": "smide_2687", "name": "ZH263529", "provider": "smide", "range": 32.0, "size": 20, "time": "01/31/2020, 23:48:50"}, "type": "Feature"}, {"geometry": {"coordinates": [8.563409, 47.382372], "type": "Point"}, "properties": {"charge": 69, "id": "smide_2684", "name": "ZH254626", "provider": "smide", "range": 34.0, "size": 20, "time": "01/31/2020, 23:48:50"}, "type": "Feature"}, {"geometry": {"coordinates": [8.561231, 47.350473], "type": "Point"}, "properties": {"charge": 47, "id": "smide_2683", "name": "ZH254620", "provider": "smide", "range": 23.0, "size": 20, "time": "01/31/2020, 23:48:50"}, "type": "Feature"}, {"geometry": {"coordinates": [8.502536, 47.380516], "type": "Point"}, "properties": {"charge": 92, "id": "smide_2680", "name": "ZH254619", "provider": "smide", "range": 46.0, "size": 20, "time": "01/31/2020, 23:48:50"}, "type": "Feature"}, {"geometry": {"coordinates": [8.576355, 47.351156], "type": "Point"}, "properties": {"charge": 83, "id": "smide_2679", "name": "ZH258489", "provider": "smide", "range": 41.0, "size": 17, "time": "01/31/2020, 23:48:50"}, "type": "Feature"}, {"geometry": {"coordinates": [8.502162, 47.369004], "type": "Point"}, "properties": {"charge": 100, "id": "smide_2677", "name": "ZH258487", "provider": "smide", "range": 50.0, "size": 17, "time": "01/31/2020, 23:48:50"}, "type": "Feature"}, {"geometry": {"coordinates": [8.53984, 47.377228], "type": "Point"}, "properties": {"charge": 88, "id": "smide_2674", "name": "ZH258654", "provider": "smide", "range": 44.0, "size": 17, "time": "01/31/2020, 23:48:50"}, "type": "Feature"}, {"geometry": {"coordinates": [8.532101, 47.416992], "type": "Point"}, "properties": {"charge": 100, "id": "smide_2671", "name": "ZH258645", "provider": "smide", "range": 50.0, "size": 17, "time": "01/31/2020, 23:48:50"}, "type": "Feature"}, {"geometry": {"coordinates": [8.520275, 47.385716], "type": "Point"}, "properties": {"charge": 71, "id": "smide_2669", "name": "ZH263294", "provider": "smide", "range": 35.0, "size": 17, "time": "01/31/2020, 23:48:50"}, "type": "Feature"}, {"geometry": {"coordinates": [8.502825, 47.35962], "type": "Point"}, "properties": {"charge": 92, "id": "smide_2666", "name": "ZH258653", "provider": "smide", "range": 46.0, "size": 17, "time": "01/31/2020, 23:48:50"}, "type": "Feature"}, {"geometry": {"coordinates": [8.517855, 47.38644], "type": "Point"}, "properties": {"charge": 76, "id": "smide_2665", "name": "ZH258644", "provider": "smide", "range": 38.0, "size": 17, "time": "01/31/2020, 23:48:50"}, "type": "Feature"}, {"geometry": {"coordinates": [8.533645, 47.384776], "type": "Point"}, "properties": {"charge": 12, "id": "smide_2664", "name": "ZH258652", "provider": "smide", "range": 6.0, "size": 17, "time": "01/31/2020, 23:48:50"}, "type": "Feature"}, {"geometry": {"coordinates": [8.56845, 47.366828], "type": "Point"}, "properties": {"charge": 35, "id": "smide_2662", "name": "ZH258643", "provider": "smide", "range": 17.0, "size": 17, "time": "01/31/2020, 23:48:50"}, "type": "Feature"}, {"geometry": {"coordinates": [8.502154, 47.370248], "type": "Point"}, "properties": {"charge": 74, "id": "smide_2660", "name": "ZH258647", "provider": "smide", "range": 37.0, "size": 17, "time": "01/31/2020, 23:48:50"}, "type": "Feature"}, {"geometry": {"coordinates": [8.524003, 47.37572], "type": "Point"}, "properties": {"charge": 44, "id": "smide_2648", "name": "ZH257930", "provider": "smide", "range": 22.0, "size": 20, "time": "01/31/2020, 23:48:50"}, "type": "Feature"}, {"geometry": {"coordinates": [8.570298, 47.352073], "type": "Point"}, "properties": {"charge": 57, "id": "smide_2657", "name": "ZH257936", "provider": "smide", "range": 28.0, "size": 17, "time": "01/31/2020, 23:48:50"}, "type": "Feature"}, {"geometry": {"coordinates": [8.540771, 47.378476], "type": "Point"}, "properties": {"charge": 80, "id": "smide_2647", "name": "ZH257932", "provider": "smide", "range": 40.0, "size": 20, "time": "01/31/2020, 23:48:50"}, "type": "Feature"}, {"geometry": {"coordinates": [8.515904, 47.396968], "type": "Point"}, "properties": {"charge": 47, "id": "smide_2645", "name": "ZH257933", "provider": "smide", "range": 23.0, "size": 20, "time": "01/31/2020, 23:48:50"}, "type": "Feature"}, {"geometry": {"coordinates": [8.49884, 47.399291], "type": "Point"}, "properties": {"charge": 87, "id": "smide_3", "name": "ZH253765", "provider": "smide", "range": 43.0, "size": 20, "time": "01/31/2020, 23:48:50"}, "type": "Feature"}, {"geometry": {"coordinates": [8.52619, 47.408396], "type": "Point"}, "properties": {"charge": 77, "id": "smide_105", "name": "ZH253804", "provider": "smide", "range": 38.0, "size": 17, "time": "01/31/2020, 23:48:50"}, "type": "Feature"}, {"geometry": {"coordinates": [8.542105, 47.407588], "type": "Point"}, "properties": {"charge": 91, "id": "smide_186", "name": "ZH253751", "provider": "smide", "range": 45.0, "size": 20, "time": "01/31/2020, 23:48:50"}, "type": "Feature"}, {"geometry": {"coordinates": [8.571157, 47.352496], "type": "Point"}, "properties": {"charge": 93, "id": "smide_173", "name": "ZH258501", "provider": "smide", "range": 46.0, "size": 17, "time": "01/31/2020, 23:48:50"}, "type": "Feature"}, {"geometry": {"coordinates": [8.559232, 47.405932], "type": "Point"}, "properties": {"charge": 73, "id": "smide_77", "name": "ZH261548", "provider": "smide", "range": 36.0, "size": 20, "time": "01/31/2020, 23:48:50"}, "type": "Feature"}, {"geometry": {"coordinates": [8.563014, 47.365056], "type": "Point"}, "properties": {"charge": 91, "id": "smide_200", "name": "ZH253801", "provider": "smide", "range": 45.0, "size": 20, "time": "01/31/2020, 23:48:50"}, "type": "Feature"}, {"geometry": {"coordinates": [8.541901, 47.369876], "type": "Point"}, "properties": {"charge": 72, "id": "smide_197", "name": "ZH253864", "provider": "smide", "range": 36.0, "size": 20, "time": "01/31/2020, 23:48:50"}, "type": "Feature"}, {"geometry": {"coordinates": [8.558994, 47.41474], "type": "Point"}, "properties": {"charge": 100, "id": "smide_199", "name": "ZH253766", "provider": "smide", "range": 50.0, "size": 20, "time": "01/31/2020, 23:48:50"}, "type": "Feature"}, {"geometry": {"coordinates": [8.56041, 47.38208], "type": "Point"}, "properties": {"charge": 57, "id": "smide_8", "name": "ZH253861", "provider": "smide", "range": 28.0, "size": 17, "time": "01/31/2020, 23:48:50"}, "type": "Feature"}, {"geometry": {"coordinates": [8.502073, 47.368836], "type": "Point"}, "properties": {"charge": 100, "id": "smide_201", "name": "ZH253698", "provider": "smide", "range": 50.0, "size": 17, "time": "01/31/2020, 23:48:50"}, "type": "Feature"}, {"geometry": {"coordinates": [8.56288, 47.382311], "type": "Point"}, "properties": {"charge": 76, "id": "smide_45", "name": "ZH253716", "provider": "smide", "range": 38.0, "size": 17, "time": "01/31/2020, 23:48:50"}, "type": "Feature"}, {"geometry": {"coordinates": [8.542542, 47.371044], "type": "Point"}, "properties": {"charge": 62, "id": "smide_188", "name": "ZH261543", "provider": "smide", "range": 31.0, "size": 20, "time": "01/31/2020, 23:48:50"}, "type": "Feature"}, {"geometry": {"coordinates": [8.540519, 47.417368], "type": "Point"}, "properties": {"charge": 44, "id": "smide_101", "name": "ZH253814", "provider": "smide", "range": 22.0, "size": 17, "time": "01/31/2020, 23:48:50"}, "type": "Feature"}, {"geometry": {"coordinates": [8.500395, 47.368672], "type": "Point"}, "properties": {"charge": 92, "id": "smide_9", "name": "ZH253796", "provider": "smide", "range": 46.0, "size": 17, "time": "01/31/2020, 23:48:50"}, "type": "Feature"}, {"geometry": {"coordinates": [8.558953, 47.414744], "type": "Point"}, "properties": {"charge": 100, "id": "smide_143", "name": "ZH253778", "provider": "smide", "range": 50.0, "size": 17, "time": "01/31/2020, 23:48:50"}, "type": "Feature"}, {"geometry": {"coordinates": [8.557066, 47.413071], "type": "Point"}, "properties": {"charge": 11, "id": "smide_180", "name": "ZH253824", "provider": "smide", "range": 5.0, "size": 20, "time": "01/31/2020, 23:48:50"}, "type": "Feature"}, {"geometry": {"coordinates": [8.56874, 47.360864], "type": "Point"}, "properties": {"charge": 65, "id": "smide_20", "name": "ZH253770", "provider": "smide", "range": 32.0, "size": 20, "time": "01/31/2020, 23:48:50"}, "type": "Feature"}, {"geometry": {"coordinates": [8.554905, 47.377228], "type": "Point"}, "properties": {"charge": 86, "id": "smide_50", "name": "ZH253853", "provider": "smide", "range": 43.0, "size": 17, "time": "01/31/2020, 23:48:50"}, "type": "Feature"}, {"geometry": {"coordinates": [8.539958, 47.378643], "type": "Point"}, "properties": {"charge": 100, "id": "smide_30", "name": "ZH253813", "provider": "smide", "range": 50.0, "size": 20, "time": "01/31/2020, 23:48:50"}, "type": "Feature"}, {"geometry": {"coordinates": [8.521723, 47.366766], "type": "Point"}, "properties": {"charge": 89, "id": "smide_10", "name": "ZH253855", "provider": "smide", "range": 44.0, "size": 17, "time": "01/31/2020, 23:48:50"}, "type": "Feature"}, {"geometry": {"coordinates": [8.528243, 47.394992], "type": "Point"}, "properties": {"charge": 55, "id": "smide_179", "name": "ZH253687", "provider": "smide", "range": 27.0, "size": 20, "time": "01/31/2020, 23:48:50"}, "type": "Feature"}, {"geometry": {"coordinates": [8.502028, 47.36888], "type": "Point"}, "properties": {"charge": 100, "id": "smide_84", "name": "ZH253733", "provider": "smide", "range": 50.0, "size": 17, "time": "01/31/2020, 23:48:50"}, "type": "Feature"}, {"geometry": {"coordinates": [8.541682, 47.376084], "type": "Point"}, "properties": {"charge": 48, "id": "smide_165", "name": "ZH253752", "provider": "smide", "range": 24.0, "size": 17, "time": "01/31/2020, 23:48:50"}, "type": "Feature"}, {"geometry": {"coordinates": [8.543401, 47.3765], "type": "Point"}, "properties": {"charge": 45, "id": "smide_76", "name": "ZH253764", "provider": "smide", "range": 22.0, "size": 17, "time": "01/31/2020, 23:48:50"}, "type": "Feature"}, {"geometry": {"coordinates": [8.560135, 47.381238], "type": "Point"}, "properties": {"charge": 22, "id": "smide_49", "name": "ZH253873", "provider": "smide", "range": 11.0, "size": 17, "time": "01/31/2020, 23:48:50"}, "type": "Feature"}, {"geometry": {"coordinates": [8.502133, 47.362288], "type": "Point"}, "properties": {"charge": 74, "id": "smide_94", "name": "ZH253754", "provider": "smide", "range": 37.0, "size": 17, "time": "01/31/2020, 23:48:50"}, "type": "Feature"}, {"geometry": {"coordinates": [8.495746, 47.385036], "type": "Point"}, "properties": {"charge": 78, "id": "smide_37", "name": "ZH261377", "provider": "smide", "range": 39.0, "size": 20, "time": "01/31/2020, 23:48:50"}, "type": "Feature"}, {"geometry": {"coordinates": [8.544155, 47.369136], "type": "Point"}, "properties": {"charge": 87, "id": "smide_191", "name": "ZH253762", "provider": "smide", "range": 43.0, "size": 17, "time": "01/31/2020, 23:48:50"}, "type": "Feature"}, {"geometry": {"coordinates": [8.545326, 47.376725], "type": "Point"}, "properties": {"charge": 48, "id": "smide_202", "name": "ZH253830", "provider": "smide", "range": 24.0, "size": 17, "time": "01/31/2020, 23:48:50"}, "type": "Feature"}, {"geometry": {"coordinates": [8.539705, 47.40888], "type": "Point"}, "properties": {"charge": 73, "id": "smide_56", "name": "ZH261442", "provider": "smide", "range": 36.0, "size": 20, "time": "01/31/2020, 23:48:50"}, "type": "Feature"}, {"geometry": {"coordinates": [8.559168, 47.415075], "type": "Point"}, "properties": {"charge": 62, "id": "smide_47", "name": "ZH253858", "provider": "smide", "range": 31.0, "size": 17, "time": "01/31/2020, 23:48:50"}, "type": "Feature"}, {"geometry": {"coordinates": [8.559773, 47.404104], "type": "Point"}, "properties": {"charge": 100, "id": "smide_66", "name": "ZH253818", "provider": "smide", "range": 50.0, "size": 20, "time": "01/31/2020, 23:48:50"}, "type": "Feature"}, {"geometry": {"coordinates": [8.548171, 47.405723], "type": "Point"}, "properties": {"charge": 99, "id": "smide_17", "name": "ZH253793", "provider": "smide", "range": 49.0, "size": 17, "time": "01/31/2020, 23:48:50"}, "type": "Feature"}, {"geometry": {"coordinates": [8.564111, 47.366872], "type": "Point"}, "properties": {"charge": 73, "id": "smide_127", "name": "ZH253808", "provider": "smide", "range": 36.0, "size": 20, "time": "01/31/2020, 23:48:50"}, "type": "Feature"}, {"geometry": {"coordinates": [8.537498, 47.416218], "type": "Point"}, "properties": {"charge": 86, "id": "smide_145", "name": "ZH253780", "provider": "smide", "range": 43.0, "size": 20, "time": "01/31/2020, 23:48:50"}, "type": "Feature"}, {"geometry": {"coordinates": [8.548175, 47.366212], "type": "Point"}, "properties": {"charge": 87, "id": "smide_203", "name": "ZH261547", "provider": "smide", "range": 43.0, "size": 17, "time": "01/31/2020, 23:48:50"}, "type": "Feature"}, {"geometry": {"coordinates": [8.527346, 47.360376], "type": "Point"}, "properties": {"charge": 94, "id": "smide_21", "name": "ZH253841", "provider": "smide", "range": 47.0, "size": 17, "time": "01/31/2020, 23:48:50"}, "type": "Feature"}, {"geometry": {"coordinates": [8.533398, 47.39646], "type": "Point"}, "properties": {"charge": 100, "id": "smide_164", "name": "ZH253775", "provider": "smide", "range": 50.0, "size": 17, "time": "01/31/2020, 23:48:50"}, "type": "Feature"}, {"geometry": {"coordinates": [8.487378, 47.367604], "type": "Point"}, "properties": {"charge": 93, "id": "smide_189", "name": "ZH253845", "provider": "smide", "range": 46.0, "size": 20, "time": "01/31/2020, 23:48:50"}, "type": "Feature"}, {"geometry": {"coordinates": [8.554647, 47.40312], "type": "Point"}, "properties": {"charge": 55, "id": "smide_81", "name": "ZH253753", "provider": "smide", "range": 27.0, "size": 17, "time": "01/31/2020, 23:48:50"}, "type": "Feature"}, {"geometry": {"coordinates": [8.553791, 47.374648], "type": "Point"}, "properties": {"charge": 60, "id": "smide_93", "name": "ZH253681", "provider": "smide", "range": 30.0, "size": 17, "time": "01/31/2020, 23:48:50"}, "type": "Feature"}, {"geometry": {"coordinates": [8.573158, 47.352528], "type": "Point"}, "properties": {"charge": 88, "id": "smide_67", "name": "ZH253779", "provider": "smide", "range": 44.0, "size": 17, "time": "01/31/2020, 23:48:50"}, "type": "Feature"}, {"geometry": {"coordinates": [8.537107, 47.419108], "type": "Point"}, "properties": {"charge": 66, "id": "smide_133", "name": "ZH253848", "provider": "smide", "range": 33.0, "size": 20, "time": "01/31/2020, 23:48:50"}, "type": "Feature"}, {"geometry": {"coordinates": [8.482058, 47.385765], "type": "Point"}, "properties": {"charge": 100, "id": "smide_118", "name": "ZH253759", "provider": "smide", "range": 50.0, "size": 20, "time": "01/31/2020, 23:48:50"}, "type": "Feature"}, {"geometry": {"coordinates": [8.531778, 47.364088], "type": "Point"}, "properties": {"charge": 28, "id": "smide_142", "name": "ZH258745", "provider": "smide", "range": 14.0, "size": 17, "time": "01/31/2020, 23:48:50"}, "type": "Feature"}, {"geometry": {"coordinates": [8.529245, 47.374853], "type": "Point"}, "properties": {"charge": 63, "id": "smide_166", "name": "ZH253728", "provider": "smide", "range": 31.0, "size": 17, "time": "01/31/2020, 23:48:50"}, "type": "Feature"}, {"geometry": {"coordinates": [8.537755, 47.389404], "type": "Point"}, "properties": {"charge": 71, "id": "smide_126", "name": "ZH268400", "provider": "smide", "range": 35.0, "size": 17, "time": "01/31/2020, 23:48:50"}, "type": "Feature"}, {"geometry": {"coordinates": [8.571964, 47.355148], "type": "Point"}, "properties": {"charge": 100, "id": "smide_154", "name": "ZH253744", "provider": "smide", "range": 50.0, "size": 20, "time": "01/31/2020, 23:48:50"}, "type": "Feature"}, {"geometry": {"coordinates": [8.564568, 47.369368], "type": "Point"}, "properties": {"charge": 84, "id": "smide_7", "name": "ZH256289", "provider": "smide", "range": 42.0, "size": 20, "time": "01/31/2020, 23:48:50"}, "type": "Feature"}, {"geometry": {"coordinates": [8.560393, 47.372352], "type": "Point"}, "properties": {"charge": 86, "id": "smide_92", "name": "ZH253798", "provider": "smide", "range": 43.0, "size": 17, "time": "01/31/2020, 23:48:50"}, "type": "Feature"}, {"geometry": {"coordinates": [8.54765, 47.422296], "type": "Point"}, "properties": {"charge": 67, "id": "smide_167", "name": "ZH253854", "provider": "smide", "range": 33.0, "size": 17, "time": "01/31/2020, 23:48:50"}, "type": "Feature"}, {"geometry": {"coordinates": [8.500443, 47.370152], "type": "Point"}, "properties": {"charge": 23, "id": "smide_65", "name": "ZH253810", "provider": "smide", "range": 11.0, "size": 17, "time": "01/31/2020, 23:48:50"}, "type": "Feature"}, {"geometry": {"coordinates": [8.546339, 47.41254], "type": "Point"}, "properties": {"charge": 100, "id": "smide_40", "name": "ZH253690", "provider": "smide", "range": 50.0, "size": 20, "time": "01/31/2020, 23:48:50"}, "type": "Feature"}, {"geometry": {"coordinates": [8.557688, 47.351944], "type": "Point"}, "properties": {"charge": 99, "id": "smide_1", "name": "ZH253776", "provider": "smide", "range": 49.0, "size": 17, "time": "01/31/2020, 23:48:50"}, "type": "Feature"}, {"geometry": {"coordinates": [8.51768, 47.414332], "type": "Point"}, "properties": {"charge": 80, "id": "smide_28", "name": "ZH253831", "provider": "smide", "range": 40.0, "size": 17, "time": "01/31/2020, 23:48:50"}, "type": "Feature"}, {"geometry": {"coordinates": [8.520008, 47.340226], "type": "Point"}, "properties": {"charge": 79, "id": "smide_14", "name": "ZH253749", "provider": "smide", "range": 39.0, "size": 20, "time": "01/31/2020, 23:48:50"}, "type": "Feature"}, {"geometry": {"coordinates": [8.529253, 47.3829], "type": "Point"}, "properties": {"charge": 34, "id": "smide_130", "name": "ZH253847", "provider": "smide", "range": 17.0, "size": 20, "time": "01/31/2020, 23:48:50"}, "type": "Feature"}, {"geometry": {"coordinates": [8.540907, 47.378324], "type": "Point"}, "properties": {"charge": 46, "id": "smide_24", "name": "ZH253696", "provider": "smide", "range": 23.0, "size": 20, "time": "01/31/2020, 23:48:50"}, "type": "Feature"}, {"geometry": {"coordinates": [8.502062, 47.369136], "type": "Point"}, "properties": {"charge": 100, "id": "smide_107", "name": "ZH253819", "provider": "smide", "range": 50.0, "size": 17, "time": "01/31/2020, 23:48:50"}, "type": "Feature"}, {"geometry": {"coordinates": [8.540018, 47.37918], "type": "Point"}, "properties": {"charge": 100, "id": "smide_136", "name": "ZH253682", "provider": "smide", "range": 50.0, "size": 17, "time": "01/31/2020, 23:48:50"}, "type": "Feature"}, {"geometry": {"coordinates": [8.52536, 47.379192], "type": "Point"}, "properties": {"charge": 57, "id": "smide_83", "name": "ZH253869", "provider": "smide", "range": 28.0, "size": 20, "time": "01/31/2020, 23:48:50"}, "type": "Feature"}, {"geometry": {"coordinates": [8.53741, 47.379428], "type": "Point"}, "properties": {"charge": 49, "id": "smide_193", "name": "ZH253738", "provider": "smide", "range": 24.0, "size": 20, "time": "01/31/2020, 23:48:50"}, "type": "Feature"}, {"geometry": {"coordinates": [8.545181, 47.412256], "type": "Point"}, "properties": {"charge": 100, "id": "smide_73", "name": "ZH261379", "provider": "smide", "range": 50.0, "size": 20, "time": "01/31/2020, 23:48:50"}, "type": "Feature"}, {"geometry": {"coordinates": [8.485418, 47.374895], "type": "Point"}, "properties": {"charge": 100, "id": "smide_158", "name": "ZH253870", "provider": "smide", "range": 50.0, "size": 20, "time": "01/31/2020, 23:48:50"}, "type": "Feature"}, {"geometry": {"coordinates": [8.496566, 47.423876], "type": "Point"}, "properties": {"charge": 100, "id": "smide_100", "name": "ZH253862", "provider": "smide", "range": 50.0, "size": 20, "time": "01/31/2020, 23:48:50"}, "type": "Feature"}, {"geometry": {"coordinates": [8.4887, 47.392381], "type": "Point"}, "properties": {"charge": 100, "id": "smide_134", "name": "ZH253741", "provider": "smide", "range": 50.0, "size": 20, "time": "01/31/2020, 23:48:50"}, "type": "Feature"}, {"geometry": {"coordinates": [8.566846, 47.3621], "type": "Point"}, "properties": {"charge": 46, "id": "smide_149", "name": "ZH253743", "provider": "smide", "range": 23.0, "size": 20, "time": "01/31/2020, 23:48:50"}, "type": "Feature"}, {"geometry": {"coordinates": [8.549099, 47.382136], "type": "Point"}, "properties": {"charge": 98, "id": "smide_16", "name": "ZH253713", "provider": "smide", "range": 49.0, "size": 20, "time": "01/31/2020, 23:48:50"}, "type": "Feature"}, {"geometry": {"coordinates": [8.52708, 47.375948], "type": "Point"}, "properties": {"charge": 67, "id": "smide_74", "name": "ZH253693", "provider": "smide", "range": 33.0, "size": 20, "time": "01/31/2020, 23:48:50"}, "type": "Feature"}, {"geometry": {"coordinates": [8.576466, 47.351486], "type": "Point"}, "properties": {"charge": 83, "id": "smide_33", "name": "ZH253782", "provider": "smide", "range": 41.0, "size": 20, "time": "01/31/2020, 23:48:50"}, "type": "Feature"}, {"geometry": {"coordinates": [8.560331, 47.37234], "type": "Point"}, "properties": {"charge": 60, "id": "smide_161", "name": "ZH253691", "provider": "smide", "range": 30.0, "size": 20, "time": "01/31/2020, 23:48:50"}, "type": "Feature"}, {"geometry": {"coordinates": [8.524138, 47.376855], "type": "Point"}, "properties": {"charge": 58, "id": "smide_183", "name": "ZH253868", "provider": "smide", "range": 28.0, "size": 17, "time": "01/31/2020, 23:48:50"}, "type": "Feature"}, {"geometry": {"coordinates": [8.533331, 47.34804], "type": "Point"}, "properties": {"charge": 89, "id": "smide_42", "name": "ZH253846", "provider": "smide", "range": 44.0, "size": 20, "time": "01/31/2020, 23:48:50"}, "type": "Feature"}, {"geometry": {"coordinates": [8.539389, 47.419284], "type": "Point"}, "properties": {"charge": 97, "id": "smide_4", "name": "ZH253740", "provider": "smide", "range": 48.0, "size": 20, "time": "01/31/2020, 23:48:50"}, "type": "Feature"}, {"geometry": {"coordinates": [8.573205, 47.349096], "type": "Point"}, "properties": {"charge": 98, "id": "smide_137", "name": "ZH258502", "provider": "smide", "range": 49.0, "size": 17, "time": "01/31/2020, 23:48:50"}, "type": "Feature"}, {"geometry": {"coordinates": [8.577459, 47.353044], "type": "Point"}, "properties": {"charge": 98, "id": "smide_178", "name": "ZH253803", "provider": "smide", "range": 49.0, "size": 17, "time": "01/31/2020, 23:48:50"}, "type": "Feature"}, {"geometry": {"coordinates": [8.487386, 47.384243], "type": "Point"}, "properties": {"charge": 42, "id": "smide_55", "name": "ZH253875", "provider": "smide", "range": 21.0, "size": 17, "time": "01/31/2020, 23:48:50"}, "type": "Feature"}, {"geometry": {"coordinates": [8.517099, 47.398416], "type": "Point"}, "properties": {"charge": 59, "id": "smide_96", "name": "ZH256146", "provider": "smide", "range": 29.0, "size": 20, "time": "01/31/2020, 23:48:50"}, "type": "Feature"}, {"geometry": {"coordinates": [8.550833, 47.392348], "type": "Point"}, "properties": {"charge": 34, "id": "smide_58", "name": "ZH259246", "provider": "smide", "range": 17.0, "size": 20, "time": "01/31/2020, 23:48:50"}, "type": "Feature"}, {"geometry": {"coordinates": [8.510848, 47.366944], "type": "Point"}, "properties": {"charge": 72, "id": "smide_54", "name": "ZH253874", "provider": "smide", "range": 36.0, "size": 20, "time": "01/31/2020, 23:48:50"}, "type": "Feature"}, {"geometry": {"coordinates": [8.552008, 47.389716], "type": "Point"}, "properties": {"charge": 100, "id": "smide_175", "name": "ZH253730", "provider": "smide", "range": 50.0, "size": 17, "time": "01/31/2020, 23:48:50"}, "type": "Feature"}, {"geometry": {"coordinates": [8.502136, 47.368912], "type": "Point"}, "properties": {"charge": 100, "id": "smide_95", "name": "ZH253773", "provider": "smide", "range": 50.0, "size": 17, "time": "01/31/2020, 23:48:50"}, "type": "Feature"}, {"geometry": {"coordinates": [8.530949, 47.415332], "type": "Point"}, "properties": {"charge": 71, "id": "smide_112", "name": "ZH263530", "provider": "smide", "range": 35.0, "size": 20, "time": "01/31/2020, 23:48:50"}, "type": "Feature"}, {"geometry": {"coordinates": [8.564239, 47.369288], "type": "Point"}, "properties": {"charge": 46, "id": "smide_122", "name": "ZH253850", "provider": "smide", "range": 23.0, "size": 20, "time": "01/31/2020, 23:48:50"}, "type": "Feature"}, {"geometry": {"coordinates": [8.553721, 47.381728], "type": "Point"}, "properties": {"charge": 87, "id": "smide_38", "name": "ZH253851", "provider": "smide", "range": 43.0, "size": 20, "time": "01/31/2020, 23:48:50"}, "type": "Feature"}, {"geometry": {"coordinates": [8.558567, 47.404352], "type": "Point"}, "properties": {"charge": 91, "id": "smide_6", "name": "ZH253787", "provider": "smide", "range": 45.0, "size": 17, "time": "01/31/2020, 23:48:50"}, "type": "Feature"}, {"geometry": {"coordinates": [8.566921, 47.360368], "type": "Point"}, "properties": {"charge": 75, "id": "smide_12", "name": "ZH253685", "provider": "smide", "range": 37.0, "size": 17, "time": "01/31/2020, 23:48:50"}, "type": "Feature"}, {"geometry": {"coordinates": [8.576272, 47.348788], "type": "Point"}, "properties": {"charge": 95, "id": "smide_192", "name": "ZH253706", "provider": "smide", "range": 47.0, "size": 20, "time": "01/31/2020, 23:48:50"}, "type": "Feature"}, {"geometry": {"coordinates": [8.548024, 47.366276], "type": "Point"}, "properties": {"charge": 79, "id": "smide_39", "name": "ZH253714", "provider": "smide", "range": 39.0, "size": 20, "time": "01/31/2020, 23:48:50"}, "type": "Feature"}, {"geometry": {"coordinates": [8.543708, 47.371746], "type": "Point"}, "properties": {"charge": 79, "id": "smide_5", "name": "ZH261443", "provider": "smide", "range": 39.0, "size": 20, "time": "01/31/2020, 23:48:50"}, "type": "Feature"}, {"geometry": {"coordinates": [8.562608, 47.377728], "type": "Point"}, "properties": {"charge": 100, "id": "smide_85", "name": "ZH253729", "provider": "smide", "range": 50.0, "size": 17, "time": "01/31/2020, 23:48:50"}, "type": "Feature"}, {"geometry": {"coordinates": [8.531414, 47.391108], "type": "Point"}, "properties": {"charge": 34, "id": "smide_29", "name": "ZH253723", "provider": "smide", "range": 17.0, "size": 17, "time": "01/31/2020, 23:48:50"}, "type": "Feature"}, {"geometry": {"coordinates": [8.54756, 47.39094], "type": "Point"}, "properties": {"charge": 55, "id": "smide_48", "name": "ZH253849", "provider": "smide", "range": 27.0, "size": 20, "time": "01/31/2020, 23:48:50"}, "type": "Feature"}, {"geometry": {"coordinates": [8.538438, 47.379288], "type": "Point"}, "properties": {"charge": 100, "id": "smide_46", "name": "ZH253843", "provider": "smide", "range": 50.0, "size": 20, "time": "01/31/2020, 23:48:50"}, "type": "Feature"}, {"geometry": {"coordinates": [8.518355, 47.3862], "type": "Point"}, "properties": {"charge": 16, "id": "bird_14c04621-ee94-464d-90fb-27c9101e0ed4", "provider": "bird", "timeStamp": "01/31/2020, 23:48:50"}, "type": "Feature"}, {"geometry": {"coordinates": [8.51840666666667, 47.3862416666667], "type": "Point"}, "properties": {"charge": 17, "id": "bird_b35b3459-34db-40b1-a9b1-16a4438e7f0e", "provider": "bird", "timeStamp": "01/31/2020, 23:48:50"}, "type": "Feature"}, {"geometry": {"coordinates": [8.518465, 47.3862683333333], "type": "Point"}, "properties": {"charge": 11, "id": "bird_f0df9624-6239-42fb-89f9-eb3eca199c88", "provider": "bird", "timeStamp": "01/31/2020, 23:48:50"}, "type": "Feature"}, {"geometry": {"coordinates": [8.52313666666667, 47.371155], "type": "Point"}, "properties": {"charge": 70, "id": "bird_ddd004f5-63d1-4535-a020-114e4643e5f7", "provider": "bird", "timeStamp": "01/31/2020, 23:48:50"}, "type": "Feature"}, {"geometry": {"coordinates": [8.5231492, 47.3711709], "type": "Point"}, "properties": {"charge": 35, "id": "bird_84d48efe-4a1f-4fe8-943e-4d21e0f84bc6", "provider": "bird", "timeStamp": "01/31/2020, 23:48:50"}, "type": "Feature"}, {"geometry": {"coordinates": [8.51849333333333, 47.3862266666667], "type": "Point"}, "properties": {"charge": 19, "id": "bird_78b4ad7f-d8bb-4cf3-9d81-8f5d993a18dc", "provider": "bird", "timeStamp": "01/31/2020, 23:48:50"}, "type": "Feature"}, {"geometry": {"coordinates": [8.51849833333333, 47.38623], "type": "Point"}, "properties": {"charge": 11, "id": "bird_ab0643c4-05fb-4624-82d0-823e755acd4a", "provider": "bird", "timeStamp": "01/31/2020, 23:48:50"}, "type": "Feature"}, {"geometry": {"coordinates": [8.51839, 47.386105], "type": "Point"}, "properties": {"charge": 83, "id": "bird_30e7628b-5f2a-4057-a915-4f214bd7b29a", "provider": "bird", "timeStamp": "01/31/2020, 23:48:50"}, "type": "Feature"}, {"geometry": {"coordinates": [8.51845, 47.38615], "type": "Point"}, "properties": {"charge": 10, "id": "bird_5d900a90-8d25-41ea-8f9a-752960c03bad", "provider": "bird", "timeStamp": "01/31/2020, 23:48:50"}, "type": "Feature"}, {"geometry": {"coordinates": [8.51674666666667, 47.3757283333333], "type": "Point"}, "properties": {"charge": 93, "id": "bird_5b9f9e50-3bf6-4970-b011-a3f9449dd214", "provider": "bird", "timeStamp": "01/31/2020, 23:48:50"}, "type": "Feature"}, {"geometry": {"coordinates": [8.516765, 47.37571], "type": "Point"}, "properties": {"charge": 100, "id": "bird_40b98b4c-7a51-4a4c-82ee-a05d6ed4716a", "provider": "bird", "timeStamp": "01/31/2020, 23:48:50"}, "type": "Feature"}, {"geometry": {"coordinates": [8.51851666666667, 47.3861816666667], "type": "Point"}, "properties": {"charge": 13, "id": "bird_922589a3-74a4-40f3-881a-d9c9400256be", "provider": "bird", "timeStamp": "01/31/2020, 23:48:50"}, "type": "Feature"}, {"geometry": {"coordinates": [8.51790833333333, 47.3856166666667], "type": "Point"}, "properties": {"charge": 100, "id": "bird_937a18bc-4b86-42e8-8f96-fa688c3a0505", "provider": "bird", "timeStamp": "01/31/2020, 23:48:50"}, "type": "Feature"}, {"geometry": {"coordinates": [8.51857666666667, 47.3862033333333], "type": "Point"}, "properties": {"charge": 12, "id": "bird_6f5a4079-feca-4195-8078-d2d25466103f", "provider": "bird", "timeStamp": "01/31/2020, 23:48:50"}, "type": "Feature"}, {"geometry": {"coordinates": [8.51851833333333, 47.3861433333333], "type": "Point"}, "properties": {"charge": 22, "id": "bird_e426179b-e1f0-445a-b16f-bcabd50c2852", "provider": "bird", "timeStamp": "01/31/2020, 23:48:50"}, "type": "Feature"}, {"geometry": {"coordinates": [8.5184, 47.3859783333333], "type": "Point"}, "properties": {"charge": 58, "id": "bird_4f236185-4e56-489f-99d4-064ac73f7a60", "provider": "bird", "timeStamp": "01/31/2020, 23:48:50"}, "type": "Feature"}, {"geometry": {"coordinates": [8.51987, 47.3729483333333], "type": "Point"}, "properties": {"charge": 78, "id": "bird_e6d0e6e1-5800-467f-b292-c6304a9ab0a0", "provider": "bird", "timeStamp": "01/31/2020, 23:48:50"}, "type": "Feature"}, {"geometry": {"coordinates": [8.51699166666667, 47.37571], "type": "Point"}, "properties": {"charge": 100, "id": "bird_d1aee8a7-93c1-4891-ab36-b0e8d314dcb5", "provider": "bird", "timeStamp": "01/31/2020, 23:48:50"}, "type": "Feature"}, {"geometry": {"coordinates": [8.54340833333333, 47.3764266666667], "type": "Point"}, "properties": {"charge": 60, "id": "bird_df3f05c5-b551-4dd4-965e-d8df0984ef97", "provider": "bird", "timeStamp": "01/31/2020, 23:48:50"}, "type": "Feature"}, {"geometry": {"coordinates": [8.51849333333333, 47.3858683333333], "type": "Point"}, "properties": {"charge": 57, "id": "bird_83dd088c-a20a-445e-8f1d-9adc8af2cb35", "provider": "bird", "timeStamp": "01/31/2020, 23:48:50"}, "type": "Feature"}, {"geometry": {"coordinates": [8.53584333333333, 47.3711133333333], "type": "Point"}, "properties": {"charge": 98, "id": "bird_49fb1c6d-9a53-4492-a584-5f68759c123c", "provider": "bird", "timeStamp": "01/31/2020, 23:48:50"}, "type": "Feature"}, {"geometry": {"coordinates": [8.53584666666667, 47.3711433333333], "type": "Point"}, "properties": {"charge": 100, "id": "bird_1d7a0dc7-8625-4632-8560-6de53f4d2b56", "provider": "bird", "timeStamp": "01/31/2020, 23:48:50"}, "type": "Feature"}, {"geometry": {"coordinates": [8.51730833333333, 47.37553], "type": "Point"}, "properties": {"charge": 80, "id": "bird_16ef714e-7991-4fa6-a7f4-e8e1bd8937eb", "provider": "bird", "timeStamp": "01/31/2020, 23:48:50"}, "type": "Feature"}, {"geometry": {"coordinates": [8.53706, 47.371575], "type": "Point"}, "properties": {"charge": 100, "id": "bird_0741e480-b748-458c-b64b-dda0c39c2c65", "provider": "bird", "timeStamp": "01/31/2020, 23:48:50"}, "type": "Feature"}, {"geometry": {"coordinates": [8.537045, 47.3715966666667], "type": "Point"}, "properties": {"charge": 100, "id": "bird_ed5d8726-aa9d-4e39-b951-43fd8ed8706b", "provider": "bird", "timeStamp": "01/31/2020, 23:48:50"}, "type": "Feature"}, {"geometry": {"coordinates": [8.51738833333333, 47.3755116666667], "type": "Point"}, "properties": {"charge": 100, "id": "bird_a59a35f4-d77b-4db6-bbb9-2be6a3d292e1", "provider": "bird", "timeStamp": "01/31/2020, 23:48:50"}, "type": "Feature"}, {"geometry": {"coordinates": [8.515775, 47.3796466666667], "type": "Point"}, "properties": {"charge": 100, "id": "bird_2eb41f12-78cc-4f70-9cc2-e1dbad0396c9", "provider": "bird", "timeStamp": "01/31/2020, 23:48:50"}, "type": "Feature"}, {"geometry": {"coordinates": [8.51578833333333, 47.379685], "type": "Point"}, "properties": {"charge": 100, "id": "bird_1089fb3c-cf0a-4358-8892-4db7a1335564", "provider": "bird", "timeStamp": "01/31/2020, 23:48:50"}, "type": "Feature"}, {"geometry": {"coordinates": [8.51858, 47.385635], "type": "Point"}, "properties": {"charge": 35, "id": "bird_0c42abea-7092-4537-8a45-f55302aae064", "provider": "bird", "timeStamp": "01/31/2020, 23:48:50"}, "type": "Feature"}, {"geometry": {"coordinates": [8.53621333333333, 47.3714866666667], "type": "Point"}, "properties": {"charge": 100, "id": "bird_cfaa7fa9-0d7d-40d7-8002-78a9e87309c4", "provider": "bird", "timeStamp": "01/31/2020, 23:48:50"}, "type": "Feature"}, {"geometry": {"coordinates": [8.53645666666667, 47.3715816666667], "type": "Point"}, "properties": {"charge": 100, "id": "bird_9f016c32-3669-4575-ad6c-276b1db3d320", "provider": "bird", "timeStamp": "01/31/2020, 23:48:50"}, "type": "Feature"}, {"geometry": {"coordinates": [8.51849666666667, 47.3854133333333], "type": "Point"}, "properties": {"charge": 81, "id": "bird_06ab0073-f113-4e59-9127-980ff450c348", "provider": "bird", "timeStamp": "01/31/2020, 23:48:50"}, "type": "Feature"}, {"geometry": {"coordinates": [8.536095, 47.371475], "type": "Point"}, "properties": {"charge": 98, "id": "bird_328e9020-666b-478f-8a62-9b61a4b56bbf", "provider": "bird", "timeStamp": "01/31/2020, 23:48:50"}, "type": "Feature"}, {"geometry": {"coordinates": [8.53677, 47.3717416666667], "type": "Point"}, "properties": {"charge": 100, "id": "bird_8e670ec4-9cb6-4ff2-b6fb-046970be910b", "provider": "bird", "timeStamp": "01/31/2020, 23:48:50"}, "type": "Feature"}, {"geometry": {"coordinates": [8.53690833333333, 47.37186], "type": "Point"}, "properties": {"charge": 100, "id": "bird_70f1a510-be22-4abb-8a2c-39e6a0e8566e", "provider": "bird", "timeStamp": "01/31/2020, 23:48:50"}, "type": "Feature"}, {"geometry": {"coordinates": [8.53678333333333, 47.3718216666667], "type": "Point"}, "properties": {"charge": 100, "id": "bird_556ad1a8-94b8-40ba-a109-e8fe314551eb", "provider": "bird", "timeStamp": "01/31/2020, 23:48:50"}, "type": "Feature"}, {"geometry": {"coordinates": [8.51799166666667, 47.37547], "type": "Point"}, "properties": {"charge": 100, "id": "bird_761a1636-5086-4910-aa56-4dc0098f0492", "provider": "bird", "timeStamp": "01/31/2020, 23:48:50"}, "type": "Feature"}, {"geometry": {"coordinates": [8.518005, 47.3754616666667], "type": "Point"}, "properties": {"charge": 99, "id": "bird_1d53cc27-fff6-45be-b359-21749bc93223", "provider": "bird", "timeStamp": "01/31/2020, 23:48:50"}, "type": "Feature"}, {"geometry": {"coordinates": [8.51928166666667, 47.3857833333333], "type": "Point"}, "properties": {"charge": 100, "id": "bird_ed4dec81-91b4-43d1-8463-f80829a6509f", "provider": "bird", "timeStamp": "01/31/2020, 23:48:50"}, "type": "Feature"}, {"geometry": {"coordinates": [8.53651666666667, 47.3718416666667], "type": "Point"}, "properties": {"charge": 100, "id": "bird_24dd1a9d-70a4-490a-b0b3-b6a6338d3594", "provider": "bird", "timeStamp": "01/31/2020, 23:48:50"}, "type": "Feature"}, {"geometry": {"coordinates": [8.51934333333333, 47.3857733333333], "type": "Point"}, "properties": {"charge": 99, "id": "bird_2de4d0c5-bc8a-4cfe-987f-6554de59acef", "provider": "bird", "timeStamp": "01/31/2020, 23:48:50"}, "type": "Feature"}, {"geometry": {"coordinates": [8.516375, 47.3795433333333], "type": "Point"}, "properties": {"charge": 100, "id": "bird_a3209747-527f-4b35-8163-aedf49f9585a", "provider": "bird", "timeStamp": "01/31/2020, 23:48:50"}, "type": "Feature"}, {"geometry": {"coordinates": [8.51928666666667, 47.3857116666667], "type": "Point"}, "properties": {"charge": 25, "id": "bird_9d0b6663-db0c-4ca9-8a11-7c123c0d4d6b", "provider": "bird", "timeStamp": "01/31/2020, 23:48:50"}, "type": "Feature"}, {"geometry": {"coordinates": [8.51661666666667, 47.38171], "type": "Point"}, "properties": {"charge": 54, "id": "bird_386824ad-f9f3-4a7f-8a7c-a38bcb58b854", "provider": "bird", "timeStamp": "01/31/2020, 23:48:50"}, "type": "Feature"}, {"geometry": {"coordinates": [8.51960166666667, 47.3859283333333], "type": "Point"}, "properties": {"charge": 100, "id": "bird_19f0554c-4146-46ff-8b32-48ec201a5803", "provider": "bird", "timeStamp": "01/31/2020, 23:48:50"}, "type": "Feature"}, {"geometry": {"coordinates": [8.51971166666667, 47.3859983333333], "type": "Point"}, "properties": {"charge": 99, "id": "bird_fe00a1b0-7934-41f3-9cea-cd62b34e146f", "provider": "bird", "timeStamp": "01/31/2020, 23:48:50"}, "type": "Feature"}, {"geometry": {"coordinates": [8.51783333333333, 47.37608], "type": "Point"}, "properties": {"charge": 37, "id": "bird_ce224952-2e83-483d-85af-3bb1cd989196", "provider": "bird", "timeStamp": "01/31/2020, 23:48:50"}, "type": "Feature"}, {"geometry": {"coordinates": [8.54045166666667, 47.3742716666667], "type": "Point"}, "properties": {"charge": 61, "id": "bird_236b649b-fcf3-4b7b-93c8-633f53d24dfc", "provider": "bird", "timeStamp": "01/31/2020, 23:48:50"}, "type": "Feature"}, {"geometry": {"coordinates": [8.52020833333333, 47.373775], "type": "Point"}, "properties": {"charge": 98, "id": "bird_99f3261b-219c-4c4e-a192-80eb0c635222", "provider": "bird", "timeStamp": "01/31/2020, 23:48:50"}, "type": "Feature"}, {"geometry": {"coordinates": [8.51994166666667, 47.3858866666667], "type": "Point"}, "properties": {"charge": 100, "id": "bird_489a39fc-9fe3-4945-b85a-5c1d80e1ff1f", "provider": "bird", "timeStamp": "01/31/2020, 23:48:50"}, "type": "Feature"}, {"geometry": {"coordinates": [8.51989, 47.3858183333333], "type": "Point"}, "properties": {"charge": 99, "id": "bird_fe98565d-dfef-444d-8c5e-92ca70340c35", "provider": "bird", "timeStamp": "01/31/2020, 23:48:50"}, "type": "Feature"}, {"geometry": {"coordinates": [8.53533666666667, 47.37178], "type": "Point"}, "properties": {"charge": 53, "id": "bird_f193ba4f-a8eb-47a9-ac42-16c156e3560d", "provider": "bird", "timeStamp": "01/31/2020, 23:48:50"}, "type": "Feature"}, {"geometry": {"coordinates": [8.53017166666667, 47.3710716666667], "type": "Point"}, "properties": {"charge": 21, "id": "bird_da066096-1f2b-4675-a8fe-48e6b4c01557", "provider": "bird", "timeStamp": "01/31/2020, 23:48:50"}, "type": "Feature"}, {"geometry": {"coordinates": [8.54305833333333, 47.37878], "type": "Point"}, "properties": {"charge": 12, "id": "bird_74b094a9-a6c1-4541-9b9a-69a041c64938", "provider": "bird", "timeStamp": "01/31/2020, 23:48:50"}, "type": "Feature"}, {"geometry": {"coordinates": [8.53503333333333, 47.37178], "type": "Point"}, "properties": {"charge": 49, "id": "bird_24a66b82-0ca1-42c4-bcac-724c65170a6b", "provider": "bird", "timeStamp": "01/31/2020, 23:48:50"}, "type": "Feature"}, {"geometry": {"coordinates": [8.52272333333333, 47.3727266666667], "type": "Point"}, "properties": {"charge": 27, "id": "bird_8d2bb968-fa29-4121-ad6e-3246e73fcb2e", "provider": "bird", "timeStamp": "01/31/2020, 23:48:50"}, "type": "Feature"}, {"geometry": {"coordinates": [8.531295, 47.3712883333333], "type": "Point"}, "properties": {"charge": 57, "id": "bird_eaf320ad-7502-49df-8a46-6ee0a8dc1339", "provider": "bird", "timeStamp": "01/31/2020, 23:48:50"}, "type": "Feature"}, {"geometry": {"coordinates": [8.5349, 47.3718983333333], "type": "Point"}, "properties": {"charge": 66, "id": "bird_a5591113-f833-4c80-8069-eacd957eac81", "provider": "bird", "timeStamp": "01/31/2020, 23:48:50"}, "type": "Feature"}, {"geometry": {"coordinates": [8.52369833333333, 47.37257], "type": "Point"}, "properties": {"charge": 92, "id": "bird_73b3065f-0d09-43df-95ca-13f6a5b19c80", "provider": "bird", "timeStamp": "01/31/2020, 23:48:50"}, "type": "Feature"}, {"geometry": {"coordinates": [8.524295, 47.38763], "type": "Point"}, "properties": {"charge": 62, "id": "bird_e516b4ac-4ee4-4157-99d5-d80b37df0140", "provider": "bird", "timeStamp": "01/31/2020, 23:48:50"}, "type": "Feature"}, {"geometry": {"coordinates": [8.52637333333333, 47.3881683333333], "type": "Point"}, "properties": {"charge": 78, "id": "bird_bccc003e-8f4c-4d2d-9a57-e09862920da5", "provider": "bird", "timeStamp": "01/31/2020, 23:48:50"}, "type": "Feature"}, {"geometry": {"coordinates": [8.52252833333333, 47.386845], "type": "Point"}, "properties": {"charge": 35, "id": "bird_05994413-da50-4db3-91ba-553e4b9ac8fd", "provider": "bird", "timeStamp": "01/31/2020, 23:48:50"}, "type": "Feature"}, {"geometry": {"coordinates": [8.51783333333333, 47.3818316666667], "type": "Point"}, "properties": {"charge": 22, "id": "bird_0bb37e90-7a66-44bf-bae2-67da32a1737f", "provider": "bird", "timeStamp": "01/31/2020, 23:48:50"}, "type": "Feature"}, {"geometry": {"coordinates": [8.5344, 47.3721166666667], "type": "Point"}, "properties": {"charge": 29, "id": "bird_37eb38ae-de23-40c8-adcb-e227aecd9ca7", "provider": "bird", "timeStamp": "01/31/2020, 23:48:50"}, "type": "Feature"}, {"geometry": {"coordinates": [8.52468166666667, 47.3875733333333], "type": "Point"}, "properties": {"charge": 82, "id": "bird_52f96562-8b7a-4022-aeef-bc682612f71c", "provider": "bird", "timeStamp": "01/31/2020, 23:48:50"}, "type": "Feature"}, {"geometry": {"coordinates": [8.52071833333333, 47.385425], "type": "Point"},