{"features": [{"geometry": {"coordinates": [8.540062, 47.374392], "type": "Point"}, "properties": {"address": "Uraniastrasse 7", "electric": 5, "id": "pb_60", "manual": 5, "name": "Demo Station Werdm\u00fchleplatz", "provider": "publibike", "timeStamp": "01/31/2020, 22:49:09", "zip": 8001}, "type": "Feature"}, {"geometry": {"coordinates": [8.5452956, 47.4099615], "type": "Point"}, "properties": {"address": "Querstrasse 8", "electric": 4, "id": "pb_61", "manual": 2, "name": "Marktplatz", "provider": "publibike", "timeStamp": "01/31/2020, 22:49:09", "zip": 8050}, "type": "Feature"}, {"geometry": {"coordinates": [8.5156327, 47.3795837], "type": "Point"}, "properties": {"address": "Bullingerstrasse 5", "electric": 6, "id": "pb_80", "manual": 4, "name": "Bullingerplatz", "provider": "publibike", "timeStamp": "01/31/2020, 22:49:09", "zip": 8004}, "type": "Feature"}, {"geometry": {"coordinates": [8.5104051, 47.3899342], "type": "Point"}, "properties": {"address": "Pfingstweidstrasse 96e", "electric": 4, "id": "pb_81", "manual": 3, "name": "Herdern", "provider": "publibike", "timeStamp": "01/31/2020, 22:49:09", "zip": 8001}, "type": "Feature"}, {"geometry": {"coordinates": [8.535718, 47.359675], "type": "Point"}, "properties": {"address": "Mythenquai 50", "electric": 0, "id": "pb_82", "manual": 2, "name": "Hafen Enge", "provider": "publibike", "timeStamp": "01/31/2020, 22:49:09", "zip": 8002}, "type": "Feature"}, {"geometry": {"coordinates": [8.520370505, 47.358663827], "type": "Point"}, "properties": {"address": "Bubenbergstrasse 1", "electric": 5, "id": "pb_83", "manual": 4, "name": "Comerge", "provider": "publibike", "timeStamp": "01/31/2020, 22:49:09", "zip": 8045}, "type": "Feature"}, {"geometry": {"coordinates": [8.5412505, 47.3789825], "type": "Point"}, "properties": {"address": "Museumstrasse 2", "electric": 14, "id": "pb_84", "manual": 17, "name": "Landesmuseum", "provider": "publibike", "timeStamp": "01/31/2020, 22:49:09", "zip": 8001}, "type": "Feature"}, {"geometry": {"coordinates": [8.5235479, 47.3716661], "type": "Point"}, "properties": {"address": "Birmensdorferstrasse 80", "electric": 0, "id": "pb_85", "manual": 7, "name": "Bahnhof Wiedikon", "provider": "publibike", "timeStamp": "01/31/2020, 22:49:09", "zip": 8003}, "type": "Feature"}, {"geometry": {"coordinates": [8.506822854, 47.40781197], "type": "Point"}, "properties": {"address": "Stefano-Franscini-Platz 5", "electric": 4, "id": "pb_86", "manual": 5, "name": "ETH H\u00f6nggerberg", "provider": "publibike", "timeStamp": "01/31/2020, 22:49:09", "zip": 8093}, "type": "Feature"}, {"geometry": {"coordinates": [8.536101, 47.371083], "type": "Point"}, "properties": {"address": "Pelikanplatz 5", "electric": 4, "id": "pb_87", "manual": 9, "name": "Pelikanplatz", "provider": "publibike", "timeStamp": "01/31/2020, 22:49:09", "zip": 8001}, "type": "Feature"}, {"geometry": {"coordinates": [8.5257822, 47.3651936], "type": "Point"}, "properties": {"address": "H\u00fcrlimannplatz 90", "electric": 1, "id": "pb_88", "manual": 0, "name": "H\u00fcrlimannplatz", "provider": "publibike", "timeStamp": "01/31/2020, 22:49:09", "zip": 8002}, "type": "Feature"}, {"geometry": {"coordinates": [8.5313344, 47.3713591], "type": "Point"}, "properties": {"address": "Selnaustrasse 32", "electric": 1, "id": "pb_89", "manual": 7, "name": "Stauffacherbr\u00fccke", "provider": "publibike", "timeStamp": "01/31/2020, 22:49:09", "zip": 8001}, "type": "Feature"}, {"geometry": {"coordinates": [8.5056978, 47.3917964], "type": "Point"}, "properties": {"address": "Sportweg 25", "electric": 2, "id": "pb_90", "manual": 4, "name": "Sportweg", "provider": "publibike", "timeStamp": "01/31/2020, 22:49:09", "zip": 8005}, "type": "Feature"}, {"geometry": {"coordinates": [8.5181701, 47.3917837], "type": "Point"}, "properties": {"address": "Hardturmstrasse 11", "electric": 1, "id": "pb_91", "manual": 0, "name": "Puls 5", "provider": "publibike", "timeStamp": "01/31/2020, 22:49:09", "zip": 8005}, "type": "Feature"}, {"geometry": {"coordinates": [8.5286468, 47.3820827], "type": "Point"}, "properties": {"address": "R\u00f6ntgenstrasse 6", "electric": 1, "id": "pb_92", "manual": 0, "name": "R\u00f6ntgenstrasse", "provider": "publibike", "timeStamp": "01/31/2020, 22:49:09", "zip": 8005}, "type": "Feature"}, {"geometry": {"coordinates": [8.531935, 47.384918], "type": "Point"}, "properties": {"address": "Kornhausbr\u00fccke 1", "electric": 1, "id": "pb_93", "manual": 4, "name": "Limmatplatz", "provider": "publibike", "timeStamp": "01/31/2020, 22:49:09", "zip": 8005}, "type": "Feature"}, {"geometry": {"coordinates": [8.5354006, 47.3758639], "type": "Point"}, "properties": {"address": "Gessnerallee 15", "electric": 1, "id": "pb_94", "manual": 5, "name": "Gessnerallee", "provider": "publibike", "timeStamp": "01/31/2020, 22:49:09", "zip": 8001}, "type": "Feature"}, {"geometry": {"coordinates": [8.523818, 47.377148], "type": "Point"}, "properties": {"address": "Stauffacherstrasse 127", "electric": 3, "id": "pb_95", "manual": 8, "name": "B\u00e4ckeranlage", "provider": "publibike", "timeStamp": "01/31/2020, 22:49:09", "zip": 8004}, "type": "Feature"}, {"geometry": {"coordinates": [8.531836, 47.378548], "type": "Point"}, "properties": {"address": "Lagerstrasse 44", "electric": 7, "id": "pb_96", "manual": 9, "name": "Gustav-Gull-Platz", "provider": "publibike", "timeStamp": "01/31/2020, 22:49:09", "zip": 8004}, "type": "Feature"}, {"geometry": {"coordinates": [8.5104883, 47.3771535], "type": "Point"}, "properties": {"address": "Zurlindenstrasse 291", "electric": 6, "id": "pb_97", "manual": 2, "name": "Zurlindenstrasse", "provider": "publibike", "timeStamp": "01/31/2020, 22:49:09", "zip": 8003}, "type": "Feature"}, {"geometry": {"coordinates": [8.5333139, 47.3731102], "type": "Point"}, "properties": {"address": "Sihlstrasse 81", "electric": 4, "id": "pb_98", "manual": 0, "name": "Sihlstrasse", "provider": "publibike", "timeStamp": "01/31/2020, 22:49:09", "zip": 8001}, "type": "Feature"}, {"geometry": {"coordinates": [8.520532, 47.374951], "type": "Point"}, "properties": {"address": "Feldstrasse 24", "electric": 4, "id": "pb_99", "manual": 4, "name": "Kalkbreite", "provider": "publibike", "timeStamp": "01/31/2020, 22:49:09", "zip": 8004}, "type": "Feature"}, {"geometry": {"coordinates": [8.539046, 47.368064], "type": "Point"}, "properties": {"address": "Talstrasse 12", "electric": 5, "id": "pb_100", "manual": 5, "name": "Z\u00fcrcher Kantonalbank", "provider": "publibike", "timeStamp": "01/31/2020, 22:49:09", "zip": 8001}, "type": "Feature"}, {"geometry": {"coordinates": [8.5348427, 47.3625938], "type": "Point"}, "properties": {"address": "Breitingerstrasse 5", "electric": 0, "id": "pb_101", "manual": 2, "name": "Rentenanstalt", "provider": "publibike", "timeStamp": "01/31/2020, 22:49:09", "zip": 8002}, "type": "Feature"}, {"geometry": {"coordinates": [8.5166922, 47.3897772], "type": "Point"}, "properties": {"address": "Technoparkstrasse 4", "electric": 1, "id": "pb_102", "manual": 8, "name": "Turbinenplatz", "provider": "publibike", "timeStamp": "01/31/2020, 22:49:09", "zip": 8005}, "type": "Feature"}, {"geometry": {"coordinates": [8.539312, 47.3739964], "type": "Point"}, "properties": {"address": "Oetenbachgasse 14", "electric": 4, "id": "pb_104", "manual": 13, "name": "Rennweg", "provider": "publibike", "timeStamp": "01/31/2020, 22:49:09", "zip": 8001}, "type": "Feature"}, {"geometry": {"coordinates": [8.5360685, 47.3775022], "type": "Point"}, "properties": {"address": "Kasernenstrasse 101", "electric": 3, "id": "pb_105", "manual": 39, "name": "Sihlpost", "provider": "publibike", "timeStamp": "01/31/2020, 22:49:09", "zip": 8004}, "type": "Feature"}, {"geometry": {"coordinates": [8.53545, 47.382798], "type": "Point"}, "properties": {"address": "Ausstellungsstrasse 44", "electric": 13, "id": "pb_106", "manual": 3, "name": "Museum f\u00fcr Gestaltung", "provider": "publibike", "timeStamp": "01/31/2020, 22:49:09", "zip": 8005}, "type": "Feature"}, {"geometry": {"coordinates": [8.5306155, 47.3647902], "type": "Point"}, "properties": {"address": "Gutenbergstrasse 1", "electric": 2, "id": "pb_107", "manual": 1, "name": "Bederbr\u00fccke", "provider": "publibike", "timeStamp": "01/31/2020, 22:49:09", "zip": 8002}, "type": "Feature"}, {"geometry": {"coordinates": [8.518982, 47.386741], "type": "Point"}, "properties": {"address": "Geroldstrasse 4", "electric": 5, "id": "pb_108", "manual": 7, "name": "Bahnhof Hardbr\u00fccke", "provider": "publibike", "timeStamp": "01/31/2020, 22:49:09", "zip": 8005}, "type": "Feature"}, {"geometry": {"coordinates": [8.53001018, 47.37247535], "type": "Point"}, "properties": {"address": "Werdstrasse 21", "electric": 0, "id": "pb_109", "manual": 2, "name": "Tamedia", "provider": "publibike", "timeStamp": "01/31/2020, 22:49:09", "zip": 8004}, "type": "Feature"}, {"geometry": {"coordinates": [8.4860017, 47.396401], "type": "Point"}, "properties": {"address": "Gr\u00fcnauring 37", "electric": 7, "id": "pb_110", "manual": 5, "name": "Gr\u00fcnau", "provider": "publibike", "timeStamp": "01/31/2020, 22:49:09", "zip": 8064}, "type": "Feature"}, {"geometry": {"coordinates": [8.548519, 47.376756], "type": "Point"}, "properties": {"address": "R\u00e4mistrasse 101", "electric": 2, "id": "pb_111", "manual": 0, "name": "ETH Zentrum", "provider": "publibike", "timeStamp": "01/31/2020, 22:49:09", "zip": 8006}, "type": "Feature"}, {"geometry": {"coordinates": [8.520449, 47.388151], "type": "Point"}, "properties": {"address": "Josefstrasse 224", "electric": 1, "id": "pb_112", "manual": 4, "name": "Steinfelsareal", "provider": "publibike", "timeStamp": "01/31/2020, 22:49:09", "zip": 8005}, "type": "Feature"}, {"geometry": {"coordinates": [8.520482, 47.37209], "type": "Point"}, "properties": {"address": "Weststrasse 115", "electric": 7, "id": "pb_124", "manual": 2, "name": "Weststrasse", "provider": "publibike", "timeStamp": "01/31/2020, 22:49:09", "zip": 8003}, "type": "Feature"}, {"geometry": {"coordinates": [8.496727, 47.378521], "type": "Point"}, "properties": {"address": "Albisriederstrasse 200", "electric": 4, "id": "pb_125", "manual": 1, "name": "Utogrund", "provider": "publibike", "timeStamp": "01/31/2020, 22:49:09", "zip": 8047}, "type": "Feature"}, {"geometry": {"coordinates": [8.510418, 47.381356], "type": "Point"}, "properties": {"address": "Bullingerstrasse 73", "electric": 5, "id": "pb_126", "manual": 6, "name": "Hardau", "provider": "publibike", "timeStamp": "01/31/2020, 22:49:09", "zip": 8004}, "type": "Feature"}, {"geometry": {"coordinates": [8.525525, 47.361567], "type": "Point"}, "properties": {"address": "Klopstockstrasse 23", "electric": 3, "id": "pb_127", "manual": 3, "name": "Klopstockwiese", "provider": "publibike", "timeStamp": "01/31/2020, 22:49:09", "zip": 8002}, "type": "Feature"}, {"geometry": {"coordinates": [8.518143, 47.363148], "type": "Point"}, "properties": {"address": "Haldenstrasse 8", "electric": 10, "id": "pb_128", "manual": 2, "name": "Binz", "provider": "publibike", "timeStamp": "01/31/2020, 22:49:09", "zip": 8045}, "type": "Feature"}, {"geometry": {"coordinates": [8.542726, 47.379952], "type": "Point"}, "properties": {"address": "Walchestrasse 11", "electric": 2, "id": "pb_129", "manual": 1, "name": "Stampfenbachplatz", "provider": "publibike", "timeStamp": "01/31/2020, 22:49:09", "zip": 8006}, "type": "Feature"}, {"geometry": {"coordinates": [8.488108, 47.391366], "type": "Point"}, "properties": {"address": "Altstetterplatz 1", "electric": 4, "id": "pb_130", "manual": 4, "name": "Bahnhof Altstetten", "provider": "publibike", "timeStamp": "01/31/2020, 22:49:09", "zip": 8048}, "type": "Feature"}, {"geometry": {"coordinates": [8.554114, 47.365119], "type": "Point"}, "properties": {"address": "Kreuzplatz 2", "electric": 7, "id": "pb_131", "manual": 6, "name": "Kreuzplatz", "provider": "publibike", "timeStamp": "01/31/2020, 22:49:09", "zip": 8032}, "type": "Feature"}, {"geometry": {"coordinates": [8.549852, 47.35594], "type": "Point"}, "properties": {"address": "H\u00f6schgasse 3", "electric": 3, "id": "pb_132", "manual": 8, "name": "Blatterwiese", "provider": "publibike", "timeStamp": "01/31/2020, 22:49:09", "zip": 8008}, "type": "Feature"}, {"geometry": {"coordinates": [8.554501, 47.36162], "type": "Point"}, "properties": {"address": "Feldeggstrasse 80", "electric": 5, "id": "pb_133", "manual": 3, "name": "Villa Bleuler", "provider": "publibike", "timeStamp": "01/31/2020, 22:49:09", "zip": 8008}, "type": "Feature"}, {"geometry": {"coordinates": [8.557088, 47.358557], "type": "Point"}, "properties": {"address": "M\u00fchlebachstrasse 131", "electric": 3, "id": "pb_134", "manual": 0, "name": "M\u00fchlebachstrasse", "provider": "publibike", "timeStamp": "01/31/2020, 22:49:09", "zip": 8008}, "type": "Feature"}, {"geometry": {"coordinates": [8.547639, 47.361266], "type": "Point"}, "properties": {"address": "Utoquai 50", "electric": 10, "id": "pb_135", "manual": 9, "name": "Seebad Utoquai", "provider": "publibike", "timeStamp": "01/31/2020, 22:49:09", "zip": 8008}, "type": "Feature"}, {"geometry": {"coordinates": [8.548045, 47.370869], "type": "Point"}, "properties": {"address": "Heimplatz 1", "electric": 2, "id": "pb_137", "manual": 3, "name": "Kunsthaus", "provider": "publibike", "timeStamp": "01/31/2020, 22:49:09", "zip": 8001}, "type": "Feature"}, {"geometry": {"coordinates": [8.543447, 47.375933], "type": "Point"}, "properties": {"address": "Limmatquai 138", "electric": 2, "id": "pb_138", "manual": 6, "name": "Central", "provider": "publibike", "timeStamp": "01/31/2020, 22:49:09", "zip": 8001}, "type": "Feature"}, {"geometry": {"coordinates": [8.549356, 47.408827], "type": "Point"}, "properties": {"address": "Tramstrasse 35", "electric": 2, "id": "pb_139", "manual": 2, "name": "ewz Tramstrasse", "provider": "publibike", "timeStamp": "01/31/2020, 22:49:09", "zip": 8050}, "type": "Feature"}, {"geometry": {"coordinates": [8.533736, 47.366904], "type": "Point"}, "properties": {"address": "Bleicherweg 33", "electric": 1, "id": "pb_140", "manual": 11, "name": "Bleicherweg", "provider": "publibike", "timeStamp": "01/31/2020, 22:49:09", "zip": 8002}, "type": "Feature"}, {"geometry": {"coordinates": [8.544935, 47.366752], "type": "Point"}, "properties": {"address": "Bellevueplatz 2", "electric": 25, "id": "pb_141", "manual": 22, "name": "Bellevue", "provider": "publibike", "timeStamp": "01/31/2020, 22:49:09", "zip": 8001}, "type": "Feature"}, {"geometry": {"coordinates": [8.5285533, 47.3742296], "type": "Point"}, "properties": {"address": "Stauffacherstrasse 41", "electric": 2, "id": "pb_142", "manual": 4, "name": "Stauffacher", "provider": "publibike", "timeStamp": "01/31/2020, 22:49:09", "zip": 8004}, "type": "Feature"}, {"geometry": {"coordinates": [8.523722, 47.3899], "type": "Point"}, "properties": {"address": "Limmatstrasse 310", "electric": 3, "id": "pb_143", "manual": 0, "name": "Escher-Wyss-Platz", "provider": "publibike", "timeStamp": "01/31/2020, 22:49:09", "zip": 8005}, "type": "Feature"}, {"geometry": {"coordinates": [8.491061, 47.392336], "type": "Point"}, "properties": {"address": "Vulkanplatz 1", "electric": 0, "id": "pb_149", "manual": 4, "name": "Vulkanplatz", "provider": "publibike", "timeStamp": "01/31/2020, 22:49:09", "zip": 8048}, "type": "Feature"}, {"geometry": {"coordinates": [8.52306, 47.359872], "type": "Point"}, "properties": {"address": "Giessh\u00fcbelstrasse 15", "electric": 9, "id": "pb_150", "manual": 13, "name": "Utoplatz", "provider": "publibike", "timeStamp": "01/31/2020, 22:49:09", "zip": 8045}, "type": "Feature"}, {"geometry": {"coordinates": [8.486284, 47.387685], "type": "Point"}, "properties": {"address": "Lindenplatz 1", "electric": 4, "id": "pb_151", "manual": 6, "name": "Lindenplatz", "provider": "publibike", "timeStamp": "01/31/2020, 22:49:09", "zip": 8048}, "type": "Feature"}, {"geometry": {"coordinates": [8.49163, 47.389823], "type": "Point"}, "properties": {"address": "Hohlstrasse 563", "electric": 2, "id": "pb_152", "manual": 8, "name": "Luggweg", "provider": "publibike", "timeStamp": "01/31/2020, 22:49:09", "zip": 8048}, "type": "Feature"}, {"geometry": {"coordinates": [8.52174, 47.365272], "type": "Point"}, "properties": {"address": "Manessestrasse 87", "electric": 5, "id": "pb_153", "manual": 1, "name": "Manesseplatz", "provider": "publibike", "timeStamp": "01/31/2020, 22:49:09", "zip": 8045}, "type": "Feature"}, {"geometry": {"coordinates": [8.52714, 47.372329], "type": "Point"}, "properties": {"address": "Werdstrasse 75", "electric": 11, "id": "pb_154", "manual": 3, "name": "Werd", "provider": "publibike", "timeStamp": "01/31/2020, 22:49:09", "zip": 8004}, "type": "Feature"}, {"geometry": {"coordinates": [8.543042, 47.374711], "type": "Point"}, "properties": {"address": "Limmatquai 100", "electric": 0, "id": "pb_155", "manual": 0, "name": "Rudolf-Brun-Br\u00fccke", "provider": "publibike", "timeStamp": "01/31/2020, 22:49:09", "zip": 8001}, "type": "Feature"}, {"geometry": {"coordinates": [8.490837, 47.386596], "type": "Point"}, "properties": {"address": "Badenerstrasse 627", "electric": 2, "id": "pb_156", "manual": 7, "name": "Luggwegstrasse VBZ", "provider": "publibike", "timeStamp": "01/31/2020, 22:49:09", "zip": 8048}, "type": "Feature"}, {"geometry": {"coordinates": [8.535119, 47.355189], "type": "Point"}, "properties": {"address": "Mythenquai 95", "electric": 0, "id": "pb_157", "manual": 4, "name": "Strandbad Mythenquai", "provider": "publibike", "timeStamp": "01/31/2020, 22:49:09", "zip": 8002}, "type": "Feature"}, {"geometry": {"coordinates": [8.545505, 47.373675], "type": "Point"}, "properties": {"address": "Predigerpatz 21", "electric": 10, "id": "pb_158", "manual": 5, "name": "Predigerplatz", "provider": "publibike", "timeStamp": "01/31/2020, 22:49:09", "zip": 8001}, "type": "Feature"}, {"geometry": {"coordinates": [8.515558, 47.371868], "type": "Point"}, "properties": {"address": "Aemtlerstrasse 23", "electric": 6, "id": "pb_159", "manual": 1, "name": "Zwinglihaus", "provider": "publibike", "timeStamp": "01/31/2020, 22:49:09", "zip": 8003}, "type": "Feature"}, {"geometry": {"coordinates": [8.524629, 47.386072], "type": "Point"}, "properties": {"address": "Josefstrasse 188", "electric": 1, "id": "pb_160", "manual": 2, "name": "Josefwiese", "provider": "publibike", "timeStamp": "01/31/2020, 22:49:09", "zip": 8005}, "type": "Feature"}, {"geometry": {"coordinates": [8.527138, 47.387531], "type": "Point"}, "properties": {"address": "R\u00f6ntgenstrasse 87", "electric": 3, "id": "pb_164", "manual": 9, "name": "Markthalle", "provider": "publibike", "timeStamp": "01/31/2020, 22:49:09", "zip": 8005}, "type": "Feature"}, {"geometry": {"coordinates": [8.552717, 47.359978], "type": "Point"}, "properties": {"address": "Seefeldstrasse 96", "electric": 5, "id": "pb_263", "manual": 15, "name": "Feldeggstrasse", "provider": "publibike", "timeStamp": "01/31/2020, 22:49:09", "zip": 8008}, "type": "Feature"}, {"geometry": {"coordinates": [8.553189, 47.353198], "type": "Point"}, "properties": {"address": "Bellerivestrasse 170", "electric": 2, "id": "pb_264", "manual": 1, "name": "Lake Side", "provider": "publibike", "timeStamp": "01/31/2020, 22:49:09", "zip": 8008}, "type": "Feature"}, {"geometry": {"coordinates": [8.543437, 47.369256], "type": "Point"}, "properties": {"address": "Limmatquai 18", "electric": 0, "id": "pb_265", "manual": 0, "name": "Helmhaus", "provider": "publibike", "timeStamp": "01/31/2020, 22:49:09", "zip": 8032}, "type": "Feature"}, {"geometry": {"coordinates": [8.516676, 47.375819], "type": "Point"}, "properties": {"address": "Badenerstrasse 246", "electric": 5, "id": "pb_266", "manual": 1, "name": "Lochergut", "provider": "publibike", "timeStamp": "01/31/2020, 22:49:09", "zip": 8004}, "type": "Feature"}, {"geometry": {"coordinates": [8.514605, 47.389862], "type": "Point"}, "properties": {"address": "Pfingstweidstrasse 60", "electric": 1, "id": "pb_273", "manual": 2, "name": "Westpark", "provider": "publibike", "timeStamp": "01/31/2020, 22:49:09", "zip": 8005}, "type": "Feature"}, {"geometry": {"coordinates": [8.541239126, 47.375991201], "type": "Point"}, "properties": {"address": "Beatenplatz 1", "electric": 10, "id": "pb_274", "manual": 5, "name": "Beatenplatz", "provider": "publibike", "timeStamp": "01/31/2020, 22:49:09", "zip": 8001}, "type": "Feature"}, {"geometry": {"coordinates": [8.5417135, 47.3942197], "type": "Point"}, "properties": {"address": "Scheuchzerstrasse 181", "electric": 4, "id": "pb_275", "manual": 0, "name": "Pauluskirche", "provider": "publibike", "timeStamp": "01/31/2020, 22:49:09", "zip": 8057}, "type": "Feature"}, {"geometry": {"coordinates": [8.5528182, 47.414558], "type": "Point"}, "properties": {"address": "Hagenholzstrasse 51", "electric": 2, "id": "pb_276", "manual": 10, "name": "Airgate", "provider": "publibike", "timeStamp": "01/31/2020, 22:49:09", "zip": 8050}, "type": "Feature"}, {"geometry": {"coordinates": [8.537816, 47.413514], "type": "Point"}, "properties": {"address": "Birchstrasse 183", "electric": 3, "id": "pb_277", "manual": 4, "name": "Lamprechtweg", "provider": "publibike", "timeStamp": "01/31/2020, 22:49:09", "zip": 8050}, "type": "Feature"}, {"geometry": {"coordinates": [8.545602, 47.417701], "type": "Point"}, "properties": {"address": "Felsenrainstrasse 2", "electric": 9, "id": "pb_278", "manual": 6, "name": "Emil-Oberh\u00e4nsli", "provider": "publibike", "timeStamp": "01/31/2020, 22:49:09", "zip": 8050}, "type": "Feature"}, {"geometry": {"coordinates": [8.533647, 47.39808], "type": "Point"}, "properties": {"address": "Bucheggplatz 2", "electric": 0, "id": "pb_279", "manual": 3, "name": "Bucheggplatz", "provider": "publibike", "timeStamp": "01/31/2020, 22:49:09", "zip": 8057}, "type": "Feature"}, {"geometry": {"coordinates": [8.523549, 47.392347], "type": "Point"}, "properties": {"address": "Wipkingerplatz 4", "electric": 0, "id": "pb_280", "manual": 9, "name": "Wipkingerplatz", "provider": "publibike", "timeStamp": "01/31/2020, 22:49:09", "zip": 8037}, "type": "Feature"}, {"geometry": {"coordinates": [8.548562, 47.36691], "type": "Point"}, "properties": {"address": "Galerie \u00fcber Gleis 2/3", "electric": 26, "id": "pb_285", "manual": 6, "name": "Bahnhof Stadelhofen", "provider": "publibike", "timeStamp": "01/31/2020, 22:49:09", "zip": 8001}, "type": "Feature"}, {"geometry": {"coordinates": [8.493822, 47.3985553], "type": "Point"}, "properties": {"address": "Meierwiesenstrasse 12-4", "electric": 5, "id": "pb_286", "manual": 1, "name": "T\u00fcffenwies", "provider": "publibike", "timeStamp": "01/31/2020, 22:49:09", "zip": 8064}, "type": "Feature"}, {"geometry": {"coordinates": [8.552432, 47.3801757], "type": "Point"}, "properties": {"address": "Hochstrasse 34", "electric": 3, "id": "pb_356", "manual": 0, "name": "Siriuswiese", "provider": "publibike", "timeStamp": "01/31/2020, 22:49:09", "zip": 8044}, "type": "Feature"}, {"geometry": {"coordinates": [8.527298, 47.370141], "type": "Point"}, "properties": {"address": "Hallwylstrasse 71", "electric": 0, "id": "pb_357", "manual": 0, "name": "Hallwylstrasse", "provider": "publibike", "timeStamp": "01/31/2020, 22:49:09", "zip": 8004}, "type": "Feature"}, {"geometry": {"coordinates": [8.5414185, 47.3972455], "type": "Point"}, "properties": {"address": "Schaffhauserstrasse 137", "electric": 0, "id": "pb_358", "manual": 0, "name": "Milchbuck", "provider": "publibike", "timeStamp": "01/31/2020, 22:49:09", "zip": 8057}, "type": "Feature"}, {"geometry": {"coordinates": [8.512381, 47.393409], "type": "Point"}, "properties": {"address": "Hardturmstrasse 161", "electric": 0, "id": "pb_359", "manual": 0, "name": "Fischerweg", "provider": "publibike", "timeStamp": "01/31/2020, 22:49:09", "zip": 8005}, "type": "Feature"}, {"geometry": {"coordinates": [8.5421457, 47.3876979], "type": "Point"}, "properties": {"address": "Turnerstrasse 47", "electric": 6, "id": "pb_360", "manual": 1, "name": "Kirche Unterstrass", "provider": "publibike", "timeStamp": "01/31/2020, 22:49:09", "zip": 8006}, "type": "Feature"}, {"geometry": {"coordinates": [8.522117, 47.394554], "type": "Point"}, "properties": {"address": "Dorfstrasse 40", "electric": 3, "id": "pb_361", "manual": 1, "name": "Dorfstrasse", "provider": "publibike", "timeStamp": "01/31/2020, 22:49:09", "zip": 8037}, "type": "Feature"}, {"geometry": {"coordinates": [8.530437, 47.37271], "type": "Point"}, "properties": {"address": "Werdstrasse 25", "electric": 0, "id": "pb_362", "manual": 2, "name": "Stauffachertor", "provider": "publibike", "timeStamp": "01/31/2020, 22:49:09", "zip": 8004}, "type": "Feature"}, {"geometry": {"coordinates": [8.541712, 47.416155], "type": "Point"}, "properties": {"address": "Eggb\u00fchlstrasse 21", "electric": 3, "id": "pb_363", "manual": 4, "name": "Wahlenpark", "provider": "publibike", "timeStamp": "01/31/2020, 22:49:09", "zip": 8050}, "type": "Feature"}, {"geometry": {"coordinates": [8.5595335, 47.3708387], "type": "Point"}, "properties": {"address": "Dolderstrasse 32", "electric": 4, "id": "pb_364", "manual": 3, "name": "Kinderspital", "provider": "publibike", "timeStamp": "01/31/2020, 22:49:09", "zip": 8032}, "type": "Feature"}, {"geometry": {"coordinates": [8.536433, 47.388689], "type": "Point"}, "properties": {"address": "Kornhausstrasse 30", "electric": 3, "id": "pb_365", "manual": 5, "name": "Kornhausstrasse", "provider": "publibike", "timeStamp": "01/31/2020, 22:49:09", "zip": 8006}, "type": "Feature"}, {"geometry": {"coordinates": [8.55033, 47.407098], "type": "Point"}, "properties": {"address": "Schwamendingenstrasse 41", "electric": 4, "id": "pb_366", "manual": 5, "name": "Dorflinde", "provider": "publibike", "timeStamp": "01/31/2020, 22:49:09", "zip": 8050}, "type": "Feature"}, {"geometry": {"coordinates": [8.560476, 47.368199], "type": "Point"}, "properties": {"address": "R\u00f6merhofplatz 5", "electric": 11, "id": "pb_367", "manual": 1, "name": "R\u00f6merhof", "provider": "publibike", "timeStamp": "01/31/2020, 22:49:09", "zip": 8032}, "type": "Feature"}, {"geometry": {"coordinates": [8.5609218, 47.3619068], "type": "Point"}, "properties": {"address": "Forchstrasse 99", "electric": 8, "id": "pb_368", "manual": 0, "name": "Hegibachplatz", "provider": "publibike", "timeStamp": "01/31/2020, 22:49:09", "zip": 8032}, "type": "Feature"}, {"geometry": {"coordinates": [8.5721264, 47.4039985], "type": "Point"}, "properties": {"address": "Winterthurerstrasse 519", "electric": 6, "id": "pb_370", "manual": 4, "name": "Schwamendingerplatz", "provider": "publibike", "timeStamp": "01/31/2020, 22:49:09", "zip": 8051}, "type": "Feature"}, {"geometry": {"coordinates": [8.520168, 47.378556], "type": "Point"}, "properties": {"address": "Herman-Greulich-Strasse 56", "electric": 3, "id": "pb_384", "manual": 8, "name": "Hermann-Greulich-Weg", "provider": "publibike", "timeStamp": "01/31/2020, 22:49:09", "zip": 8004}, "type": "Feature"}, {"geometry": {"coordinates": [8.547912, 47.384923], "type": "Point"}, "properties": {"address": "Culmannstrasse", "electric": 5, "id": "pb_386", "manual": 0, "name": "Rigiplatz", "provider": "publibike", "timeStamp": "01/31/2020, 22:49:09", "zip": 8006}, "type": "Feature"}, {"geometry": {"coordinates": [8.543768, 47.411057], "type": "Point"}, "properties": {"address": "Hofwiesenstrasse 369", "electric": 5, "id": "pb_387", "manual": 3, "name": "Bahnhof Oerlikon S\u00fcd", "provider": "publibike", "timeStamp": "01/31/2020, 22:49:09", "zip": 8050}, "type": "Feature"}, {"geometry": {"coordinates": [8.544185, 47.412732], "type": "Point"}, "properties": {"address": "Jungholzstrasse 6", "electric": 4, "id": "pb_388", "manual": 1, "name": "Max-Frisch-Platz", "provider": "publibike", "timeStamp": "01/31/2020, 22:49:09", "zip": 8050}, "type": "Feature"}, {"geometry": {"coordinates": [8.558096, 47.413032], "type": "Point"}, "properties": {"address": "Andreasstrasse", "electric": 2, "id": "pb_389", "manual": 11, "name": "Hunziker-Areal", "provider": "publibike", "timeStamp": "01/31/2020, 22:49:09", "zip": 8050}, "type": "Feature"}, {"geometry": {"coordinates": [8.533265, 47.412873], "type": "Point"}, "properties": {"address": "Regina-K\u00e4gi-Strasse 1", "electric": 7, "id": "pb_390", "manual": 6, "name": "Luis-H\u00e4fliger-Park", "provider": "publibike", "timeStamp": "01/31/2020, 22:49:09", "zip": 8050}, "type": "Feature"}, {"geometry": {"coordinates": [8.499265, 47.401852], "type": "Point"}, "properties": {"address": "Limmattalstrasse 177", "electric": 3, "id": "pb_391", "manual": 2, "name": "Meierhofplatz", "provider": "publibike", "timeStamp": "01/31/2020, 22:49:09", "zip": 8049}, "type": "Feature"}, {"geometry": {"coordinates": [8.528356, 47.393255], "type": "Point"}, "properties": {"address": "R\u00f6schibachstrasse 73", "electric": 4, "id": "pb_392", "manual": 12, "name": "R\u00f6schibachplatz", "provider": "publibike", "timeStamp": "01/31/2020, 22:49:09", "zip": 8037}, "type": "Feature"}, {"geometry": {"coordinates": [8.538067, 47.415721], "type": "Point"}, "properties": {"address": "Birchstrasse 191", "electric": 7, "id": "pb_393", "manual": 1, "name": "Oerliker Park", "provider": "publibike", "timeStamp": "01/31/2020, 22:49:09", "zip": 8050}, "type": "Feature"}, {"geometry": {"coordinates": [8.5420304, 47.3669233], "type": "Point"}, "properties": {"address": "Stadthausquai 1", "electric": 0, "id": "pb_395", "manual": 4, "name": "B\u00fcrkliplatz", "provider": "publibike", "timeStamp": "01/31/2020, 22:49:09", "zip": 8001}, "type": "Feature"}, {"geometry": {"coordinates": [8.535767, 47.409881], "type": "Point"}, "properties": {"address": "Regensbergstrasse 195", "electric": 5, "id": "pb_396", "manual": 0, "name": "Holunderhof", "provider": "publibike", "timeStamp": "01/31/2020, 22:49:09", "zip": 8050}, "type": "Feature"}, {"geometry": {"coordinates": [8.5116245, 47.3616199], "type": "Point"}, "properties": {"address": "Grubenstrasse 42", "electric": 2, "id": "pb_431", "manual": 2, "name": "Binz Center", "provider": "publibike", "timeStamp": "01/31/2020, 22:49:09", "zip": 8045}, "type": "Feature"}, {"geometry": {"coordinates": [8.547195, 47.382089], "type": "Point"}, "properties": {"address": "Nelkenstrasse 24", "electric": 8, "id": "pb_430", "manual": 0, "name": "Stapferstube", "provider": "publibike", "timeStamp": "01/31/2020, 22:49:09", "zip": 8006}, "type": "Feature"}, {"geometry": {"coordinates": [8.5787183, 47.4039845], "type": "Point"}, "properties": {"address": "Kronwiesenstrasse 35", "electric": 3, "id": "pb_426", "manual": 3, "name": "Kronwiesen", "provider": "publibike", "timeStamp": "01/31/2020, 22:49:09", "zip": 8051}, "type": "Feature"}, {"geometry": {"coordinates": [8.508131, 47.420757], "type": "Point"}, "properties": {"address": "Riedenhaldenstrasse 20-18", "electric": 6, "id": "pb_425", "manual": 4, "name": "Bahnhof Affoltern", "provider": "publibike", "timeStamp": "01/31/2020, 22:49:09", "zip": 8046}, "type": "Feature"}, {"geometry": {"coordinates": [8.532464, 47.406988], "type": "Point"}, "properties": {"address": "K\u00fcnzlistrasse 41", "electric": 1, "id": "pb_424", "manual": 4, "name": "Birchd\u00f6rfli", "provider": "publibike", "timeStamp": "01/31/2020, 22:49:09", "zip": 8057}, "type": "Feature"}, {"geometry": {"coordinates": [8.5777038, 47.4080095], "type": "Point"}, "properties": {"address": "Luegislandstrasse 412", "electric": 4, "id": "pb_429", "manual": 3, "name": "Luegisland", "provider": "publibike", "timeStamp": "01/31/2020, 22:49:09", "zip": 8051}, "type": "Feature"}, {"geometry": {"coordinates": [8.58841, 47.40158], "type": "Point"}, "properties": {"address": "Hirzenbachstrasse 2-4", "electric": 0, "id": "pb_428", "manual": 0, "name": "Hirzenbachstrasse", "provider": "publibike", "timeStamp": "01/31/2020, 22:49:09", "zip": 8051}, "type": "Feature"}, {"geometry": {"coordinates": [8.5563463, 47.4095467], "type": "Point"}, "properties": {"address": "K\u00fchriedweg", "electric": 7, "id": "pb_445", "manual": 9, "name": "Hallenbad Oerlikon", "provider": "publibike", "timeStamp": "01/31/2020, 22:49:09", "zip": 8050}, "type": "Feature"}, {"geometry": {"coordinates": [8.537971, 47.364871], "type": "Point"}, "properties": {"address": "General-Guisan-Quai 17", "electric": 0, "id": "pb_454", "manual": 1, "name": "General-Guisan-Quai", "provider": "publibike", "timeStamp": "01/31/2020, 22:49:09", "zip": 8002}, "type": "Feature"}, {"geometry": {"coordinates": [8.560587, 47.350578], "type": "Point"}, "properties": {"address": "Bellerivestrasse 245", "electric": 5, "id": "pb_450", "manual": 6, "name": "Bahnhof Tiefenbrunnen", "provider": "publibike", "timeStamp": "01/31/2020, 22:49:09", "zip": 8008}, "type": "Feature"}, {"geometry": {"coordinates": [8.5269416, 47.3563719], "type": "Point"}, "properties": {"address": "Waffenplatzstrasse 89", "electric": 3, "id": "pb_452", "manual": 1, "name": "Rieterplatz", "provider": "publibike", "timeStamp": "01/31/2020, 22:49:09", "zip": 8002}, "type": "Feature"}, {"geometry": {"coordinates": [8.514176, 47.3663708], "type": "Point"}, "properties": {"address": "Talwiesenstrasse 92", "electric": 8, "id": "pb_446", "manual": 1, "name": "Binzallee", "provider": "publibike", "timeStamp": "01/31/2020, 22:49:09", "zip": 8055}, "type": "Feature"}, {"geometry": {"coordinates": [8.5070564, 47.371455], "type": "Point"}, "properties": {"address": "Gutstrasse 87", "electric": 3, "id": "pb_447", "manual": 5, "name": "Gutstrasse", "provider": "publibike", "timeStamp": "01/31/2020, 22:49:09", "zip": 8055}, "type": "Feature"}, {"geometry": {"coordinates": [8.4941268, 47.3836391], "type": "Point"}, "properties": {"address": "Flurstrasse 62", "electric": 2, "id": "pb_453", "manual": 2, "name": "Flurpark", "provider": "publibike", "timeStamp": "01/31/2020, 22:49:09", "zip": 8048}, "type": "Feature"}, {"geometry": {"coordinates": [8.500343, 47.380778], "type": "Point"}, "properties": {"address": "Edelweissstrasse 32", "electric": 7, "id": "pb_448", "manual": 2, "name": "Bl\u00fcemliquartier", "provider": "publibike", "timeStamp": "01/31/2020, 22:49:09", "zip": 8048}, "type": "Feature"}, {"geometry": {"coordinates": [8.528796, 47.383858], "type": "Point"}, "properties": {"address": "Gasometerstrasse 24", "electric": 4, "id": "pb_449", "manual": 20, "name": "Gasometerstrasse", "provider": "publibike", "timeStamp": "01/31/2020, 22:49:09", "zip": 8005}, "type": "Feature"}, {"geometry": {"coordinates": [8.4981964, 47.3859194], "type": "Point"}, "properties": {"address": "Baslerstrasse 57", "electric": 7, "id": "pb_455", "manual": 5, "name": "Letzipark", "provider": "publibike", "timeStamp": "01/31/2020, 22:49:09", "zip": 8048}, "type": "Feature"}, {"geometry": {"coordinates": [8.515252, 47.381915], "type": "Point"}, "properties": {"address": "Sihlfeldstrasse 175", "electric": 2, "id": "pb_451", "manual": 5, "name": "Hardplatz", "provider": "publibike", "timeStamp": "01/31/2020, 22:49:09", "zip": 8004}, "type": "Feature"}, {"geometry": {"coordinates": [8.5064743, 47.4188324], "type": "Point"}, "properties": {"address": "Wehntalerstrasse 541", "electric": 3, "id": "pb_427", "manual": 4, "name": "Zehntenhausplatz", "provider": "publibike", "timeStamp": "01/31/2020, 22:49:09", "zip": 8046}, "type": "Feature"}, {"geometry": {"coordinates": [8.537729, 47.379719], "type": "Point"}, "properties": {"address": "Sihlquai/HB", "electric": 18, "id": "pb_513", "manual": 10, "name": "Sihlquai", "provider": "publibike", "timeStamp": "01/31/2020, 22:49:09", "zip": 8005}, "type": "Feature"}, {"geometry": {"coordinates": [8.596202, 47.397885], "type": "Point"}, "properties": {"address": "Bahnhof Stettbach", "electric": 3, "id": "pb_514", "manual": 0, "name": "Bahnhof Stettbach", "provider": "publibike", "timeStamp": "01/31/2020, 22:49:09", "zip": 8051}, "type": "Feature"}, {"geometry": {"coordinates": [8.5543974, 47.3690153], "type": "Point"}, "properties": {"address": "Kasinostrasse 10", "electric": 6, "id": "pb_515", "manual": 0, "name": "Hottingerplatz", "provider": "publibike", "timeStamp": "01/31/2020, 22:49:09", "zip": 8032}, "type": "Feature"}, {"geometry": {"coordinates": [8.534444, 47.351525], "type": "Point"}, "properties": {"address": "Mobile Station Z\u00fcrich 1", "electric": 0, "id": "pb_282", "manual": 0, "name": "Theaterspektakel", "provider": "publibike", "timeStamp": "01/31/2020, 22:49:09", "zip": 8002}, "type": "Feature"}, {"geometry": {"coordinates": [8.516257, 47.367656], "type": "Point"}, "properties": {"address": "Goldbrunnenstrasse 54", "electric": 3, "id": "pb_538", "manual": 0, "name": "Kirche B\u00fchl", "provider": "publibike", "timeStamp": "01/31/2020, 22:49:09", "zip": 8055}, "type": "Feature"}, {"geometry": {"coordinates": [8.555639, 47.416873], "type": "Point"}, "properties": {"address": "Leutschenbachstrasse 50", "electric": 0, "id": "pb_537", "manual": 4, "name": "Leutschenpark", "provider": "publibike", "timeStamp": "01/31/2020, 22:49:09", "zip": 8050}, "type": "Feature"}, {"geometry": {"coordinates": [8.546464, 47.403822], "type": "Point"}, "properties": {"address": "Berninastrasse 45", "electric": 9, "id": "pb_540", "manual": 1, "name": "Berninaplatz", "provider": "publibike", "timeStamp": "01/31/2020, 22:49:09", "zip": 8057}, "type": "Feature"}, {"geometry": {"coordinates": [8.523134, 47.369004], "type": "Point"}, "properties": {"address": "Erlachstrasse 3", "electric": 1, "id": "pb_385", "manual": 6, "name": "Aegerten", "provider": "publibike", "timeStamp": "01/31/2020, 22:49:09", "zip": 8003}, "type": "Feature"}, {"geometry": {"coordinates": [8.49038, 47.381591], "type": "Point"}, "properties": {"address": "Rautistrasse 60", "electric": 7, "id": "pb_536", "manual": 6, "name": "Freilager", "provider": "publibike", "timeStamp": "01/31/2020, 22:49:09", "zip": 8048}, "type": "Feature"}, {"geometry": {"coordinates": [8.496511, 47.375247], "type": "Point"}, "properties": {"address": "Letzigraben 139", "electric": 9, "id": "pb_444", "manual": 2, "name": "Sackzelg", "provider": "publibike", "timeStamp": "01/31/2020, 22:49:09", "zip": 8047}, "type": "Feature"}, {"geometry": {"coordinates": [8.58131, 47.402801], "type": "Point"}, "properties": {"address": "Altwiesenstrasse 104", "electric": 0, "id": "pb_539", "manual": 4, "name": "Glattwiesen", "provider": "publibike", "timeStamp": "01/31/2020, 22:49:09", "zip": 8051}, "type": "Feature"}, {"geometry": {"coordinates": [8.52689, 47.3767], "type": "Point"}, "properties": {"address": "Molkenstrasse 5", "electric": 7, "id": "pb_560", "manual": 10, "name": "Helvetiaplatz", "provider": "publibike", "timeStamp": "01/31/2020, 22:49:09", "zip": 8004}, "type": "Feature"}, {"geometry": {"coordinates": [8.525602, 47.374241], "type": "Point"}, "properties": {"address": "Badenerstrasse 90", "electric": 1, "id": "pb_559", "manual": 10, "name": "Bezirksgeb\u00e4ude", "provider": "publibike", "timeStamp": "01/31/2020, 22:49:09", "zip": 8004}, "type": "Feature"}, {"geometry": {"coordinates": [8.535082, 47.345248], "type": "Point"}, "properties": {"address": "Bachstrasse 15", "electric": 5, "id": "pb_564", "manual": 4, "name": "GZ Wollishofen", "provider": "publibike", "timeStamp": "01/31/2020, 22:49:09", "zip": 8038}, "type": "Feature"}, {"geometry": {"coordinates": [8.514841, 47.370238], "type": "Point"}, "properties": {"address": "Schrennengasse 37", "electric": 3, "id": "pb_562", "manual": 3, "name": "Goldbrunnenplatz", "provider": "publibike", "timeStamp": "01/31/2020, 22:49:09", "zip": 8003}, "type": "Feature"}, {"geometry": {"coordinates": [8.514138, 47.374206], "type": "Point"}, "properties": {"address": "Idaplatz 4", "electric": 1, "id": "pb_557", "manual": 3, "name": "Idaplatz", "provider": "publibike", "timeStamp": "01/31/2020, 22:49:09", "zip": 8003}, "type": "Feature"}, {"geometry": {"coordinates": [8.518432, 47.369549], "type": "Point"}, "properties": {"address": "Brinerstrasse 2", "electric": 1, "id": "pb_558", "manual": 8, "name": "Schmiede Wiedikon", "provider": "publibike", "timeStamp": "01/31/2020, 22:49:09", "zip": 8003}, "type": "Feature"}, {"geometry": {"coordinates": [8.537546, 47.391289], "type": "Point"}, "properties": {"address": "Rotbuchstrasse 15", "electric": 4, "id": "pb_556", "manual": 1, "name": "Schaffhauserplatz", "provider": "publibike", "timeStamp": "01/31/2020, 22:49:09", "zip": 8006}, "type": "Feature"}, {"geometry": {"coordinates": [8.541541, 47.413733], "type": "Point"}, "properties": {"address": "Therese-Giehse-Strasse 11", "electric": 1, "id": "pb_561", "manual": 2, "name": "Center Eleven", "provider": "publibike", "timeStamp": "01/31/2020, 22:49:09", "zip": 8050}, "type": "Feature"}, {"geometry": {"coordinates": [8.534227, 47.360004], "type": "Point"}, "properties": {"address": "Alfred Escher-Strasse 76", "electric": 3, "id": "pb_563", "manual": 3, "name": "Mythenschloss", "provider": "publibike", "timeStamp": "01/31/2020, 22:49:09", "zip": 8002}, "type": "Feature"}, {"geometry": {"coordinates": [8.50373, 47.396172], "type": "Point"}, "properties": {"address": "Hardeggstrasse 6", "electric": 1, "id": "pb_566", "manual": 3, "name": "Am Wasser", "provider": "publibike", "timeStamp": "01/31/2020, 22:49:09", "zip": 8049}, "type": "Feature"}, {"geometry": {"coordinates": [8.532432, 47.381174], "type": "Point"}, "properties": {"address": "Klingenstrasse 9", "electric": 0, "id": "pb_565", "manual": 2, "name": "Zollstrasse", "provider": "publibike", "timeStamp": "01/31/2020, 22:49:09", "zip": 8005}, "type": "Feature"}, {"geometry": {"coordinates": [8.497982, 47.381447], "type": "Point"}, "properties": {"address": "Dennlerstrasse 23", "electric": 9, "id": "pb_567", "manual": 2, "name": "Dennlerstrasse", "provider": "publibike", "timeStamp": "01/31/2020, 22:49:09", "zip": 8047}, "type": "Feature"}, {"geometry": {"coordinates": [8.528049, 47.347701], "type": "Point"}, "properties": {"address": "Mutschellenstrasse 114", "electric": 3, "id": "pb_568", "manual": 7, "name": "Jugendherberge", "provider": "publibike", "timeStamp": "01/31/2020, 22:49:09", "zip": 8038}, "type": "Feature"}, {"geometry": {"coordinates": [8.539016, 47.405751], "type": "Point"}, "properties": {"address": "Ringstrasse 82", "electric": 8, "id": "pb_569", "manual": 2, "name": "Freibad Allenmoos", "provider": "publibike", "timeStamp": "01/31/2020, 22:49:09", "zip": 8057}, "type": "Feature"}, {"geometry": {"coordinates": [8.534974, 47.402164], "type": "Point"}, "properties": {"address": "Brache Guggach", "electric": 4, "id": "pb_572", "manual": 0, "name": "Radiostudio", "provider": "publibike", "timeStamp": "01/31/2020, 22:49:09", "zip": 8057}, "type": "Feature"}, {"geometry": {"coordinates": [8.547901, 47.375556], "type": "Point"}, "properties": {"address": "Karl-Schmid-Strasse 4", "electric": 0, "id": "pb_571", "manual": 3, "name": "ETH/Zoologisches Museum", "provider": "publibike", "timeStamp": "01/31/2020, 22:49:09", "zip": 8006}, "type": "Feature"}, {"geometry": {"coordinates": [8.540161, 47.37056], "type": "Point"}, "properties": {"charge": 76, "id": "smide_2901", "name": "ZH 267278", "provider": "smide", "range": 38.0, "size": 20, "time": "01/31/2020, 22:48:46"}, "type": "Feature"}, {"geometry": {"coordinates": [8.569401, 47.352141], "type": "Point"}, "properties": {"charge": 94, "id": "smide_2895", "name": "ZH 267279", "provider": "smide", "range": 47.0, "size": 20, "time": "01/31/2020, 22:48:46"}, "type": "Feature"}, {"geometry": {"coordinates": [8.502755, 47.42369], "type": "Point"}, "properties": {"charge": 95, "id": "smide_2880", "name": "ZH267289", "provider": "smide", "range": 47.0, "size": 17, "time": "01/31/2020, 22:48:46"}, "type": "Feature"}, {"geometry": {"coordinates": [8.556288, 47.410678], "type": "Point"}, "properties": {"charge": 94, "id": "smide_2874", "name": "ZH 267288", "provider": "smide", "range": 47.0, "size": 17, "time": "01/31/2020, 22:48:46"}, "type": "Feature"}, {"geometry": {"coordinates": [8.519516, 47.337145], "type": "Point"}, "properties": {"charge": 83, "id": "smide_2871", "name": "ZH 267086", "provider": "smide", "range": 41.0, "size": 20, "time": "01/31/2020, 22:48:46"}, "type": "Feature"}, {"geometry": {"coordinates": [8.522476, 47.39889], "type": "Point"}, "properties": {"charge": 50, "id": "smide_2867", "name": "ZH 267090", "provider": "smide", "range": 25.0, "size": 20, "time": "01/31/2020, 22:48:46"}, "type": "Feature"}, {"geometry": {"coordinates": [8.544415, 47.377235], "type": "Point"}, "properties": {"charge": 36, "id": "smide_2861", "name": "ZH 267096", "provider": "smide", "range": 18.0, "size": 17, "time": "01/31/2020, 22:48:46"}, "type": "Feature"}, {"geometry": {"coordinates": [8.576073, 47.349861], "type": "Point"}, "properties": {"charge": 90, "id": "smide_2860", "name": "ZH 267097", "provider": "smide", "range": 45.0, "size": 17, "time": "01/31/2020, 22:48:46"}, "type": "Feature"}, {"geometry": {"coordinates": [8.484821, 47.39399], "type": "Point"}, "properties": {"charge": 30, "id": "smide_2859", "name": "ZH 267098", "provider": "smide", "range": 15.0, "size": 17, "time": "01/31/2020, 22:48:46"}, "type": "Feature"}, {"geometry": {"coordinates": [8.543823, 47.377058], "type": "Point"}, "properties": {"charge": 48, "id": "smide_2856", "name": "ZH 267101", "provider": "smide", "range": 24.0, "size": 17, "time": "01/31/2020, 22:48:46"}, "type": "Feature"}, {"geometry": {"coordinates": [8.550068, 47.36551], "type": "Point"}, "properties": {"charge": 84, "id": "smide_2855", "name": "ZH 267102", "provider": "smide", "range": 42.0, "size": 17, "time": "01/31/2020, 22:48:46"}, "type": "Feature"}, {"geometry": {"coordinates": [8.510721, 47.398295], "type": "Point"}, "properties": {"charge": 100, "id": "smide_2854", "name": "ZH 267103", "provider": "smide", "range": 50.0, "size": 17, "time": "01/31/2020, 22:48:46"}, "type": "Feature"}, {"geometry": {"coordinates": [8.544753, 47.368201], "type": "Point"}, "properties": {"charge": 45, "id": "smide_2833", "name": "ZH 267182", "provider": "smide", "range": 22.0, "size": 20, "time": "01/31/2020, 22:48:46"}, "type": "Feature"}, {"geometry": {"coordinates": [8.570096, 47.352636], "type": "Point"}, "properties": {"charge": 62, "id": "smide_2831", "name": "ZH 267180", "provider": "smide", "range": 31.0, "size": 20, "time": "01/31/2020, 22:48:46"}, "type": "Feature"}, {"geometry": {"coordinates": [8.58252, 47.351366], "type": "Point"}, "properties": {"charge": 58, "id": "smide_2829", "name": "ZH 267049", "provider": "smide", "range": 28.0, "size": 20, "time": "01/31/2020, 22:48:46"}, "type": "Feature"}, {"geometry": {"coordinates": [8.506045, 47.418961], "type": "Point"}, "properties": {"charge": 86, "id": "smide_2804", "name": "ZH266903", "provider": "smide", "range": 43.0, "size": 20, "time": "01/31/2020, 22:48:46"}, "type": "Feature"}, {"geometry": {"coordinates": [8.524773, 47.376586], "type": "Point"}, "properties": {"charge": 63, "id": "smide_2798", "name": "ZH266888", "provider": "smide", "range": 31.0, "size": 17, "time": "01/31/2020, 22:48:46"}, "type": "Feature"}, {"geometry": {"coordinates": [8.507466, 47.398536], "type": "Point"}, "properties": {"charge": 60, "id": "smide_2793", "name": "ZH266883", "provider": "smide", "range": 30.0, "size": 17, "time": "01/31/2020, 22:48:46"}, "type": "Feature"}, {"geometry": {"coordinates": [8.545575, 47.369901], "type": "Point"}, "properties": {"charge": 37, "id": "smide_2790", "name": "ZH266880", "provider": "smide", "range": 18.0, "size": 17, "time": "01/31/2020, 22:48:46"}, "type": "Feature"}, {"geometry": {"coordinates": [8.51719, 47.358713], "type": "Point"}, "properties": {"charge": 55, "id": "smide_2785", "name": "ZH266875", "provider": "smide", "range": 27.0, "size": 17, "time": "01/31/2020, 22:48:46"}, "type": "Feature"}, {"geometry": {"coordinates": [8.555275, 47.383916], "type": "Point"}, "properties": {"charge": 90, "id": "smide_2781", "name": "ZH 266871", "provider": "smide", "range": 45.0, "size": 17, "time": "01/31/2020, 22:48:46"}, "type": "Feature"}, {"geometry": {"coordinates": [8.537885, 47.380403], "type": "Point"}, "properties": {"charge": 100, "id": "smide_2780", "name": "ST1 X #1", "provider": "smide", "range": 50.0, "size": 17, "time": "01/31/2020, 22:48:46"}, "type": "Feature"}, {"geometry": {"coordinates": [8.543237, 47.424196], "type": "Point"}, "properties": {"charge": 75, "id": "smide_2773", "name": "ZH266561", "provider": "smide", "range": 37.0, "size": 17, "time": "01/31/2020, 22:48:46"}, "type": "Feature"}, {"geometry": {"coordinates": [8.524785, 47.380268], "type": "Point"}, "properties": {"charge": 70, "id": "smide_2763", "name": "ZH266641", "provider": "smide", "range": 35.0, "size": 17, "time": "01/31/2020, 22:48:46"}, "type": "Feature"}, {"geometry": {"coordinates": [8.560433, 47.382046], "type": "Point"}, "properties": {"charge": 43, "id": "smide_2761", "name": "ZH266642", "provider": "smide", "range": 21.0, "size": 20, "time": "01/31/2020, 22:48:46"}, "type": "Feature"}, {"geometry": {"coordinates": [8.561788, 47.367832], "type": "Point"}, "properties": {"charge": 55, "id": "smide_2758", "name": "ZH266638 M", "provider": "smide", "range": 27.0, "size": 17, "time": "01/31/2020, 22:48:46"}, "type": "Feature"}, {"geometry": {"coordinates": [8.496108, 47.388812], "type": "Point"}, "properties": {"charge": 67, "id": "smide_2752", "name": "BE343856", "provider": "smide", "range": 33.0, "size": 17, "time": "01/31/2020, 22:48:46"}, "type": "Feature"}, {"geometry": {"coordinates": [8.524432, 47.370024], "type": "Point"}, "properties": {"charge": 74, "id": "smide_2751", "name": "BE343857", "provider": "smide", "range": 37.0, "size": 17, "time": "01/31/2020, 22:48:46"}, "type": "Feature"}, {"geometry": {"coordinates": [8.487461, 47.38472], "type": "Point"}, "properties": {"charge": 41, "id": "smide_2749", "name": "BE343867", "provider": "smide", "range": 20.0, "size": 17, "time": "01/31/2020, 22:48:46"}, "type": "Feature"}, {"geometry": {"coordinates": [8.518515, 47.36296], "type": "Point"}, "properties": {"charge": 95, "id": "smide_2748", "name": "BE335758", "provider": "smide", "range": 47.0, "size": 17, "time": "01/31/2020, 22:48:46"}, "type": "Feature"}, {"geometry": {"coordinates": [8.562469, 47.382932], "type": "Point"}, "properties": {"charge": 66, "id": "smide_2746", "name": "BE335817", "provider": "smide", "range": 33.0, "size": 17, "time": "01/31/2020, 22:48:46"}, "type": "Feature"}, {"geometry": {"coordinates": [8.55151, 47.420744], "type": "Point"}, "properties": {"charge": 94, "id": "smide_2747", "name": "BE335820", "provider": "smide", "range": 47.0, "size": 17, "time": "01/31/2020, 22:48:46"}, "type": "Feature"}, {"geometry": {"coordinates": [8.529921, 47.393764], "type": "Point"}, "properties": {"charge": 18, "id": "smide_2745", "name": "BE335818", "provider": "smide", "range": 9.0, "size": 17, "time": "01/31/2020, 22:48:46"}, "type": "Feature"}, {"geometry": {"coordinates": [8.51706, 47.398264], "type": "Point"}, "properties": {"charge": 56, "id": "smide_2743", "name": "BE343864", "provider": "smide", "range": 28.0, "size": 17, "time": "01/31/2020, 22:48:46"}, "type": "Feature"}, {"geometry": {"coordinates": [8.532558, 47.385412], "type": "Point"}, "properties": {"charge": 85, "id": "smide_2742", "name": "BE343866", "provider": "smide", "range": 42.0, "size": 17, "time": "01/31/2020, 22:48:46"}, "type": "Feature"}, {"geometry": {"coordinates": [8.571787, 47.358304], "type": "Point"}, "properties": {"charge": 85, "id": "smide_2741", "name": "BE343874", "provider": "smide", "range": 42.0, "size": 17, "time": "01/31/2020, 22:48:46"}, "type": "Feature"}, {"geometry": {"coordinates": [8.529825, 47.36928], "type": "Point"}, "properties": {"charge": 76, "id": "smide_2740", "name": "BE343875", "provider": "smide", "range": 38.0, "size": 17, "time": "01/31/2020, 22:48:46"}, "type": "Feature"}, {"geometry": {"coordinates": [8.518195, 47.37278], "type": "Point"}, "properties": {"charge": 63, "id": "smide_2738", "name": "BE343865", "provider": "smide", "range": 31.0, "size": 17, "time": "01/31/2020, 22:48:46"}, "type": "Feature"}, {"geometry": {"coordinates": [8.557985, 47.352632], "type": "Point"}, "properties": {"charge": 36, "id": "smide_2737", "name": "BE336149", "provider": "smide", "range": 18.0, "size": 17, "time": "01/31/2020, 22:48:46"}, "type": "Feature"}, {"geometry": {"coordinates": [8.502045, 47.368892], "type": "Point"}, "properties": {"charge": 100, "id": "smide_2736", "name": "BE346639", "provider": "smide", "range": 50.0, "size": 17, "time": "01/31/2020, 22:48:46"}, "type": "Feature"}, {"geometry": {"coordinates": [8.51809, 47.36764], "type": "Point"}, "properties": {"charge": 46, "id": "smide_2734", "name": "BE343876", "provider": "smide", "range": 23.0, "size": 17, "time": "01/31/2020, 22:48:46"}, "type": "Feature"}, {"geometry": {"coordinates": [8.553271, 47.362612], "type": "Point"}, "properties": {"charge": 100, "id": "smide_2733", "name": "BE343873", "provider": "smide", "range": 50.0, "size": 17, "time": "01/31/2020, 22:48:46"}, "type": "Feature"}, {"geometry": {"coordinates": [8.478384, 47.389556], "type": "Point"}, "properties": {"charge": 78, "id": "smide_2732", "name": "BE343870", "provider": "smide", "range": 39.0, "size": 17, "time": "01/31/2020, 22:48:46"}, "type": "Feature"}, {"geometry": {"coordinates": [8.530502, 47.370624], "type": "Point"}, "properties": {"charge": 59, "id": "smide_2729", "name": "BE343878", "provider": "smide", "range": 29.0, "size": 17, "time": "01/31/2020, 22:48:46"}, "type": "Feature"}, {"geometry": {"coordinates": [8.563228, 47.382603], "type": "Point"}, "properties": {"charge": 59, "id": "smide_2718", "name": "ZH259019", "provider": "smide", "range": 29.0, "size": 20, "time": "01/31/2020, 22:48:46"}, "type": "Feature"}, {"geometry": {"coordinates": [8.553565, 47.397624], "type": "Point"}, "properties": {"charge": 35, "id": "smide_2717", "name": "ZH263287", "provider": "smide", "range": 17.0, "size": 17, "time": "01/31/2020, 22:48:46"}, "type": "Feature"}, {"geometry": {"coordinates": [8.526475, 47.388198], "type": "Point"}, "properties": {"charge": 85, "id": "smide_2716", "name": "ZH254606", "provider": "smide", "range": 42.0, "size": 17, "time": "01/31/2020, 22:48:46"}, "type": "Feature"}, {"geometry": {"coordinates": [8.54413, 47.384112], "type": "Point"}, "properties": {"charge": 58, "id": "smide_2715", "name": "ZH254605", "provider": "smide", "range": 28.0, "size": 17, "time": "01/31/2020, 22:48:46"}, "type": "Feature"}, {"geometry": {"coordinates": [8.568377, 47.36764], "type": "Point"}, "properties": {"charge": 73, "id": "smide_2710", "name": "ZH256460", "provider": "smide", "range": 36.0, "size": 17, "time": "01/31/2020, 22:48:46"}, "type": "Feature"}, {"geometry": {"coordinates": [8.515573, 47.36888], "type": "Point"}, "properties": {"charge": 100, "id": "smide_2712", "name": "ZH256462", "provider": "smide", "range": 50.0, "size": 17, "time": "01/31/2020, 22:48:46"}, "type": "Feature"}, {"geometry": {"coordinates": [8.560291, 47.370128], "type": "Point"}, "properties": {"charge": 51, "id": "smide_2711", "name": "ZH256463", "provider": "smide", "range": 25.0, "size": 17, "time": "01/31/2020, 22:48:46"}, "type": "Feature"}, {"geometry": {"coordinates": [8.564185, 47.348286], "type": "Point"}, "properties": {"charge": 74, "id": "smide_2709", "name": "ZH256466", "provider": "smide", "range": 37.0, "size": 20, "time": "01/31/2020, 22:48:46"}, "type": "Feature"}, {"geometry": {"coordinates": [8.544233, 47.416784], "type": "Point"}, "properties": {"charge": 72, "id": "smide_2707", "name": "ZH256467", "provider": "smide", "range": 36.0, "size": 20, "time": "01/31/2020, 22:48:46"}, "type": "Feature"}, {"geometry": {"coordinates": [8.500338, 47.371828], "type": "Point"}, "properties": {"charge": 33, "id": "smide_2708", "name": "ZH256464", "provider": "smide", "range": 16.0, "size": 17, "time": "01/31/2020, 22:48:46"}, "type": "Feature"}, {"geometry": {"coordinates": [8.538967, 47.371608], "type": "Point"}, "properties": {"charge": 100, "id": "smide_2706", "name": "ZH256322", "provider": "smide", "range": 50.0, "size": 20, "time": "01/31/2020, 22:48:46"}, "type": "Feature"}, {"geometry": {"coordinates": [8.537155, 47.419148], "type": "Point"}, "properties": {"charge": 87, "id": "smide_2705", "name": "ZH256471", "provider": "smide", "range": 43.0, "size": 20, "time": "01/31/2020, 22:48:46"}, "type": "Feature"}, {"geometry": {"coordinates": [8.563371, 47.37242], "type": "Point"}, "properties": {"charge": 100, "id": "smide_2701", "name": "ZH256468", "provider": "smide", "range": 50.0, "size": 20, "time": "01/31/2020, 22:48:46"}, "type": "Feature"}, {"geometry": {"coordinates": [8.543701, 47.371972], "type": "Point"}, "properties": {"charge": 85, "id": "smide_2700", "name": "ZH256470", "provider": "smide", "range": 42.0, "size": 20, "time": "01/31/2020, 22:48:46"}, "type": "Feature"}, {"geometry": {"coordinates": [8.568369, 47.36766], "type": "Point"}, "properties": {"charge": 100, "id": "smide_2699", "name": "ZH254611", "provider": "smide", "range": 50.0, "size": 20, "time": "01/31/2020, 22:48:46"}, "type": "Feature"}, {"geometry": {"coordinates": [8.523316, 47.386344], "type": "Point"}, "properties": {"charge": 100, "id": "smide_2696", "name": "ZH254616", "provider": "smide", "range": 50.0, "size": 20, "time": "01/31/2020, 22:48:46"}, "type": "Feature"}, {"geometry": {"coordinates": [8.551839, 47.389184], "type": "Point"}, "properties": {"charge": 88, "id": "smide_2694", "name": "ZH254610", "provider": "smide", "range": 44.0, "size": 20, "time": "01/31/2020, 22:48:46"}, "type": "Feature"}, {"geometry": {"coordinates": [8.552536, 47.381695], "type": "Point"}, "properties": {"charge": 55, "id": "smide_2691", "name": "ZH254622", "provider": "smide", "range": 27.0, "size": 20, "time": "01/31/2020, 22:48:46"}, "type": "Feature"}, {"geometry": {"coordinates": [8.537786, 47.40324], "type": "Point"}, "properties": {"charge": 21, "id": "smide_2690", "name": "ZH254625", "provider": "smide", "range": 10.0, "size": 20, "time": "01/31/2020, 22:48:46"}, "type": "Feature"}, {"geometry": {"coordinates": [8.496709, 47.42388], "type": "Point"}, "properties": {"charge": 85, "id": "smide_2689", "name": "ZH254623", "provider": "smide", "range": 42.0, "size": 20, "time": "01/31/2020, 22:48:46"}, "type": "Feature"}, {"geometry": {"coordinates": [8.542914, 47.41106], "type": "Point"}, "properties": {"charge": 64, "id": "smide_2687", "name": "ZH263529", "provider": "smide", "range": 32.0, "size": 20, "time": "01/31/2020, 22:48:46"}, "type": "Feature"}, {"geometry": {"coordinates": [8.563388, 47.38232], "type": "Point"}, "properties": {"charge": 69, "id": "smide_2684", "name": "ZH254626", "provider": "smide", "range": 34.0, "size": 20, "time": "01/31/2020, 22:48:46"}, "type": "Feature"}, {"geometry": {"coordinates": [8.56097, 47.350358], "type": "Point"}, "properties": {"charge": 47, "id": "smide_2683", "name": "ZH254620", "provider": "smide", "range": 23.0, "size": 20, "time": "01/31/2020, 22:48:46"}, "type": "Feature"}, {"geometry": {"coordinates": [8.517715, 47.385596], "type": "Point"}, "properties": {"charge": 97, "id": "smide_2680", "name": "ZH254619", "provider": "smide", "range": 48.0, "size": 20, "time": "01/31/2020, 22:48:46"}, "type": "Feature"}, {"geometry": {"coordinates": [8.57656, 47.351116], "type": "Point"}, "properties": {"charge": 83, "id": "smide_2679", "name": "ZH258489", "provider": "smide", "range": 41.0, "size": 17, "time": "01/31/2020, 22:48:46"}, "type": "Feature"}, {"geometry": {"coordinates": [8.502121, 47.3691], "type": "Point"}, "properties": {"charge": 100, "id": "smide_2677", "name": "ZH258487", "provider": "smide", "range": 50.0, "size": 17, "time": "01/31/2020, 22:48:46"}, "type": "Feature"}, {"geometry": {"coordinates": [8.539821, 47.377188], "type": "Point"}, "properties": {"charge": 88, "id": "smide_2674", "name": "ZH258654", "provider": "smide", "range": 44.0, "size": 17, "time": "01/31/2020, 22:48:46"}, "type": "Feature"}, {"geometry": {"coordinates": [8.532091, 47.416996], "type": "Point"}, "properties": {"charge": 100, "id": "smide_2671", "name": "ZH258645", "provider": "smide", "range": 50.0, "size": 17, "time": "01/31/2020, 22:48:46"}, "type": "Feature"}, {"geometry": {"coordinates": [8.52017, 47.385772], "type": "Point"}, "properties": {"charge": 71, "id": "smide_2669", "name": "ZH263294", "provider": "smide", "range": 35.0, "size": 17, "time": "01/31/2020, 22:48:46"}, "type": "Feature"}, {"geometry": {"coordinates": [8.50668, 47.36066], "type": "Point"}, "properties": {"charge": 84, "id": "smide_2666", "name": "ZH258653", "provider": "smide", "range": 42.0, "size": 17, "time": "01/31/2020, 22:48:46"}, "type": "Feature"}, {"geometry": {"coordinates": [8.51781, 47.386228], "type": "Point"}, "properties": {"charge": 76, "id": "smide_2665", "name": "ZH258644", "provider": "smide", "range": 38.0, "size": 17, "time": "01/31/2020, 22:48:46"}, "type": "Feature"}, {"geometry": {"coordinates": [8.533803, 47.384744], "type": "Point"}, "properties": {"charge": 12, "id": "smide_2664", "name": "ZH258652", "provider": "smide", "range": 6.0, "size": 17, "time": "01/31/2020, 22:48:46"}, "type": "Feature"}, {"geometry": {"coordinates": [8.568439, 47.36682], "type": "Point"}, "properties": {"charge": 35, "id": "smide_2662", "name": "ZH258643", "provider": "smide", "range": 17.0, "size": 17, "time": "01/31/2020, 22:48:46"}, "type": "Feature"}, {"geometry": {"coordinates": [8.50216, 47.370264], "type": "Point"}, "properties": {"charge": 74, "id": "smide_2660", "name": "ZH258647", "provider": "smide", "range": 37.0, "size": 17, "time": "01/31/2020, 22:48:46"}, "type": "Feature"}, {"geometry": {"coordinates": [8.523937, 47.375748], "type": "Point"}, "properties": {"charge": 44, "id": "smide_2648", "name": "ZH257930", "provider": "smide", "range": 22.0, "size": 20, "time": "01/31/2020, 22:48:46"}, "type": "Feature"}, {"geometry": {"coordinates": [8.570288, 47.352241], "type": "Point"}, "properties": {"charge": 57, "id": "smide_2657", "name": "ZH257936", "provider": "smide", "range": 28.0, "size": 17, "time": "01/31/2020, 22:48:46"}, "type": "Feature"}, {"geometry": {"coordinates": [8.540779, 47.378476], "type": "Point"}, "properties": {"charge": 80, "id": "smide_2647", "name": "ZH257932", "provider": "smide", "range": 40.0, "size": 20, "time": "01/31/2020, 22:48:46"}, "type": "Feature"}, {"geometry": {"coordinates": [8.544353, 47.36954], "type": "Point"}, "properties": {"charge": 58, "id": "smide_2645", "name": "ZH257933", "provider": "smide", "range": 28.0, "size": 20, "time": "01/31/2020, 22:48:46"}, "type": "Feature"}, {"geometry": {"coordinates": [8.499001, 47.399575], "type": "Point"}, "properties": {"charge": 87, "id": "smide_3", "name": "ZH253765", "provider": "smide", "range": 43.0, "size": 20, "time": "01/31/2020, 22:48:46"}, "type": "Feature"}, {"geometry": {"coordinates": [8.525986, 47.40844], "type": "Point"}, "properties": {"charge": 77, "id": "smide_105", "name": "ZH253804", "provider": "smide", "range": 38.0, "size": 17, "time": "01/31/2020, 22:48:46"}, "type": "Feature"}, {"geometry": {"coordinates": [8.542171, 47.407516], "type": "Point"}, "properties": {"charge": 91, "id": "smide_186", "name": "ZH253751", "provider": "smide", "range": 45.0, "size": 20, "time": "01/31/2020, 22:48:46"}, "type": "Feature"}, {"geometry": {"coordinates": [8.571144, 47.352488], "type": "Point"}, "properties": {"charge": 93, "id": "smide_173", "name": "ZH258501", "provider": "smide", "range": 46.0, "size": 17, "time": "01/31/2020, 22:48:46"}, "type": "Feature"}, {"geometry": {"coordinates": [8.559304, 47.406064], "type": "Point"}, "properties": {"charge": 73, "id": "smide_77", "name": "ZH261548", "provider": "smide", "range": 36.0, "size": 20, "time": "01/31/2020, 22:48:46"}, "type": "Feature"}, {"geometry": {"coordinates": [8.563056, 47.365096], "type": "Point"}, "properties": {"charge": 91, "id": "smide_200", "name": "ZH253801", "provider": "smide", "range": 45.0, "size": 20, "time": "01/31/2020, 22:48:46"}, "type": "Feature"}, {"geometry": {"coordinates": [8.541901, 47.369876], "type": "Point"}, "properties": {"charge": 72, "id": "smide_197", "name": "ZH253864", "provider": "smide", "range": 36.0, "size": 20, "time": "01/31/2020, 22:48:46"}, "type": "Feature"}, {"geometry": {"coordinates": [8.559125, 47.414744], "type": "Point"}, "properties": {"charge": 100, "id": "smide_199", "name": "ZH253766", "provider": "smide", "range": 50.0, "size": 20, "time": "01/31/2020, 22:48:46"}, "type": "Feature"}, {"geometry": {"coordinates": [8.560368, 47.382052], "type": "Point"}, "properties": {"charge": 57, "id": "smide_8", "name": "ZH253861", "provider": "smide", "range": 28.0, "size": 17, "time": "01/31/2020, 22:48:46"}, "type": "Feature"}, {"geometry": {"coordinates": [8.502133, 47.368788], "type": "Point"}, "properties": {"charge": 100, "id": "smide_201", "name": "ZH253698", "provider": "smide", "range": 50.0, "size": 17, "time": "01/31/2020, 22:48:46"}, "type": "Feature"}, {"geometry": {"coordinates": [8.563353, 47.382366], "type": "Point"}, "properties": {"charge": 76, "id": "smide_45", "name": "ZH253716", "provider": "smide", "range": 38.0, "size": 17, "time": "01/31/2020, 22:48:46"}, "type": "Feature"}, {"geometry": {"coordinates": [8.542517, 47.371008], "type": "Point"}, "properties": {"charge": 62, "id": "smide_188", "name": "ZH261543", "provider": "smide", "range": 31.0, "size": 20, "time": "01/31/2020, 22:48:46"}, "type": "Feature"}, {"geometry": {"coordinates": [8.540398, 47.417212], "type": "Point"}, "properties": {"charge": 44, "id": "smide_101", "name": "ZH253814", "provider": "smide", "range": 22.0, "size": 17, "time": "01/31/2020, 22:48:46"}, "type": "Feature"}, {"geometry": {"coordinates": [8.50035, 47.368652], "type": "Point"}, "properties": {"charge": 92, "id": "smide_9", "name": "ZH253796", "provider": "smide", "range": 46.0, "size": 17, "time": "01/31/2020, 22:48:46"}, "type": "Feature"}, {"geometry": {"coordinates": [8.558961, 47.414744], "type": "Point"}, "properties": {"charge": 100, "id": "smide_143", "name": "ZH253778", "provider": "smide", "range": 50.0, "size": 17, "time": "01/31/2020, 22:48:46"}, "type": "Feature"}, {"geometry": {"coordinates": [8.557066, 47.413071], "type": "Point"}, "properties": {"charge": 11, "id": "smide_180", "name": "ZH253824", "provider": "smide", "range": 5.0, "size": 20, "time": "01/31/2020, 22:48:46"}, "type": "Feature"}, {"geometry": {"coordinates": [8.568686, 47.3608], "type": "Point"}, "properties": {"charge": 65, "id": "smide_20", "name": "ZH253770", "provider": "smide", "range": 32.0, "size": 20, "time": "01/31/2020, 22:48:46"}, "type": "Feature"}, {"geometry": {"coordinates": [8.554848, 47.377228], "type": "Point"}, "properties": {"charge": 86, "id": "smide_50", "name": "ZH253853", "provider": "smide", "range": 43.0, "size": 17, "time": "01/31/2020, 22:48:46"}, "type": "Feature"}, {"geometry": {"coordinates": [8.540213, 47.378898], "type": "Point"}, "properties": {"charge": 100, "id": "smide_30", "name": "ZH253813", "provider": "smide", "range": 50.0, "size": 20, "time": "01/31/2020, 22:48:46"}, "type": "Feature"}, {"geometry": {"coordinates": [8.53871, 47.377125], "type": "Point"}, "properties": {"charge": 94, "id": "smide_10", "name": "ZH253855", "provider": "smide", "range": 47.0, "size": 17, "time": "01/31/2020, 22:48:46"}, "type": "Feature"}, {"geometry": {"coordinates": [8.528204, 47.394964], "type": "Point"}, "properties": {"charge": 55, "id": "smide_179", "name": "ZH253687", "provider": "smide", "range": 27.0, "size": 20, "time": "01/31/2020, 22:48:46"}, "type": "Feature"}, {"geometry": {"coordinates": [8.502028, 47.36888], "type": "Point"}, "properties": {"charge": 100, "id": "smide_84", "name": "ZH253733", "provider": "smide", "range": 50.0, "size": 17, "time": "01/31/2020, 22:48:46"}, "type": "Feature"}, {"geometry": {"coordinates": [8.541641, 47.3761], "type": "Point"}, "properties": {"charge": 48, "id": "smide_165", "name": "ZH253752", "provider": "smide", "range": 24.0, "size": 17, "time": "01/31/2020, 22:48:46"}, "type": "Feature"}, {"geometry": {"coordinates": [8.543396, 47.37648], "type": "Point"}, "properties": {"charge": 45, "id": "smide_76", "name": "ZH253764", "provider": "smide", "range": 22.0, "size": 17, "time": "01/31/2020, 22:48:46"}, "type": "Feature"}, {"geometry": {"coordinates": [8.560278, 47.381365], "type": "Point"}, "properties": {"charge": 22, "id": "smide_49", "name": "ZH253873", "provider": "smide", "range": 11.0, "size": 17, "time": "01/31/2020, 22:48:46"}, "type": "Feature"}, {"geometry": {"coordinates": [8.502117, 47.36228], "type": "Point"}, "properties": {"charge": 74, "id": "smide_94", "name": "ZH253754", "provider": "smide", "range": 37.0, "size": 17, "time": "01/31/2020, 22:48:46"}, "type": "Feature"}, {"geometry": {"coordinates": [8.495791, 47.384952], "type": "Point"}, "properties": {"charge": 78, "id": "smide_37", "name": "ZH261377", "provider": "smide", "range": 39.0, "size": 20, "time": "01/31/2020, 22:48:46"}, "type": "Feature"}, {"geometry": {"coordinates": [8.544543, 47.369225], "type": "Point"}, "properties": {"charge": 87, "id": "smide_191", "name": "ZH253762", "provider": "smide", "range": 43.0, "size": 17, "time": "01/31/2020, 22:48:46"}, "type": "Feature"}, {"geometry": {"coordinates": [8.545465, 47.376863], "type": "Point"}, "properties": {"charge": 48, "id": "smide_202", "name": "ZH253830", "provider": "smide", "range": 24.0, "size": 17, "time": "01/31/2020, 22:48:46"}, "type": "Feature"}, {"geometry": {"coordinates": [8.539539, 47.408916], "type": "Point"}, "properties": {"charge": 73, "id": "smide_56", "name": "ZH261442", "provider": "smide", "range": 36.0, "size": 20, "time": "01/31/2020, 22:48:46"}, "type": "Feature"}, {"geometry": {"coordinates": [8.559348, 47.414903], "type": "Point"}, "properties": {"charge": 62, "id": "smide_47", "name": "ZH253858", "provider": "smide", "range": 31.0, "size": 17, "time": "01/31/2020, 22:48:46"}, "type": "Feature"}, {"geometry": {"coordinates": [8.559711, 47.404052], "type": "Point"}, "properties": {"charge": 100, "id": "smide_66", "name": "ZH253818", "provider": "smide", "range": 50.0, "size": 20, "time": "01/31/2020, 22:48:46"}, "type": "Feature"}, {"geometry": {"coordinates": [8.548285, 47.405636], "type": "Point"}, "properties": {"charge": 99, "id": "smide_17", "name": "ZH253793", "provider": "smide", "range": 49.0, "size": 17, "time": "01/31/2020, 22:48:46"}, "type": "Feature"}, {"geometry": {"coordinates": [8.564177, 47.36688], "type": "Point"}, "properties": {"charge": 73, "id": "smide_127", "name": "ZH253808", "provider": "smide", "range": 36.0, "size": 20, "time": "01/31/2020, 22:48:46"}, "type": "Feature"}, {"geometry": {"coordinates": [8.53987, 47.415351], "type": "Point"}, "properties": {"charge": 86, "id": "smide_145", "name": "ZH253780", "provider": "smide", "range": 43.0, "size": 20, "time": "01/31/2020, 22:48:46"}, "type": "Feature"}, {"geometry": {"coordinates": [8.548024, 47.366204], "type": "Point"}, "properties": {"charge": 87, "id": "smide_203", "name": "ZH261547", "provider": "smide", "range": 43.0, "size": 17, "time": "01/31/2020, 22:48:46"}, "type": "Feature"}, {"geometry": {"coordinates": [8.526018, 47.374872], "type": "Point"}, "properties": {"charge": 98, "id": "smide_21", "name": "ZH253841", "provider": "smide", "range": 49.0, "size": 17, "time": "01/31/2020, 22:48:46"}, "type": "Feature"}, {"geometry": {"coordinates": [8.533368, 47.396444], "type": "Point"}, "properties": {"charge": 100, "id": "smide_164", "name": "ZH253775", "provider": "smide", "range": 50.0, "size": 17, "time": "01/31/2020, 22:48:46"}, "type": "Feature"}, {"geometry": {"coordinates": [8.487396, 47.367632], "type": "Point"}, "properties": {"charge": 93, "id": "smide_189", "name": "ZH253845", "provider": "smide", "range": 46.0, "size": 20, "time": "01/31/2020, 22:48:46"}, "type": "Feature"}, {"geometry": {"coordinates": [8.554566, 47.403124], "type": "Point"}, "properties": {"charge": 55, "id": "smide_81", "name": "ZH253753", "provider": "smide", "range": 27.0, "size": 17, "time": "01/31/2020, 22:48:46"}, "type": "Feature"}, {"geometry": {"coordinates": [8.553744, 47.37464], "type": "Point"}, "properties": {"charge": 60, "id": "smide_93", "name": "ZH253681", "provider": "smide", "range": 30.0, "size": 17, "time": "01/31/2020, 22:48:46"}, "type": "Feature"}, {"geometry": {"coordinates": [8.573394, 47.352544], "type": "Point"}, "properties": {"charge": 88, "id": "smide_67", "name": "ZH253779", "provider": "smide", "range": 44.0, "size": 17, "time": "01/31/2020, 22:48:46"}, "type": "Feature"}, {"geometry": {"coordinates": [8.537127, 47.419132], "type": "Point"}, "properties": {"charge": 66, "id": "smide_133", "name": "ZH253848", "provider": "smide", "range": 33.0, "size": 20, "time": "01/31/2020, 22:48:46"}, "type": "Feature"}, {"geometry": {"coordinates": [8.482166, 47.385893], "type": "Point"}, "properties": {"charge": 100, "id": "smide_118", "name": "ZH253759", "provider": "smide", "range": 50.0, "size": 20, "time": "01/31/2020, 22:48:46"}, "type": "Feature"}, {"geometry": {"coordinates": [8.531648, 47.364084], "type": "Point"}, "properties": {"charge": 28, "id": "smide_142", "name": "ZH258745", "provider": "smide", "range": 14.0, "size": 17, "time": "01/31/2020, 22:48:46"}, "type": "Feature"}, {"geometry": {"coordinates": [8.529063, 47.374831], "type": "Point"}, "properties": {"charge": 63, "id": "smide_166", "name": "ZH253728", "provider": "smide", "range": 31.0, "size": 17, "time": "01/31/2020, 22:48:46"}, "type": "Feature"}, {"geometry": {"coordinates": [8.528962, 47.382948], "type": "Point"}, "properties": {"charge": 72, "id": "smide_126", "name": "ZH268400", "provider": "smide", "range": 36.0, "size": 17, "time": "01/31/2020, 22:48:46"}, "type": "Feature"}, {"geometry": {"coordinates": [8.51359, 47.376475], "type": "Point"}, "properties": {"charge": 62, "id": "smide_44", "name": "ZH253837", "provider": "smide", "range": 31.0, "size": 17, "time": "01/31/2020, 22:48:46"}, "type": "Feature"}, {"geometry": {"coordinates": [8.571963, 47.355136], "type": "Point"}, "properties": {"charge": 100, "id": "smide_154", "name": "ZH253744", "provider": "smide", "range": 50.0, "size": 20, "time": "01/31/2020, 22:48:46"}, "type": "Feature"}, {"geometry": {"coordinates": [8.564575, 47.369352], "type": "Point"}, "properties": {"charge": 84, "id": "smide_7", "name": "ZH256289", "provider": "smide", "range": 42.0, "size": 20, "time": "01/31/2020, 22:48:46"}, "type": "Feature"}, {"geometry": {"coordinates": [8.560367, 47.37234], "type": "Point"}, "properties": {"charge": 86, "id": "smide_92", "name": "ZH253798", "provider": "smide", "range": 43.0, "size": 17, "time": "01/31/2020, 22:48:46"}, "type": "Feature"}, {"geometry": {"coordinates": [8.547615, 47.422218], "type": "Point"}, "properties": {"charge": 67, "id": "smide_167", "name": "ZH253854", "provider": "smide", "range": 33.0, "size": 17, "time": "01/31/2020, 22:48:46"}, "type": "Feature"}, {"geometry": {"coordinates": [8.500355, 47.370172], "type": "Point"}, "properties": {"charge": 23, "id": "smide_65", "name": "ZH253810", "provider": "smide", "range": 11.0, "size": 17, "time": "01/31/2020, 22:48:46"}, "type": "Feature"}, {"geometry": {"coordinates": [8.537009, 47.343196], "type": "Point"}, "properties": {"charge": 88, "id": "smide_111", "name": "ZH253763", "provider": "smide", "range": 44.0, "size": 17, "time": "01/31/2020, 22:48:46"}, "type": "Feature"}, {"geometry": {"coordinates": [8.546339, 47.41254], "type": "Point"}, "properties": {"charge": 100, "id": "smide_40", "name": "ZH253690", "provider": "smide", "range": 50.0, "size": 20, "time": "01/31/2020, 22:48:46"}, "type": "Feature"}, {"geometry": {"coordinates": [8.557558, 47.351932], "type": "Point"}, "properties": {"charge": 99, "id": "smide_1", "name": "ZH253776", "provider": "smide", "range": 49.0, "size": 17, "time": "01/31/2020, 22:48:46"}, "type": "Feature"}, {"geometry": {"coordinates": [8.517659, 47.41434], "type": "Point"}, "properties": {"charge": 80, "id": "smide_28", "name": "ZH253831", "provider": "smide", "range": 40.0, "size": 17, "time": "01/31/2020, 22:48:46"}, "type": "Feature"}, {"geometry": {"coordinates": [8.519905, 47.34034], "type": "Point"}, "properties": {"charge": 79, "id": "smide_14", "name": "ZH253749", "provider": "smide", "range": 39.0, "size": 20, "time": "01/31/2020, 22:48:46"}, "type": "Feature"}, {"geometry": {"coordinates": [8.529311, 47.38304], "type": "Point"}, "properties": {"charge": 35, "id": "smide_130", "name": "ZH253847", "provider": "smide", "range": 17.0, "size": 20, "time": "01/31/2020, 22:48:46"}, "type": "Feature"}, {"geometry": {"coordinates": [8.540907, 47.378324], "type": "Point"}, "properties": {"charge": 46, "id": "smide_24", "name": "ZH253696", "provider": "smide", "range": 23.0, "size": 20, "time": "01/31/2020, 22:48:46"}, "type": "Feature"}, {"geometry": {"coordinates": [8.50206, 47.369008], "type": "Point"}, "properties": {"charge": 100, "id": "smide_107", "name": "ZH253819", "provider": "smide", "range": 50.0, "size": 17, "time": "01/31/2020, 22:48:46"}, "type": "Feature"}, {"geometry": {"coordinates": [8.539911, 47.379384], "type": "Point"}, "properties": {"charge": 100, "id": "smide_136", "name": "ZH253682", "provider": "smide", "range": 50.0, "size": 17, "time": "01/31/2020, 22:48:46"}, "type": "Feature"}, {"geometry": {"coordinates": [8.525365, 47.379232], "type": "Point"}, "properties": {"charge": 57, "id": "smide_83", "name": "ZH253869", "provider": "smide", "range": 28.0, "size": 20, "time": "01/31/2020, 22:48:46"}, "type": "Feature"}, {"geometry": {"coordinates": [8.537445, 47.379428], "type": "Point"}, "properties": {"charge": 49, "id": "smide_193", "name": "ZH253738", "provider": "smide", "range": 24.0, "size": 20, "time": "01/31/2020, 22:48:46"}, "type": "Feature"}, {"geometry": {"coordinates": [8.545181, 47.412256], "type": "Point"}, "properties": {"charge": 100, "id": "smide_73", "name": "ZH261379", "provider": "smide", "range": 50.0, "size": 20, "time": "01/31/2020, 22:48:46"}, "type": "Feature"}, {"geometry": {"coordinates": [8.485418, 47.374895], "type": "Point"}, "properties": {"charge": 100, "id": "smide_158", "name": "ZH253870", "provider": "smide", "range": 50.0, "size": 20, "time": "01/31/2020, 22:48:46"}, "type": "Feature"}, {"geometry": {"coordinates": [8.496578, 47.423812], "type": "Point"}, "properties": {"charge": 100, "id": "smide_100", "name": "ZH253862", "provider": "smide", "range": 50.0, "size": 20, "time": "01/31/2020, 22:48:46"}, "type": "Feature"}, {"geometry": {"coordinates": [8.489698, 47.392901], "type": "Point"}, "properties": {"charge": 100, "id": "smide_134", "name": "ZH253741", "provider": "smide", "range": 50.0, "size": 20, "time": "01/31/2020, 22:48:46"}, "type": "Feature"}, {"geometry": {"coordinates": [8.567618, 47.362466], "type": "Point"}, "properties": {"charge": 46, "id": "smide_149", "name": "ZH253743", "provider": "smide", "range": 23.0, "size": 20, "time": "01/31/2020, 22:48:46"}, "type": "Feature"}, {"geometry": {"coordinates": [8.549162, 47.382168], "type": "Point"}, "properties": {"charge": 98, "id": "smide_16", "name": "ZH253713", "provider": "smide", "range": 49.0, "size": 20, "time": "01/31/2020, 22:48:46"}, "type": "Feature"}, {"geometry": {"coordinates": [8.526376, 47.37536], "type": "Point"}, "properties": {"charge": 67, "id": "smide_74", "name": "ZH253693", "provider": "smide", "range": 33.0, "size": 20, "time": "01/31/2020, 22:48:46"}, "type": "Feature"}, {"geometry": {"coordinates": [8.576308, 47.351335], "type": "Point"}, "properties": {"charge": 83, "id": "smide_33", "name": "ZH253782", "provider": "smide", "range": 41.0, "size": 20, "time": "01/31/2020, 22:48:46"}, "type": "Feature"}, {"geometry": {"coordinates": [8.560298, 47.372308], "type": "Point"}, "properties": {"charge": 60, "id": "smide_161", "name": "ZH253691", "provider": "smide", "range": 30.0, "size": 20, "time": "01/31/2020, 22:48:46"}, "type": "Feature"}, {"geometry": {"coordinates": [8.52415, 47.376626], "type": "Point"}, "properties": {"charge": 58, "id": "smide_183", "name": "ZH253868", "provider": "smide", "range": 28.0, "size": 17, "time": "01/31/2020, 22:48:46"}, "type": "Feature"}, {"geometry": {"coordinates": [8.533331, 47.348024], "type": "Point"}, "properties": {"charge": 89, "id": "smide_42", "name": "ZH253846", "provider": "smide", "range": 44.0, "size": 20, "time": "01/31/2020, 22:48:46"}, "type": "Feature"}, {"geometry": {"coordinates": [8.539371, 47.419224], "type": "Point"}, "properties": {"charge": 97, "id": "smide_4", "name": "ZH253740", "provider": "smide", "range": 48.0, "size": 20, "time": "01/31/2020, 22:48:46"}, "type": "Feature"}, {"geometry": {"coordinates": [8.57342, 47.349195], "type": "Point"}, "properties": {"charge": 98, "id": "smide_137", "name": "ZH258502", "provider": "smide", "range": 49.0, "size": 17, "time": "01/31/2020, 22:48:46"}, "type": "Feature"}, {"geometry": {"coordinates": [8.577464, 47.353044], "type": "Point"}, "properties": {"charge": 98, "id": "smide_178", "name": "ZH253803", "provider": "smide", "range": 49.0, "size": 17, "time": "01/31/2020, 22:48:46"}, "type": "Feature"}, {"geometry": {"coordinates": [8.487443, 47.384246], "type": "Point"}, "properties": {"charge": 43, "id": "smide_55", "name": "ZH253875", "provider": "smide", "range": 21.0, "size": 17, "time": "01/31/2020, 22:48:46"}, "type": "Feature"}, {"geometry": {"coordinates": [8.517098, 47.39842], "type": "Point"}, "properties": {"charge": 59, "id": "smide_96", "name": "ZH256146", "provider": "smide", "range": 29.0, "size": 20, "time": "01/31/2020, 22:48:46"}, "type": "Feature"}, {"geometry": {"coordinates": [8.55084, 47.39236], "type": "Point"}, "properties": {"charge": 34, "id": "smide_58", "name": "ZH259246", "provider": "smide", "range": 17.0, "size": 20, "time": "01/31/2020, 22:48:46"}, "type": "Feature"}, {"geometry": {"coordinates": [8.510823, 47.366964], "type": "Point"}, "properties": {"charge": 72, "id": "smide_54", "name": "ZH253874", "provider": "smide", "range": 36.0, "size": 20, "time": "01/31/2020, 22:48:46"}, "type": "Feature"}, {"geometry": {"coordinates": [8.552047, 47.38972], "type": "Point"}, "properties": {"charge": 100, "id": "smide_175", "name": "ZH253730", "provider": "smide", "range": 50.0, "size": 17, "time": "01/31/2020, 22:48:46"}, "type": "Feature"}, {"geometry": {"coordinates": [8.502086, 47.369024], "type": "Point"}, "properties": {"charge": 100, "id": "smide_95", "name": "ZH253773", "provider": "smide", "range": 50.0, "size": 17, "time": "01/31/2020, 22:48:46"}, "type": "Feature"}, {"geometry": {"coordinates": [8.530974, 47.41544], "type": "Point"}, "properties": {"charge": 71, "id": "smide_112", "name": "ZH263530", "provider": "smide", "range": 35.0, "size": 20, "time": "01/31/2020, 22:48:46"}, "type": "Feature"}, {"geometry": {"coordinates": [8.564272, 47.369368], "type": "Point"}, "properties": {"charge": 46, "id": "smide_122", "name": "ZH253850", "provider": "smide", "range": 23.0, "size": 20, "time": "01/31/2020, 22:48:46"}, "type": "Feature"}, {"geometry": {"coordinates": [8.553756, 47.381778], "type": "Point"}, "properties": {"charge": 87, "id": "smide_38", "name": "ZH253851", "provider": "smide", "range": 43.0, "size": 20, "time": "01/31/2020, 22:48:46"}, "type": "Feature"}, {"geometry": {"coordinates": [8.55856, 47.404436], "type": "Point"}, "properties": {"charge": 91, "id": "smide_6", "name": "ZH253787", "provider": "smide", "range": 45.0, "size": 17, "time": "01/31/2020, 22:48:46"}, "type": "Feature"}, {"geometry": {"coordinates": [8.566904, 47.360364], "type": "Point"}, "properties": {"charge": 75, "id": "smide_12", "name": "ZH253685", "provider": "smide", "range": 37.0, "size": 17, "time": "01/31/2020, 22:48:46"}, "type": "Feature"}, {"geometry": {"coordinates": [8.576261, 47.348772], "type": "Point"}, "properties": {"charge": 95, "id": "smide_192", "name": "ZH253706", "provider": "smide", "range": 47.0, "size": 20, "time": "01/31/2020, 22:48:46"}, "type": "Feature"}, {"geometry": {"coordinates": [8.547979, 47.366308], "type": "Point"}, "properties": {"charge": 79, "id": "smide_39", "name": "ZH253714", "provider": "smide", "range": 39.0, "size": 20, "time": "01/31/2020, 22:48:46"}, "type": "Feature"}, {"geometry": {"coordinates": [8.543445, 47.371621], "type": "Point"}, "properties": {"charge": 79, "id": "smide_5", "name": "ZH261443", "provider": "smide", "range": 39.0, "size": 20, "time": "01/31/2020, 22:48:46"}, "type": "Feature"}, {"geometry": {"coordinates": [8.562643, 47.377805], "type": "Point"}, "properties": {"charge": 100, "id": "smide_85", "name": "ZH253729", "provider": "smide", "range": 50.0, "size": 17, "time": "01/31/2020, 22:48:46"}, "type": "Feature"}, {"geometry": {"coordinates": [8.531328, 47.39112], "type": "Point"}, "properties": {"charge": 34, "id": "smide_29", "name": "ZH253723", "provider": "smide", "range": 17.0, "size": 17, "time": "01/31/2020, 22:48:46"}, "type": "Feature"}, {"geometry": {"coordinates": [8.54745, 47.390936], "type": "Point"}, "properties": {"charge": 55, "id": "smide_48", "name": "ZH253849", "provider": "smide", "range": 27.0, "size": 20, "time": "01/31/2020, 22:48:46"}, "type": "Feature"}, {"geometry": {"coordinates": [8.538428, 47.379268], "type": "Point"}, "properties": {"charge": 100, "id": "smide_46", "name": "ZH253843", "provider": "smide", "range": 50.0, "size": 20, "time": "01/31/2020, 22:48:46"}, "type": "Feature"}, {"geometry": {"coordinates": [8.51735833333333, 47.386525], "type": "Point"}, "properties": {"charge": 83, "id": "bird_f435ccf3-7cd6-40b1-93ec-c8a01be458f0", "provider": "bird", "timeStamp": "01/31/2020, 22:48:45"}, "type": "Feature"}, {"geometry": {"coordinates": [8.51896, 47.3723533333333], "type": "Point"}, "properties": {"charge": 13, "id": "bird_a57bd378-7223-4d4a-af52-c484a960d44f", "provider": "bird", "timeStamp": "01/31/2020, 22:48:45"}, "type": "Feature"}, {"geometry": {"coordinates": [8.54478666666667, 47.37632], "type": "Point"}, "properties": {"charge": 62, "id": "bird_8246e71d-383d-4829-bbcc-44395ec7737d", "provider": "bird", "timeStamp": "01/31/2020, 22:48:45"}, "type": "Feature"}, {"geometry": {"coordinates": [8.54478333333333, 47.37632], "type": "Point"}, "properties": {"charge": 38, "id": "bird_36aa2e53-be6e-44f3-ab24-26db8c8d9259", "provider": "bird", "timeStamp": "01/31/2020, 22:48:45"}, "type": "Feature"}, {"geometry": {"coordinates": [8.52124166666667, 47.3888583333333], "type": "Point"}, "properties": {"charge": 43, "id": "bird_b1c054d4-5841-4f32-a77f-9b8af2a09d97", "provider": "bird", "timeStamp": "01/31/2020, 22:48:45"}, "type": "Feature"}, {"geometry": {"coordinates": [8.51736166666667, 47.3862], "type": "Point"}, "properties": {"charge": 24, "id": "bird_c9e635a3-188a-4ea7-bd85-59d161a779fc", "provider": "bird", "timeStamp": "01/31/2020, 22:48:45"}, "type": "Feature"}, {"geometry": {"coordinates": [8.5169, 47.3857116666667], "type": "Point"}, "properties": {"charge": 92, "id": "bird_370fe15f-b993-4909-b483-29b1a6676aaf", "provider": "bird", "timeStamp": "01/31/2020, 22:48:45"}, "type": "Feature"}, {"geometry": {"coordinates": [8.52041118779082, 47.3883016035402], "type": "Point"}, "properties": {"charge": 97, "id": "bird_29425b01-e5d7-4884-82ba-33cbcc2d6183", "provider": "bird", "timeStamp": "01/31/2020, 22:48:45"}, "type": "Feature"}, {"geometry": {"coordinates": [8.51711666666667, 47.3858866666667], "type": "Point"}, "properties": {"charge": 100, "id": "bird_1b60946e-5204-450c-a898-9581bb19439f", "provider": "bird", "timeStamp": "01/31/2020, 22:48:45"}, "type": "Feature"}, {"geometry": {"coordinates": [8.52032833333333, 47.38823], "type": "Point"}, "properties": {"charge": 84, "id": "bird_3ee58353-3a48-4737-9542-31c945df83b3", "provider": "bird", "timeStamp": "01/31/2020, 22:48:45"}, "type": "Feature"}, {"geometry": {"coordinates": [8.52191333333333, 47.3889583333333], "type": "Point"}, "properties": {"charge": 30, "id": "bird_38623bee-32fe-41ef-b289-42d9848ed585", "provider": "bird", "timeStamp": "01/31/2020, 22:48:45"}, "type": "Feature"}, {"geometry": {"coordinates": [8.51748166666667, 47.3861583333333], "type": "Point"}, "properties": {"charge": 78, "id": "bird_1ec5d423-d65c-483d-97e7-ddf6641ae0a0", "provider": "bird", "timeStamp": "01/31/2020, 22:48:45"}, "type": "Feature"}, {"geometry": {"coordinates": [8.52015666666667, 47.3880616666667], "type": "Point"}, "properties": {"charge": 11, "id": "bird_ab0643c4-05fb-4624-82d0-823e755acd4a", "provider": "bird", "timeStamp": "01/31/2020, 22:48:45"}, "type": "Feature"}, {"geometry": {"coordinates": [8.51605833333333, 47.3754966666667], "type": "Point"}, "properties": {"charge": 49, "id": "bird_56dfeb7f-ad2b-47e3-9fc6-dbfc2aa5903f", "provider": "bird", "timeStamp": "01/31/2020, 22:48:45"}, "type": "Feature"}, {"geometry": {"coordinates": [8.51728166666667, 47.385815], "type": "Point"}, "properties": {"charge": 75, "id": "bird_244b90f1-b892-4d94-99ce-a7a87ce94941", "provider": "bird", "timeStamp": "01/31/2020, 22:48:45"}, "type": "Feature"}, {"geometry": {"coordinates": [8.51934166666667, 47.3874666666667], "type": "Point"}, "properties": {"charge": 100, "id": "bird_95f38339-c1c7-4723-88b0-331fad9e5345", "provider": "bird", "timeStamp": "01/31/2020, 22:48:45"}, "type": "Feature"}, {"geometry": {"coordinates": [8.52189, 47.3888133333333], "type": "Point"}, "properties": {"charge": 65, "id": "bird_1d268de1-9b4d-4026-b4a8-356d7318ccb7", "provider": "bird", "timeStamp": "01/31/2020, 22:48:45"}, "type": "Feature"}, {"geometry": {"coordinates": [8.51779666666667, 47.3861433333333], "type": "Point"}, "properties": {"charge": 53, "id": "bird_bea432ca-3023-4943-9aa3-2f490d308195", "provider": "bird", "timeStamp": "01/31/2020, 22:48:45"}, "type": "Feature"}, {"geometry": {"coordinates": [8.53307833333333, 47.3699233333333], "type": "Point"}, "properties": {"charge": 38, "id": "bird_5c276420-cebd-4922-8552-878515603d22", "provider": "bird", "timeStamp": "01/31/2020, 22:48:45"}, "type": "Feature"}, {"geometry": {"coordinates": [8.53928166666667, 47.3718683333333], "type": "Point"}, "properties": {"charge": 57, "id": "bird_c5065410-d125-474a-a079-207d39327730", "provider": "bird", "timeStamp": "01/31/2020, 22:48:45"}, "type": "Feature"}, {"geometry": {"coordinates": [8.517075, 47.374615], "type": "Point"}, "properties": {"charge": 34, "id": "bird_e95b9c7d-5e5b-4ae8-a4c9-b0044b646a5e", "provider": "bird", "timeStamp": "01/31/2020, 22:48:45"}, "type": "Feature"}, {"geometry": {"coordinates": [8.51786166666667, 47.38609], "type": "Point"}, "properties": {"charge": 36, "id": "bird_b71dfac1-d942-48a0-a140-34406d277838", "provider": "bird", "timeStamp": "01/31/2020, 22:48:45"}, "type": "Feature"}, {"geometry": {"coordinates": [8.53926666666667, 47.3880766666667], "type": "Point"}, "properties": {"charge": 42, "id": "bird_5b3e1d13-c85d-45f5-8e78-b79ce7418c5c", "provider": "bird", "timeStamp": "01/31/2020, 22:48:45"}, "type": "Feature"}, {"geometry": {"coordinates": [8.51800166666667, 47.3861916666667], "type": "Point"}, "properties": {"charge": 55, "id": "bird_da20c94f-0f87-4c8a-ba4c-4e7b7c001b9c", "provider": "bird", "timeStamp": "01/31/2020, 22:48:45"}, "type": "Feature"}, {"geometry": {"coordinates": [8.51978166666667, 47.3724866666667], "type": "Point"}, "properties": {"charge": 34, "id": "bird_530cb39d-02e0-4d2d-beea-abe9b5b9a231", "provider": "bird", "timeStamp": "01/31/2020, 22:48:45"}, "type": "Feature"}, {"geometry": {"coordinates": [8.51800166666667, 47.3861166666667], "type": "Point"}, "properties": {"charge": 58, "id": "bird_4f236185-4e56-489f-99d4-064ac73f7a60", "provider": "bird", "timeStamp": "01/31/2020, 22:48:45"}, "type": "Feature"}, {"geometry": {"coordinates": [8.51691833333333, 47.3849633333333], "type": "Point"}, "properties": {"charge": 34, "id": "bird_47aaed4c-1abd-47fe-a4f3-a60f6762c57a", "provider": "bird", "timeStamp": "01/31/2020, 22:48:45"}, "type": "Feature"}, {"geometry": {"coordinates": [8.51917, 47.38702], "type": "Point"}, "properties": {"charge": 84, "id": "bird_4b177cf7-df28-4fa0-a94b-0000b92b966b", "provider": "bird", "timeStamp": "01/31/2020, 22:48:45"}, "type": "Feature"}, {"geometry": {"coordinates": [8.51650333333333, 47.37561], "type": "Point"}, "properties": {"charge": 100, "id": "bird_a8da94e3-2d74-4ecc-b6f7-d7813f8c4e87", "provider": "bird", "timeStamp": "01/31/2020, 22:48:45"}, "type": "Feature"}, {"geometry": {"coordinates": [8.51700833333333, 47.3850333333333], "type": "Point"}, "properties": {"charge": 28, "id": "bird_cfddd483-682d-4ba9-8db8-af2decf9b677", "provider": "bird", "timeStamp": "01/31/2020, 22:48:45"}, "type": "Feature"}, {"geometry": {"coordinates": [8.54407, 47.37656], "type": "Point"}, "properties": {"charge": 53, "id": "bird_035200ae-fcdd-4697-b6f2-a64993625e4b", "provider": "bird", "timeStamp": "01/31/2020, 22:48:45"}, "type": "Feature"}, {"geometry": {"coordinates": [8.535105, 47.3704833333333], "type": "Point"}, "properties": {"charge": 24, "id": "bird_9e44dc91-59de-4a7c-8b44-0227b194af1c", "provider": "bird", "timeStamp": "01/31/2020, 22:48:45"}, "type": "Feature"}, {"geometry": {"coordinates": [8.51506666666667, 47.3799366666667], "type": "Point"}, "properties": {"charge": 49, "id": "bird_7e664e32-b9df-4f21-b776-466d8e1d9828", "provider": "bird", "timeStamp": "01/31/2020, 22:48:45"}, "type": "Feature"}, {"geometry": {"coordinates": [8.51952666666667, 47.3728066666667], "type": "Point"}, "properties": {"charge": 78, "id": "bird_e6d0e6e1-5800-467f-b292-c6304a9ab0a0", "provider": "bird", "timeStamp": "01/31/2020, 22:48:45"}, "type": "Feature"}, {"geometry": {"coordinates": [8.51771666666667, 47.3857266666667], "type": "Point"}, "properties": {"charge": 27, "id": "bird_45953df0-4796-4dc1-bb45-ea11ec032f02", "provider": "bird", "timeStamp": "01/31/2020, 22:48:45"}, "type": "Feature"}, {"geometry": {"coordinates": [8.51808666666667, 47.38607], "type": "Point"}, "properties": {"charge": 16, "id": "bird_14c04621-ee94-464d-90fb-27c9101e0ed4", "provider": "bird", "timeStamp": "01/31/2020, 22:48:45"}, "type": "Feature"}, {"geometry": {"coordinates": [8.517595, 47.3855966666667], "type": "Point"}, "properties": {"charge": 100, "id": "bird_937a18bc-4b86-42e8-8f96-fa688c3a0505", "provider": "bird", "timeStamp": "01/31/2020, 22:48:45"}, "type": "Feature"}, {"geometry": {"coordinates": [8.54399166666667, 47.37653], "type": "Point"}, "properties": {"charge": 62, "id": "bird_e7d52ded-9768-486f-992b-df4201955c80", "provider": "bird", "timeStamp": "01/31/2020, 22:48:45"}, "type": "Feature"}, {"geometry": {"coordinates": [8.53302333333333, 47.3898766666667], "type": "Point"}, "properties": {"charge": 47, "id": "bird_0d81403c-dabd-4b36-8e15-3f894b513242", "provider": "bird", "timeStamp": "01/31/2020, 22:48:45"}, "type": "Feature"}, {"geometry": {"coordinates": [8.54381833333333, 47.376255], "type": "Point"}, "properties": {"charge": 62, "id": "bird_707537ff-481a-46c8-8c88-10de18327660", "provider": "bird", "timeStamp": "01/31/2020, 22:48:45"}, "type": "Feature"}, {"geometry": {"coordinates": [8.51674833333333, 47.3754116666667], "type": "Point"}, "properties": {"charge": 37, "id": "bird_708213b7-e72c-409e-ad65-05ac452ac4d4", "provider": "bird", "timeStamp": "01/31/2020, 22:48:45"}, "type": "Feature"}, {"geometry": {"coordinates": [8.51810666666667, 47.3860316666667], "type": "Point"}, "properties": {"charge": 17, "id": "bird_b35b3459-34db-40b1-a9b1-16a4438e7f0e", "provider": "bird", "timeStamp": "01/31/2020, 22:48:45"}, "type": "Feature"}, {"geometry": {"coordinates": [8.51814666666667, 47.3860316666667], "type": "Point"}, "properties": {"charge": 12, "id": "bird_71097457-68ea-440a-9d6a-2400edb1b2f1", "provider": "bird", "timeStamp": "01/31/2020, 22:48:45"}, "type": "Feature"}, {"geometry": {"coordinates": [8.51677, 47.3755], "type": "Point"}, "properties": {"charge": 100, "id": "bird_5b64243e-bdf3-4ccf-8205-9c4d272ff34f", "provider": "bird", "timeStamp": "01/31/2020, 22:48:45"}, "type": "Feature"}, {"geometry": {"coordinates": [8.51663333333333, 47.375725], "type": "Point"}, "properties": {"charge": 93, "id": "bird_5b9f9e50-3bf6-4970-b011-a3f9449dd214", "provider": "bird", "timeStamp": "01/31/2020, 22:48:45"}, "type": "Feature"}, {"geometry": {"coordinates": [8.51813666666667, 47.3859483333333], "type": "Point"}, "properties": {"charge": 19, "id": "bird_78b4ad7f-d8bb-4cf3-9d81-8f5d993a18dc", "provider": "bird", "timeStamp": "01/31/2020, 22:48:45"}, "type": "Feature"}, {"geometry": {"coordinates": [8.51668333333333, 47.3757016666667], "type": "Point"}, "properties": {"charge": 100, "id": "bird_40b98b4c-7a51-4a4c-82ee-a05d6ed4716a", "provider": "bird", "timeStamp": "01/31/2020, 22:48:45"}, "type": "Feature"}, {"geometry": {"coordinates": [8.52314833333333, 47.3711583333333], "type": "Point"}, "properties": {"charge": 72, "id": "bird_ddd004f5-63d1-4535-a020-114e4643e5f7", "provider": "bird", "timeStamp": "01/31/2020, 22:48:45"}, "type": "Feature"}, {"geometry": {"coordinates": [8.51784666666667, 47.38559], "type": "Point"}, "properties": {"charge": 100, "id": "bird_df37ad57-a7f2-45f4-af93-c8dc018f6b3a", "provider": "bird", "timeStamp": "01/31/2020, 22:48:45"}, "type": "Feature"}, {"geometry": {"coordinates": [8.523, 47.371285], "type": "Point"}, "properties": {"charge": 35, "id": "bird_7ee28296-2551-4512-b554-7a2391f92a91", "provider": "bird", "timeStamp": "01/31/2020, 22:48:45"}, "type": "Feature"}, {"geometry": {"coordinates": [8.51685166666667, 47.375695], "type": "Point"}, "properties": {"charge": 100, "id": "bird_d1aee8a7-93c1-4891-ab36-b0e8d314dcb5", "provider": "bird", "timeStamp": "01/31/2020, 22:48:45"}, "type": "Feature"}, {"geometry": {"coordinates": [8.518495, 47.385945], "type": "Point"}, "properties": {"charge": 57, "id": "bird_83dd088c-a20a-445e-8f1d-9adc8af2cb35", "provider": "bird", "timeStamp": "01/31/2020, 22:48:45"}, "type": "Feature"}, {"geometry": {"coordinates": [8.51720666666667, 47.3754883333333], "type": "Point"}, "properties": {"charge": 80, "id": "bird_16ef714e-7991-4fa6-a7f4-e8e1bd8937eb", "provider": "bird", "timeStamp": "01/31/2020, 22:48:45"}, "type": "Feature"}, {"geometry": {"coordinates": [8.543365, 47.37645], "type": "Point"}, "properties": {"charge": 60, "id": "bird_df3f05c5-b551-4dd4-965e-d8df0984ef97", "provider": "bird", "timeStamp": "01/31/2020, 22:48:45"}, "type": "Feature"}, {"geometry": {"coordinates": [8.53590833333333, 47.37114], "type": "Point"}, "properties": {"charge": 100, "id": "bird_1d7a0dc7-8625-4632-8560-6de53f4d2b56", "provider": "bird", "timeStamp": "01/31/2020, 22:48:45"}, "type": "Feature"}, {"geometry": {"coordinates": [8.51865833333333, 47.3859183333333], "type": "Point"}, "properties": {"charge": 13, "id": "bird_826920ca-2511-4542-aef5-8e9d64ede596", "provider": "bird", "timeStamp": "01/31/2020, 22:48:45"}, "type": "Feature"}, {"geometry": {"coordinates": [8.51880666666667, 47.38601], "type": "Point"}, "properties": {"charge": 40, "id": "bird_4b4d46bd-0c1d-4d05-84fa-c6cb295a0b87", "provider": "bird", "timeStamp": "01/31/2020, 22:48:45"}, "type": "Feature"}, {"geometry": {"coordinates": [8.53706333333333, 47.3715933333333], "type": "Point"}, "properties": {"charge": 100, "id": "bird_0741e480-b748-458c-b64b-dda0c39c2c65", "provider": "bird", "timeStamp": "01/31/2020, 22:48:45"}, "type": "Feature"}, {"geometry": {"coordinates": [8.51575166666667, 47.3796616666667], "type": "Point"}, "properties": {"charge": 100, "id": "bird_1089fb3c-cf0a-4358-8892-4db7a1335564", "provider": "bird", "timeStamp": "01/31/2020, 22:48:45"}, "type": "Feature"}, {"geometry": {"coordinates": [8.51576, 47.37968], "type": "Point"}, "properties": {"charge": 100, "id": "bird_2eb41f12-78cc-4f70-9cc2-e1dbad0396c9", "provider": "bird", "timeStamp": "01/31/2020, 22:48:45"}, "type": "Feature"}, {"geometry": {"coordinates": [8.53594, 47.3712383333333], "type": "Point"}, "properties": {"charge": 100, "id": "bird_49fb1c6d-9a53-4492-a584-5f68759c123c", "provider": "bird", "timeStamp": "01/31/2020, 22:48:45"}, "type": "Feature"}, {"geometry": {"coordinates": [8.53701333333333, 47.37162], "type": "Point"},