{"features": [{"geometry": {"coordinates": [8.540062, 47.374392], "type": "Point"}, "properties": {"address": "Uraniastrasse 7", "electric": 6, "id": "pb_60", "manual": 10, "name": "Demo Station Werdm\u00fchleplatz", "provider": "publibike", "timeStamp": "02/08/2020, 11:39:32", "zip": 8001}, "type": "Feature"}, {"geometry": {"coordinates": [8.5452956, 47.4099615], "type": "Point"}, "properties": {"address": "Querstrasse 8", "electric": 0, "id": "pb_61", "manual": 1, "name": "Marktplatz", "provider": "publibike", "timeStamp": "02/08/2020, 11:39:32", "zip": 8050}, "type": "Feature"}, {"geometry": {"coordinates": [8.5156327, 47.3795837], "type": "Point"}, "properties": {"address": "Bullingerstrasse 5", "electric": 3, "id": "pb_80", "manual": 5, "name": "Bullingerplatz", "provider": "publibike", "timeStamp": "02/08/2020, 11:39:32", "zip": 8004}, "type": "Feature"}, {"geometry": {"coordinates": [8.5104051, 47.3899342], "type": "Point"}, "properties": {"address": "Pfingstweidstrasse 96e", "electric": 6, "id": "pb_81", "manual": 1, "name": "Herdern", "provider": "publibike", "timeStamp": "02/08/2020, 11:39:32", "zip": 8001}, "type": "Feature"}, {"geometry": {"coordinates": [8.535718, 47.359675], "type": "Point"}, "properties": {"address": "Mythenquai 50", "electric": 2, "id": "pb_82", "manual": 3, "name": "Hafen Enge", "provider": "publibike", "timeStamp": "02/08/2020, 11:39:32", "zip": 8002}, "type": "Feature"}, {"geometry": {"coordinates": [8.520370505, 47.358663827], "type": "Point"}, "properties": {"address": "Bubenbergstrasse 1", "electric": 3, "id": "pb_83", "manual": 3, "name": "Comerge", "provider": "publibike", "timeStamp": "02/08/2020, 11:39:32", "zip": 8045}, "type": "Feature"}, {"geometry": {"coordinates": [8.5412505, 47.3789825], "type": "Point"}, "properties": {"address": "Museumstrasse 2", "electric": 8, "id": "pb_84", "manual": 15, "name": "Landesmuseum", "provider": "publibike", "timeStamp": "02/08/2020, 11:39:32", "zip": 8001}, "type": "Feature"}, {"geometry": {"coordinates": [8.5235479, 47.3716661], "type": "Point"}, "properties": {"address": "Birmensdorferstrasse 80", "electric": 0, "id": "pb_85", "manual": 6, "name": "Bahnhof Wiedikon", "provider": "publibike", "timeStamp": "02/08/2020, 11:39:32", "zip": 8003}, "type": "Feature"}, {"geometry": {"coordinates": [8.506822854, 47.40781197], "type": "Point"}, "properties": {"address": "Stefano-Franscini-Platz 5", "electric": 3, "id": "pb_86", "manual": 0, "name": "ETH H\u00f6nggerberg", "provider": "publibike", "timeStamp": "02/08/2020, 11:39:32", "zip": 8093}, "type": "Feature"}, {"geometry": {"coordinates": [8.536101, 47.371083], "type": "Point"}, "properties": {"address": "Pelikanplatz 5", "electric": 3, "id": "pb_87", "manual": 14, "name": "Pelikanplatz", "provider": "publibike", "timeStamp": "02/08/2020, 11:39:32", "zip": 8001}, "type": "Feature"}, {"geometry": {"coordinates": [8.5257822, 47.3651936], "type": "Point"}, "properties": {"address": "H\u00fcrlimannplatz 90", "electric": 3, "id": "pb_88", "manual": 0, "name": "H\u00fcrlimannplatz", "provider": "publibike", "timeStamp": "02/08/2020, 11:39:32", "zip": 8002}, "type": "Feature"}, {"geometry": {"coordinates": [8.5313344, 47.3713591], "type": "Point"}, "properties": {"address": "Selnaustrasse 32", "electric": 0, "id": "pb_89", "manual": 3, "name": "Stauffacherbr\u00fccke", "provider": "publibike", "timeStamp": "02/08/2020, 11:39:32", "zip": 8001}, "type": "Feature"}, {"geometry": {"coordinates": [8.5056978, 47.3917964], "type": "Point"}, "properties": {"address": "Sportweg 25", "electric": 0, "id": "pb_90", "manual": 2, "name": "Sportweg", "provider": "publibike", "timeStamp": "02/08/2020, 11:39:32", "zip": 8005}, "type": "Feature"}, {"geometry": {"coordinates": [8.5181701, 47.3917837], "type": "Point"}, "properties": {"address": "Hardturmstrasse 11", "electric": 2, "id": "pb_91", "manual": 5, "name": "Puls 5", "provider": "publibike", "timeStamp": "02/08/2020, 11:39:32", "zip": 8005}, "type": "Feature"}, {"geometry": {"coordinates": [8.5286468, 47.3820827], "type": "Point"}, "properties": {"address": "R\u00f6ntgenstrasse 6", "electric": 0, "id": "pb_92", "manual": 0, "name": "R\u00f6ntgenstrasse", "provider": "publibike", "timeStamp": "02/08/2020, 11:39:32", "zip": 8005}, "type": "Feature"}, {"geometry": {"coordinates": [8.531935, 47.384918], "type": "Point"}, "properties": {"address": "Kornhausbr\u00fccke 1", "electric": 0, "id": "pb_93", "manual": 1, "name": "Limmatplatz", "provider": "publibike", "timeStamp": "02/08/2020, 11:39:32", "zip": 8005}, "type": "Feature"}, {"geometry": {"coordinates": [8.5354006, 47.3758639], "type": "Point"}, "properties": {"address": "Gessnerallee 15", "electric": 4, "id": "pb_94", "manual": 0, "name": "Gessnerallee", "provider": "publibike", "timeStamp": "02/08/2020, 11:39:32", "zip": 8001}, "type": "Feature"}, {"geometry": {"coordinates": [8.523818, 47.377148], "type": "Point"}, "properties": {"address": "Stauffacherstrasse 127", "electric": 3, "id": "pb_95", "manual": 0, "name": "B\u00e4ckeranlage", "provider": "publibike", "timeStamp": "02/08/2020, 11:39:32", "zip": 8004}, "type": "Feature"}, {"geometry": {"coordinates": [8.531836, 47.378548], "type": "Point"}, "properties": {"address": "Lagerstrasse 44", "electric": 3, "id": "pb_96", "manual": 3, "name": "Gustav-Gull-Platz", "provider": "publibike", "timeStamp": "02/08/2020, 11:39:32", "zip": 8004}, "type": "Feature"}, {"geometry": {"coordinates": [8.5104883, 47.3771535], "type": "Point"}, "properties": {"address": "Zurlindenstrasse 291", "electric": 1, "id": "pb_97", "manual": 11, "name": "Zurlindenstrasse", "provider": "publibike", "timeStamp": "02/08/2020, 11:39:32", "zip": 8003}, "type": "Feature"}, {"geometry": {"coordinates": [8.5333139, 47.3731102], "type": "Point"}, "properties": {"address": "Sihlstrasse 81", "electric": 3, "id": "pb_98", "manual": 2, "name": "Sihlstrasse", "provider": "publibike", "timeStamp": "02/08/2020, 11:39:32", "zip": 8001}, "type": "Feature"}, {"geometry": {"coordinates": [8.520532, 47.374951], "type": "Point"}, "properties": {"address": "Feldstrasse 24", "electric": 0, "id": "pb_99", "manual": 8, "name": "Kalkbreite", "provider": "publibike", "timeStamp": "02/08/2020, 11:39:32", "zip": 8004}, "type": "Feature"}, {"geometry": {"coordinates": [8.539046, 47.368064], "type": "Point"}, "properties": {"address": "Talstrasse 12", "electric": 3, "id": "pb_100", "manual": 4, "name": "Z\u00fcrcher Kantonalbank", "provider": "publibike", "timeStamp": "02/08/2020, 11:39:32", "zip": 8001}, "type": "Feature"}, {"geometry": {"coordinates": [8.5348427, 47.3625938], "type": "Point"}, "properties": {"address": "Breitingerstrasse 5", "electric": 1, "id": "pb_101", "manual": 2, "name": "Rentenanstalt", "provider": "publibike", "timeStamp": "02/08/2020, 11:39:32", "zip": 8002}, "type": "Feature"}, {"geometry": {"coordinates": [8.5166922, 47.3897772], "type": "Point"}, "properties": {"address": "Technoparkstrasse 4", "electric": 5, "id": "pb_102", "manual": 7, "name": "Turbinenplatz", "provider": "publibike", "timeStamp": "02/08/2020, 11:39:32", "zip": 8005}, "type": "Feature"}, {"geometry": {"coordinates": [8.539312, 47.3739964], "type": "Point"}, "properties": {"address": "Oetenbachgasse 14", "electric": 1, "id": "pb_104", "manual": 4, "name": "Rennweg", "provider": "publibike", "timeStamp": "02/08/2020, 11:39:32", "zip": 8001}, "type": "Feature"}, {"geometry": {"coordinates": [8.5360685, 47.3775022], "type": "Point"}, "properties": {"address": "Kasernenstrasse 101", "electric": 27, "id": "pb_105", "manual": 40, "name": "Sihlpost", "provider": "publibike", "timeStamp": "02/08/2020, 11:39:32", "zip": 8004}, "type": "Feature"}, {"geometry": {"coordinates": [8.53545, 47.382798], "type": "Point"}, "properties": {"address": "Ausstellungsstrasse 44", "electric": 5, "id": "pb_106", "manual": 6, "name": "Museum f\u00fcr Gestaltung", "provider": "publibike", "timeStamp": "02/08/2020, 11:39:32", "zip": 8005}, "type": "Feature"}, {"geometry": {"coordinates": [8.5306155, 47.3647902], "type": "Point"}, "properties": {"address": "Gutenbergstrasse 1", "electric": 4, "id": "pb_107", "manual": 6, "name": "Bederbr\u00fccke", "provider": "publibike", "timeStamp": "02/08/2020, 11:39:32", "zip": 8002}, "type": "Feature"}, {"geometry": {"coordinates": [8.518982, 47.386741], "type": "Point"}, "properties": {"address": "Geroldstrasse 4", "electric": 0, "id": "pb_108", "manual": 12, "name": "Bahnhof Hardbr\u00fccke", "provider": "publibike", "timeStamp": "02/08/2020, 11:39:32", "zip": 8005}, "type": "Feature"}, {"geometry": {"coordinates": [8.53001018, 47.37247535], "type": "Point"}, "properties": {"address": "Werdstrasse 21", "electric": 0, "id": "pb_109", "manual": 1, "name": "Tamedia", "provider": "publibike", "timeStamp": "02/08/2020, 11:39:32", "zip": 8004}, "type": "Feature"}, {"geometry": {"coordinates": [8.4860017, 47.396401], "type": "Point"}, "properties": {"address": "Gr\u00fcnauring 37", "electric": 7, "id": "pb_110", "manual": 7, "name": "Gr\u00fcnau", "provider": "publibike", "timeStamp": "02/08/2020, 11:39:32", "zip": 8064}, "type": "Feature"}, {"geometry": {"coordinates": [8.548519, 47.376756], "type": "Point"}, "properties": {"address": "R\u00e4mistrasse 101", "electric": 8, "id": "pb_111", "manual": 4, "name": "ETH Zentrum", "provider": "publibike", "timeStamp": "02/08/2020, 11:39:32", "zip": 8006}, "type": "Feature"}, {"geometry": {"coordinates": [8.520449, 47.388151], "type": "Point"}, "properties": {"address": "Josefstrasse 224", "electric": 0, "id": "pb_112", "manual": 1, "name": "Steinfelsareal", "provider": "publibike", "timeStamp": "02/08/2020, 11:39:32", "zip": 8005}, "type": "Feature"}, {"geometry": {"coordinates": [8.520482, 47.37209], "type": "Point"}, "properties": {"address": "Weststrasse 115", "electric": 1, "id": "pb_124", "manual": 3, "name": "Weststrasse", "provider": "publibike", "timeStamp": "02/08/2020, 11:39:32", "zip": 8003}, "type": "Feature"}, {"geometry": {"coordinates": [8.496727, 47.378521], "type": "Point"}, "properties": {"address": "Albisriederstrasse 200", "electric": 1, "id": "pb_125", "manual": 2, "name": "Utogrund", "provider": "publibike", "timeStamp": "02/08/2020, 11:39:32", "zip": 8047}, "type": "Feature"}, {"geometry": {"coordinates": [8.510418, 47.381356], "type": "Point"}, "properties": {"address": "Bullingerstrasse 73", "electric": 5, "id": "pb_126", "manual": 12, "name": "Hardau", "provider": "publibike", "timeStamp": "02/08/2020, 11:39:32", "zip": 8004}, "type": "Feature"}, {"geometry": {"coordinates": [8.525525, 47.361567], "type": "Point"}, "properties": {"address": "Klopstockstrasse 23", "electric": 2, "id": "pb_127", "manual": 2, "name": "Klopstockwiese", "provider": "publibike", "timeStamp": "02/08/2020, 11:39:32", "zip": 8002}, "type": "Feature"}, {"geometry": {"coordinates": [8.518143, 47.363148], "type": "Point"}, "properties": {"address": "Haldenstrasse 8", "electric": 0, "id": "pb_128", "manual": 0, "name": "Binz", "provider": "publibike", "timeStamp": "02/08/2020, 11:39:32", "zip": 8045}, "type": "Feature"}, {"geometry": {"coordinates": [8.542726, 47.379952], "type": "Point"}, "properties": {"address": "Walchestrasse 11", "electric": 6, "id": "pb_129", "manual": 3, "name": "Stampfenbachplatz", "provider": "publibike", "timeStamp": "02/08/2020, 11:39:32", "zip": 8006}, "type": "Feature"}, {"geometry": {"coordinates": [8.488108, 47.391366], "type": "Point"}, "properties": {"address": "Altstetterplatz 1", "electric": 6, "id": "pb_130", "manual": 1, "name": "Bahnhof Altstetten", "provider": "publibike", "timeStamp": "02/08/2020, 11:39:32", "zip": 8048}, "type": "Feature"}, {"geometry": {"coordinates": [8.554114, 47.365119], "type": "Point"}, "properties": {"address": "Kreuzplatz 2", "electric": 5, "id": "pb_131", "manual": 3, "name": "Kreuzplatz", "provider": "publibike", "timeStamp": "02/08/2020, 11:39:32", "zip": 8032}, "type": "Feature"}, {"geometry": {"coordinates": [8.549852, 47.35594], "type": "Point"}, "properties": {"address": "H\u00f6schgasse 3", "electric": 7, "id": "pb_132", "manual": 10, "name": "Blatterwiese", "provider": "publibike", "timeStamp": "02/08/2020, 11:39:32", "zip": 8008}, "type": "Feature"}, {"geometry": {"coordinates": [8.554501, 47.36162], "type": "Point"}, "properties": {"address": "Feldeggstrasse 80", "electric": 3, "id": "pb_133", "manual": 3, "name": "Villa Bleuler", "provider": "publibike", "timeStamp": "02/08/2020, 11:39:32", "zip": 8008}, "type": "Feature"}, {"geometry": {"coordinates": [8.557088, 47.358557], "type": "Point"}, "properties": {"address": "M\u00fchlebachstrasse 131", "electric": 2, "id": "pb_134", "manual": 1, "name": "M\u00fchlebachstrasse", "provider": "publibike", "timeStamp": "02/08/2020, 11:39:32", "zip": 8008}, "type": "Feature"}, {"geometry": {"coordinates": [8.547639, 47.361266], "type": "Point"}, "properties": {"address": "Utoquai 50", "electric": 8, "id": "pb_135", "manual": 10, "name": "Seebad Utoquai", "provider": "publibike", "timeStamp": "02/08/2020, 11:39:32", "zip": 8008}, "type": "Feature"}, {"geometry": {"coordinates": [8.548045, 47.370869], "type": "Point"}, "properties": {"address": "Heimplatz 1", "electric": 7, "id": "pb_137", "manual": 5, "name": "Kunsthaus", "provider": "publibike", "timeStamp": "02/08/2020, 11:39:32", "zip": 8001}, "type": "Feature"}, {"geometry": {"coordinates": [8.543447, 47.375933], "type": "Point"}, "properties": {"address": "Limmatquai 138", "electric": 2, "id": "pb_138", "manual": 3, "name": "Central", "provider": "publibike", "timeStamp": "02/08/2020, 11:39:32", "zip": 8001}, "type": "Feature"}, {"geometry": {"coordinates": [8.549356, 47.408827], "type": "Point"}, "properties": {"address": "Tramstrasse 35", "electric": 2, "id": "pb_139", "manual": 3, "name": "ewz Tramstrasse", "provider": "publibike", "timeStamp": "02/08/2020, 11:39:32", "zip": 8050}, "type": "Feature"}, {"geometry": {"coordinates": [8.533736, 47.366904], "type": "Point"}, "properties": {"address": "Bleicherweg 33", "electric": 4, "id": "pb_140", "manual": 1, "name": "Bleicherweg", "provider": "publibike", "timeStamp": "02/08/2020, 11:39:32", "zip": 8002}, "type": "Feature"}, {"geometry": {"coordinates": [8.544935, 47.366752], "type": "Point"}, "properties": {"address": "Bellevueplatz 2", "electric": 28, "id": "pb_141", "manual": 15, "name": "Bellevue", "provider": "publibike", "timeStamp": "02/08/2020, 11:39:32", "zip": 8001}, "type": "Feature"}, {"geometry": {"coordinates": [8.5285533, 47.3742296], "type": "Point"}, "properties": {"address": "Stauffacherstrasse 41", "electric": 5, "id": "pb_142", "manual": 2, "name": "Stauffacher", "provider": "publibike", "timeStamp": "02/08/2020, 11:39:32", "zip": 8004}, "type": "Feature"}, {"geometry": {"coordinates": [8.523722, 47.3899], "type": "Point"}, "properties": {"address": "Limmatstrasse 310", "electric": 3, "id": "pb_143", "manual": 0, "name": "Escher-Wyss-Platz", "provider": "publibike", "timeStamp": "02/08/2020, 11:39:32", "zip": 8005}, "type": "Feature"}, {"geometry": {"coordinates": [8.491061, 47.392336], "type": "Point"}, "properties": {"address": "Vulkanplatz 1", "electric": 3, "id": "pb_149", "manual": 8, "name": "Vulkanplatz", "provider": "publibike", "timeStamp": "02/08/2020, 11:39:32", "zip": 8048}, "type": "Feature"}, {"geometry": {"coordinates": [8.52306, 47.359872], "type": "Point"}, "properties": {"address": "Giessh\u00fcbelstrasse 15", "electric": 11, "id": "pb_150", "manual": 4, "name": "Utoplatz", "provider": "publibike", "timeStamp": "02/08/2020, 11:39:32", "zip": 8045}, "type": "Feature"}, {"geometry": {"coordinates": [8.486284, 47.387685], "type": "Point"}, "properties": {"address": "Lindenplatz 1", "electric": 1, "id": "pb_151", "manual": 9, "name": "Lindenplatz", "provider": "publibike", "timeStamp": "02/08/2020, 11:39:32", "zip": 8048}, "type": "Feature"}, {"geometry": {"coordinates": [8.49163, 47.389823], "type": "Point"}, "properties": {"address": "Hohlstrasse 563", "electric": 2, "id": "pb_152", "manual": 3, "name": "Luggweg", "provider": "publibike", "timeStamp": "02/08/2020, 11:39:32", "zip": 8048}, "type": "Feature"}, {"geometry": {"coordinates": [8.52174, 47.365272], "type": "Point"}, "properties": {"address": "Manessestrasse 87", "electric": 6, "id": "pb_153", "manual": 3, "name": "Manesseplatz", "provider": "publibike", "timeStamp": "02/08/2020, 11:39:32", "zip": 8045}, "type": "Feature"}, {"geometry": {"coordinates": [8.52714, 47.372329], "type": "Point"}, "properties": {"address": "Werdstrasse 75", "electric": 2, "id": "pb_154", "manual": 3, "name": "Werd", "provider": "publibike", "timeStamp": "02/08/2020, 11:39:32", "zip": 8004}, "type": "Feature"}, {"geometry": {"coordinates": [8.543042, 47.374711], "type": "Point"}, "properties": {"address": "Limmatquai 100", "electric": 0, "id": "pb_155", "manual": 0, "name": "Rudolf-Brun-Br\u00fccke", "provider": "publibike", "timeStamp": "02/08/2020, 11:39:32", "zip": 8001}, "type": "Feature"}, {"geometry": {"coordinates": [8.490837, 47.386596], "type": "Point"}, "properties": {"address": "Badenerstrasse 627", "electric": 0, "id": "pb_156", "manual": 0, "name": "Luggwegstrasse VBZ", "provider": "publibike", "timeStamp": "02/08/2020, 11:39:32", "zip": 8048}, "type": "Feature"}, {"geometry": {"coordinates": [8.535119, 47.355189], "type": "Point"}, "properties": {"address": "Mythenquai 95", "electric": 0, "id": "pb_157", "manual": 6, "name": "Strandbad Mythenquai", "provider": "publibike", "timeStamp": "02/08/2020, 11:39:32", "zip": 8002}, "type": "Feature"}, {"geometry": {"coordinates": [8.545505, 47.373675], "type": "Point"}, "properties": {"address": "Predigerpatz 21", "electric": 1, "id": "pb_158", "manual": 0, "name": "Predigerplatz", "provider": "publibike", "timeStamp": "02/08/2020, 11:39:32", "zip": 8001}, "type": "Feature"}, {"geometry": {"coordinates": [8.515558, 47.371868], "type": "Point"}, "properties": {"address": "Aemtlerstrasse 23", "electric": 5, "id": "pb_159", "manual": 5, "name": "Zwinglihaus", "provider": "publibike", "timeStamp": "02/08/2020, 11:39:32", "zip": 8003}, "type": "Feature"}, {"geometry": {"coordinates": [8.524629, 47.386072], "type": "Point"}, "properties": {"address": "Josefstrasse 188", "electric": 0, "id": "pb_160", "manual": 1, "name": "Josefwiese", "provider": "publibike", "timeStamp": "02/08/2020, 11:39:32", "zip": 8005}, "type": "Feature"}, {"geometry": {"coordinates": [8.527138, 47.387531], "type": "Point"}, "properties": {"address": "R\u00f6ntgenstrasse 87", "electric": 1, "id": "pb_164", "manual": 16, "name": "Markthalle", "provider": "publibike", "timeStamp": "02/08/2020, 11:39:32", "zip": 8005}, "type": "Feature"}, {"geometry": {"coordinates": [8.552717, 47.359978], "type": "Point"}, "properties": {"address": "Seefeldstrasse 96", "electric": 7, "id": "pb_263", "manual": 10, "name": "Feldeggstrasse", "provider": "publibike", "timeStamp": "02/08/2020, 11:39:32", "zip": 8008}, "type": "Feature"}, {"geometry": {"coordinates": [8.553189, 47.353198], "type": "Point"}, "properties": {"address": "Bellerivestrasse 170", "electric": 4, "id": "pb_264", "manual": 1, "name": "Lake Side", "provider": "publibike", "timeStamp": "02/08/2020, 11:39:32", "zip": 8008}, "type": "Feature"}, {"geometry": {"coordinates": [8.543437, 47.369256], "type": "Point"}, "properties": {"address": "Limmatquai 18", "electric": 0, "id": "pb_265", "manual": 0, "name": "Helmhaus", "provider": "publibike", "timeStamp": "02/08/2020, 11:39:32", "zip": 8032}, "type": "Feature"}, {"geometry": {"coordinates": [8.516676, 47.375819], "type": "Point"}, "properties": {"address": "Badenerstrasse 246", "electric": 0, "id": "pb_266", "manual": 3, "name": "Lochergut", "provider": "publibike", "timeStamp": "02/08/2020, 11:39:32", "zip": 8004}, "type": "Feature"}, {"geometry": {"coordinates": [8.514605, 47.389862], "type": "Point"}, "properties": {"address": "Pfingstweidstrasse 60", "electric": 4, "id": "pb_273", "manual": 0, "name": "Westpark", "provider": "publibike", "timeStamp": "02/08/2020, 11:39:32", "zip": 8005}, "type": "Feature"}, {"geometry": {"coordinates": [8.541239126, 47.375991201], "type": "Point"}, "properties": {"address": "Beatenplatz 1", "electric": 1, "id": "pb_274", "manual": 8, "name": "Beatenplatz", "provider": "publibike", "timeStamp": "02/08/2020, 11:39:32", "zip": 8001}, "type": "Feature"}, {"geometry": {"coordinates": [8.5417135, 47.3942197], "type": "Point"}, "properties": {"address": "Scheuchzerstrasse 181", "electric": 8, "id": "pb_275", "manual": 0, "name": "Pauluskirche", "provider": "publibike", "timeStamp": "02/08/2020, 11:39:32", "zip": 8057}, "type": "Feature"}, {"geometry": {"coordinates": [8.5528182, 47.414558], "type": "Point"}, "properties": {"address": "Hagenholzstrasse 51", "electric": 2, "id": "pb_276", "manual": 4, "name": "Airgate", "provider": "publibike", "timeStamp": "02/08/2020, 11:39:32", "zip": 8050}, "type": "Feature"}, {"geometry": {"coordinates": [8.537816, 47.413514], "type": "Point"}, "properties": {"address": "Birchstrasse 183", "electric": 5, "id": "pb_277", "manual": 2, "name": "Lamprechtweg", "provider": "publibike", "timeStamp": "02/08/2020, 11:39:32", "zip": 8050}, "type": "Feature"}, {"geometry": {"coordinates": [8.545602, 47.417701], "type": "Point"}, "properties": {"address": "Felsenrainstrasse 2", "electric": 3, "id": "pb_278", "manual": 4, "name": "Emil-Oberh\u00e4nsli", "provider": "publibike", "timeStamp": "02/08/2020, 11:39:32", "zip": 8050}, "type": "Feature"}, {"geometry": {"coordinates": [8.533647, 47.39808], "type": "Point"}, "properties": {"address": "Bucheggplatz 2", "electric": 2, "id": "pb_279", "manual": 0, "name": "Bucheggplatz", "provider": "publibike", "timeStamp": "02/08/2020, 11:39:32", "zip": 8057}, "type": "Feature"}, {"geometry": {"coordinates": [8.523549, 47.392347], "type": "Point"}, "properties": {"address": "Wipkingerplatz 4", "electric": 1, "id": "pb_280", "manual": 6, "name": "Wipkingerplatz", "provider": "publibike", "timeStamp": "02/08/2020, 11:39:32", "zip": 8037}, "type": "Feature"}, {"geometry": {"coordinates": [8.548562, 47.36691], "type": "Point"}, "properties": {"address": "Galerie \u00fcber Gleis 2/3", "electric": 13, "id": "pb_285", "manual": 4, "name": "Bahnhof Stadelhofen", "provider": "publibike", "timeStamp": "02/08/2020, 11:39:32", "zip": 8001}, "type": "Feature"}, {"geometry": {"coordinates": [8.493822, 47.3985553], "type": "Point"}, "properties": {"address": "Meierwiesenstrasse 12-4", "electric": 7, "id": "pb_286", "manual": 8, "name": "T\u00fcffenwies", "provider": "publibike", "timeStamp": "02/08/2020, 11:39:32", "zip": 8064}, "type": "Feature"}, {"geometry": {"coordinates": [8.552432, 47.3801757], "type": "Point"}, "properties": {"address": "Hochstrasse 34", "electric": 5, "id": "pb_356", "manual": 2, "name": "Siriuswiese", "provider": "publibike", "timeStamp": "02/08/2020, 11:39:32", "zip": 8044}, "type": "Feature"}, {"geometry": {"coordinates": [8.527298, 47.370141], "type": "Point"}, "properties": {"address": "Hallwylstrasse 71", "electric": 1, "id": "pb_357", "manual": 5, "name": "Hallwylstrasse", "provider": "publibike", "timeStamp": "02/08/2020, 11:39:32", "zip": 8004}, "type": "Feature"}, {"geometry": {"coordinates": [8.5414185, 47.3972455], "type": "Point"}, "properties": {"address": "Schaffhauserstrasse 137", "electric": 0, "id": "pb_358", "manual": 1, "name": "Milchbuck", "provider": "publibike", "timeStamp": "02/08/2020, 11:39:32", "zip": 8057}, "type": "Feature"}, {"geometry": {"coordinates": [8.512381, 47.393409], "type": "Point"}, "properties": {"address": "Hardturmstrasse 161", "electric": 3, "id": "pb_359", "manual": 0, "name": "Fischerweg", "provider": "publibike", "timeStamp": "02/08/2020, 11:39:32", "zip": 8005}, "type": "Feature"}, {"geometry": {"coordinates": [8.5421457, 47.3876979], "type": "Point"}, "properties": {"address": "Turnerstrasse 47", "electric": 3, "id": "pb_360", "manual": 1, "name": "Kirche Unterstrass", "provider": "publibike", "timeStamp": "02/08/2020, 11:39:32", "zip": 8006}, "type": "Feature"}, {"geometry": {"coordinates": [8.522117, 47.394554], "type": "Point"}, "properties": {"address": "Dorfstrasse 40", "electric": 10, "id": "pb_361", "manual": 1, "name": "Dorfstrasse", "provider": "publibike", "timeStamp": "02/08/2020, 11:39:32", "zip": 8037}, "type": "Feature"}, {"geometry": {"coordinates": [8.530437, 47.37271], "type": "Point"}, "properties": {"address": "Werdstrasse 25", "electric": 0, "id": "pb_362", "manual": 0, "name": "Stauffachertor", "provider": "publibike", "timeStamp": "02/08/2020, 11:39:32", "zip": 8004}, "type": "Feature"}, {"geometry": {"coordinates": [8.541712, 47.416155], "type": "Point"}, "properties": {"address": "Eggb\u00fchlstrasse 21", "electric": 11, "id": "pb_363", "manual": 3, "name": "Wahlenpark", "provider": "publibike", "timeStamp": "02/08/2020, 11:39:32", "zip": 8050}, "type": "Feature"}, {"geometry": {"coordinates": [8.5595335, 47.3708387], "type": "Point"}, "properties": {"address": "Dolderstrasse 32", "electric": 2, "id": "pb_364", "manual": 6, "name": "Kinderspital", "provider": "publibike", "timeStamp": "02/08/2020, 11:39:32", "zip": 8032}, "type": "Feature"}, {"geometry": {"coordinates": [8.536433, 47.388689], "type": "Point"}, "properties": {"address": "Kornhausstrasse 30", "electric": 0, "id": "pb_365", "manual": 0, "name": "Kornhausstrasse", "provider": "publibike", "timeStamp": "02/08/2020, 11:39:32", "zip": 8006}, "type": "Feature"}, {"geometry": {"coordinates": [8.55033, 47.407098], "type": "Point"}, "properties": {"address": "Schwamendingenstrasse 41", "electric": 10, "id": "pb_366", "manual": 12, "name": "Dorflinde", "provider": "publibike", "timeStamp": "02/08/2020, 11:39:32", "zip": 8050}, "type": "Feature"}, {"geometry": {"coordinates": [8.560476, 47.368199], "type": "Point"}, "properties": {"address": "R\u00f6merhofplatz 5", "electric": 1, "id": "pb_367", "manual": 0, "name": "R\u00f6merhof", "provider": "publibike", "timeStamp": "02/08/2020, 11:39:32", "zip": 8032}, "type": "Feature"}, {"geometry": {"coordinates": [8.5609218, 47.3619068], "type": "Point"}, "properties": {"address": "Forchstrasse 99", "electric": 0, "id": "pb_368", "manual": 0, "name": "Hegibachplatz", "provider": "publibike", "timeStamp": "02/08/2020, 11:39:32", "zip": 8032}, "type": "Feature"}, {"geometry": {"coordinates": [8.5721264, 47.4039985], "type": "Point"}, "properties": {"address": "Winterthurerstrasse 519", "electric": 10, "id": "pb_370", "manual": 5, "name": "Schwamendingerplatz", "provider": "publibike", "timeStamp": "02/08/2020, 11:39:32", "zip": 8051}, "type": "Feature"}, {"geometry": {"coordinates": [8.520168, 47.378556], "type": "Point"}, "properties": {"address": "Herman-Greulich-Strasse 56", "electric": 2, "id": "pb_384", "manual": 10, "name": "Hermann-Greulich-Weg", "provider": "publibike", "timeStamp": "02/08/2020, 11:39:32", "zip": 8004}, "type": "Feature"}, {"geometry": {"coordinates": [8.547912, 47.384923], "type": "Point"}, "properties": {"address": "Culmannstrasse", "electric": 2, "id": "pb_386", "manual": 1, "name": "Rigiplatz", "provider": "publibike", "timeStamp": "02/08/2020, 11:39:32", "zip": 8006}, "type": "Feature"}, {"geometry": {"coordinates": [8.543768, 47.411057], "type": "Point"}, "properties": {"address": "Hofwiesenstrasse 369", "electric": 2, "id": "pb_387", "manual": 7, "name": "Bahnhof Oerlikon S\u00fcd", "provider": "publibike", "timeStamp": "02/08/2020, 11:39:32", "zip": 8050}, "type": "Feature"}, {"geometry": {"coordinates": [8.544185, 47.412732], "type": "Point"}, "properties": {"address": "Jungholzstrasse 6", "electric": 8, "id": "pb_388", "manual": 1, "name": "Max-Frisch-Platz", "provider": "publibike", "timeStamp": "02/08/2020, 11:39:32", "zip": 8050}, "type": "Feature"}, {"geometry": {"coordinates": [8.558096, 47.413032], "type": "Point"}, "properties": {"address": "Andreasstrasse", "electric": 0, "id": "pb_389", "manual": 3, "name": "Hunziker-Areal", "provider": "publibike", "timeStamp": "02/08/2020, 11:39:32", "zip": 8050}, "type": "Feature"}, {"geometry": {"coordinates": [8.533265, 47.412873], "type": "Point"}, "properties": {"address": "Regina-K\u00e4gi-Strasse 1", "electric": 3, "id": "pb_390", "manual": 6, "name": "Luis-H\u00e4fliger-Park", "provider": "publibike", "timeStamp": "02/08/2020, 11:39:32", "zip": 8050}, "type": "Feature"}, {"geometry": {"coordinates": [8.499265, 47.401852], "type": "Point"}, "properties": {"address": "Limmattalstrasse 177", "electric": 3, "id": "pb_391", "manual": 3, "name": "Meierhofplatz", "provider": "publibike", "timeStamp": "02/08/2020, 11:39:32", "zip": 8049}, "type": "Feature"}, {"geometry": {"coordinates": [8.528356, 47.393255], "type": "Point"}, "properties": {"address": "R\u00f6schibachstrasse 73", "electric": 10, "id": "pb_392", "manual": 10, "name": "R\u00f6schibachplatz", "provider": "publibike", "timeStamp": "02/08/2020, 11:39:32", "zip": 8037}, "type": "Feature"}, {"geometry": {"coordinates": [8.538067, 47.415721], "type": "Point"}, "properties": {"address": "Birchstrasse 191", "electric": 5, "id": "pb_393", "manual": 2, "name": "Oerliker Park", "provider": "publibike", "timeStamp": "02/08/2020, 11:39:32", "zip": 8050}, "type": "Feature"}, {"geometry": {"coordinates": [8.5420304, 47.3669233], "type": "Point"}, "properties": {"address": "Stadthausquai 1", "electric": 5, "id": "pb_395", "manual": 7, "name": "B\u00fcrkliplatz", "provider": "publibike", "timeStamp": "02/08/2020, 11:39:32", "zip": 8001}, "type": "Feature"}, {"geometry": {"coordinates": [8.535767, 47.409881], "type": "Point"}, "properties": {"address": "Regensbergstrasse 195", "electric": 4, "id": "pb_396", "manual": 4, "name": "Holunderhof", "provider": "publibike", "timeStamp": "02/08/2020, 11:39:32", "zip": 8050}, "type": "Feature"}, {"geometry": {"coordinates": [8.5116245, 47.3616199], "type": "Point"}, "properties": {"address": "Grubenstrasse 42", "electric": 2, "id": "pb_431", "manual": 0, "name": "Binz Center", "provider": "publibike", "timeStamp": "02/08/2020, 11:39:32", "zip": 8045}, "type": "Feature"}, {"geometry": {"coordinates": [8.547195, 47.382089], "type": "Point"}, "properties": {"address": "Nelkenstrasse 24", "electric": 1, "id": "pb_430", "manual": 2, "name": "Stapferstube", "provider": "publibike", "timeStamp": "02/08/2020, 11:39:32", "zip": 8006}, "type": "Feature"}, {"geometry": {"coordinates": [8.5787183, 47.4039845], "type": "Point"}, "properties": {"address": "Kronwiesenstrasse 35", "electric": 1, "id": "pb_426", "manual": 4, "name": "Kronwiesen", "provider": "publibike", "timeStamp": "02/08/2020, 11:39:32", "zip": 8051}, "type": "Feature"}, {"geometry": {"coordinates": [8.508131, 47.420757], "type": "Point"}, "properties": {"address": "Riedenhaldenstrasse 20-18", "electric": 8, "id": "pb_425", "manual": 1, "name": "Bahnhof Affoltern", "provider": "publibike", "timeStamp": "02/08/2020, 11:39:32", "zip": 8046}, "type": "Feature"}, {"geometry": {"coordinates": [8.532464, 47.406988], "type": "Point"}, "properties": {"address": "K\u00fcnzlistrasse 41", "electric": 5, "id": "pb_424", "manual": 0, "name": "Birchd\u00f6rfli", "provider": "publibike", "timeStamp": "02/08/2020, 11:39:32", "zip": 8057}, "type": "Feature"}, {"geometry": {"coordinates": [8.5777038, 47.4080095], "type": "Point"}, "properties": {"address": "Luegislandstrasse 412", "electric": 8, "id": "pb_429", "manual": 4, "name": "Luegisland", "provider": "publibike", "timeStamp": "02/08/2020, 11:39:32", "zip": 8051}, "type": "Feature"}, {"geometry": {"coordinates": [8.58841, 47.40158], "type": "Point"}, "properties": {"address": "Hirzenbachstrasse 2-4", "electric": 4, "id": "pb_428", "manual": 2, "name": "Hirzenbachstrasse", "provider": "publibike", "timeStamp": "02/08/2020, 11:39:32", "zip": 8051}, "type": "Feature"}, {"geometry": {"coordinates": [8.5563463, 47.4095467], "type": "Point"}, "properties": {"address": "K\u00fchriedweg", "electric": 5, "id": "pb_445", "manual": 5, "name": "Hallenbad Oerlikon", "provider": "publibike", "timeStamp": "02/08/2020, 11:39:32", "zip": 8050}, "type": "Feature"}, {"geometry": {"coordinates": [8.537971, 47.364871], "type": "Point"}, "properties": {"address": "General-Guisan-Quai 17", "electric": 2, "id": "pb_454", "manual": 1, "name": "General-Guisan-Quai", "provider": "publibike", "timeStamp": "02/08/2020, 11:39:32", "zip": 8002}, "type": "Feature"}, {"geometry": {"coordinates": [8.560587, 47.350578], "type": "Point"}, "properties": {"address": "Bellerivestrasse 245", "electric": 11, "id": "pb_450", "manual": 4, "name": "Bahnhof Tiefenbrunnen", "provider": "publibike", "timeStamp": "02/08/2020, 11:39:32", "zip": 8008}, "type": "Feature"}, {"geometry": {"coordinates": [8.5269416, 47.3563719], "type": "Point"}, "properties": {"address": "Waffenplatzstrasse 89", "electric": 2, "id": "pb_452", "manual": 3, "name": "Rieterplatz", "provider": "publibike", "timeStamp": "02/08/2020, 11:39:32", "zip": 8002}, "type": "Feature"}, {"geometry": {"coordinates": [8.514176, 47.3663708], "type": "Point"}, "properties": {"address": "Talwiesenstrasse 92", "electric": 6, "id": "pb_446", "manual": 4, "name": "Binzallee", "provider": "publibike", "timeStamp": "02/08/2020, 11:39:32", "zip": 8055}, "type": "Feature"}, {"geometry": {"coordinates": [8.5070564, 47.371455], "type": "Point"}, "properties": {"address": "Gutstrasse 87", "electric": 1, "id": "pb_447", "manual": 1, "name": "Gutstrasse", "provider": "publibike", "timeStamp": "02/08/2020, 11:39:32", "zip": 8055}, "type": "Feature"}, {"geometry": {"coordinates": [8.4941268, 47.3836391], "type": "Point"}, "properties": {"address": "Flurstrasse 62", "electric": 3, "id": "pb_453", "manual": 3, "name": "Flurpark", "provider": "publibike", "timeStamp": "02/08/2020, 11:39:32", "zip": 8048}, "type": "Feature"}, {"geometry": {"coordinates": [8.500343, 47.380778], "type": "Point"}, "properties": {"address": "Edelweissstrasse 32", "electric": 6, "id": "pb_448", "manual": 2, "name": "Bl\u00fcemliquartier", "provider": "publibike", "timeStamp": "02/08/2020, 11:39:32", "zip": 8048}, "type": "Feature"}, {"geometry": {"coordinates": [8.528796, 47.383858], "type": "Point"}, "properties": {"address": "Gasometerstrasse 24", "electric": 0, "id": "pb_449", "manual": 4, "name": "Gasometerstrasse", "provider": "publibike", "timeStamp": "02/08/2020, 11:39:32", "zip": 8005}, "type": "Feature"}, {"geometry": {"coordinates": [8.4981964, 47.3859194], "type": "Point"}, "properties": {"address": "Baslerstrasse 57", "electric": 13, "id": "pb_455", "manual": 7, "name": "Letzipark", "provider": "publibike", "timeStamp": "02/08/2020, 11:39:32", "zip": 8048}, "type": "Feature"}, {"geometry": {"coordinates": [8.515252, 47.381915], "type": "Point"}, "properties": {"address": "Sihlfeldstrasse 175", "electric": 0, "id": "pb_451", "manual": 1, "name": "Hardplatz", "provider": "publibike", "timeStamp": "02/08/2020, 11:39:32", "zip": 8004}, "type": "Feature"}, {"geometry": {"coordinates": [8.5064743, 47.4188324], "type": "Point"}, "properties": {"address": "Wehntalerstrasse 541", "electric": 7, "id": "pb_427", "manual": 6, "name": "Zehntenhausplatz", "provider": "publibike", "timeStamp": "02/08/2020, 11:39:32", "zip": 8046}, "type": "Feature"}, {"geometry": {"coordinates": [8.537729, 47.379719], "type": "Point"}, "properties": {"address": "Sihlquai/HB", "electric": 3, "id": "pb_513", "manual": 12, "name": "Sihlquai", "provider": "publibike", "timeStamp": "02/08/2020, 11:39:32", "zip": 8005}, "type": "Feature"}, {"geometry": {"coordinates": [8.596202, 47.397885], "type": "Point"}, "properties": {"address": "Bahnhof Stettbach", "electric": 3, "id": "pb_514", "manual": 0, "name": "Bahnhof Stettbach", "provider": "publibike", "timeStamp": "02/08/2020, 11:39:32", "zip": 8051}, "type": "Feature"}, {"geometry": {"coordinates": [8.5543974, 47.3690153], "type": "Point"}, "properties": {"address": "Kasinostrasse 10", "electric": 8, "id": "pb_515", "manual": 3, "name": "Hottingerplatz", "provider": "publibike", "timeStamp": "02/08/2020, 11:39:32", "zip": 8032}, "type": "Feature"}, {"geometry": {"coordinates": [8.534444, 47.351525], "type": "Point"}, "properties": {"address": "Mobile Station Z\u00fcrich 1", "electric": 0, "id": "pb_282", "manual": 0, "name": "Theaterspektakel", "provider": "publibike", "timeStamp": "02/08/2020, 11:39:32", "zip": 8002}, "type": "Feature"}, {"geometry": {"coordinates": [8.516257, 47.367656], "type": "Point"}, "properties": {"address": "Goldbrunnenstrasse 54", "electric": 2, "id": "pb_538", "manual": 0, "name": "Kirche B\u00fchl", "provider": "publibike", "timeStamp": "02/08/2020, 11:39:32", "zip": 8055}, "type": "Feature"}, {"geometry": {"coordinates": [8.555639, 47.416873], "type": "Point"}, "properties": {"address": "Leutschenbachstrasse 50", "electric": 2, "id": "pb_537", "manual": 5, "name": "Leutschenpark", "provider": "publibike", "timeStamp": "02/08/2020, 11:39:32", "zip": 8050}, "type": "Feature"}, {"geometry": {"coordinates": [8.546464, 47.403822], "type": "Point"}, "properties": {"address": "Berninastrasse 45", "electric": 1, "id": "pb_540", "manual": 0, "name": "Berninaplatz", "provider": "publibike", "timeStamp": "02/08/2020, 11:39:32", "zip": 8057}, "type": "Feature"}, {"geometry": {"coordinates": [8.523134, 47.369004], "type": "Point"}, "properties": {"address": "Erlachstrasse 3", "electric": 4, "id": "pb_385", "manual": 5, "name": "Aegerten", "provider": "publibike", "timeStamp": "02/08/2020, 11:39:32", "zip": 8003}, "type": "Feature"}, {"geometry": {"coordinates": [8.49038, 47.381591], "type": "Point"}, "properties": {"address": "Rautistrasse 60", "electric": 12, "id": "pb_536", "manual": 6, "name": "Freilager", "provider": "publibike", "timeStamp": "02/08/2020, 11:39:32", "zip": 8048}, "type": "Feature"}, {"geometry": {"coordinates": [8.496511, 47.375247], "type": "Point"}, "properties": {"address": "Letzigraben 139", "electric": 7, "id": "pb_444", "manual": 2, "name": "Sackzelg", "provider": "publibike", "timeStamp": "02/08/2020, 11:39:32", "zip": 8047}, "type": "Feature"}, {"geometry": {"coordinates": [8.58131, 47.402801], "type": "Point"}, "properties": {"address": "Altwiesenstrasse 104", "electric": 1, "id": "pb_539", "manual": 2, "name": "Glattwiesen", "provider": "publibike", "timeStamp": "02/08/2020, 11:39:32", "zip": 8051}, "type": "Feature"}, {"geometry": {"coordinates": [8.52689, 47.3767], "type": "Point"}, "properties": {"address": "Molkenstrasse 5", "electric": 0, "id": "pb_560", "manual": 18, "name": "Helvetiaplatz", "provider": "publibike", "timeStamp": "02/08/2020, 11:39:32", "zip": 8004}, "type": "Feature"}, {"geometry": {"coordinates": [8.525602, 47.374241], "type": "Point"}, "properties": {"address": "Badenerstrasse 90", "electric": 3, "id": "pb_559", "manual": 7, "name": "Bezirksgeb\u00e4ude", "provider": "publibike", "timeStamp": "02/08/2020, 11:39:32", "zip": 8004}, "type": "Feature"}, {"geometry": {"coordinates": [8.535082, 47.345248], "type": "Point"}, "properties": {"address": "Bachstrasse 15", "electric": 7, "id": "pb_564", "manual": 3, "name": "GZ Wollishofen", "provider": "publibike", "timeStamp": "02/08/2020, 11:39:32", "zip": 8038}, "type": "Feature"}, {"geometry": {"coordinates": [8.514841, 47.370238], "type": "Point"}, "properties": {"address": "Schrennengasse 37", "electric": 10, "id": "pb_562", "manual": 2, "name": "Goldbrunnenplatz", "provider": "publibike", "timeStamp": "02/08/2020, 11:39:32", "zip": 8003}, "type": "Feature"}, {"geometry": {"coordinates": [8.514138, 47.374206], "type": "Point"}, "properties": {"address": "Idaplatz 4", "electric": 2, "id": "pb_557", "manual": 5, "name": "Idaplatz", "provider": "publibike", "timeStamp": "02/08/2020, 11:39:32", "zip": 8003}, "type": "Feature"}, {"geometry": {"coordinates": [8.518432, 47.369549], "type": "Point"}, "properties": {"address": "Brinerstrasse 2", "electric": 2, "id": "pb_558", "manual": 11, "name": "Schmiede Wiedikon", "provider": "publibike", "timeStamp": "02/08/2020, 11:39:32", "zip": 8003}, "type": "Feature"}, {"geometry": {"coordinates": [8.537546, 47.391289], "type": "Point"}, "properties": {"address": "Rotbuchstrasse 15", "electric": 6, "id": "pb_556", "manual": 4, "name": "Schaffhauserplatz", "provider": "publibike", "timeStamp": "02/08/2020, 11:39:32", "zip": 8006}, "type": "Feature"}, {"geometry": {"coordinates": [8.541541, 47.413733], "type": "Point"}, "properties": {"address": "Therese-Giehse-Strasse 11", "electric": 5, "id": "pb_561", "manual": 0, "name": "Center Eleven", "provider": "publibike", "timeStamp": "02/08/2020, 11:39:32", "zip": 8050}, "type": "Feature"}, {"geometry": {"coordinates": [8.534227, 47.360004], "type": "Point"}, "properties": {"address": "Alfred Escher-Strasse 76", "electric": 3, "id": "pb_563", "manual": 2, "name": "Mythenschloss", "provider": "publibike", "timeStamp": "02/08/2020, 11:39:32", "zip": 8002}, "type": "Feature"}, {"geometry": {"coordinates": [8.50373, 47.396172], "type": "Point"}, "properties": {"address": "Hardeggstrasse 6", "electric": 5, "id": "pb_566", "manual": 6, "name": "Am Wasser", "provider": "publibike", "timeStamp": "02/08/2020, 11:39:32", "zip": 8049}, "type": "Feature"}, {"geometry": {"coordinates": [8.532432, 47.381174], "type": "Point"}, "properties": {"address": "Klingenstrasse 9", "electric": 1, "id": "pb_565", "manual": 8, "name": "Zollstrasse", "provider": "publibike", "timeStamp": "02/08/2020, 11:39:32", "zip": 8005}, "type": "Feature"}, {"geometry": {"coordinates": [8.497982, 47.381447], "type": "Point"}, "properties": {"address": "Dennlerstrasse 23", "electric": 4, "id": "pb_567", "manual": 2, "name": "Dennlerstrasse", "provider": "publibike", "timeStamp": "02/08/2020, 11:39:32", "zip": 8047}, "type": "Feature"}, {"geometry": {"coordinates": [8.528049, 47.347701], "type": "Point"}, "properties": {"address": "Mutschellenstrasse 114", "electric": 12, "id": "pb_568", "manual": 8, "name": "Jugendherberge", "provider": "publibike", "timeStamp": "02/08/2020, 11:39:32", "zip": 8038}, "type": "Feature"}, {"geometry": {"coordinates": [8.539016, 47.405751], "type": "Point"}, "properties": {"address": "Ringstrasse 82", "electric": 0, "id": "pb_569", "manual": 3, "name": "Freibad Allenmoos", "provider": "publibike", "timeStamp": "02/08/2020, 11:39:32", "zip": 8057}, "type": "Feature"}, {"geometry": {"coordinates": [8.534974, 47.402164], "type": "Point"}, "properties": {"address": "Brache Guggach", "electric": 2, "id": "pb_572", "manual": 1, "name": "Radiostudio", "provider": "publibike", "timeStamp": "02/08/2020, 11:39:32", "zip": 8057}, "type": "Feature"}, {"geometry": {"coordinates": [8.547901, 47.375556], "type": "Point"}, "properties": {"address": "Karl-Schmid-Strasse 4", "electric": 1, "id": "pb_571", "manual": 0, "name": "ETH/Zoologisches Museum", "provider": "publibike", "timeStamp": "02/08/2020, 11:39:32", "zip": 8006}, "type": "Feature"}, {"geometry": {"coordinates": [8.562236, 47.382565], "type": "Point"}, "properties": {"charge": 20, "id": "smide_2901", "name": "ZH 267278", "provider": "smide", "range": 10.0, "size": 20, "time": "02/08/2020, 11:39:05"}, "type": "Feature"}, {"geometry": {"coordinates": [8.506946, 47.406806], "type": "Point"}, "properties": {"charge": 83, "id": "smide_2880", "name": "ZH267289", "provider": "smide", "range": 41.0, "size": 17, "time": "02/08/2020, 11:39:05"}, "type": "Feature"}, {"geometry": {"coordinates": [8.527125, 47.37898], "type": "Point"}, "properties": {"charge": 31, "id": "smide_2874", "name": "ZH 267288", "provider": "smide", "range": 15.0, "size": 17, "time": "02/08/2020, 11:39:05"}, "type": "Feature"}, {"geometry": {"coordinates": [8.514366, 47.36439], "type": "Point"}, "properties": {"charge": 53, "id": "smide_2871", "name": "ZH 267086", "provider": "smide", "range": 26.0, "size": 20, "time": "02/08/2020, 11:39:05"}, "type": "Feature"}, {"geometry": {"coordinates": [8.516133, 47.42877], "type": "Point"}, "properties": {"charge": 44, "id": "smide_2867", "name": "ZH 267090", "provider": "smide", "range": 22.0, "size": 20, "time": "02/08/2020, 11:39:05"}, "type": "Feature"}, {"geometry": {"coordinates": [8.5281, 47.378461], "type": "Point"}, "properties": {"charge": 88, "id": "smide_2861", "name": "ZH 267096", "provider": "smide", "range": 44.0, "size": 17, "time": "02/08/2020, 11:39:05"}, "type": "Feature"}, {"geometry": {"coordinates": [8.554213, 47.369185], "type": "Point"}, "properties": {"charge": 97, "id": "smide_2859", "name": "ZH 267098", "provider": "smide", "range": 48.0, "size": 17, "time": "02/08/2020, 11:39:05"}, "type": "Feature"}, {"geometry": {"coordinates": [8.558433, 47.353538], "type": "Point"}, "properties": {"charge": 75, "id": "smide_2856", "name": "ZH 267101", "provider": "smide", "range": 37.0, "size": 17, "time": "02/08/2020, 11:39:05"}, "type": "Feature"}, {"geometry": {"coordinates": [8.52436, 47.398003], "type": "Point"}, "properties": {"charge": 75, "id": "smide_2855", "name": "ZH 267102", "provider": "smide", "range": 37.0, "size": 17, "time": "02/08/2020, 11:39:05"}, "type": "Feature"}, {"geometry": {"coordinates": [8.555981, 47.38446], "type": "Point"}, "properties": {"charge": 32, "id": "smide_2833", "name": "ZH 267182", "provider": "smide", "range": 16.0, "size": 20, "time": "02/08/2020, 11:39:05"}, "type": "Feature"}, {"geometry": {"coordinates": [8.560006, 47.370316], "type": "Point"}, "properties": {"charge": 32, "id": "smide_2831", "name": "ZH 267180", "provider": "smide", "range": 16.0, "size": 20, "time": "02/08/2020, 11:39:05"}, "type": "Feature"}, {"geometry": {"coordinates": [8.523983, 47.358168], "type": "Point"}, "properties": {"charge": 56, "id": "smide_2793", "name": "ZH266883", "provider": "smide", "range": 28.0, "size": 17, "time": "02/08/2020, 11:39:05"}, "type": "Feature"}, {"geometry": {"coordinates": [8.516798, 47.365125], "type": "Point"}, "properties": {"charge": 42, "id": "smide_2790", "name": "ZH266880", "provider": "smide", "range": 21.0, "size": 17, "time": "02/08/2020, 11:39:05"}, "type": "Feature"}, {"geometry": {"coordinates": [8.526831, 47.389518], "type": "Point"}, "properties": {"charge": 100, "id": "smide_2785", "name": "ZH266875", "provider": "smide", "range": 50.0, "size": 17, "time": "02/08/2020, 11:39:05"}, "type": "Feature"}, {"geometry": {"coordinates": [8.557063, 47.359265], "type": "Point"}, "properties": {"charge": 100, "id": "smide_2780", "name": "ST1 X #1", "provider": "smide", "range": 50.0, "size": 17, "time": "02/08/2020, 11:39:05"}, "type": "Feature"}, {"geometry": {"coordinates": [8.502035, 47.368984], "type": "Point"}, "properties": {"charge": 95, "id": "smide_2771", "name": "ZH266559", "provider": "smide", "range": 47.0, "size": 17, "time": "02/08/2020, 11:39:05"}, "type": "Feature"}, {"geometry": {"coordinates": [8.544405, 47.387392], "type": "Point"}, "properties": {"charge": 91, "id": "smide_2763", "name": "ZH266641", "provider": "smide", "range": 45.0, "size": 17, "time": "02/08/2020, 11:39:05"}, "type": "Feature"}, {"geometry": {"coordinates": [8.555585, 47.384091], "type": "Point"}, "properties": {"charge": 61, "id": "smide_2761", "name": "ZH266642", "provider": "smide", "range": 30.0, "size": 20, "time": "02/08/2020, 11:39:05"}, "type": "Feature"}, {"geometry": {"coordinates": [8.551229, 47.393132], "type": "Point"}, "properties": {"charge": 87, "id": "smide_2759", "name": "ZH266639", "provider": "smide", "range": 43.0, "size": 17, "time": "02/08/2020, 11:39:05"}, "type": "Feature"}, {"geometry": {"coordinates": [8.521361, 47.387612], "type": "Point"}, "properties": {"charge": 99, "id": "smide_2758", "name": "ZH266638 M", "provider": "smide", "range": 49.0, "size": 17, "time": "02/08/2020, 11:39:05"}, "type": "Feature"}, {"geometry": {"coordinates": [8.550926, 47.359524], "type": "Point"}, "properties": {"charge": 51, "id": "smide_2752", "name": "BE343856", "provider": "smide", "range": 25.0, "size": 17, "time": "02/08/2020, 11:39:05"}, "type": "Feature"}, {"geometry": {"coordinates": [8.503366, 47.396664], "type": "Point"}, "properties": {"charge": 23, "id": "smide_2751", "name": "BE343857", "provider": "smide", "range": 11.0, "size": 17, "time": "02/08/2020, 11:39:05"}, "type": "Feature"}, {"geometry": {"coordinates": [8.513043, 47.366248], "type": "Point"}, "properties": {"charge": 36, "id": "smide_2749", "name": "BE343867", "provider": "smide", "range": 18.0, "size": 17, "time": "02/08/2020, 11:39:05"}, "type": "Feature"}, {"geometry": {"coordinates": [8.47529, 47.385488], "type": "Point"}, "properties": {"charge": 100, "id": "smide_2748", "name": "BE335758", "provider": "smide", "range": 50.0, "size": 17, "time": "02/08/2020, 11:39:05"}, "type": "Feature"}, {"geometry": {"coordinates": [8.55527, 47.375384], "type": "Point"}, "properties": {"charge": 65, "id": "smide_2746", "name": "BE335817", "provider": "smide", "range": 32.0, "size": 17, "time": "02/08/2020, 11:39:05"}, "type": "Feature"}, {"geometry": {"coordinates": [8.529752, 47.344848], "type": "Point"}, "properties": {"charge": 83, "id": "smide_2747", "name": "BE335820", "provider": "smide", "range": 41.0, "size": 17, "time": "02/08/2020, 11:39:05"}, "type": "Feature"}, {"geometry": {"coordinates": [8.55631, 47.365828], "type": "Point"}, "properties": {"charge": 100, "id": "smide_2745", "name": "BE335818", "provider": "smide", "range": 50.0, "size": 17, "time": "02/08/2020, 11:39:05"}, "type": "Feature"}, {"geometry": {"coordinates": [8.489867, 47.381376], "type": "Point"}, "properties": {"charge": 33, "id": "smide_2743", "name": "BE343864", "provider": "smide", "range": 16.0, "size": 17, "time": "02/08/2020, 11:39:05"}, "type": "Feature"}, {"geometry": {"coordinates": [8.495324, 47.367632], "type": "Point"}, "properties": {"charge": 38, "id": "smide_2742", "name": "BE343866", "provider": "smide", "range": 19.0, "size": 17, "time": "02/08/2020, 11:39:05"}, "type": "Feature"}, {"geometry": {"coordinates": [8.553734, 47.376272], "type": "Point"}, "properties": {"charge": 77, "id": "smide_2741", "name": "BE343874", "provider": "smide", "range": 38.0, "size": 17, "time": "02/08/2020, 11:39:05"}, "type": "Feature"}, {"geometry": {"coordinates": [8.535171, 47.36464], "type": "Point"}, "properties": {"charge": 46, "id": "smide_2740", "name": "BE343875", "provider": "smide", "range": 23.0, "size": 17, "time": "02/08/2020, 11:39:05"}, "type": "Feature"}, {"geometry": {"coordinates": [8.48947, 47.380421], "type": "Point"}, "properties": {"charge": 76, "id": "smide_2738", "name": "BE343865", "provider": "smide", "range": 38.0, "size": 17, "time": "02/08/2020, 11:39:05"}, "type": "Feature"}, {"geometry": {"coordinates": [8.562222, 47.414944], "type": "Point"}, "properties": {"charge": 70, "id": "smide_2737", "name": "BE336149", "provider": "smide", "range": 35.0, "size": 17, "time": "02/08/2020, 11:39:05"}, "type": "Feature"}, {"geometry": {"coordinates": [8.543787, 47.377768], "type": "Point"}, "properties": {"charge": 100, "id": "smide_2736", "name": "BE346639", "provider": "smide", "range": 50.0, "size": 17, "time": "02/08/2020, 11:39:05"}, "type": "Feature"}, {"geometry": {"coordinates": [8.555787, 47.384236], "type": "Point"}, "properties": {"charge": 37, "id": "smide_2734", "name": "BE343876", "provider": "smide", "range": 18.0, "size": 17, "time": "02/08/2020, 11:39:05"}, "type": "Feature"}, {"geometry": {"coordinates": [8.502135, 47.369092], "type": "Point"}, "properties": {"charge": 100, "id": "smide_2733", "name": "BE343873", "provider": "smide", "range": 50.0, "size": 17, "time": "02/08/2020, 11:39:05"}, "type": "Feature"}, {"geometry": {"coordinates": [8.51619, 47.396813], "type": "Point"}, "properties": {"charge": 62, "id": "smide_2725", "name": "ZH261545", "provider": "smide", "range": 31.0, "size": 0, "time": "02/08/2020, 11:39:05"}, "type": "Feature"}, {"geometry": {"coordinates": [8.51418, 47.393571], "type": "Point"}, "properties": {"charge": 59, "id": "smide_2718", "name": "ZH259019", "provider": "smide", "range": 29.0, "size": 20, "time": "02/08/2020, 11:39:05"}, "type": "Feature"}, {"geometry": {"coordinates": [8.490357, 47.371324], "type": "Point"}, "properties": {"charge": 23, "id": "smide_2717", "name": "ZH263287", "provider": "smide", "range": 11.0, "size": 17, "time": "02/08/2020, 11:39:05"}, "type": "Feature"}, {"geometry": {"coordinates": [8.542953, 47.388288], "type": "Point"}, "properties": {"charge": 34, "id": "smide_2716", "name": "ZH254606", "provider": "smide", "range": 17.0, "size": 17, "time": "02/08/2020, 11:39:05"}, "type": "Feature"}, {"geometry": {"coordinates": [8.520658, 47.369996], "type": "Point"}, "properties": {"charge": 87, "id": "smide_2715", "name": "ZH254605", "provider": "smide", "range": 43.0, "size": 17, "time": "02/08/2020, 11:39:05"}, "type": "Feature"}, {"geometry": {"coordinates": [8.502081, 47.369032], "type": "Point"}, "properties": {"charge": 100, "id": "smide_2714", "name": "ZH256461", "provider": "smide", "range": 50.0, "size": 17, "time": "02/08/2020, 11:39:05"}, "type": "Feature"}, {"geometry": {"coordinates": [8.488842, 47.393144], "type": "Point"}, "properties": {"charge": 88, "id": "smide_2710", "name": "ZH256460", "provider": "smide", "range": 44.0, "size": 17, "time": "02/08/2020, 11:39:05"}, "type": "Feature"}, {"geometry": {"coordinates": [8.556102, 47.386264], "type": "Point"}, "properties": {"charge": 24, "id": "smide_2712", "name": "ZH256462", "provider": "smide", "range": 12.0, "size": 17, "time": "02/08/2020, 11:39:05"}, "type": "Feature"}, {"geometry": {"coordinates": [8.564482, 47.371676], "type": "Point"}, "properties": {"charge": 45, "id": "smide_2711", "name": "ZH256463", "provider": "smide", "range": 22.0, "size": 17, "time": "02/08/2020, 11:39:05"}, "type": "Feature"}, {"geometry": {"coordinates": [8.557428, 47.356781], "type": "Point"}, "properties": {"charge": 90, "id": "smide_2709", "name": "ZH256466", "provider": "smide", "range": 45.0, "size": 20, "time": "02/08/2020, 11:39:05"}, "type": "Feature"}, {"geometry": {"coordinates": [8.5635, 47.372468], "type": "Point"}, "properties": {"charge": 100, "id": "smide_2707", "name": "ZH256467", "provider": "smide", "range": 50.0, "size": 20, "time": "02/08/2020, 11:39:05"}, "type": "Feature"}, {"geometry": {"coordinates": [8.490761, 47.378748], "type": "Point"}, "properties": {"charge": 99, "id": "smide_2708", "name": "ZH256464", "provider": "smide", "range": 49.0, "size": 17, "time": "02/08/2020, 11:39:05"}, "type": "Feature"}, {"geometry": {"coordinates": [8.543321, 47.385716], "type": "Point"}, "properties": {"charge": 100, "id": "smide_2701", "name": "ZH256468", "provider": "smide", "range": 50.0, "size": 20, "time": "02/08/2020, 11:39:05"}, "type": "Feature"}, {"geometry": {"coordinates": [8.509421, 47.395268], "type": "Point"}, "properties": {"charge": 49, "id": "smide_2699", "name": "ZH254611", "provider": "smide", "range": 24.0, "size": 20, "time": "02/08/2020, 11:39:05"}, "type": "Feature"}, {"geometry": {"coordinates": [8.537265, 47.387408], "type": "Point"}, "properties": {"charge": 100, "id": "smide_2697", "name": "ZH254629", "provider": "smide", "range": 50.0, "size": 20, "time": "02/08/2020, 11:39:05"}, "type": "Feature"}, {"geometry": {"coordinates": [8.52768, 47.415088], "type": "Point"}, "properties": {"charge": 67, "id": "smide_2696", "name": "ZH254616", "provider": "smide", "range": 33.0, "size": 20, "time": "02/08/2020, 11:39:05"}, "type": "Feature"}, {"geometry": {"coordinates": [8.532427, 47.347316], "type": "Point"}, "properties": {"charge": 55, "id": "smide_2694", "name": "ZH254610", "provider": "smide", "range": 27.0, "size": 20, "time": "02/08/2020, 11:39:05"}, "type": "Feature"}, {"geometry": {"coordinates": [8.558573, 47.403775], "type": "Point"}, "properties": {"charge": 93, "id": "smide_2691", "name": "ZH254622", "provider": "smide", "range": 46.0, "size": 20, "time": "02/08/2020, 11:39:05"}, "type": "Feature"}, {"geometry": {"coordinates": [8.527526, 47.360375], "type": "Point"}, "properties": {"charge": 95, "id": "smide_2690", "name": "ZH254625", "provider": "smide", "range": 47.0, "size": 20, "time": "02/08/2020, 11:39:05"}, "type": "Feature"}, {"geometry": {"coordinates": [8.514324, 47.39174], "type": "Point"}, "properties": {"charge": 95, "id": "smide_2689", "name": "ZH254623", "provider": "smide", "range": 47.0, "size": 20, "time": "02/08/2020, 11:39:05"}, "type": "Feature"}, {"geometry": {"coordinates": [8.544084, 47.379952], "type": "Point"}, "properties": {"charge": 27, "id": "smide_2687", "name": "ZH263529", "provider": "smide", "range": 13.0, "size": 20, "time": "02/08/2020, 11:39:05"}, "type": "Feature"}, {"geometry": {"coordinates": [8.547142, 47.382156], "type": "Point"}, "properties": {"charge": 91, "id": "smide_2686", "name": "ZH263288", "provider": "smide", "range": 45.0, "size": 20, "time": "02/08/2020, 11:39:05"}, "type": "Feature"}, {"geometry": {"coordinates": [8.552833, 47.362292], "type": "Point"}, "properties": {"charge": 84, "id": "smide_2684", "name": "ZH254626", "provider": "smide", "range": 42.0, "size": 20, "time": "02/08/2020, 11:39:05"}, "type": "Feature"}, {"geometry": {"coordinates": [8.499606, 47.386988], "type": "Point"}, "properties": {"charge": 52, "id": "smide_2680", "name": "ZH254619", "provider": "smide", "range": 26.0, "size": 20, "time": "02/08/2020, 11:39:05"}, "type": "Feature"}, {"geometry": {"coordinates": [8.573735, 47.356112], "type": "Point"}, "properties": {"charge": 98, "id": "smide_2679", "name": "ZH258489", "provider": "smide", "range": 49.0, "size": 17, "time": "02/08/2020, 11:39:05"}, "type": "Feature"}, {"geometry": {"coordinates": [8.524731, 47.341136], "type": "Point"}, "properties": {"charge": 70, "id": "smide_2677", "name": "ZH258487", "provider": "smide", "range": 35.0, "size": 17, "time": "02/08/2020, 11:39:05"}, "type": "Feature"}, {"geometry": {"coordinates": [8.561798, 47.383428], "type": "Point"}, "properties": {"charge": 75, "id": "smide_2674", "name": "ZH258654", "provider": "smide", "range": 37.0, "size": 17, "time": "02/08/2020, 11:39:05"}, "type": "Feature"}, {"geometry": {"coordinates": [8.541663, 47.382616], "type": "Point"}, "properties": {"charge": 69, "id": "smide_2669", "name": "ZH263294", "provider": "smide", "range": 34.0, "size": 17, "time": "02/08/2020, 11:39:05"}, "type": "Feature"}, {"geometry": {"coordinates": [8.517147, 47.360948], "type": "Point"}, "properties": {"charge": 34, "id": "smide_2666", "name": "ZH258653", "provider": "smide", "range": 17.0, "size": 17, "time": "02/08/2020, 11:39:05"}, "type": "Feature"}, {"geometry": {"coordinates": [8.574703, 47.3547], "type": "Point"}, "properties": {"charge": 32, "id": "smide_2665", "name": "ZH258644", "provider": "smide", "range": 16.0, "size": 17, "time": "02/08/2020, 11:39:05"}, "type": "Feature"}, {"geometry": {"coordinates": [8.544074, 47.391896], "type": "Point"}, "properties": {"charge": 99, "id": "smide_2663", "name": "ZH258649", "provider": "smide", "range": 49.0, "size": 17, "time": "02/08/2020, 11:39:05"}, "type": "Feature"}, {"geometry": {"coordinates": [8.544791, 47.404308], "type": "Point"}, "properties": {"charge": 22, "id": "smide_2662", "name": "ZH258643", "provider": "smide", "range": 11.0, "size": 17, "time": "02/08/2020, 11:39:05"}, "type": "Feature"}, {"geometry": {"coordinates": [8.514848, 47.391644], "type": "Point"}, "properties": {"charge": 79, "id": "smide_2660", "name": "ZH258647", "provider": "smide", "range": 39.0, "size": 17, "time": "02/08/2020, 11:39:05"}, "type": "Feature"}, {"geometry": {"coordinates": [8.501415, 47.422648], "type": "Point"}, "properties": {"charge": 10, "id": "smide_2648", "name": "ZH257930", "provider": "smide", "range": 5.0, "size": 20, "time": "02/08/2020, 11:39:05"}, "type": "Feature"}, {"geometry": {"coordinates": [8.527391, 47.354156], "type": "Point"}, "properties": {"charge": 44, "id": "smide_2647", "name": "ZH257932", "provider": "smide", "range": 22.0, "size": 20, "time": "02/08/2020, 11:39:05"}, "type": "Feature"}, {"geometry": {"coordinates": [8.56019, 47.37238], "type": "Point"}, "properties": {"charge": 100, "id": "smide_2645", "name": "ZH257933", "provider": "smide", "range": 50.0, "size": 20, "time": "02/08/2020, 11:39:05"}, "type": "Feature"}, {"geometry": {"coordinates": [8.552671, 47.361823], "type": "Point"}, "properties": {"charge": 33, "id": "smide_3", "name": "ZH253765", "provider": "smide", "range": 16.0, "size": 20, "time": "02/08/2020, 11:39:05"}, "type": "Feature"}, {"geometry": {"coordinates": [8.525976, 47.408488], "type": "Point"}, "properties": {"charge": 100, "id": "smide_105", "name": "ZH253804", "provider": "smide", "range": 50.0, "size": 17, "time": "02/08/2020, 11:39:05"}, "type": "Feature"}, {"geometry": {"coordinates": [8.54239, 47.407792], "type": "Point"}, "properties": {"charge": 77, "id": "smide_186", "name": "ZH253751", "provider": "smide", "range": 38.0, "size": 20, "time": "02/08/2020, 11:39:05"}, "type": "Feature"}, {"geometry": {"coordinates": [8.559294, 47.405948], "type": "Point"}, "properties": {"charge": 46, "id": "smide_77", "name": "ZH261548", "provider": "smide", "range": 23.0, "size": 20, "time": "02/08/2020, 11:39:05"}, "type": "Feature"}, {"geometry": {"coordinates": [8.540075, 47.378992], "type": "Point"}, "properties": {"charge": 100, "id": "smide_200", "name": "ZH253801", "provider": "smide", "range": 50.0, "size": 20, "time": "02/08/2020, 11:39:05"}, "type": "Feature"}, {"geometry": {"coordinates": [8.50199, 47.384148], "type": "Point"}, "properties": {"charge": 30, "id": "smide_197", "name": "ZH253864", "provider": "smide", "range": 15.0, "size": 20, "time": "02/08/2020, 11:39:05"}, "type": "Feature"}, {"geometry": {"coordinates": [8.558031, 47.359593], "type": "Point"}, "properties": {"charge": 85, "id": "smide_199", "name": "ZH253766", "provider": "smide", "range": 42.0, "size": 20, "time": "02/08/2020, 11:39:05"}, "type": "Feature"}, {"geometry": {"coordinates": [8.54008, 47.379084], "type": "Point"}, "properties": {"charge": 100, "id": "smide_8", "name": "ZH253861", "provider": "smide", "range": 50.0, "size": 17, "time": "02/08/2020, 11:39:05"}, "type": "Feature"}, {"geometry": {"coordinates": [8.544641, 47.377501], "type": "Point"}, "properties": {"charge": 55, "id": "smide_45", "name": "ZH253716", "provider": "smide", "range": 27.0, "size": 17, "time": "02/08/2020, 11:39:05"}, "type": "Feature"}, {"geometry": {"coordinates": [8.58223, 47.35186], "type": "Point"}, "properties": {"charge": 58, "id": "smide_71", "name": "ZH253742", "provider": "smide", "range": 28.0, "size": 20, "time": "02/08/2020, 11:39:05"}, "type": "Feature"}, {"geometry": {"coordinates": [8.53019, 47.390292], "type": "Point"}, "properties": {"charge": 92, "id": "smide_101", "name": "ZH253814", "provider": "smide", "range": 46.0, "size": 17, "time": "02/08/2020, 11:39:05"}, "type": "Feature"}, {"geometry": {"coordinates": [8.542653, 47.380128], "type": "Point"}, "properties": {"charge": 100, "id": "smide_9", "name": "ZH253796", "provider": "smide", "range": 50.0, "size": 17, "time": "02/08/2020, 11:39:05"}, "type": "Feature"}, {"geometry": {"coordinates": [8.56307, 47.38252], "type": "Point"}, "properties": {"charge": 66, "id": "smide_143", "name": "ZH253778", "provider": "smide", "range": 33.0, "size": 17, "time": "02/08/2020, 11:39:05"}, "type": "Feature"}, {"geometry": {"coordinates": [8.576433, 47.351115], "type": "Point"}, "properties": {"charge": 91, "id": "smide_180", "name": "ZH253824", "provider": "smide", "range": 45.0, "size": 20, "time": "02/08/2020, 11:39:05"}, "type": "Feature"}, {"geometry": {"coordinates": [8.533462, 47.377484], "type": "Point"}, "properties": {"charge": 50, "id": "smide_20", "name": "ZH253770", "provider": "smide", "range": 25.0, "size": 20, "time": "02/08/2020, 11:39:05"}, "type": "Feature"}, {"geometry": {"coordinates": [8.494564, 47.367936], "type": "Point"}, "properties": {"charge": 98, "id": "smide_50", "name": "ZH253853", "provider": "smide", "range": 49.0, "size": 17, "time": "02/08/2020, 11:39:05"}, "type": "Feature"}, {"geometry": {"coordinates": [8.568418, 47.382158], "type": "Point"}, "properties": {"charge": 92, "id": "smide_30", "name": "ZH253813", "provider": "smide", "range": 46.0, "size": 20, "time": "02/08/2020, 11:39:05"}, "type": "Feature"}, {"geometry": {"coordinates": [8.55765, 47.412416], "type": "Point"}, "properties": {"charge": 75, "id": "smide_10", "name": "ZH253855", "provider": "smide", "range": 37.0, "size": 17, "time": "02/08/2020, 11:39:05"}, "type": "Feature"}, {"geometry": {"coordinates": [8.515983, 47.370548], "type": "Point"}, "properties": {"charge": 79, "id": "smide_179", "name": "ZH253687", "provider": "smide", "range": 39.0, "size": 20, "time": "02/08/2020, 11:39:05"}, "type": "Feature"}, {"geometry": {"coordinates": [8.540445, 47.388792], "type": "Point"}, "properties": {"charge": 60, "id": "smide_84", "name": "ZH253733", "provider": "smide", "range": 30.0, "size": 17, "time": "02/08/2020, 11:39:05"}, "type": "Feature"}, {"geometry": {"coordinates": [8.561557, 47.373516], "type": "Point"}, "properties": {"charge": 100, "id": "smide_165", "name": "ZH253752", "provider": "smide", "range": 50.0, "size": 17, "time": "02/08/2020, 11:39:05"}, "type": "Feature"}, {"geometry": {"coordinates": [8.50841, 47.36464], "type": "Point"}, "properties": {"charge": 65, "id": "smide_35", "name": "ZH253755", "provider": "smide", "range": 32.0, "size": 20, "time": "02/08/2020, 11:39:05"}, "type": "Feature"}, {"geometry": {"coordinates": [8.555385, 47.369416], "type": "Point"}, "properties": {"charge": 61, "id": "smide_119", "name": "ZH253686", "provider": "smide", "range": 30.0, "size": 20, "time": "02/08/2020, 11:39:05"}, "type": "Feature"}, {"geometry": {"coordinates": [8.52937, 47.372944], "type": "Point"}, "properties": {"charge": 53, "id": "smide_76", "name": "ZH253764", "provider": "smide", "range": 26.0, "size": 17, "time": "02/08/2020, 11:39:05"}, "type": "Feature"}, {"geometry": {"coordinates": [8.525029, 47.337752], "type": "Point"}, "properties": {"charge": 81, "id": "smide_129", "name": "ZH261378", "provider": "smide", "range": 40.0, "size": 17, "time": "02/08/2020, 11:39:05"}, "type": "Feature"}, {"geometry": {"coordinates": [8.497443, 47.376345], "type": "Point"}, "properties": {"charge": 41, "id": "smide_49", "name": "ZH253873", "provider": "smide", "range": 20.0, "size": 17, "time": "02/08/2020, 11:39:05"}, "type": "Feature"}, {"geometry": {"coordinates": [8.53633, 47.342268], "type": "Point"}, "properties": {"charge": 76, "id": "smide_37", "name": "ZH261377", "provider": "smide", "range": 38.0, "size": 20, "time": "02/08/2020, 11:39:05"}, "type": "Feature"}, {"geometry": {"coordinates": [8.526573, 47.360335], "type": "Point"}, "properties": {"charge": 46, "id": "smide_191", "name": "ZH253762", "provider": "smide", "range": 23.0, "size": 17, "time": "02/08/2020, 11:39:05"}, "type": "Feature"}, {"geometry": {"coordinates": [8.503776, 47.377551], "type": "Point"}, "properties": {"charge": 29, "id": "smide_202", "name": "ZH253830", "provider": "smide", "range": 14.0, "size": 17, "time": "02/08/2020, 11:39:05"}, "type": "Feature"}, {"geometry": {"coordinates": [8.548079, 47.366212], "type": "Point"}, "properties": {"charge": 46, "id": "smide_56", "name": "ZH261442", "provider": "smide", "range": 23.0, "size": 20, "time": "02/08/2020, 11:39:05"}, "type": "Feature"}, {"geometry": {"coordinates": [8.54805, 47.358798], "type": "Point"}, "properties": {"charge": 87, "id": "smide_47", "name": "ZH253858", "provider": "smide", "range": 43.0, "size": 17, "time": "02/08/2020, 11:39:05"}, "type": "Feature"}, {"geometry": {"coordinates": [8.518015, 47.36996], "type": "Point"}, "properties": {"charge": 49, "id": "smide_66", "name": "ZH253818", "provider": "smide", "range": 24.0, "size": 20, "time": "02/08/2020, 11:39:05"}, "type": "Feature"}, {"geometry": {"coordinates": [8.494016, 47.372323], "type": "Point"}, "properties": {"charge": 20, "id": "smide_17", "name": "ZH253793", "provider": "smide", "range": 10.0, "size": 17, "time": "02/08/2020, 11:39:05"}, "type": "Feature"}, {"geometry": {"coordinates": [8.555172, 47.383884], "type": "Point"}, "properties": {"charge": 67, "id": "smide_114", "name": "ZH253878", "provider": "smide", "range": 33.0, "size": 20, "time": "02/08/2020, 11:39:05"}, "type": "Feature"}, {"geometry": {"coordinates": [8.53319, 47.417124], "type": "Point"}, "properties": {"charge": 43, "id": "smide_203", "name": "ZH261547", "provider": "smide", "range": 21.0, "size": 17, "time": "02/08/2020, 11:39:05"}, "type": "Feature"}, {"geometry": {"coordinates": [8.519106, 47.337228], "type": "Point"}, "properties": {"charge": 64, "id": "smide_21", "name": "ZH253841", "provider": "smide", "range": 32.0, "size": 17, "time": "02/08/2020, 11:39:05"}, "type": "Feature"}, {"geometry": {"coordinates": [8.514572, 47.389604], "type": "Point"}, "properties": {"charge": 89, "id": "smide_164", "name": "ZH253775", "provider": "smide", "range": 44.0, "size": 17, "time": "02/08/2020, 11:39:05"}, "type": "Feature"}, {"geometry": {"coordinates": [8.534339, 47.416784], "type": "Point"}, "properties": {"charge": 67, "id": "smide_189", "name": "ZH253845", "provider": "smide", "range": 33.0, "size": 20, "time": "02/08/2020, 11:39:05"}, "type": "Feature"}, {"geometry": {"coordinates": [8.484602, 47.394228], "type": "Point"}, "properties": {"charge": 55, "id": "smide_81", "name": "ZH253753", "provider": "smide", "range": 27.0, "size": 17, "time": "02/08/2020, 11:39:05"}, "type": "Feature"}, {"geometry": {"coordinates": [8.524985, 47.397276], "type": "Point"}, "properties": {"charge": 90, "id": "smide_171", "name": "ZH253689", "provider": "smide", "range": 45.0, "size": 20, "time": "02/08/2020, 11:39:05"}, "type": "Feature"}, {"geometry": {"coordinates": [8.48758, 47.37578], "type": "Point"}, "properties": {"charge": 29, "id": "smide_93", "name": "ZH253681", "provider": "smide", "range": 14.0, "size": 17, "time": "02/08/2020, 11:39:05"}, "type": "Feature"}, {"geometry": {"coordinates": [8.515941, 47.392488], "type": "Point"}, "properties": {"charge": 37, "id": "smide_67", "name": "ZH253779", "provider": "smide", "range": 18.0, "size": 17, "time": "02/08/2020, 11:39:05"}, "type": "Feature"}, {"geometry": {"coordinates": [8.489599, 47.373908], "type": "Point"}, "properties": {"charge": 53, "id": "smide_133", "name": "ZH253848", "provider": "smide", "range": 26.0, "size": 20, "time": "02/08/2020, 11:39:05"}, "type": "Feature"}, {"geometry": {"coordinates": [8.48657, 47.38719], "type": "Point"}, "properties": {"charge": 17, "id": "smide_118", "name": "ZH253759", "provider": "smide", "range": 8.0, "size": 20, "time": "02/08/2020, 11:39:05"}, "type": "Feature"}, {"geometry": {"coordinates": [8.522316, 47.362368], "type": "Point"}, "properties": {"charge": 100, "id": "smide_44", "name": "ZH253837", "provider": "smide", "range": 50.0, "size": 17, "time": "02/08/2020, 11:39:05"}, "type": "Feature"}, {"geometry": {"coordinates": [8.562681, 47.371406], "type": "Point"}, "properties": {"charge": 100, "id": "smide_98", "name": "ZH256321", "provider": "smide", "range": 50.0, "size": 17, "time": "02/08/2020, 11:39:05"}, "type": "Feature"}, {"geometry": {"coordinates": [8.545294, 47.41274], "type": "Point"}, "properties": {"charge": 64, "id": "smide_154", "name": "ZH253744", "provider": "smide", "range": 32.0, "size": 20, "time": "02/08/2020, 11:39:05"}, "type": "Feature"}, {"geometry": {"coordinates": [8.477581, 47.389852], "type": "Point"}, "properties": {"charge": 84, "id": "smide_92", "name": "ZH253798", "provider": "smide", "range": 42.0, "size": 17, "time": "02/08/2020, 11:39:05"}, "type": "Feature"}, {"geometry": {"coordinates": [8.514423, 47.364704], "type": "Point"}, "properties": {"charge": 87, "id": "smide_65", "name": "ZH253810", "provider": "smide", "range": 43.0, "size": 17, "time": "02/08/2020, 11:39:05"}, "type": "Feature"}, {"geometry": {"coordinates": [8.54157, 47.38678], "type": "Point"}, "properties": {"charge": 88, "id": "smide_111", "name": "ZH253763", "provider": "smide", "range": 44.0, "size": 17, "time": "02/08/2020, 11:39:05"}, "type": "Feature"}, {"geometry": {"coordinates": [8.557199, 47.377408], "type": "Point"}, "properties": {"charge": 70, "id": "smide_40", "name": "ZH253690", "provider": "smide", "range": 35.0, "size": 20, "time": "02/08/2020, 11:39:05"}, "type": "Feature"}, {"geometry": {"coordinates": [8.518973, 47.338152], "type": "Point"}, "properties": {"charge": 83, "id": "smide_1", "name": "ZH253776", "provider": "smide", "range": 41.0, "size": 17, "time": "02/08/2020, 11:39:05"}, "type": "Feature"}, {"geometry": {"coordinates": [8.520016, 47.339991], "type": "Point"}, "properties": {"charge": 100, "id": "smide_14", "name": "ZH253749", "provider": "smide", "range": 50.0, "size": 20, "time": "02/08/2020, 11:39:05"}, "type": "Feature"}, {"geometry": {"coordinates": [8.535271, 47.393048], "type": "Point"}, "properties": {"charge": 84, "id": "smide_130", "name": "ZH253847", "provider": "smide", "range": 42.0, "size": 20, "time": "02/08/2020, 11:39:05"}, "type": "Feature"}, {"geometry": {"coordinates": [8.515954, 47.39252], "type": "Point"}, "properties": {"charge": 26, "id": "smide_107", "name": "ZH253819", "provider": "smide", "range": 13.0, "size": 17, "time": "02/08/2020, 11:39:05"}, "type": "Feature"}, {"geometry": {"coordinates": [8.540664, 47.372848], "type": "Point"}, "properties": {"charge": 55, "id": "smide_136", "name": "ZH253682", "provider": "smide", "range": 27.0, "size": 17, "time": "02/08/2020, 11:39:05"}, "type": "Feature"}, {"geometry": {"coordinates": [8.537136, 47.387296], "type": "Point"}, "properties": {"charge": 100, "id": "smide_83", "name": "ZH253869", "provider": "smide", "range": 50.0, "size": 20, "time": "02/08/2020, 11:39:05"}, "type": "Feature"}, {"geometry": {"coordinates": [8.502111, 47.369052], "type": "Point"}, "properties": {"charge": 100, "id": "smide_205", "name": "ZH253805", "provider": "smide", "range": 50.0, "size": 17, "time": "02/08/2020, 11:39:05"}, "type": "Feature"}, {"geometry": {"coordinates": [8.52141, 47.367971], "type": "Point"}, "properties": {"charge": 26, "id": "smide_73", "name": "ZH261379", "provider": "smide", "range": 13.0, "size": 20, "time": "02/08/2020, 11:39:05"}, "type": "Feature"}, {"geometry": {"coordinates": [8.527322, 47.375892], "type": "Point"}, "properties": {"charge": 71, "id": "smide_100", "name": "ZH253862", "provider": "smide", "range": 35.0, "size": 20, "time": "02/08/2020, 11:39:05"}, "type": "Feature"}, {"geometry": {"coordinates": [8.522975, 47.378886], "type": "Point"}, "properties": {"charge": 100, "id": "smide_134", "name": "ZH253741", "provider": "smide", "range": 50.0, "size": 20, "time": "02/08/2020, 11:39:05"}, "type": "Feature"}, {"geometry": {"coordinates": [8.557958, 47.351285], "type": "Point"}, "properties": {"charge": 100, "id": "smide_141", "name": "ZH253800", "provider": "smide", "range": 50.0, "size": 20, "time": "02/08/2020, 11:39:05"}, "type": "Feature"}, {"geometry": {"coordinates": [8.572824, 47.351532], "type": "Point"}, "properties": {"charge": 75, "id": "smide_16", "name": "ZH253713", "provider": "smide", "range": 37.0, "size": 20, "time": "02/08/2020, 11:39:05"}, "type": "Feature"}, {"geometry": {"coordinates": [8.523248, 47.385276], "type": "Point"}, "properties": {"charge": 67, "id": "smide_74", "name": "ZH253693", "provider": "smide", "range": 33.0, "size": 20, "time": "02/08/2020, 11:39:05"}, "type": "Feature"}, {"geometry": {"coordinates": [8.560926, 47.35507], "type": "Point"}, "properties": {"charge": 91, "id": "smide_33", "name": "ZH253782", "provider": "smide", "range": 45.0, "size": 20, "time": "02/08/2020, 11:39:05"}, "type": "Feature"}, {"geometry": {"coordinates": [8.535114, 47.38928], "type": "Point"}, "properties": {"charge": 100, "id": "smide_161", "name": "ZH253691", "provider": "smide", "range": 50.0, "size": 20, "time": "02/08/2020, 11:39:05"}, "type": "Feature"}, {"geometry": {"coordinates": [8.518006, 47.367596], "type": "Point"}, "properties": {"charge": 100, "id": "smide_183", "name": "ZH253868", "provider": "smide", "range": 50.0, "size": 17, "time": "02/08/2020, 11:39:05"}, "type": "Feature"}, {"geometry": {"coordinates": [8.533498, 47.37328], "type": "Point"}, "properties": {"charge": 74, "id": "smide_42", "name": "ZH253846", "provider": "smide", "range": 37.0, "size": 20, "time": "02/08/2020, 11:39:05"}, "type": "Feature"}, {"geometry": {"coordinates": [8.537119, 47.419148], "type": "Point"}, "properties": {"charge": 61, "id": "smide_4", "name": "ZH253740", "provider": "smide", "range": 30.0, "size": 20, "time": "02/08/2020, 11:39:05"}, "type": "Feature"}, {"geometry": {"coordinates": [8.496367, 47.392828], "type": "Point"}, "properties": {"charge": 98, "id": "smide_160", "name": "ZH253722", "provider": "smide", "range": 49.0, "size": 17, "time": "02/08/2020, 11:39:05"}, "type": "Feature"}, {"geometry": {"coordinates": [8.535298, 47.370791], "type": "Point"}, "properties": {"charge": 100, "id": "smide_137", "name": "ZH258502", "provider": "smide", "range": 50.0, "size": 17, "time": "02/08/2020, 11:39:05"}, "type": "Feature"}, {"geometry": {"coordinates": [8.549261, 47.361832], "type": "Point"}, "properties": {"charge": 78, "id": "smide_178", "name": "ZH253803", "provider": "smide", "range": 39.0, "size": 17, "time": "02/08/2020, 11:39:05"}, "type": "Feature"}, {"geometry": {"coordinates": [8.517658, 47.367408], "type": "Point"}, "properties": {"charge": 70, "id": "smide_55", "name": "ZH253875", "provider": "smide", "range": 35.0, "size": 17, "time": "02/08/2020, 11:39:05"}, "type": "Feature"}, {"geometry": {"coordinates": [8.544064, 47.379924], "type": "Point"}, "properties": {"charge": 100, "id": "smide_96", "name": "ZH256146", "provider": "smide", "range": 50.0, "size": 20, "time": "02/08/2020, 11:39:05"}, "type": "Feature"}, {"geometry": {"coordinates": [8.525653, 47.389436], "type": "Point"}, "properties": {"charge": 100, "id": "smide_58", "name": "ZH259246", "provider": "smide", "range": 50.0, "size": 20, "time": "02/08/2020, 11:39:05"}, "type": "Feature"}, {"geometry": {"coordinates": [8.503262, 47.381344], "type": "Point"}, "properties": {"charge": 100, "id": "smide_54", "name": "ZH253874", "provider": "smide", "range": 50.0, "size": 20, "time": "02/08/2020, 11:39:05"}, "type": "Feature"}, {"geometry": {"coordinates": [8.542598, 47.385544], "type": "Point"}, "properties": {"charge": 49, "id": "smide_175", "name": "ZH253730", "provider": "smide", "range": 24.0, "size": 17, "time": "02/08/2020, 11:39:05"}, "type": "Feature"}, {"geometry": {"coordinates": [8.543611, 47.372456], "type": "Point"}, "properties": {"charge": 58, "id": "smide_95", "name": "ZH253773", "provider": "smide", "range": 28.0, "size": 17, "time": "02/08/2020, 11:39:05"}, "type": "Feature"}, {"geometry": {"coordinates": [8.565923, 47.358308], "type": "Point"}, "properties": {"charge": 53, "id": "smide_163", "name": "ZH256147", "provider": "smide", "range": 26.0, "size": 20, "time": "02/08/2020, 11:39:05"}, "type": "Feature"}, {"geometry": {"coordinates": [8.540945, 47.368976], "type": "Point"}, "properties": {"charge": 94, "id": "smide_112", "name": "ZH263530", "provider": "smide", "range": 47.0, "size": 20, "time": "02/08/2020, 11:39:05"}, "type": "Feature"}, {"geometry": {"coordinates": [8.489718, 47.391024], "type": "Point"}, "properties": {"charge": 60, "id": "smide_122", "name": "ZH253850", "provider": "smide", "range": 30.0, "size": 20, "time": "02/08/2020, 11:39:05"}, "type": "Feature"}, {"geometry": {"coordinates": [8.54692, 47.41297], "type": "Point"}, "properties": {"charge": 30, "id": "smide_38", "name": "ZH253851", "provider": "smide", "range": 15.0, "size": 20, "time": "02/08/2020, 11:39:05"}, "type": "Feature"}, {"geometry": {"coordinates": [8.557783, 47.404424], "type": "Point"}, "properties": {"charge": 73, "id": "smide_6", "name": "ZH253787", "provider": "smide", "range": 36.0, "size": 17, "time": "02/08/2020, 11:39:05"}, "type": "Feature"}, {"geometry": {"coordinates": [8.523949, 47.386708], "type": "Point"}, "properties": {"charge": 100, "id": "smide_18", "name": "ZH253859", "provider": "smide", "range": 50.0, "size": 17, "time": "02/08/2020, 11:39:05"}, "type": "Feature"}, {"geometry": {"coordinates": [8.508831, 47.35266], "type": "Point"}, "properties": {"charge": 84, "id": "smide_12", "name": "ZH253685", "provider": "smide", "range": 42.0, "size": 17, "time": "02/08/2020, 11:39:05"}, "type": "Feature"}, {"geometry": {"coordinates": [8.544624, 47.37408], "type": "Point"}, "properties": {"charge": 94, "id": "smide_192", "name": "ZH253706", "provider": "smide", "range": 47.0, "size": 20, "time": "02/08/2020, 11:39:05"}, "type": "Feature"}, {"geometry": {"coordinates": [8.560198, 47.381344], "type": "Point"}, "properties": {"charge": 28, "id": "smide_39", "name": "ZH253714", "provider": "smide", "range": 14.0, "size": 20, "time": "02/08/2020, 11:39:05"}, "type": "Feature"}, {"geometry": {"coordinates": [8.514941, 47.365351], "type": "Point"}, "properties": {"charge": 71, "id": "smide_5", "name": "ZH261443", "provider": "smide", "range": 35.0, "size": 20, "time": "02/08/2020, 11:39:05"}, "type": "Feature"}, {"geometry": {"coordinates": [8.475237, 47.385464], "type": "Point"}, "properties": {"charge": 100, "id": "smide_29", "name": "ZH253723", "provider": "smide", "range": 50.0, "size": 17, "time": "02/08/2020, 11:39:05"}, "type": "Feature"}, {"geometry": {"coordinates": [8.563051, 47.382528], "type": "Point"}, "properties": {"charge": 79, "id": "smide_46", "name": "ZH253843", "provider": "smide", "range": 39.0, "size": 20, "time": "02/08/2020, 11:39:05"}, "type": "Feature"}, {"geometry": {"coordinates": [8.54445166666667, 47.3826183333333], "type": "Point"}, "properties": {"charge": 31, "id": "bird_a00592cb-5b67-4c0b-9e76-e49f6944bd11", "provider": "bird", "timeStamp": "02/08/2020, 11:39:04"}, "type": "Feature"}, {"geometry": {"coordinates": [8.54404, 47.376575], "type": "Point"}, "properties": {"charge": 53, "id": "bird_5a114cb4-d573-41a0-9446-1ba7d5c68c51", "provider": "bird", "timeStamp": "02/08/2020, 11:39:04"}, "type": "Feature"}, {"geometry": {"coordinates": [8.52616666666667, 47.37024], "type": "Point"}, "properties": {"charge": 60, "id": "bird_5207c00a-f5e2-4e7e-af7b-47bc16e5430c", "provider": "bird", "timeStamp": "02/08/2020, 11:39:04"}, "type": "Feature"}, {"geometry": {"coordinates": [8.543955, 47.3764916666667], "type": "Point"}, "properties": {"charge": 47, "id": "bird_beef0d56-7e09-491e-afce-f452cb9c50ce", "provider": "bird", "timeStamp": "02/08/2020, 11:39:04"}, "type": "Feature"}, {"geometry": {"coordinates": [8.52769833333333, 47.3700483333333], "type": "Point"}, "properties": {"charge": 45, "id": "bird_2575f248-1e93-409b-9b77-ac9523ea5d05", "provider": "bird", "timeStamp": "02/08/2020, 11:39:04"}, "type": "Feature"}, {"geometry": {"coordinates": [8.54382, 47.3763083333333], "type": "Point"}, "properties": {"charge": 30, "id": "bird_7dfd8294-a6bf-4fa9-956f-3ec07bb6703d", "provider": "bird", "timeStamp": "02/08/2020, 11:39:04"}, "type": "Feature"}, {"geometry": {"coordinates": [8.51772666666667, 47.3856666666667], "type": "Point"}, "properties": {"charge": 96, "id": "bird_96fd3c4b-cacf-4214-b3db-29b243fe3f86", "provider": "bird", "timeStamp": "02/08/2020, 11:39:04"}, "type": "Feature"}, {"geometry": {"coordinates": [8.53304166666667, 47.3898283333333], "type": "Point"}, "properties": {"charge": 34, "id": "bird_2fe51dd7-e08b-444f-8cfa-5e8b5eadb02d", "provider": "bird", "timeStamp": "02/08/2020, 11:39:04"}, "type": "Feature"}, {"geometry": {"coordinates": [8.52354333333333, 47.3709633333333], "type": "Point"}, "properties": {"charge": 81, "id": "bird_26934ae3-6e31-4d93-9a26-098f05f7c8c0", "provider": "bird", "timeStamp": "02/08/2020, 11:39:04"}, "type": "Feature"}, {"geometry": {"coordinates": [8.51882333333333, 47.373405], "type": "Point"}, "properties": {"charge": 35, "id": "bird_e256a0ca-f4fd-4a1b-8d8d-772e067ff95b", "provider": "bird", "timeStamp": "02/08/2020, 11:39:04"}, "type": "Feature"}, {"geometry": {"coordinates": [8.52318833333333, 47.3711166666667], "type": "Point"}, "properties": {"charge": 66, "id": "bird_0f43ed75-c364-4524-b764-fa37134ef3db", "provider": "bird", "timeStamp": "02/08/2020, 11:39:04"}, "type": "Feature"}, {"geometry": {"coordinates": [8.5437, 47.3762783333333], "type": "Point"}, "properties": {"charge": 56, "id": "bird_6dcb6c9f-b877-43e1-87d3-f03415c7e849", "provider": "bird", "timeStamp": "02/08/2020, 11:39:04"}, "type": "Feature"}, {"geometry": {"coordinates": [8.52604833333333, 47.3704066666667], "type": "Point"}, "properties": {"charge": 19, "id": "bird_494571ae-458f-467f-ab52-4d7c03a63ed2", "provider": "bird", "timeStamp": "02/08/2020, 11:39:04"}, "type": "Feature"}, {"geometry": {"coordinates": [8.515565, 47.378875], "type": "Point"}, "properties": {"charge": 17, "id": "bird_3415fccd-900d-4407-9ab9-ac16bf6aa21b", "provider": "bird", "timeStamp": "02/08/2020, 11:39:04"}, "type": "Feature"}, {"geometry": {"coordinates": [8.51850166666667, 47.38588], "type": "Point"}, "properties": {"charge": 56, "id": "bird_129b2a72-9dc7-4040-b67d-94ee8de126bf", "provider": "bird", "timeStamp": "02/08/2020, 11:39:04"}, "type": "Feature"}, {"geometry": {"coordinates": [8.538135, 47.38805], "type": "Point"}, "properties": {"charge": 78, "id": "bird_87068fbc-6ee2-42c1-9798-e9914518d514", "provider": "bird", "timeStamp": "02/08/2020, 11:39:04"}, "type": "Feature"}, {"geometry": {"coordinates": [8.51577166666667, 47.3788216666667], "type": "Point"}, "properties": {"charge": 27, "id": "bird_0d33f263-1dd4-455b-b2ba-86cf26e67a51", "provider": "bird", "timeStamp": "02/08/2020, 11:39:04"}, "type": "Feature"}, {"geometry": {"coordinates": [8.54347, 47.3832966666667], "type": "Point"}, "properties": {"charge": 69, "id": "bird_2dc8fe09-b24f-4957-a839-17f09af60603", "provider": "bird", "timeStamp": "02/08/2020, 11:39:04"}, "type": "Feature"}, {"geometry": {"coordinates": [8.51569333333333, 47.3795783333333], "type": "Point"}, "properties": {"charge": 93, "id": "bird_3ce65388-90b5-43a6-aae8-598cc1f0429c", "provider": "bird", "timeStamp": "02/08/2020, 11:39:04"}, "type": "Feature"}, {"geometry": {"coordinates": [8.51569666666667, 47.3795516666667], "type": "Point"}, "properties": {"charge": 91, "id": "bird_6784c22b-bf72-4584-9450-0b23e80571da", "provider": "bird", "timeStamp": "02/08/2020, 11:39:04"}, "type": "Feature"}, {"geometry": {"coordinates": [8.540225, 47.3867716666667], "type": "Point"}, "properties": {"charge": 24, "id": "bird_2747f7ff-0aee-4f2e-b248-6e6185568159", "provider": "bird", "timeStamp": "02/08/2020, 11:39:04"}, "type": "Feature"}, {"geometry": {"coordinates": [8.54354166666667, 47.3830916666667], "type": "Point"}, "properties": {"charge": 75, "id": "bird_5463e0d0-46b9-4e0e-acc0-c688dc68bf12", "provider": "bird", "timeStamp": "02/08/2020, 11:39:04"}, "type": "Feature"}, {"geometry": {"coordinates": [8.543555, 47.3830483333333], "type": "Point"}, "properties": {"charge": 28, "id": "bird_e2ec4534-e541-4a85-9c0c-f81c4139cb37", "provider": "bird", "timeStamp": "02/08/2020, 11:39:04"}, "type": "Feature"}, {"geometry": {"coordinates": [8.51580166666667, 47.3810466666667], "type": "Point"}, "properties": {"charge": 51, "id": "bird_5d397e03-5017-4300-a1b4-2dfc6562c17d", "provider": "bird", "timeStamp": "02/08/2020, 11:39:04"}, "type": "Feature"}, {"geometry": {"coordinates": [8.54343666666667, 47.3832783333333], "type": "Point"}, "properties": {"charge": 71, "id": "bird_85307dcd-14c7-4281-8956-faf8a8394a21", "provider": "bird", "timeStamp": "02/08/2020, 11:39:04"}, "type": "Feature"}, {"geometry": {"coordinates": [8.54352, 47.3830716666667], "type": "Point"}, "properties": {"charge": 75, "id": "bird_471a8ecb-89c6-4a70-9d47-3c9f01dd03d5", "provider": "bird", "timeStamp": "02/08/2020, 11:39:04"}, "type": "Feature"}, {"geometry": {"coordinates": [8.521785, 47.3878133333333], "type": "Point"}, "properties": {"charge": 69, "id": "bird_f377ae84-d53e-4555-8c1b-f40e9fef4fd7", "provider": "bird", "timeStamp": "02/08/2020, 11:39:04"}, "type": "Feature"}, {"geometry": {"coordinates": [8.51853666666667, 47.3856016666667], "type": "Point"}, "properties": {"charge": 92, "id": "bird_ad3398f1-aa49-4b44-8e92-b3497081735c", "provider": "bird", "timeStamp": "02/08/2020, 11:39:04"}, "type": "Feature"}, {"geometry": {"coordinates": [8.539585, 47.3729783333333], "type": "Point"}, "properties": {"charge": 28, "id": "bird_c12b003a-01aa-4772-a671-1ae0fe2bd076", "provider": "bird", "timeStamp": "02/08/2020, 11:39:04"}, "type": "Feature"}, {"geometry": {"coordinates": [8.516035, 47.3786316666667], "type": "Point"}, "properties": {"charge": 46, "id": "bird_7e45ac03-e10b-4252-9390-e06fcfd6167d", "provider": "bird", "timeStamp": "02/08/2020, 11:39:04"}, "type": "Feature"}, {"geometry": {"coordinates": [8.54069666666667, 47.3737716666667], "type": "Point"}, "properties": {"charge": 62, "id": "bird_5e6e3ba6-8c14-4579-8ddc-305aa03d39c7", "provider": "bird", "timeStamp": "02/08/2020, 11:39:04"}, "type": "Feature"}, {"geometry": {"coordinates": [8.53643666666667, 47.3715283333333], "type": "Point"}, "properties": {"charge": 84, "id": "bird_f73a05f5-efef-4337-ae73-e58b6956df2b", "provider": "bird", "timeStamp": "02/08/2020, 11:39:04"}, "type": "Feature"}, {"geometry": {"coordinates": [8.51608, 47.37864], "type": "Point"}, "properties": {"charge": 30, "id": "bird_11be8c33-c67d-4873-ac6e-51ad1c694d19", "provider": "bird", "timeStamp": "02/08/2020, 11:39:04"}, "type": "Feature"}, {"geometry": {"coordinates": [8.52180166666667, 47.387715], "type": "Point"}, "properties": {"charge": 26, "id": "bird_8d35aaa5-4fb2-4f1b-990a-e1f9b80ed823", "provider": "bird", "timeStamp": "02/08/2020, 11:39:04"}, "type": "Feature"}, {"geometry": {"coordinates": [8.52371666666667, 47.3884616666667], "type": "Point"}, "properties": {"charge": 85, "id": "bird_93b6a348-a9f7-44e4-bbb5-872a952199a5", "provider": "bird", "timeStamp": "02/08/2020, 11:39:04"}, "type": "Feature"}, {"geometry": {"coordinates": [8.52370333333333, 47.388455], "type": "Point"}, "properties": {"charge": 56, "id": "bird_bc1cbc50-bf13-4571-989d-eaa54712d6da", "provider": "bird", "timeStamp": "02/08/2020, 11:39:04"}, "type": "Feature"}, {"geometry": {"coordinates": [8.51838666666667, 47.38525], "type": "Point"}, "properties": {"charge": 94, "id": "bird_b7131be6-913e-4f5d-b146-362ae812f5b0", "provider": "bird", "timeStamp": "02/08/2020, 11:39:04"}, "type": "Feature"}, {"geometry": {"coordinates": [8.51845, 47.3853033333333], "type": "Point"}, "properties": {"charge": 96, "id": "bird_40050380-d658-43e1-bbdf-f3dd76e7b9db", "provider": "bird", "timeStamp": "02/08/2020, 11:39:04"}, "type": "Feature"}, {"geometry": {"coordinates": [8.54055166666667, 47.3738933333333], "type": "Point"}, "properties": {"charge": 43, "id": "bird_823208e0-241e-4487-b256-4dc60db3fa1a", "provider": "bird", "timeStamp": "02/08/2020, 11:39:04"}, "type": "Feature"}, {"geometry": {"coordinates": [8.53913333333333, 47.3729366666667], "type": "Point"}, "properties": {"charge": 36, "id": "bird_0ea654f7-a2f2-4bb9-9da8-3aa48fd5d6e0", "provider": "bird", "timeStamp": "02/08/2020, 11:39:04"}, "type": "Feature"}, {"geometry": {"coordinates": [8.52597833333333, 47.3889616666667], "type": "Point"}, "properties": {"charge": 80, "id": "bird_a8c063fb-280e-4239-8bfa-2b8be44567fc", "provider": "bird", "timeStamp": "02/08/2020, 11:39:04"}, "type": "Feature"}, {"geometry": {"coordinates": [8.51865, 47.3853416666667], "type": "Point"}, "properties": {"charge": 84, "id": "bird_8b5f36d7-e397-4492-a40d-2b18891d7956", "provider": "bird", "timeStamp": "02/08/2020, 11:39:04"}, "type": "Feature"}, {"geometry": {"coordinates": [8.52259333333333, 47.38789], "type": "Point"}, "properties": {"charge": 56, "id": "bird_f22d4317-b334-425b-84a1-8dadb058a977", "provider": "bird", "timeStamp": "02/08/2020, 11:39:04"}, "type": "Feature"}, {"geometry": {"coordinates": [8.51864666666667, 47.3853183333333], "type": "Point"}, "properties": {"charge": 97, "id": "bird_e965842d-8122-4323-9eee-c83a824b144f", "provider": "bird", "timeStamp": "02/08/2020, 11:39:04"}, "type": "Feature"}, {"geometry": {"coordinates": [8.52320833333333, 47.3719716666667], "type": "Point"}, "properties": {"charge": 55, "id": "bird_caa99872-b4cd-4233-8aa3-4911a7ab950f", "provider": "bird", "timeStamp": "02/08/2020, 11:39:04"}, "type": "Feature"}, {"geometry": {"coordinates": [8.53623166666667, 47.3718533333333], "type": "Point"}, "properties": {"charge": 81, "id": "bird_d2e842e0-3045-4f24-9aad-400a38a96ace", "provider": "bird", "timeStamp": "02/08/2020, 11:39:04"}, "type": "Feature"}, {"geometry": {"coordinates": [8.51926833333333, 47.38554], "type": "Point"}, "properties": {"charge": 93, "id": "bird_fb63a808-1468-4fcf-9b05-4e330db2fdab", "provider": "bird", "timeStamp": "02/08/2020, 11:39:04"}, "type": "Feature"}, {"geometry": {"coordinates": [8.52043833333333, 47.373645], "type": "Point"}, "properties": {"charge": 70, "id": "bird_dc23a9d3-abd9-4f6b-804f-0378bd660817", "provider": "bird", "timeStamp": "02/08/2020, 11:39:04"}, "type": "Feature"}, {"geometry": {"coordinates": [8.51921833333333, 47.3853866666667], "type": "Point"}, "properties": {"charge": 88, "id": "bird_99e1b08d-e94f-4252-821d-56a323e0e6d1", "provider": "bird", "timeStamp": "02/08/2020, 11:39:04"}, "type": "Feature"}, {"geometry": {"coordinates": [8.51664333333333, 47.3800316666667], "type": "Point"}, "properties": {"charge": 30, "id": "bird_03764669-6bb1-4e15-85d3-da5afcb9a136", "provider": "bird", "timeStamp": "02/08/2020, 11:39:04"}, "type": "Feature"}, {"geometry": {"coordinates": [8.52336333333333, 47.372185], "type": "Point"}, "properties": {"charge": 60, "id": "bird_50586e51-2dda-4767-9bde-64a5cf6ea784", "provider": "bird", "timeStamp": "02/08/2020, 11:39:04"}, "type": "Feature"}, {"geometry": {"coordinates": [8.53628333333333, 47.3720783333333], "type": "Point"}, "properties": {"charge": 89, "id": "bird_164f27af-1840-43a5-83d0-ab85ade229bb", "provider": "bird", "timeStamp": "02/08/2020, 11:39:04"}, "type": "Feature"}, {"geometry": {"coordinates": [8.520655, 47.3736183333333], "type": "Point"}, "properties": {"charge": 30, "id": "bird_379ef6f3-6e57-41e8-bc25-73db6acd1a88", "provider": "bird", "timeStamp": "02/08/2020, 11:39:04"}, "type": "Feature"}, {"geometry": {"coordinates": [8.51961666666667, 47.3855016666667], "type": "Point"}, "properties": {"charge": 92, "id": "bird_ba826b22-71c2-4ba8-b84a-e74e927f23eb", "provider": "bird", "timeStamp": "02/08/2020, 11:39:04"}, "type": "Feature"}, {"geometry": {"coordinates": [8.52596833333333, 47.3715816666667], "type": "Point"}, "properties": {"charge": 83, "id": "bird_359ff445-71f0-492d-a143-44b6d80ceb4e", "provider": "bird", "timeStamp": "02/08/2020, 11:39:04"}, "type": "Feature"}, {"geometry": {"coordinates": [8.53629333333333, 47.3723033333333], "type": "Point"}, "properties": {"charge": 74, "id": "bird_a79d6674-8feb-401f-938b-248a872af366", "provider": "bird", "timeStamp": "02/08/2020, 11:39:04"}, "type": "Feature"}, {"geometry": {"coordinates": [8.53909, 47.37378], "type": "Point"}, "properties": {"charge": 91, "id": "bird_b5b241c9-c697-44e0-a4b6-334146d679e6", "provider": "bird", "timeStamp": "02/08/2020, 11:39:04"}, "type": "Feature"}, {"geometry": {"coordinates": [8.54291666666667, 47.3800816666667], "type": "Point"}, "properties": {"charge": 26, "id": "bird_bd3af71d-df23-4d91-8bf1-925a224c47a5", "provider": "bird", "timeStamp": "02/08/2020, 11:39:04"}, "type": "Feature"}, {"geometry": {"coordinates": [8.53905333333333, 47.3738433333333], "type": "Point"}, "properties": {"charge": 91, "id": "bird_4f2ab3bb-822c-4b89-af0d-3b032ea7d7d4", "provider": "bird", "timeStamp": "02/08/2020, 11:39:04"}, "type": "Feature"}, {"geometry": {"coordinates": [8.51728, 47.3811383333333], "type": "Point"}, "properties": {"charge": 60, "id": "bird_893f4fff-af2e-40aa-b489-eeec858fea4e", "provider": "bird", "timeStamp": "02/08/2020, 11:39:04"}, "type": "Feature"}, {"geometry": {"coordinates": [8.53903166666667, 47.3738366666667], "type": "Point"}, "properties": {"charge": 91, "id": "bird_812b18e0-9e7c-453a-bfa9-a949c42b7fbe", "provider": "bird", "timeStamp": "02/08/2020, 11:39:04"}, "type": "Feature"}, {"geometry": {"coordinates": [8.54269666666667, 47.380185], "type": "Point"}, "properties": {"charge": 82, "id": "bird_c9a2ec54-0e23-4aee-b663-18c1386a5671", "provider": "bird", "timeStamp": "02/08/2020, 11:39:04"}, "type": "Feature"}, {"geometry": {"coordinates": [8.52228666666667, 47.3732], "type": "Point"}, "properties": {"charge": 73, "id": "bird_fa94bbb5-2bb8-4510-8390-e8830e7115f1", "provider": "bird", "timeStamp": "02/08/2020, 11:39:04"}, "type": "Feature"}, {"geometry": {"coordinates": [8.5245, 47.3876716666667], "type": "Point"}, "properties": {"charge": 58, "id": "bird_8abcb454-b789-4a3c-aa90-a1ef2b9165ea", "provider": "bird", "timeStamp": "02/08/2020, 11:39:04"}, "type": "Feature"}, {"geometry": {"coordinates": [8.52455333333333, 47.38763], "type": "Point"}, "properties": {"charge": 60, "id": "bird_5bf197ac-d23b-4eb8-8269-1f9cee486752", "provider": "bird", "timeStamp": "02/08/2020, 11:39:04"}, "type": "Feature"}, {"geometry": {"coordinates": [8.517555, 47.3808216666667], "type": "Point"}, "properties": {"charge": 38, "id": "bird_9c1e68c9-886c-4813-9c6c-812c3ed9d65f", "provider": "bird", "timeStamp": "02/08/2020, 11:39:04"}, "type": "Feature"}, {"geometry": {"coordinates": [8.52608333333333, 47.3879816666667], "type": "Point"}, "properties": {"charge": 48, "id": "bird_63fb7bfc-8782-42b5-a51d-fdbd58c8e9e7", "provider": "bird", "timeStamp": "02/08/2020, 11:39:04"}, "type": "Feature"}, {"geometry": {"coordinates": [8.53989833333333, 47.37497], "type": "Point"}, "properties": {"charge": 93, "id": "bird_5cb88d5a-16cf-496b-9994-23c937f8f7f8", "provider": "bird", "timeStamp": "02/08/2020, 11:39:04"}, "type": "Feature"}, {"geometry": {"coordinates": [8.53679166666667, 47.373035], "type": "Point"}, "properties": {"charge": 87, "id": "bird_c4e5b489-1229-40c6-add1-ce12df1b109d", "provider": "bird", "timeStamp": "02/08/2020, 11:39:04"}, "type": "Feature"}, {"geometry": {"coordinates": [8.53679333333333, 47.3730583333333], "type": "Point"}, "properties": {"charge": 89, "id": "bird_9c4cfdcc-83f3-4960-9169-66503f6cdd9f", "provider": "bird", "timeStamp": "02/08/2020, 11:39:04"}, "type": "Feature"}, {"geometry": {"coordinates": [8.53981666666667, 47.3749966666667], "type": "Point"}, "properties": {"charge": 96, "id": "bird_8e008a35-8813-4fc9-af73-cdf504a27f21", "provider": "bird", "timeStamp": "02/08/2020, 11:39:04"}, "type": "Feature"}, {"geometry": {"coordinates": [8.54212166666667, 47.3812033333333], "type": "Point"}, "properties": {"charge": 74, "id": "bird_34f4b5fa-3c17-4276-8eae-456bbe59c499", "provider": "bird", "timeStamp": "02/08/2020, 11:39:04"}, "type": "Feature"}, {"geometry": {"coordinates": [8.53447333333333, 47.3722916666667], "type": "Point"}, "properties": {"charge": 62, "id": "bird_da22a858-fa0b-431d-972e-3a2d8eedd856", "provider": "bird", "timeStamp": "02/08/2020, 11:39:04"}, "type": "Feature"}, {"geometry": {"coordinates": [8.5209, 47.3853766666667], "type": "Point"}, "properties": {"charge": 67, "id": "bird_04804a81-b53f-4606-bbf2-95b464ce61e3", "provider": "bird", "timeStamp": "02/08/2020, 11:39:04"}, "type": "Feature"}, {"geometry": {"coordinates": [8.52094833333333, 47.3853833333333], "type": "Point"}, "properties": {"charge": 62, "id": "bird_0eb21605-4786-4525-9094-ddb564472d92", "provider": "bird", "timeStamp": "02/08/2020, 11:39:04"}, "type": "Feature"}, {"geometry": {"coordinates": [8.54113333333333, 47.38311], "type": "Point"}, "properties": {"charge": 63, "id": "bird_57393068-2329-4a79-8e37-a07add0b0f15", "provider": "bird", "timeStamp": "02/08/2020, 11:39:04"}, "type": "Feature"}, {"geometry": {"coordinates": [8.52385666666667, 47.37299], "type": "Point"}, "properties": {"charge": 19, "id": "bird_c4a86599-8640-41a5-86d5-6aef9f88100b", "provider": "bird", "timeStamp": "02/08/2020, 11:39:04"}, "type": "Feature"}, {"geometry": {"coordinates": [8.51803666666667, 47.38084], "type": "Point"},