{"features": [{"geometry": {"coordinates": [8.540062, 47.374392], "type": "Point"}, "properties": {"address": "Uraniastrasse 7", "electric": 4, "id": "pb_60", "manual": 10, "name": "Demo Station Werdm\u00fchleplatz", "provider": "publibike", "timeStamp": "02/16/2020, 15:09:19", "zip": 8001}, "type": "Feature"}, {"geometry": {"coordinates": [8.5452956, 47.4099615], "type": "Point"}, "properties": {"address": "Querstrasse 8", "electric": 0, "id": "pb_61", "manual": 8, "name": "Marktplatz", "provider": "publibike", "timeStamp": "02/16/2020, 15:09:19", "zip": 8050}, "type": "Feature"}, {"geometry": {"coordinates": [8.5156327, 47.3795837], "type": "Point"}, "properties": {"address": "Bullingerstrasse 5", "electric": 4, "id": "pb_80", "manual": 8, "name": "Bullingerplatz", "provider": "publibike", "timeStamp": "02/16/2020, 15:09:19", "zip": 8004}, "type": "Feature"}, {"geometry": {"coordinates": [8.5104051, 47.3899342], "type": "Point"}, "properties": {"address": "Pfingstweidstrasse 96e", "electric": 0, "id": "pb_81", "manual": 4, "name": "Herdern", "provider": "publibike", "timeStamp": "02/16/2020, 15:09:19", "zip": 8001}, "type": "Feature"}, {"geometry": {"coordinates": [8.535718, 47.359675], "type": "Point"}, "properties": {"address": "Mythenquai 50", "electric": 1, "id": "pb_82", "manual": 4, "name": "Hafen Enge", "provider": "publibike", "timeStamp": "02/16/2020, 15:09:19", "zip": 8002}, "type": "Feature"}, {"geometry": {"coordinates": [8.520370505, 47.358663827], "type": "Point"}, "properties": {"address": "Bubenbergstrasse 1", "electric": 10, "id": "pb_83", "manual": 10, "name": "Comerge", "provider": "publibike", "timeStamp": "02/16/2020, 15:09:19", "zip": 8045}, "type": "Feature"}, {"geometry": {"coordinates": [8.5412505, 47.3789825], "type": "Point"}, "properties": {"address": "Museumstrasse 2", "electric": 3, "id": "pb_84", "manual": 12, "name": "Landesmuseum", "provider": "publibike", "timeStamp": "02/16/2020, 15:09:19", "zip": 8001}, "type": "Feature"}, {"geometry": {"coordinates": [8.5235479, 47.3716661], "type": "Point"}, "properties": {"address": "Birmensdorferstrasse 80", "electric": 4, "id": "pb_85", "manual": 6, "name": "Bahnhof Wiedikon", "provider": "publibike", "timeStamp": "02/16/2020, 15:09:19", "zip": 8003}, "type": "Feature"}, {"geometry": {"coordinates": [8.506822854, 47.40781197], "type": "Point"}, "properties": {"address": "Stefano-Franscini-Platz 5", "electric": 0, "id": "pb_86", "manual": 0, "name": "ETH H\u00f6nggerberg", "provider": "publibike", "timeStamp": "02/16/2020, 15:09:19", "zip": 8093}, "type": "Feature"}, {"geometry": {"coordinates": [8.536101, 47.371083], "type": "Point"}, "properties": {"address": "Pelikanplatz 5", "electric": 2, "id": "pb_87", "manual": 2, "name": "Pelikanplatz", "provider": "publibike", "timeStamp": "02/16/2020, 15:09:19", "zip": 8001}, "type": "Feature"}, {"geometry": {"coordinates": [8.5257822, 47.3651936], "type": "Point"}, "properties": {"address": "H\u00fcrlimannplatz 90", "electric": 0, "id": "pb_88", "manual": 0, "name": "H\u00fcrlimannplatz", "provider": "publibike", "timeStamp": "02/16/2020, 15:09:19", "zip": 8002}, "type": "Feature"}, {"geometry": {"coordinates": [8.5313344, 47.3713591], "type": "Point"}, "properties": {"address": "Selnaustrasse 32", "electric": 1, "id": "pb_89", "manual": 5, "name": "Stauffacherbr\u00fccke", "provider": "publibike", "timeStamp": "02/16/2020, 15:09:19", "zip": 8001}, "type": "Feature"}, {"geometry": {"coordinates": [8.5056978, 47.3917964], "type": "Point"}, "properties": {"address": "Sportweg 25", "electric": 3, "id": "pb_90", "manual": 5, "name": "Sportweg", "provider": "publibike", "timeStamp": "02/16/2020, 15:09:19", "zip": 8005}, "type": "Feature"}, {"geometry": {"coordinates": [8.5181701, 47.3917837], "type": "Point"}, "properties": {"address": "Hardturmstrasse 11", "electric": 0, "id": "pb_91", "manual": 2, "name": "Puls 5", "provider": "publibike", "timeStamp": "02/16/2020, 15:09:19", "zip": 8005}, "type": "Feature"}, {"geometry": {"coordinates": [8.5286468, 47.3820827], "type": "Point"}, "properties": {"address": "R\u00f6ntgenstrasse 6", "electric": 0, "id": "pb_92", "manual": 0, "name": "R\u00f6ntgenstrasse", "provider": "publibike", "timeStamp": "02/16/2020, 15:09:19", "zip": 8005}, "type": "Feature"}, {"geometry": {"coordinates": [8.531935, 47.384918], "type": "Point"}, "properties": {"address": "Kornhausbr\u00fccke 1", "electric": 3, "id": "pb_93", "manual": 6, "name": "Limmatplatz", "provider": "publibike", "timeStamp": "02/16/2020, 15:09:19", "zip": 8005}, "type": "Feature"}, {"geometry": {"coordinates": [8.5354006, 47.3758639], "type": "Point"}, "properties": {"address": "Gessnerallee 15", "electric": 1, "id": "pb_94", "manual": 1, "name": "Gessnerallee", "provider": "publibike", "timeStamp": "02/16/2020, 15:09:19", "zip": 8001}, "type": "Feature"}, {"geometry": {"coordinates": [8.523818, 47.377148], "type": "Point"}, "properties": {"address": "Stauffacherstrasse 127", "electric": 5, "id": "pb_95", "manual": 10, "name": "B\u00e4ckeranlage", "provider": "publibike", "timeStamp": "02/16/2020, 15:09:19", "zip": 8004}, "type": "Feature"}, {"geometry": {"coordinates": [8.531836, 47.378548], "type": "Point"}, "properties": {"address": "Lagerstrasse 44", "electric": 5, "id": "pb_96", "manual": 2, "name": "Gustav-Gull-Platz", "provider": "publibike", "timeStamp": "02/16/2020, 15:09:19", "zip": 8004}, "type": "Feature"}, {"geometry": {"coordinates": [8.5104883, 47.3771535], "type": "Point"}, "properties": {"address": "Zurlindenstrasse 291", "electric": 5, "id": "pb_97", "manual": 3, "name": "Zurlindenstrasse", "provider": "publibike", "timeStamp": "02/16/2020, 15:09:19", "zip": 8003}, "type": "Feature"}, {"geometry": {"coordinates": [8.5333139, 47.3731102], "type": "Point"}, "properties": {"address": "Sihlstrasse 81", "electric": 6, "id": "pb_98", "manual": 3, "name": "Sihlstrasse", "provider": "publibike", "timeStamp": "02/16/2020, 15:09:19", "zip": 8001}, "type": "Feature"}, {"geometry": {"coordinates": [8.520532, 47.374951], "type": "Point"}, "properties": {"address": "Feldstrasse 24", "electric": 3, "id": "pb_99", "manual": 1, "name": "Kalkbreite", "provider": "publibike", "timeStamp": "02/16/2020, 15:09:19", "zip": 8004}, "type": "Feature"}, {"geometry": {"coordinates": [8.539046, 47.368064], "type": "Point"}, "properties": {"address": "Talstrasse 12", "electric": 4, "id": "pb_100", "manual": 1, "name": "Z\u00fcrcher Kantonalbank", "provider": "publibike", "timeStamp": "02/16/2020, 15:09:19", "zip": 8001}, "type": "Feature"}, {"geometry": {"coordinates": [8.5348427, 47.3625938], "type": "Point"}, "properties": {"address": "Breitingerstrasse 5", "electric": 3, "id": "pb_101", "manual": 7, "name": "Rentenanstalt", "provider": "publibike", "timeStamp": "02/16/2020, 15:09:19", "zip": 8002}, "type": "Feature"}, {"geometry": {"coordinates": [8.5166922, 47.3897772], "type": "Point"}, "properties": {"address": "Technoparkstrasse 4", "electric": 1, "id": "pb_102", "manual": 6, "name": "Turbinenplatz", "provider": "publibike", "timeStamp": "02/16/2020, 15:09:19", "zip": 8005}, "type": "Feature"}, {"geometry": {"coordinates": [8.539312, 47.3739964], "type": "Point"}, "properties": {"address": "Oetenbachgasse 14", "electric": 9, "id": "pb_104", "manual": 6, "name": "Rennweg", "provider": "publibike", "timeStamp": "02/16/2020, 15:09:19", "zip": 8001}, "type": "Feature"}, {"geometry": {"coordinates": [8.5360685, 47.3775022], "type": "Point"}, "properties": {"address": "Kasernenstrasse 101", "electric": 26, "id": "pb_105", "manual": 46, "name": "Sihlpost", "provider": "publibike", "timeStamp": "02/16/2020, 15:09:19", "zip": 8004}, "type": "Feature"}, {"geometry": {"coordinates": [8.53545, 47.382798], "type": "Point"}, "properties": {"address": "Ausstellungsstrasse 44", "electric": 5, "id": "pb_106", "manual": 18, "name": "Museum f\u00fcr Gestaltung", "provider": "publibike", "timeStamp": "02/16/2020, 15:09:19", "zip": 8005}, "type": "Feature"}, {"geometry": {"coordinates": [8.5306155, 47.3647902], "type": "Point"}, "properties": {"address": "Gutenbergstrasse 1", "electric": 4, "id": "pb_107", "manual": 12, "name": "Bederbr\u00fccke", "provider": "publibike", "timeStamp": "02/16/2020, 15:09:19", "zip": 8002}, "type": "Feature"}, {"geometry": {"coordinates": [8.518982, 47.386741], "type": "Point"}, "properties": {"address": "Geroldstrasse 4", "electric": 1, "id": "pb_108", "manual": 14, "name": "Bahnhof Hardbr\u00fccke", "provider": "publibike", "timeStamp": "02/16/2020, 15:09:19", "zip": 8005}, "type": "Feature"}, {"geometry": {"coordinates": [8.53001018, 47.37247535], "type": "Point"}, "properties": {"address": "Werdstrasse 21", "electric": 0, "id": "pb_109", "manual": 0, "name": "Tamedia", "provider": "publibike", "timeStamp": "02/16/2020, 15:09:19", "zip": 8004}, "type": "Feature"}, {"geometry": {"coordinates": [8.4860017, 47.396401], "type": "Point"}, "properties": {"address": "Gr\u00fcnauring 37", "electric": 11, "id": "pb_110", "manual": 2, "name": "Gr\u00fcnau", "provider": "publibike", "timeStamp": "02/16/2020, 15:09:19", "zip": 8064}, "type": "Feature"}, {"geometry": {"coordinates": [8.548519, 47.376756], "type": "Point"}, "properties": {"address": "R\u00e4mistrasse 101", "electric": 7, "id": "pb_111", "manual": 0, "name": "ETH Zentrum", "provider": "publibike", "timeStamp": "02/16/2020, 15:09:19", "zip": 8006}, "type": "Feature"}, {"geometry": {"coordinates": [8.520449, 47.388151], "type": "Point"}, "properties": {"address": "Josefstrasse 224", "electric": 0, "id": "pb_112", "manual": 1, "name": "Steinfelsareal", "provider": "publibike", "timeStamp": "02/16/2020, 15:09:19", "zip": 8005}, "type": "Feature"}, {"geometry": {"coordinates": [8.520482, 47.37209], "type": "Point"}, "properties": {"address": "Weststrasse 115", "electric": 7, "id": "pb_124", "manual": 5, "name": "Weststrasse", "provider": "publibike", "timeStamp": "02/16/2020, 15:09:19", "zip": 8003}, "type": "Feature"}, {"geometry": {"coordinates": [8.496727, 47.378521], "type": "Point"}, "properties": {"address": "Albisriederstrasse 200", "electric": 2, "id": "pb_125", "manual": 1, "name": "Utogrund", "provider": "publibike", "timeStamp": "02/16/2020, 15:09:19", "zip": 8047}, "type": "Feature"}, {"geometry": {"coordinates": [8.510418, 47.381356], "type": "Point"}, "properties": {"address": "Bullingerstrasse 73", "electric": 8, "id": "pb_126", "manual": 11, "name": "Hardau", "provider": "publibike", "timeStamp": "02/16/2020, 15:09:19", "zip": 8004}, "type": "Feature"}, {"geometry": {"coordinates": [8.525525, 47.361567], "type": "Point"}, "properties": {"address": "Klopstockstrasse 23", "electric": 12, "id": "pb_127", "manual": 2, "name": "Klopstockwiese", "provider": "publibike", "timeStamp": "02/16/2020, 15:09:19", "zip": 8002}, "type": "Feature"}, {"geometry": {"coordinates": [8.518143, 47.363148], "type": "Point"}, "properties": {"address": "Haldenstrasse 8", "electric": 11, "id": "pb_128", "manual": 4, "name": "Binz", "provider": "publibike", "timeStamp": "02/16/2020, 15:09:19", "zip": 8045}, "type": "Feature"}, {"geometry": {"coordinates": [8.542726, 47.379952], "type": "Point"}, "properties": {"address": "Walchestrasse 11", "electric": 1, "id": "pb_129", "manual": 1, "name": "Stampfenbachplatz", "provider": "publibike", "timeStamp": "02/16/2020, 15:09:19", "zip": 8006}, "type": "Feature"}, {"geometry": {"coordinates": [8.488108, 47.391366], "type": "Point"}, "properties": {"address": "Altstetterplatz 1", "electric": 11, "id": "pb_130", "manual": 7, "name": "Bahnhof Altstetten", "provider": "publibike", "timeStamp": "02/16/2020, 15:09:19", "zip": 8048}, "type": "Feature"}, {"geometry": {"coordinates": [8.554114, 47.365119], "type": "Point"}, "properties": {"address": "Kreuzplatz 2", "electric": 8, "id": "pb_131", "manual": 4, "name": "Kreuzplatz", "provider": "publibike", "timeStamp": "02/16/2020, 15:09:19", "zip": 8032}, "type": "Feature"}, {"geometry": {"coordinates": [8.549852, 47.35594], "type": "Point"}, "properties": {"address": "H\u00f6schgasse 3", "electric": 0, "id": "pb_132", "manual": 6, "name": "Blatterwiese", "provider": "publibike", "timeStamp": "02/16/2020, 15:09:19", "zip": 8008}, "type": "Feature"}, {"geometry": {"coordinates": [8.554501, 47.36162], "type": "Point"}, "properties": {"address": "Feldeggstrasse 80", "electric": 1, "id": "pb_133", "manual": 0, "name": "Villa Bleuler", "provider": "publibike", "timeStamp": "02/16/2020, 15:09:19", "zip": 8008}, "type": "Feature"}, {"geometry": {"coordinates": [8.557088, 47.358557], "type": "Point"}, "properties": {"address": "M\u00fchlebachstrasse 131", "electric": 6, "id": "pb_134", "manual": 1, "name": "M\u00fchlebachstrasse", "provider": "publibike", "timeStamp": "02/16/2020, 15:09:19", "zip": 8008}, "type": "Feature"}, {"geometry": {"coordinates": [8.547639, 47.361266], "type": "Point"}, "properties": {"address": "Utoquai 50", "electric": 2, "id": "pb_135", "manual": 11, "name": "Seebad Utoquai", "provider": "publibike", "timeStamp": "02/16/2020, 15:09:19", "zip": 8008}, "type": "Feature"}, {"geometry": {"coordinates": [8.548045, 47.370869], "type": "Point"}, "properties": {"address": "Heimplatz 1", "electric": 10, "id": "pb_137", "manual": 4, "name": "Kunsthaus", "provider": "publibike", "timeStamp": "02/16/2020, 15:09:19", "zip": 8001}, "type": "Feature"}, {"geometry": {"coordinates": [8.543447, 47.375933], "type": "Point"}, "properties": {"address": "Limmatquai 138", "electric": 6, "id": "pb_138", "manual": 13, "name": "Central", "provider": "publibike", "timeStamp": "02/16/2020, 15:09:19", "zip": 8001}, "type": "Feature"}, {"geometry": {"coordinates": [8.549356, 47.408827], "type": "Point"}, "properties": {"address": "Tramstrasse 35", "electric": 2, "id": "pb_139", "manual": 5, "name": "ewz Tramstrasse", "provider": "publibike", "timeStamp": "02/16/2020, 15:09:19", "zip": 8050}, "type": "Feature"}, {"geometry": {"coordinates": [8.533736, 47.366904], "type": "Point"}, "properties": {"address": "Bleicherweg 33", "electric": 0, "id": "pb_140", "manual": 8, "name": "Bleicherweg", "provider": "publibike", "timeStamp": "02/16/2020, 15:09:19", "zip": 8002}, "type": "Feature"}, {"geometry": {"coordinates": [8.544935, 47.366752], "type": "Point"}, "properties": {"address": "Bellevueplatz 2", "electric": 17, "id": "pb_141", "manual": 30, "name": "Bellevue", "provider": "publibike", "timeStamp": "02/16/2020, 15:09:19", "zip": 8001}, "type": "Feature"}, {"geometry": {"coordinates": [8.5285533, 47.3742296], "type": "Point"}, "properties": {"address": "Stauffacherstrasse 41", "electric": 3, "id": "pb_142", "manual": 7, "name": "Stauffacher", "provider": "publibike", "timeStamp": "02/16/2020, 15:09:19", "zip": 8004}, "type": "Feature"}, {"geometry": {"coordinates": [8.523722, 47.3899], "type": "Point"}, "properties": {"address": "Limmatstrasse 310", "electric": 0, "id": "pb_143", "manual": 0, "name": "Escher-Wyss-Platz", "provider": "publibike", "timeStamp": "02/16/2020, 15:09:19", "zip": 8005}, "type": "Feature"}, {"geometry": {"coordinates": [8.491061, 47.392336], "type": "Point"}, "properties": {"address": "Vulkanplatz 1", "electric": 4, "id": "pb_149", "manual": 7, "name": "Vulkanplatz", "provider": "publibike", "timeStamp": "02/16/2020, 15:09:19", "zip": 8048}, "type": "Feature"}, {"geometry": {"coordinates": [8.52306, 47.359872], "type": "Point"}, "properties": {"address": "Giessh\u00fcbelstrasse 15", "electric": 0, "id": "pb_150", "manual": 0, "name": "Utoplatz", "provider": "publibike", "timeStamp": "02/16/2020, 15:09:19", "zip": 8045}, "type": "Feature"}, {"geometry": {"coordinates": [8.486284, 47.387685], "type": "Point"}, "properties": {"address": "Lindenplatz 1", "electric": 5, "id": "pb_151", "manual": 5, "name": "Lindenplatz", "provider": "publibike", "timeStamp": "02/16/2020, 15:09:19", "zip": 8048}, "type": "Feature"}, {"geometry": {"coordinates": [8.49163, 47.389823], "type": "Point"}, "properties": {"address": "Hohlstrasse 563", "electric": 11, "id": "pb_152", "manual": 0, "name": "Luggweg", "provider": "publibike", "timeStamp": "02/16/2020, 15:09:19", "zip": 8048}, "type": "Feature"}, {"geometry": {"coordinates": [8.52174, 47.365272], "type": "Point"}, "properties": {"address": "Manessestrasse 87", "electric": 5, "id": "pb_153", "manual": 3, "name": "Manesseplatz", "provider": "publibike", "timeStamp": "02/16/2020, 15:09:19", "zip": 8045}, "type": "Feature"}, {"geometry": {"coordinates": [8.52714, 47.372329], "type": "Point"}, "properties": {"address": "Werdstrasse 75", "electric": 4, "id": "pb_154", "manual": 7, "name": "Werd", "provider": "publibike", "timeStamp": "02/16/2020, 15:09:19", "zip": 8004}, "type": "Feature"}, {"geometry": {"coordinates": [8.543042, 47.374711], "type": "Point"}, "properties": {"address": "Limmatquai 100", "electric": 0, "id": "pb_155", "manual": 0, "name": "Rudolf-Brun-Br\u00fccke", "provider": "publibike", "timeStamp": "02/16/2020, 15:09:19", "zip": 8001}, "type": "Feature"}, {"geometry": {"coordinates": [8.490837, 47.386596], "type": "Point"}, "properties": {"address": "Badenerstrasse 627", "electric": 6, "id": "pb_156", "manual": 1, "name": "Luggwegstrasse VBZ", "provider": "publibike", "timeStamp": "02/16/2020, 15:09:19", "zip": 8048}, "type": "Feature"}, {"geometry": {"coordinates": [8.535119, 47.355189], "type": "Point"}, "properties": {"address": "Mythenquai 95", "electric": 7, "id": "pb_157", "manual": 5, "name": "Strandbad Mythenquai", "provider": "publibike", "timeStamp": "02/16/2020, 15:09:19", "zip": 8002}, "type": "Feature"}, {"geometry": {"coordinates": [8.545505, 47.373675], "type": "Point"}, "properties": {"address": "Predigerpatz 21", "electric": 0, "id": "pb_158", "manual": 14, "name": "Predigerplatz", "provider": "publibike", "timeStamp": "02/16/2020, 15:09:19", "zip": 8001}, "type": "Feature"}, {"geometry": {"coordinates": [8.515558, 47.371868], "type": "Point"}, "properties": {"address": "Aemtlerstrasse 23", "electric": 6, "id": "pb_159", "manual": 4, "name": "Zwinglihaus", "provider": "publibike", "timeStamp": "02/16/2020, 15:09:19", "zip": 8003}, "type": "Feature"}, {"geometry": {"coordinates": [8.524629, 47.386072], "type": "Point"}, "properties": {"address": "Josefstrasse 188", "electric": 1, "id": "pb_160", "manual": 0, "name": "Josefwiese", "provider": "publibike", "timeStamp": "02/16/2020, 15:09:19", "zip": 8005}, "type": "Feature"}, {"geometry": {"coordinates": [8.527138, 47.387531], "type": "Point"}, "properties": {"address": "R\u00f6ntgenstrasse 87", "electric": 0, "id": "pb_164", "manual": 1, "name": "Markthalle", "provider": "publibike", "timeStamp": "02/16/2020, 15:09:19", "zip": 8005}, "type": "Feature"}, {"geometry": {"coordinates": [8.552717, 47.359978], "type": "Point"}, "properties": {"address": "Seefeldstrasse 96", "electric": 5, "id": "pb_263", "manual": 6, "name": "Feldeggstrasse", "provider": "publibike", "timeStamp": "02/16/2020, 15:09:19", "zip": 8008}, "type": "Feature"}, {"geometry": {"coordinates": [8.553189, 47.353198], "type": "Point"}, "properties": {"address": "Bellerivestrasse 170", "electric": 1, "id": "pb_264", "manual": 0, "name": "Lake Side", "provider": "publibike", "timeStamp": "02/16/2020, 15:09:19", "zip": 8008}, "type": "Feature"}, {"geometry": {"coordinates": [8.543437, 47.369256], "type": "Point"}, "properties": {"address": "Limmatquai 18", "electric": 0, "id": "pb_265", "manual": 0, "name": "Helmhaus", "provider": "publibike", "timeStamp": "02/16/2020, 15:09:19", "zip": 8032}, "type": "Feature"}, {"geometry": {"coordinates": [8.516676, 47.375819], "type": "Point"}, "properties": {"address": "Badenerstrasse 246", "electric": 3, "id": "pb_266", "manual": 1, "name": "Lochergut", "provider": "publibike", "timeStamp": "02/16/2020, 15:09:19", "zip": 8004}, "type": "Feature"}, {"geometry": {"coordinates": [8.514605, 47.389862], "type": "Point"}, "properties": {"address": "Pfingstweidstrasse 60", "electric": 2, "id": "pb_273", "manual": 2, "name": "Westpark", "provider": "publibike", "timeStamp": "02/16/2020, 15:09:19", "zip": 8005}, "type": "Feature"}, {"geometry": {"coordinates": [8.541239126, 47.375991201], "type": "Point"}, "properties": {"address": "Beatenplatz 1", "electric": 1, "id": "pb_274", "manual": 1, "name": "Beatenplatz", "provider": "publibike", "timeStamp": "02/16/2020, 15:09:19", "zip": 8001}, "type": "Feature"}, {"geometry": {"coordinates": [8.5417135, 47.3942197], "type": "Point"}, "properties": {"address": "Scheuchzerstrasse 181", "electric": 3, "id": "pb_275", "manual": 1, "name": "Pauluskirche", "provider": "publibike", "timeStamp": "02/16/2020, 15:09:19", "zip": 8057}, "type": "Feature"}, {"geometry": {"coordinates": [8.5528182, 47.414558], "type": "Point"}, "properties": {"address": "Hagenholzstrasse 51", "electric": 9, "id": "pb_276", "manual": 12, "name": "Airgate", "provider": "publibike", "timeStamp": "02/16/2020, 15:09:19", "zip": 8050}, "type": "Feature"}, {"geometry": {"coordinates": [8.537816, 47.413514], "type": "Point"}, "properties": {"address": "Birchstrasse 183", "electric": 5, "id": "pb_277", "manual": 1, "name": "Lamprechtweg", "provider": "publibike", "timeStamp": "02/16/2020, 15:09:19", "zip": 8050}, "type": "Feature"}, {"geometry": {"coordinates": [8.545602, 47.417701], "type": "Point"}, "properties": {"address": "Felsenrainstrasse 2", "electric": 1, "id": "pb_278", "manual": 2, "name": "Emil-Oberh\u00e4nsli", "provider": "publibike", "timeStamp": "02/16/2020, 15:09:19", "zip": 8050}, "type": "Feature"}, {"geometry": {"coordinates": [8.533647, 47.39808], "type": "Point"}, "properties": {"address": "Bucheggplatz 2", "electric": 2, "id": "pb_279", "manual": 0, "name": "Bucheggplatz", "provider": "publibike", "timeStamp": "02/16/2020, 15:09:19", "zip": 8057}, "type": "Feature"}, {"geometry": {"coordinates": [8.523549, 47.392347], "type": "Point"}, "properties": {"address": "Wipkingerplatz 4", "electric": 2, "id": "pb_280", "manual": 5, "name": "Wipkingerplatz", "provider": "publibike", "timeStamp": "02/16/2020, 15:09:19", "zip": 8037}, "type": "Feature"}, {"geometry": {"coordinates": [8.548562, 47.36691], "type": "Point"}, "properties": {"address": "Galerie \u00fcber Gleis 2/3", "electric": 9, "id": "pb_285", "manual": 12, "name": "Bahnhof Stadelhofen", "provider": "publibike", "timeStamp": "02/16/2020, 15:09:19", "zip": 8001}, "type": "Feature"}, {"geometry": {"coordinates": [8.493822, 47.3985553], "type": "Point"}, "properties": {"address": "Meierwiesenstrasse 12-4", "electric": 4, "id": "pb_286", "manual": 1, "name": "T\u00fcffenwies", "provider": "publibike", "timeStamp": "02/16/2020, 15:09:19", "zip": 8064}, "type": "Feature"}, {"geometry": {"coordinates": [8.552432, 47.3801757], "type": "Point"}, "properties": {"address": "Hochstrasse 34", "electric": 1, "id": "pb_356", "manual": 0, "name": "Siriuswiese", "provider": "publibike", "timeStamp": "02/16/2020, 15:09:19", "zip": 8044}, "type": "Feature"}, {"geometry": {"coordinates": [8.527298, 47.370141], "type": "Point"}, "properties": {"address": "Hallwylstrasse 71", "electric": 1, "id": "pb_357", "manual": 7, "name": "Hallwylstrasse", "provider": "publibike", "timeStamp": "02/16/2020, 15:09:19", "zip": 8004}, "type": "Feature"}, {"geometry": {"coordinates": [8.5414185, 47.3972455], "type": "Point"}, "properties": {"address": "Schaffhauserstrasse 137", "electric": 6, "id": "pb_358", "manual": 2, "name": "Milchbuck", "provider": "publibike", "timeStamp": "02/16/2020, 15:09:19", "zip": 8057}, "type": "Feature"}, {"geometry": {"coordinates": [8.512381, 47.393409], "type": "Point"}, "properties": {"address": "Hardturmstrasse 161", "electric": 2, "id": "pb_359", "manual": 1, "name": "Fischerweg", "provider": "publibike", "timeStamp": "02/16/2020, 15:09:19", "zip": 8005}, "type": "Feature"}, {"geometry": {"coordinates": [8.5421457, 47.3876979], "type": "Point"}, "properties": {"address": "Turnerstrasse 47", "electric": 2, "id": "pb_360", "manual": 0, "name": "Kirche Unterstrass", "provider": "publibike", "timeStamp": "02/16/2020, 15:09:19", "zip": 8006}, "type": "Feature"}, {"geometry": {"coordinates": [8.522117, 47.394554], "type": "Point"}, "properties": {"address": "Dorfstrasse 40", "electric": 10, "id": "pb_361", "manual": 4, "name": "Dorfstrasse", "provider": "publibike", "timeStamp": "02/16/2020, 15:09:19", "zip": 8037}, "type": "Feature"}, {"geometry": {"coordinates": [8.530437, 47.37271], "type": "Point"}, "properties": {"address": "Werdstrasse 25", "electric": 3, "id": "pb_362", "manual": 3, "name": "Stauffachertor", "provider": "publibike", "timeStamp": "02/16/2020, 15:09:19", "zip": 8004}, "type": "Feature"}, {"geometry": {"coordinates": [8.541712, 47.416155], "type": "Point"}, "properties": {"address": "Eggb\u00fchlstrasse 21", "electric": 6, "id": "pb_363", "manual": 1, "name": "Wahlenpark", "provider": "publibike", "timeStamp": "02/16/2020, 15:09:19", "zip": 8050}, "type": "Feature"}, {"geometry": {"coordinates": [8.5595335, 47.3708387], "type": "Point"}, "properties": {"address": "Dolderstrasse 32", "electric": 1, "id": "pb_364", "manual": 0, "name": "Kinderspital", "provider": "publibike", "timeStamp": "02/16/2020, 15:09:19", "zip": 8032}, "type": "Feature"}, {"geometry": {"coordinates": [8.536433, 47.388689], "type": "Point"}, "properties": {"address": "Kornhausstrasse 30", "electric": 1, "id": "pb_365", "manual": 2, "name": "Kornhausstrasse", "provider": "publibike", "timeStamp": "02/16/2020, 15:09:19", "zip": 8006}, "type": "Feature"}, {"geometry": {"coordinates": [8.55033, 47.407098], "type": "Point"}, "properties": {"address": "Schwamendingenstrasse 41", "electric": 6, "id": "pb_366", "manual": 6, "name": "Dorflinde", "provider": "publibike", "timeStamp": "02/16/2020, 15:09:19", "zip": 8050}, "type": "Feature"}, {"geometry": {"coordinates": [8.560476, 47.368199], "type": "Point"}, "properties": {"address": "R\u00f6merhofplatz 5", "electric": 4, "id": "pb_367", "manual": 1, "name": "R\u00f6merhof", "provider": "publibike", "timeStamp": "02/16/2020, 15:09:19", "zip": 8032}, "type": "Feature"}, {"geometry": {"coordinates": [8.5609218, 47.3619068], "type": "Point"}, "properties": {"address": "Forchstrasse 99", "electric": 0, "id": "pb_368", "manual": 1, "name": "Hegibachplatz", "provider": "publibike", "timeStamp": "02/16/2020, 15:09:19", "zip": 8032}, "type": "Feature"}, {"geometry": {"coordinates": [8.5721264, 47.4039985], "type": "Point"}, "properties": {"address": "Winterthurerstrasse 519", "electric": 2, "id": "pb_370", "manual": 4, "name": "Schwamendingerplatz", "provider": "publibike", "timeStamp": "02/16/2020, 15:09:19", "zip": 8051}, "type": "Feature"}, {"geometry": {"coordinates": [8.520168, 47.378556], "type": "Point"}, "properties": {"address": "Herman-Greulich-Strasse 56", "electric": 1, "id": "pb_384", "manual": 3, "name": "Hermann-Greulich-Weg", "provider": "publibike", "timeStamp": "02/16/2020, 15:09:19", "zip": 8004}, "type": "Feature"}, {"geometry": {"coordinates": [8.547912, 47.384923], "type": "Point"}, "properties": {"address": "Culmannstrasse", "electric": 5, "id": "pb_386", "manual": 1, "name": "Rigiplatz", "provider": "publibike", "timeStamp": "02/16/2020, 15:09:19", "zip": 8006}, "type": "Feature"}, {"geometry": {"coordinates": [8.543768, 47.411057], "type": "Point"}, "properties": {"address": "Hofwiesenstrasse 369", "electric": 3, "id": "pb_387", "manual": 4, "name": "Bahnhof Oerlikon S\u00fcd", "provider": "publibike", "timeStamp": "02/16/2020, 15:09:19", "zip": 8050}, "type": "Feature"}, {"geometry": {"coordinates": [8.544185, 47.412732], "type": "Point"}, "properties": {"address": "Jungholzstrasse 6", "electric": 1, "id": "pb_388", "manual": 2, "name": "Max-Frisch-Platz", "provider": "publibike", "timeStamp": "02/16/2020, 15:09:19", "zip": 8050}, "type": "Feature"}, {"geometry": {"coordinates": [8.558096, 47.413032], "type": "Point"}, "properties": {"address": "Andreasstrasse", "electric": 4, "id": "pb_389", "manual": 5, "name": "Hunziker-Areal", "provider": "publibike", "timeStamp": "02/16/2020, 15:09:19", "zip": 8050}, "type": "Feature"}, {"geometry": {"coordinates": [8.533265, 47.412873], "type": "Point"}, "properties": {"address": "Regina-K\u00e4gi-Strasse 1", "electric": 4, "id": "pb_390", "manual": 7, "name": "Luis-H\u00e4fliger-Park", "provider": "publibike", "timeStamp": "02/16/2020, 15:09:19", "zip": 8050}, "type": "Feature"}, {"geometry": {"coordinates": [8.499265, 47.401852], "type": "Point"}, "properties": {"address": "Limmattalstrasse 177", "electric": 1, "id": "pb_391", "manual": 0, "name": "Meierhofplatz", "provider": "publibike", "timeStamp": "02/16/2020, 15:09:19", "zip": 8049}, "type": "Feature"}, {"geometry": {"coordinates": [8.528356, 47.393255], "type": "Point"}, "properties": {"address": "R\u00f6schibachstrasse 73", "electric": 8, "id": "pb_392", "manual": 1, "name": "R\u00f6schibachplatz", "provider": "publibike", "timeStamp": "02/16/2020, 15:09:19", "zip": 8037}, "type": "Feature"}, {"geometry": {"coordinates": [8.538067, 47.415721], "type": "Point"}, "properties": {"address": "Birchstrasse 191", "electric": 5, "id": "pb_393", "manual": 1, "name": "Oerliker Park", "provider": "publibike", "timeStamp": "02/16/2020, 15:09:19", "zip": 8050}, "type": "Feature"}, {"geometry": {"coordinates": [8.5420304, 47.3669233], "type": "Point"}, "properties": {"address": "Stadthausquai 1", "electric": 3, "id": "pb_395", "manual": 8, "name": "B\u00fcrkliplatz", "provider": "publibike", "timeStamp": "02/16/2020, 15:09:19", "zip": 8001}, "type": "Feature"}, {"geometry": {"coordinates": [8.535767, 47.409881], "type": "Point"}, "properties": {"address": "Regensbergstrasse 195", "electric": 0, "id": "pb_396", "manual": 0, "name": "Holunderhof", "provider": "publibike", "timeStamp": "02/16/2020, 15:09:19", "zip": 8050}, "type": "Feature"}, {"geometry": {"coordinates": [8.5116245, 47.3616199], "type": "Point"}, "properties": {"address": "Grubenstrasse 42", "electric": 3, "id": "pb_431", "manual": 2, "name": "Binz Center", "provider": "publibike", "timeStamp": "02/16/2020, 15:09:19", "zip": 8045}, "type": "Feature"}, {"geometry": {"coordinates": [8.547195, 47.382089], "type": "Point"}, "properties": {"address": "Nelkenstrasse 24", "electric": 0, "id": "pb_430", "manual": 0, "name": "Stapferstube", "provider": "publibike", "timeStamp": "02/16/2020, 15:09:19", "zip": 8006}, "type": "Feature"}, {"geometry": {"coordinates": [8.5787183, 47.4039845], "type": "Point"}, "properties": {"address": "Kronwiesenstrasse 35", "electric": 3, "id": "pb_426", "manual": 2, "name": "Kronwiesen", "provider": "publibike", "timeStamp": "02/16/2020, 15:09:19", "zip": 8051}, "type": "Feature"}, {"geometry": {"coordinates": [8.508131, 47.420757], "type": "Point"}, "properties": {"address": "Riedenhaldenstrasse 20-18", "electric": 12, "id": "pb_425", "manual": 6, "name": "Bahnhof Affoltern", "provider": "publibike", "timeStamp": "02/16/2020, 15:09:19", "zip": 8046}, "type": "Feature"}, {"geometry": {"coordinates": [8.532464, 47.406988], "type": "Point"}, "properties": {"address": "K\u00fcnzlistrasse 41", "electric": 6, "id": "pb_424", "manual": 2, "name": "Birchd\u00f6rfli", "provider": "publibike", "timeStamp": "02/16/2020, 15:09:19", "zip": 8057}, "type": "Feature"}, {"geometry": {"coordinates": [8.5777038, 47.4080095], "type": "Point"}, "properties": {"address": "Luegislandstrasse 412", "electric": 5, "id": "pb_429", "manual": 1, "name": "Luegisland", "provider": "publibike", "timeStamp": "02/16/2020, 15:09:19", "zip": 8051}, "type": "Feature"}, {"geometry": {"coordinates": [8.58841, 47.40158], "type": "Point"}, "properties": {"address": "Hirzenbachstrasse 2-4", "electric": 10, "id": "pb_428", "manual": 0, "name": "Hirzenbachstrasse", "provider": "publibike", "timeStamp": "02/16/2020, 15:09:19", "zip": 8051}, "type": "Feature"}, {"geometry": {"coordinates": [8.5563463, 47.4095467], "type": "Point"}, "properties": {"address": "K\u00fchriedweg", "electric": 1, "id": "pb_445", "manual": 5, "name": "Hallenbad Oerlikon", "provider": "publibike", "timeStamp": "02/16/2020, 15:09:19", "zip": 8050}, "type": "Feature"}, {"geometry": {"coordinates": [8.537971, 47.364871], "type": "Point"}, "properties": {"address": "General-Guisan-Quai 17", "electric": 4, "id": "pb_454", "manual": 12, "name": "General-Guisan-Quai", "provider": "publibike", "timeStamp": "02/16/2020, 15:09:19", "zip": 8002}, "type": "Feature"}, {"geometry": {"coordinates": [8.560587, 47.350578], "type": "Point"}, "properties": {"address": "Bellerivestrasse 245", "electric": 9, "id": "pb_450", "manual": 11, "name": "Bahnhof Tiefenbrunnen", "provider": "publibike", "timeStamp": "02/16/2020, 15:09:19", "zip": 8008}, "type": "Feature"}, {"geometry": {"coordinates": [8.5269416, 47.3563719], "type": "Point"}, "properties": {"address": "Waffenplatzstrasse 89", "electric": 2, "id": "pb_452", "manual": 4, "name": "Rieterplatz", "provider": "publibike", "timeStamp": "02/16/2020, 15:09:19", "zip": 8002}, "type": "Feature"}, {"geometry": {"coordinates": [8.514176, 47.3663708], "type": "Point"}, "properties": {"address": "Talwiesenstrasse 92", "electric": 4, "id": "pb_446", "manual": 0, "name": "Binzallee", "provider": "publibike", "timeStamp": "02/16/2020, 15:09:19", "zip": 8055}, "type": "Feature"}, {"geometry": {"coordinates": [8.5070564, 47.371455], "type": "Point"}, "properties": {"address": "Gutstrasse 87", "electric": 10, "id": "pb_447", "manual": 8, "name": "Gutstrasse", "provider": "publibike", "timeStamp": "02/16/2020, 15:09:19", "zip": 8055}, "type": "Feature"}, {"geometry": {"coordinates": [8.4941268, 47.3836391], "type": "Point"}, "properties": {"address": "Flurstrasse 62", "electric": 0, "id": "pb_453", "manual": 2, "name": "Flurpark", "provider": "publibike", "timeStamp": "02/16/2020, 15:09:19", "zip": 8048}, "type": "Feature"}, {"geometry": {"coordinates": [8.500343, 47.380778], "type": "Point"}, "properties": {"address": "Edelweissstrasse 32", "electric": 5, "id": "pb_448", "manual": 2, "name": "Bl\u00fcemliquartier", "provider": "publibike", "timeStamp": "02/16/2020, 15:09:19", "zip": 8048}, "type": "Feature"}, {"geometry": {"coordinates": [8.528796, 47.383858], "type": "Point"}, "properties": {"address": "Gasometerstrasse 24", "electric": 6, "id": "pb_449", "manual": 0, "name": "Gasometerstrasse", "provider": "publibike", "timeStamp": "02/16/2020, 15:09:19", "zip": 8005}, "type": "Feature"}, {"geometry": {"coordinates": [8.4981964, 47.3859194], "type": "Point"}, "properties": {"address": "Baslerstrasse 57", "electric": 7, "id": "pb_455", "manual": 10, "name": "Letzipark", "provider": "publibike", "timeStamp": "02/16/2020, 15:09:19", "zip": 8048}, "type": "Feature"}, {"geometry": {"coordinates": [8.515252, 47.381915], "type": "Point"}, "properties": {"address": "Sihlfeldstrasse 175", "electric": 3, "id": "pb_451", "manual": 2, "name": "Hardplatz", "provider": "publibike", "timeStamp": "02/16/2020, 15:09:19", "zip": 8004}, "type": "Feature"}, {"geometry": {"coordinates": [8.5064743, 47.4188324], "type": "Point"}, "properties": {"address": "Wehntalerstrasse 541", "electric": 11, "id": "pb_427", "manual": 7, "name": "Zehntenhausplatz", "provider": "publibike", "timeStamp": "02/16/2020, 15:09:19", "zip": 8046}, "type": "Feature"}, {"geometry": {"coordinates": [8.537729, 47.379719], "type": "Point"}, "properties": {"address": "Sihlquai/HB", "electric": 4, "id": "pb_513", "manual": 15, "name": "Sihlquai", "provider": "publibike", "timeStamp": "02/16/2020, 15:09:19", "zip": 8005}, "type": "Feature"}, {"geometry": {"coordinates": [8.596202, 47.397885], "type": "Point"}, "properties": {"address": "Bahnhof Stettbach", "electric": 4, "id": "pb_514", "manual": 1, "name": "Bahnhof Stettbach", "provider": "publibike", "timeStamp": "02/16/2020, 15:09:19", "zip": 8051}, "type": "Feature"}, {"geometry": {"coordinates": [8.5543974, 47.3690153], "type": "Point"}, "properties": {"address": "Kasinostrasse 10", "electric": 0, "id": "pb_515", "manual": 0, "name": "Hottingerplatz", "provider": "publibike", "timeStamp": "02/16/2020, 15:09:19", "zip": 8032}, "type": "Feature"}, {"geometry": {"coordinates": [8.534444, 47.351525], "type": "Point"}, "properties": {"address": "Mobile Station Z\u00fcrich 1", "electric": 0, "id": "pb_282", "manual": 0, "name": "Theaterspektakel", "provider": "publibike", "timeStamp": "02/16/2020, 15:09:19", "zip": 8002}, "type": "Feature"}, {"geometry": {"coordinates": [8.516257, 47.367656], "type": "Point"}, "properties": {"address": "Goldbrunnenstrasse 54", "electric": 2, "id": "pb_538", "manual": 1, "name": "Kirche B\u00fchl", "provider": "publibike", "timeStamp": "02/16/2020, 15:09:19", "zip": 8055}, "type": "Feature"}, {"geometry": {"coordinates": [8.555639, 47.416873], "type": "Point"}, "properties": {"address": "Leutschenbachstrasse 50", "electric": 5, "id": "pb_537", "manual": 7, "name": "Leutschenpark", "provider": "publibike", "timeStamp": "02/16/2020, 15:09:19", "zip": 8050}, "type": "Feature"}, {"geometry": {"coordinates": [8.546464, 47.403822], "type": "Point"}, "properties": {"address": "Berninastrasse 45", "electric": 3, "id": "pb_540", "manual": 1, "name": "Berninaplatz", "provider": "publibike", "timeStamp": "02/16/2020, 15:09:19", "zip": 8057}, "type": "Feature"}, {"geometry": {"coordinates": [8.523134, 47.369004], "type": "Point"}, "properties": {"address": "Erlachstrasse 3", "electric": 3, "id": "pb_385", "manual": 2, "name": "Aegerten", "provider": "publibike", "timeStamp": "02/16/2020, 15:09:19", "zip": 8003}, "type": "Feature"}, {"geometry": {"coordinates": [8.49038, 47.381591], "type": "Point"}, "properties": {"address": "Rautistrasse 60", "electric": 1, "id": "pb_536", "manual": 1, "name": "Freilager", "provider": "publibike", "timeStamp": "02/16/2020, 15:09:19", "zip": 8048}, "type": "Feature"}, {"geometry": {"coordinates": [8.496511, 47.375247], "type": "Point"}, "properties": {"address": "Letzigraben 139", "electric": 3, "id": "pb_444", "manual": 6, "name": "Sackzelg", "provider": "publibike", "timeStamp": "02/16/2020, 15:09:19", "zip": 8047}, "type": "Feature"}, {"geometry": {"coordinates": [8.58131, 47.402801], "type": "Point"}, "properties": {"address": "Altwiesenstrasse 104", "electric": 0, "id": "pb_539", "manual": 2, "name": "Glattwiesen", "provider": "publibike", "timeStamp": "02/16/2020, 15:09:19", "zip": 8051}, "type": "Feature"}, {"geometry": {"coordinates": [8.52689, 47.3767], "type": "Point"}, "properties": {"address": "Molkenstrasse 5", "electric": 1, "id": "pb_560", "manual": 2, "name": "Helvetiaplatz", "provider": "publibike", "timeStamp": "02/16/2020, 15:09:19", "zip": 8004}, "type": "Feature"}, {"geometry": {"coordinates": [8.525602, 47.374241], "type": "Point"}, "properties": {"address": "Badenerstrasse 90", "electric": 0, "id": "pb_559", "manual": 3, "name": "Bezirksgeb\u00e4ude", "provider": "publibike", "timeStamp": "02/16/2020, 15:09:19", "zip": 8004}, "type": "Feature"}, {"geometry": {"coordinates": [8.535082, 47.345248], "type": "Point"}, "properties": {"address": "Bachstrasse 15", "electric": 3, "id": "pb_564", "manual": 1, "name": "GZ Wollishofen", "provider": "publibike", "timeStamp": "02/16/2020, 15:09:19", "zip": 8038}, "type": "Feature"}, {"geometry": {"coordinates": [8.514841, 47.370238], "type": "Point"}, "properties": {"address": "Schrennengasse 37", "electric": 6, "id": "pb_562", "manual": 2, "name": "Goldbrunnenplatz", "provider": "publibike", "timeStamp": "02/16/2020, 15:09:19", "zip": 8003}, "type": "Feature"}, {"geometry": {"coordinates": [8.514138, 47.374206], "type": "Point"}, "properties": {"address": "Idaplatz 4", "electric": 4, "id": "pb_557", "manual": 5, "name": "Idaplatz", "provider": "publibike", "timeStamp": "02/16/2020, 15:09:19", "zip": 8003}, "type": "Feature"}, {"geometry": {"coordinates": [8.518432, 47.369549], "type": "Point"}, "properties": {"address": "Brinerstrasse 2", "electric": 4, "id": "pb_558", "manual": 3, "name": "Schmiede Wiedikon", "provider": "publibike", "timeStamp": "02/16/2020, 15:09:19", "zip": 8003}, "type": "Feature"}, {"geometry": {"coordinates": [8.537546, 47.391289], "type": "Point"}, "properties": {"address": "Rotbuchstrasse 15", "electric": 2, "id": "pb_556", "manual": 1, "name": "Schaffhauserplatz", "provider": "publibike", "timeStamp": "02/16/2020, 15:09:19", "zip": 8006}, "type": "Feature"}, {"geometry": {"coordinates": [8.541541, 47.413733], "type": "Point"}, "properties": {"address": "Therese-Giehse-Strasse 11", "electric": 7, "id": "pb_561", "manual": 4, "name": "Center Eleven", "provider": "publibike", "timeStamp": "02/16/2020, 15:09:19", "zip": 8050}, "type": "Feature"}, {"geometry": {"coordinates": [8.534227, 47.360004], "type": "Point"}, "properties": {"address": "Alfred Escher-Strasse 76", "electric": 7, "id": "pb_563", "manual": 4, "name": "Mythenschloss", "provider": "publibike", "timeStamp": "02/16/2020, 15:09:19", "zip": 8002}, "type": "Feature"}, {"geometry": {"coordinates": [8.50373, 47.396172], "type": "Point"}, "properties": {"address": "Hardeggstrasse 6", "electric": 3, "id": "pb_566", "manual": 6, "name": "Am Wasser", "provider": "publibike", "timeStamp": "02/16/2020, 15:09:19", "zip": 8049}, "type": "Feature"}, {"geometry": {"coordinates": [8.532432, 47.381174], "type": "Point"}, "properties": {"address": "Klingenstrasse 9", "electric": 3, "id": "pb_565", "manual": 1, "name": "Zollstrasse", "provider": "publibike", "timeStamp": "02/16/2020, 15:09:19", "zip": 8005}, "type": "Feature"}, {"geometry": {"coordinates": [8.497982, 47.381447], "type": "Point"}, "properties": {"address": "Dennlerstrasse 23", "electric": 6, "id": "pb_567", "manual": 0, "name": "Dennlerstrasse", "provider": "publibike", "timeStamp": "02/16/2020, 15:09:19", "zip": 8047}, "type": "Feature"}, {"geometry": {"coordinates": [8.528049, 47.347701], "type": "Point"}, "properties": {"address": "Mutschellenstrasse 114", "electric": 5, "id": "pb_568", "manual": 5, "name": "Jugendherberge", "provider": "publibike", "timeStamp": "02/16/2020, 15:09:19", "zip": 8038}, "type": "Feature"}, {"geometry": {"coordinates": [8.539016, 47.405751], "type": "Point"}, "properties": {"address": "Ringstrasse 82", "electric": 7, "id": "pb_569", "manual": 2, "name": "Freibad Allenmoos", "provider": "publibike", "timeStamp": "02/16/2020, 15:09:19", "zip": 8057}, "type": "Feature"}, {"geometry": {"coordinates": [8.534974, 47.402164], "type": "Point"}, "properties": {"address": "Brache Guggach", "electric": 1, "id": "pb_572", "manual": 0, "name": "Radiostudio", "provider": "publibike", "timeStamp": "02/16/2020, 15:09:19", "zip": 8057}, "type": "Feature"}, {"geometry": {"coordinates": [8.547901, 47.375556], "type": "Point"}, "properties": {"address": "Karl-Schmid-Strasse 4", "electric": 4, "id": "pb_571", "manual": 0, "name": "ETH/Zoologisches Museum", "provider": "publibike", "timeStamp": "02/16/2020, 15:09:19", "zip": 8006}, "type": "Feature"}, {"geometry": {"coordinates": [8.563478, 47.382396], "type": "Point"}, "properties": {"charge": 30, "id": "smide_2901", "name": "ZH 267278", "provider": "smide", "range": 15.0, "size": 20, "time": "02/16/2020, 15:08:45"}, "type": "Feature"}, {"geometry": {"coordinates": [8.489816, 47.367475], "type": "Point"}, "properties": {"charge": 48, "id": "smide_2880", "name": "ZH267289", "provider": "smide", "range": 24.0, "size": 17, "time": "02/16/2020, 15:08:45"}, "type": "Feature"}, {"geometry": {"coordinates": [8.517825, 47.367395], "type": "Point"}, "properties": {"charge": 31, "id": "smide_2871", "name": "ZH 267086", "provider": "smide", "range": 15.0, "size": 20, "time": "02/16/2020, 15:08:45"}, "type": "Feature"}, {"geometry": {"coordinates": [8.511596, 47.430598], "type": "Point"}, "properties": {"charge": 78, "id": "smide_2867", "name": "ZH 267090", "provider": "smide", "range": 39.0, "size": 20, "time": "02/16/2020, 15:08:45"}, "type": "Feature"}, {"geometry": {"coordinates": [8.519041, 47.372048], "type": "Point"}, "properties": {"charge": 94, "id": "smide_2861", "name": "ZH 267096", "provider": "smide", "range": 47.0, "size": 17, "time": "02/16/2020, 15:08:45"}, "type": "Feature"}, {"geometry": {"coordinates": [8.50218, 47.36199], "type": "Point"}, "properties": {"charge": 84, "id": "smide_2856", "name": "ZH 267101", "provider": "smide", "range": 42.0, "size": 17, "time": "02/16/2020, 15:08:45"}, "type": "Feature"}, {"geometry": {"coordinates": [8.532283, 47.398593], "type": "Point"}, "properties": {"charge": 59, "id": "smide_2854", "name": "ZH 267103", "provider": "smide", "range": 29.0, "size": 17, "time": "02/16/2020, 15:08:45"}, "type": "Feature"}, {"geometry": {"coordinates": [8.56092, 47.383446], "type": "Point"}, "properties": {"charge": 27, "id": "smide_2831", "name": "ZH 267180", "provider": "smide", "range": 13.0, "size": 20, "time": "02/16/2020, 15:08:45"}, "type": "Feature"}, {"geometry": {"coordinates": [8.57435, 47.348268], "type": "Point"}, "properties": {"charge": 92, "id": "smide_2804", "name": "ZH266903", "provider": "smide", "range": 46.0, "size": 20, "time": "02/16/2020, 15:08:45"}, "type": "Feature"}, {"geometry": {"coordinates": [8.561963, 47.350678], "type": "Point"}, "properties": {"charge": 87, "id": "smide_2795", "name": "ZH 266885", "provider": "smide", "range": 43.0, "size": 17, "time": "02/16/2020, 15:08:45"}, "type": "Feature"}, {"geometry": {"coordinates": [8.4949, 47.388513], "type": "Point"}, "properties": {"charge": 36, "id": "smide_2793", "name": "ZH266883", "provider": "smide", "range": 18.0, "size": 17, "time": "02/16/2020, 15:08:45"}, "type": "Feature"}, {"geometry": {"coordinates": [8.512595, 47.360065], "type": "Point"}, "properties": {"charge": 21, "id": "smide_2785", "name": "ZH266875", "provider": "smide", "range": 10.0, "size": 17, "time": "02/16/2020, 15:08:45"}, "type": "Feature"}, {"geometry": {"coordinates": [8.521481, 47.365505], "type": "Point"}, "properties": {"charge": 86, "id": "smide_2780", "name": "ST1 X #1", "provider": "smide", "range": 43.0, "size": 17, "time": "02/16/2020, 15:08:45"}, "type": "Feature"}, {"geometry": {"coordinates": [8.483227, 47.388368], "type": "Point"}, "properties": {"charge": 65, "id": "smide_2775", "name": "ZH267283", "provider": "smide", "range": 32.0, "size": 20, "time": "02/16/2020, 15:08:45"}, "type": "Feature"}, {"geometry": {"coordinates": [8.509114, 47.390604], "type": "Point"}, "properties": {"charge": 36, "id": "smide_2773", "name": "ZH266561", "provider": "smide", "range": 18.0, "size": 17, "time": "02/16/2020, 15:08:45"}, "type": "Feature"}, {"geometry": {"coordinates": [8.537522, 47.368468], "type": "Point"}, "properties": {"charge": 29, "id": "smide_2771", "name": "ZH266559", "provider": "smide", "range": 14.0, "size": 17, "time": "02/16/2020, 15:08:45"}, "type": "Feature"}, {"geometry": {"coordinates": [8.549188, 47.370668], "type": "Point"}, "properties": {"charge": 100, "id": "smide_2763", "name": "ZH266641", "provider": "smide", "range": 50.0, "size": 17, "time": "02/16/2020, 15:08:45"}, "type": "Feature"}, {"geometry": {"coordinates": [8.551323, 47.401158], "type": "Point"}, "properties": {"charge": 74, "id": "smide_2761", "name": "ZH266642", "provider": "smide", "range": 37.0, "size": 20, "time": "02/16/2020, 15:08:45"}, "type": "Feature"}, {"geometry": {"coordinates": [8.515301, 47.3685], "type": "Point"}, "properties": {"charge": 71, "id": "smide_2759", "name": "ZH266639", "provider": "smide", "range": 35.0, "size": 17, "time": "02/16/2020, 15:08:45"}, "type": "Feature"}, {"geometry": {"coordinates": [8.574228, 47.348196], "type": "Point"}, "properties": {"charge": 98, "id": "smide_2758", "name": "ZH266638 M", "provider": "smide", "range": 49.0, "size": 17, "time": "02/16/2020, 15:08:45"}, "type": "Feature"}, {"geometry": {"coordinates": [8.541492, 47.378992], "type": "Point"}, "properties": {"charge": 78, "id": "smide_2752", "name": "BE343856", "provider": "smide", "range": 39.0, "size": 17, "time": "02/16/2020, 15:08:45"}, "type": "Feature"}, {"geometry": {"coordinates": [8.503586, 47.377744], "type": "Point"}, "properties": {"charge": 31, "id": "smide_2751", "name": "BE343857", "provider": "smide", "range": 15.0, "size": 17, "time": "02/16/2020, 15:08:45"}, "type": "Feature"}, {"geometry": {"coordinates": [8.516415, 47.37976], "type": "Point"}, "properties": {"charge": 50, "id": "smide_2749", "name": "BE343867", "provider": "smide", "range": 25.0, "size": 17, "time": "02/16/2020, 15:08:45"}, "type": "Feature"}, {"geometry": {"coordinates": [8.522709, 47.367956], "type": "Point"}, "properties": {"charge": 76, "id": "smide_2748", "name": "BE335758", "provider": "smide", "range": 38.0, "size": 17, "time": "02/16/2020, 15:08:45"}, "type": "Feature"}, {"geometry": {"coordinates": [8.567163, 47.38264], "type": "Point"}, "properties": {"charge": 100, "id": "smide_2746", "name": "BE335817", "provider": "smide", "range": 50.0, "size": 17, "time": "02/16/2020, 15:08:45"}, "type": "Feature"}, {"geometry": {"coordinates": [8.482666, 47.384604], "type": "Point"}, "properties": {"charge": 70, "id": "smide_2747", "name": "BE335820", "provider": "smide", "range": 35.0, "size": 17, "time": "02/16/2020, 15:08:45"}, "type": "Feature"}, {"geometry": {"coordinates": [8.573225, 47.35712], "type": "Point"}, "properties": {"charge": 100, "id": "smide_2745", "name": "BE335818", "provider": "smide", "range": 50.0, "size": 17, "time": "02/16/2020, 15:08:45"}, "type": "Feature"}, {"geometry": {"coordinates": [8.512762, 47.398912], "type": "Point"}, "properties": {"charge": 87, "id": "smide_2743", "name": "BE343864", "provider": "smide", "range": 43.0, "size": 17, "time": "02/16/2020, 15:08:45"}, "type": "Feature"}, {"geometry": {"coordinates": [8.536098, 47.344956], "type": "Point"}, "properties": {"charge": 31, "id": "smide_2742", "name": "BE343866", "provider": "smide", "range": 15.0, "size": 17, "time": "02/16/2020, 15:08:45"}, "type": "Feature"}, {"geometry": {"coordinates": [8.563457, 47.382288], "type": "Point"}, "properties": {"charge": 55, "id": "smide_2741", "name": "BE343874", "provider": "smide", "range": 27.0, "size": 17, "time": "02/16/2020, 15:08:45"}, "type": "Feature"}, {"geometry": {"coordinates": [8.503265, 47.396551], "type": "Point"}, "properties": {"charge": 87, "id": "smide_2738", "name": "BE343865", "provider": "smide", "range": 43.0, "size": 17, "time": "02/16/2020, 15:08:45"}, "type": "Feature"}, {"geometry": {"coordinates": [8.514486, 47.364676], "type": "Point"}, "properties": {"charge": 40, "id": "smide_2737", "name": "BE336149", "provider": "smide", "range": 20.0, "size": 17, "time": "02/16/2020, 15:08:45"}, "type": "Feature"}, {"geometry": {"coordinates": [8.515051, 47.414524], "type": "Point"}, "properties": {"charge": 62, "id": "smide_2734", "name": "BE343876", "provider": "smide", "range": 31.0, "size": 17, "time": "02/16/2020, 15:08:45"}, "type": "Feature"}, {"geometry": {"coordinates": [8.531723, 47.36952], "type": "Point"}, "properties": {"charge": 100, "id": "smide_2733", "name": "BE343873", "provider": "smide", "range": 50.0, "size": 17, "time": "02/16/2020, 15:08:45"}, "type": "Feature"}, {"geometry": {"coordinates": [8.518062, 47.367668], "type": "Point"}, "properties": {"charge": 66, "id": "smide_2732", "name": "BE343870", "provider": "smide", "range": 33.0, "size": 17, "time": "02/16/2020, 15:08:45"}, "type": "Feature"}, {"geometry": {"coordinates": [8.574635, 47.35262], "type": "Point"}, "properties": {"charge": 61, "id": "smide_2729", "name": "BE343878", "provider": "smide", "range": 30.0, "size": 17, "time": "02/16/2020, 15:08:45"}, "type": "Feature"}, {"geometry": {"coordinates": [8.51321, 47.393475], "type": "Point"}, "properties": {"charge": 33, "id": "smide_2725", "name": "ZH261545", "provider": "smide", "range": 16.0, "size": 0, "time": "02/16/2020, 15:08:45"}, "type": "Feature"}, {"geometry": {"coordinates": [8.521885, 47.359455], "type": "Point"}, "properties": {"charge": 92, "id": "smide_2718", "name": "ZH259019", "provider": "smide", "range": 46.0, "size": 20, "time": "02/16/2020, 15:08:45"}, "type": "Feature"}, {"geometry": {"coordinates": [8.496872, 47.386124], "type": "Point"}, "properties": {"charge": 100, "id": "smide_2717", "name": "ZH263287", "provider": "smide", "range": 50.0, "size": 17, "time": "02/16/2020, 15:08:45"}, "type": "Feature"}, {"geometry": {"coordinates": [8.508081, 47.421218], "type": "Point"}, "properties": {"charge": 90, "id": "smide_2716", "name": "ZH254606", "provider": "smide", "range": 45.0, "size": 17, "time": "02/16/2020, 15:08:45"}, "type": "Feature"}, {"geometry": {"coordinates": [8.523498, 47.39278], "type": "Point"}, "properties": {"charge": 79, "id": "smide_2715", "name": "ZH254605", "provider": "smide", "range": 39.0, "size": 17, "time": "02/16/2020, 15:08:45"}, "type": "Feature"}, {"geometry": {"coordinates": [8.564782, 47.407288], "type": "Point"}, "properties": {"charge": 52, "id": "smide_2714", "name": "ZH256461", "provider": "smide", "range": 26.0, "size": 17, "time": "02/16/2020, 15:08:45"}, "type": "Feature"}, {"geometry": {"coordinates": [8.506701, 47.360592], "type": "Point"}, "properties": {"charge": 100, "id": "smide_2710", "name": "ZH256460", "provider": "smide", "range": 50.0, "size": 17, "time": "02/16/2020, 15:08:45"}, "type": "Feature"}, {"geometry": {"coordinates": [8.50206, 47.369788], "type": "Point"}, "properties": {"charge": 97, "id": "smide_2712", "name": "ZH256462", "provider": "smide", "range": 48.0, "size": 17, "time": "02/16/2020, 15:08:45"}, "type": "Feature"}, {"geometry": {"coordinates": [8.55168, 47.386608], "type": "Point"}, "properties": {"charge": 76, "id": "smide_2711", "name": "ZH256463", "provider": "smide", "range": 38.0, "size": 17, "time": "02/16/2020, 15:08:45"}, "type": "Feature"}, {"geometry": {"coordinates": [8.49694, 47.368403], "type": "Point"}, "properties": {"charge": 85, "id": "smide_2709", "name": "ZH256466", "provider": "smide", "range": 42.0, "size": 20, "time": "02/16/2020, 15:08:45"}, "type": "Feature"}, {"geometry": {"coordinates": [8.547051, 47.37058], "type": "Point"}, "properties": {"charge": 100, "id": "smide_2707", "name": "ZH256467", "provider": "smide", "range": 50.0, "size": 20, "time": "02/16/2020, 15:08:45"}, "type": "Feature"}, {"geometry": {"coordinates": [8.484722, 47.374516], "type": "Point"}, "properties": {"charge": 26, "id": "smide_2708", "name": "ZH256464", "provider": "smide", "range": 13.0, "size": 17, "time": "02/16/2020, 15:08:45"}, "type": "Feature"}, {"geometry": {"coordinates": [8.507026, 47.360376], "type": "Point"}, "properties": {"charge": 100, "id": "smide_2706", "name": "ZH256322", "provider": "smide", "range": 50.0, "size": 20, "time": "02/16/2020, 15:08:45"}, "type": "Feature"}, {"geometry": {"coordinates": [8.521452, 47.366408], "type": "Point"}, "properties": {"charge": 59, "id": "smide_2701", "name": "ZH256468", "provider": "smide", "range": 29.0, "size": 20, "time": "02/16/2020, 15:08:45"}, "type": "Feature"}, {"geometry": {"coordinates": [8.554888, 47.413056], "type": "Point"}, "properties": {"charge": 77, "id": "smide_2696", "name": "ZH254616", "provider": "smide", "range": 38.0, "size": 20, "time": "02/16/2020, 15:08:45"}, "type": "Feature"}, {"geometry": {"coordinates": [8.53298, 47.391911], "type": "Point"}, "properties": {"charge": 91, "id": "smide_2690", "name": "ZH254625", "provider": "smide", "range": 45.0, "size": 20, "time": "02/16/2020, 15:08:45"}, "type": "Feature"}, {"geometry": {"coordinates": [8.553514, 47.397596], "type": "Point"}, "properties": {"charge": 31, "id": "smide_2687", "name": "ZH263529", "provider": "smide", "range": 15.0, "size": 20, "time": "02/16/2020, 15:08:45"}, "type": "Feature"}, {"geometry": {"coordinates": [8.547285, 47.419492], "type": "Point"}, "properties": {"charge": 67, "id": "smide_2686", "name": "ZH263288", "provider": "smide", "range": 33.0, "size": 20, "time": "02/16/2020, 15:08:45"}, "type": "Feature"}, {"geometry": {"coordinates": [8.532915, 47.34422], "type": "Point"}, "properties": {"charge": 100, "id": "smide_2684", "name": "ZH254626", "provider": "smide", "range": 50.0, "size": 20, "time": "02/16/2020, 15:08:45"}, "type": "Feature"}, {"geometry": {"coordinates": [8.556933, 47.372976], "type": "Point"}, "properties": {"charge": 64, "id": "smide_2683", "name": "ZH254620", "provider": "smide", "range": 32.0, "size": 20, "time": "02/16/2020, 15:08:45"}, "type": "Feature"}, {"geometry": {"coordinates": [8.537145, 47.38924], "type": "Point"}, "properties": {"charge": 87, "id": "smide_2680", "name": "ZH254619", "provider": "smide", "range": 43.0, "size": 20, "time": "02/16/2020, 15:08:45"}, "type": "Feature"}, {"geometry": {"coordinates": [8.573888, 47.352804], "type": "Point"}, "properties": {"charge": 77, "id": "smide_2679", "name": "ZH258489", "provider": "smide", "range": 38.0, "size": 17, "time": "02/16/2020, 15:08:45"}, "type": "Feature"}, {"geometry": {"coordinates": [8.566521, 47.361652], "type": "Point"}, "properties": {"charge": 50, "id": "smide_2669", "name": "ZH263294", "provider": "smide", "range": 25.0, "size": 17, "time": "02/16/2020, 15:08:45"}, "type": "Feature"}, {"geometry": {"coordinates": [8.515812, 47.367756], "type": "Point"}, "properties": {"charge": 89, "id": "smide_2666", "name": "ZH258653", "provider": "smide", "range": 44.0, "size": 17, "time": "02/16/2020, 15:08:45"}, "type": "Feature"}, {"geometry": {"coordinates": [8.582798, 47.351036], "type": "Point"}, "properties": {"charge": 100, "id": "smide_2665", "name": "ZH258644", "provider": "smide", "range": 50.0, "size": 17, "time": "02/16/2020, 15:08:45"}, "type": "Feature"}, {"geometry": {"coordinates": [8.537431, 47.379556], "type": "Point"}, "properties": {"charge": 59, "id": "smide_2664", "name": "ZH258652", "provider": "smide", "range": 29.0, "size": 17, "time": "02/16/2020, 15:08:45"}, "type": "Feature"}, {"geometry": {"coordinates": [8.534179, 47.363624], "type": "Point"}, "properties": {"charge": 91, "id": "smide_2663", "name": "ZH258649", "provider": "smide", "range": 45.0, "size": 17, "time": "02/16/2020, 15:08:45"}, "type": "Feature"}, {"geometry": {"coordinates": [8.506804, 47.360344], "type": "Point"}, "properties": {"charge": 100, "id": "smide_2662", "name": "ZH258643", "provider": "smide", "range": 50.0, "size": 17, "time": "02/16/2020, 15:08:45"}, "type": "Feature"}, {"geometry": {"coordinates": [8.543197, 47.400248], "type": "Point"}, "properties": {"charge": 70, "id": "smide_2648", "name": "ZH257930", "provider": "smide", "range": 35.0, "size": 20, "time": "02/16/2020, 15:08:45"}, "type": "Feature"}, {"geometry": {"coordinates": [8.569755, 47.352241], "type": "Point"}, "properties": {"charge": 64, "id": "smide_2657", "name": "ZH257936", "provider": "smide", "range": 32.0, "size": 17, "time": "02/16/2020, 15:08:45"}, "type": "Feature"}, {"geometry": {"coordinates": [8.570078, 47.352356], "type": "Point"}, "properties": {"charge": 100, "id": "smide_2647", "name": "ZH257932", "provider": "smide", "range": 50.0, "size": 20, "time": "02/16/2020, 15:08:45"}, "type": "Feature"}, {"geometry": {"coordinates": [8.525883, 47.342036], "type": "Point"}, "properties": {"charge": 81, "id": "smide_2645", "name": "ZH257933", "provider": "smide", "range": 40.0, "size": 20, "time": "02/16/2020, 15:08:45"}, "type": "Feature"}, {"geometry": {"coordinates": [8.553611, 47.379171], "type": "Point"}, "properties": {"charge": 38, "id": "smide_3", "name": "ZH253765", "provider": "smide", "range": 19.0, "size": 20, "time": "02/16/2020, 15:08:45"}, "type": "Feature"}, {"geometry": {"coordinates": [8.526071, 47.359], "type": "Point"}, "properties": {"charge": 49, "id": "smide_77", "name": "ZH261548", "provider": "smide", "range": 24.0, "size": 20, "time": "02/16/2020, 15:08:45"}, "type": "Feature"}, {"geometry": {"coordinates": [8.500506, 47.369518], "type": "Point"}, "properties": {"charge": 100, "id": "smide_197", "name": "ZH253864", "provider": "smide", "range": 50.0, "size": 20, "time": "02/16/2020, 15:08:45"}, "type": "Feature"}, {"geometry": {"coordinates": [8.483184, 47.38476], "type": "Point"}, "properties": {"charge": 59, "id": "smide_8", "name": "ZH253861", "provider": "smide", "range": 29.0, "size": 17, "time": "02/16/2020, 15:08:45"}, "type": "Feature"}, {"geometry": {"coordinates": [8.557623, 47.376896], "type": "Point"}, "properties": {"charge": 66, "id": "smide_201", "name": "ZH253698", "provider": "smide", "range": 33.0, "size": 17, "time": "02/16/2020, 15:08:45"}, "type": "Feature"}, {"geometry": {"coordinates": [8.557673, 47.378236], "type": "Point"}, "properties": {"charge": 59, "id": "smide_71", "name": "ZH253742", "provider": "smide", "range": 29.0, "size": 20, "time": "02/16/2020, 15:08:45"}, "type": "Feature"}, {"geometry": {"coordinates": [8.489571, 47.373908], "type": "Point"}, "properties": {"charge": 87, "id": "smide_101", "name": "ZH253814", "provider": "smide", "range": 43.0, "size": 17, "time": "02/16/2020, 15:08:45"}, "type": "Feature"}, {"geometry": {"coordinates": [8.502026, 47.369032], "type": "Point"}, "properties": {"charge": 62, "id": "smide_9", "name": "ZH253796", "provider": "smide", "range": 31.0, "size": 17, "time": "02/16/2020, 15:08:45"}, "type": "Feature"}, {"geometry": {"coordinates": [8.529246, 47.355856], "type": "Point"}, "properties": {"charge": 91, "id": "smide_143", "name": "ZH253778", "provider": "smide", "range": 45.0, "size": 17, "time": "02/16/2020, 15:08:45"}, "type": "Feature"}, {"geometry": {"coordinates": [8.536912, 47.33682], "type": "Point"}, "properties": {"charge": 44, "id": "smide_20", "name": "ZH253770", "provider": "smide", "range": 22.0, "size": 20, "time": "02/16/2020, 15:08:45"}, "type": "Feature"}, {"geometry": {"coordinates": [8.524303, 47.393353], "type": "Point"}, "properties": {"charge": 36, "id": "smide_30", "name": "ZH253813", "provider": "smide", "range": 18.0, "size": 20, "time": "02/16/2020, 15:08:45"}, "type": "Feature"}, {"geometry": {"coordinates": [8.559256, 47.41511], "type": "Point"}, "properties": {"charge": 88, "id": "smide_10", "name": "ZH253855", "provider": "smide", "range": 44.0, "size": 17, "time": "02/16/2020, 15:08:45"}, "type": "Feature"}, {"geometry": {"coordinates": [8.483156, 47.384796], "type": "Point"}, "properties": {"charge": 85, "id": "smide_79", "name": "ZH253711", "provider": "smide", "range": 42.0, "size": 20, "time": "02/16/2020, 15:08:45"}, "type": "Feature"}, {"geometry": {"coordinates": [8.560768, 47.383104], "type": "Point"}, "properties": {"charge": 62, "id": "smide_119", "name": "ZH253686", "provider": "smide", "range": 31.0, "size": 20, "time": "02/16/2020, 15:08:45"}, "type": "Feature"}, {"geometry": {"coordinates": [8.564628, 47.369368], "type": "Point"}, "properties": {"charge": 100, "id": "smide_76", "name": "ZH253764", "provider": "smide", "range": 50.0, "size": 17, "time": "02/16/2020, 15:08:45"}, "type": "Feature"}, {"geometry": {"coordinates": [8.502505, 47.3847], "type": "Point"}, "properties": {"charge": 91, "id": "smide_129", "name": "ZH261378", "provider": "smide", "range": 45.0, "size": 17, "time": "02/16/2020, 15:08:45"}, "type": "Feature"}, {"geometry": {"coordinates": [8.56333, 47.382216], "type": "Point"}, "properties": {"charge": 78, "id": "smide_49", "name": "ZH253873", "provider": "smide", "range": 39.0, "size": 17, "time": "02/16/2020, 15:08:45"}, "type": "Feature"}, {"geometry": {"coordinates": [8.50204, 47.36888], "type": "Point"}, "properties": {"charge": 85, "id": "smide_94", "name": "ZH253754", "provider": "smide", "range": 42.0, "size": 17, "time": "02/16/2020, 15:08:45"}, "type": "Feature"}, {"geometry": {"coordinates": [8.518937, 47.365988], "type": "Point"}, "properties": {"charge": 95, "id": "smide_37", "name": "ZH261377", "provider": "smide", "range": 47.0, "size": 20, "time": "02/16/2020, 15:08:45"}, "type": "Feature"}, {"geometry": {"coordinates": [8.560861, 47.383251], "type": "Point"}, "properties": {"charge": 22, "id": "smide_191", "name": "ZH253762", "provider": "smide", "range": 11.0, "size": 17, "time": "02/16/2020, 15:08:45"}, "type": "Feature"}, {"geometry": {"coordinates": [8.474516, 47.385745], "type": "Point"}, "properties": {"charge": 83, "id": "smide_202", "name": "ZH253830", "provider": "smide", "range": 41.0, "size": 17, "time": "02/16/2020, 15:08:45"}, "type": "Feature"}, {"geometry": {"coordinates": [8.494811, 47.379988], "type": "Point"}, "properties": {"charge": 100, "id": "smide_150", "name": "ZH253703", "provider": "smide", "range": 50.0, "size": 20, "time": "02/16/2020, 15:08:45"}, "type": "Feature"}, {"geometry": {"coordinates": [8.506363, 47.360508], "type": "Point"}, "properties": {"charge": 100, "id": "smide_66", "name": "ZH253818", "provider": "smide", "range": 50.0, "size": 20, "time": "02/16/2020, 15:08:45"}, "type": "Feature"}, {"geometry": {"coordinates": [8.496878, 47.362721], "type": "Point"}, "properties": {"charge": 66, "id": "smide_17", "name": "ZH253793", "provider": "smide", "range": 33.0, "size": 17, "time": "02/16/2020, 15:08:45"}, "type": "Feature"}, {"geometry": {"coordinates": [8.52421, 47.398273], "type": "Point"}, "properties": {"charge": 30, "id": "smide_145", "name": "ZH253780", "provider": "smide", "range": 15.0, "size": 20, "time": "02/16/2020, 15:08:45"}, "type": "Feature"}, {"geometry": {"coordinates": [8.536305, 47.33788], "type": "Point"}, "properties": {"charge": 55, "id": "smide_114", "name": "ZH253878", "provider": "smide", "range": 27.0, "size": 20, "time": "02/16/2020, 15:08:45"}, "type": "Feature"}, {"geometry": {"coordinates": [8.516574, 47.386888], "type": "Point"}, "properties": {"charge": 60, "id": "smide_203", "name": "ZH261547", "provider": "smide", "range": 30.0, "size": 17, "time": "02/16/2020, 15:08:45"}, "type": "Feature"}, {"geometry": {"coordinates": [8.497602, 47.381536], "type": "Point"}, "properties": {"charge": 95, "id": "smide_21", "name": "ZH253841", "provider": "smide", "range": 47.0, "size": 17, "time": "02/16/2020, 15:08:45"}, "type": "Feature"}, {"geometry": {"coordinates": [8.476759, 47.387448], "type": "Point"}, "properties": {"charge": 87, "id": "smide_164", "name": "ZH253775", "provider": "smide", "range": 43.0, "size": 17, "time": "02/16/2020, 15:08:45"}, "type": "Feature"}, {"geometry": {"coordinates": [8.495731, 47.368296], "type": "Point"}, "properties": {"charge": 87, "id": "smide_189", "name": "ZH253845", "provider": "smide", "range": 43.0, "size": 20, "time": "02/16/2020, 15:08:45"}, "type": "Feature"}, {"geometry": {"coordinates": [8.540064, 47.37894], "type": "Point"}, "properties": {"charge": 71, "id": "smide_81", "name": "ZH253753", "provider": "smide", "range": 35.0, "size": 17, "time": "02/16/2020, 15:08:45"}, "type": "Feature"}, {"geometry": {"coordinates": [8.516817, 47.360692], "type": "Point"}, "properties": {"charge": 91, "id": "smide_171", "name": "ZH253689", "provider": "smide", "range": 45.0, "size": 20, "time": "02/16/2020, 15:08:45"}, "type": "Feature"}, {"geometry": {"coordinates": [8.501349, 47.366544], "type": "Point"}, "properties": {"charge": 51, "id": "smide_93", "name": "ZH253681", "provider": "smide", "range": 25.0, "size": 17, "time": "02/16/2020, 15:08:45"}, "type": "Feature"}, {"geometry": {"coordinates": [8.552276, 47.406332], "type": "Point"}, "properties": {"charge": 100, "id": "smide_67", "name": "ZH253779", "provider": "smide", "range": 50.0, "size": 17, "time": "02/16/2020, 15:08:45"}, "type": "Feature"}, {"geometry": {"coordinates": [8.47687, 47.389911], "type": "Point"}, "properties": {"charge": 98, "id": "smide_118", "name": "ZH253759", "provider": "smide", "range": 49.0, "size": 20, "time": "02/16/2020, 15:08:45"}, "type": "Feature"}, {"geometry": {"coordinates": [8.523893, 47.341016], "type": "Point"}, "properties": {"charge": 34, "id": "smide_142", "name": "ZH258745", "provider": "smide", "range": 17.0, "size": 17, "time": "02/16/2020, 15:08:45"}, "type": "Feature"}, {"geometry": {"coordinates": [8.537485, 47.407395], "type": "Point"}, "properties": {"charge": 62, "id": "smide_166", "name": "ZH253728", "provider": "smide", "range": 31.0, "size": 17, "time": "02/16/2020, 15:08:45"}, "type": "Feature"}, {"geometry": {"coordinates": [8.565092, 47.349092], "type": "Point"}, "properties": {"charge": 100, "id": "smide_126", "name": "ZH268400", "provider": "smide", "range": 50.0, "size": 17, "time": "02/16/2020, 15:08:45"}, "type": "Feature"}, {"geometry": {"coordinates": [8.5096, 47.372565], "type": "Point"}, "properties": {"charge": 56, "id": "smide_44", "name": "ZH253837", "provider": "smide", "range": 28.0, "size": 17, "time": "02/16/2020, 15:08:45"}, "type": "Feature"}, {"geometry": {"coordinates": [8.474925, 47.38514], "type": "Point"}, "properties": {"charge": 59, "id": "smide_98", "name": "ZH256321", "provider": "smide", "range": 29.0, "size": 17, "time": "02/16/2020, 15:08:45"}, "type": "Feature"}, {"geometry": {"coordinates": [8.541065, 47.424751], "type": "Point"}, "properties": {"charge": 65, "id": "smide_57", "name": "ZH253772", "provider": "smide", "range": 32.0, "size": 17, "time": "02/16/2020, 15:08:45"}, "type": "Feature"}, {"geometry": {"coordinates": [8.525808, 47.39538], "type": "Point"}, "properties": {"charge": 15, "id": "smide_7", "name": "ZH256289", "provider": "smide", "range": 7.0, "size": 20, "time": "02/16/2020, 15:08:45"}, "type": "Feature"}, {"geometry": {"coordinates": [8.548337, 47.385864], "type": "Point"}, "properties": {"charge": 100, "id": "smide_92", "name": "ZH253798", "provider": "smide", "range": 50.0, "size": 17, "time": "02/16/2020, 15:08:45"}, "type": "Feature"}, {"geometry": {"coordinates": [8.516453, 47.398496], "type": "Point"}, "properties": {"charge": 77, "id": "smide_111", "name": "ZH253763", "provider": "smide", "range": 38.0, "size": 17, "time": "02/16/2020, 15:08:45"}, "type": "Feature"}, {"geometry": {"coordinates": [8.565104, 47.368136], "type": "Point"}, "properties": {"charge": 70, "id": "smide_40", "name": "ZH253690", "provider": "smide", "range": 35.0, "size": 20, "time": "02/16/2020, 15:08:45"}, "type": "Feature"}, {"geometry": {"coordinates": [8.554034, 47.357064], "type": "Point"}, "properties": {"charge": 84, "id": "smide_1", "name": "ZH253776", "provider": "smide", "range": 42.0, "size": 17, "time": "02/16/2020, 15:08:45"}, "type": "Feature"}, {"geometry": {"coordinates": [8.5316, 47.353632], "type": "Point"}, "properties": {"charge": 75, "id": "smide_28", "name": "ZH253831", "provider": "smide", "range": 37.0, "size": 17, "time": "02/16/2020, 15:08:45"}, "type": "Feature"}, {"geometry": {"coordinates": [8.548945, 47.40573], "type": "Point"}, "properties": {"charge": 98, "id": "smide_14", "name": "ZH253749", "provider": "smide", "range": 49.0, "size": 20, "time": "02/16/2020, 15:08:45"}, "type": "Feature"}, {"geometry": {"coordinates": [8.499887, 47.370512], "type": "Point"}, "properties": {"charge": 59, "id": "smide_130", "name": "ZH253847", "provider": "smide", "range": 29.0, "size": 20, "time": "02/16/2020, 15:08:45"}, "type": "Feature"}, {"geometry": {"coordinates": [8.58236, 47.351726], "type": "Point"}, "properties": {"charge": 53, "id": "smide_24", "name": "ZH253696", "provider": "smide", "range": 26.0, "size": 20, "time": "02/16/2020, 15:08:45"}, "type": "Feature"}, {"geometry": {"coordinates": [8.559214, 47.414896], "type": "Point"}, "properties": {"charge": 100, "id": "smide_107", "name": "ZH253819", "provider": "smide", "range": 50.0, "size": 17, "time": "02/16/2020, 15:08:45"}, "type": "Feature"}, {"geometry": {"coordinates": [8.532231, 47.398992], "type": "Point"}, "properties": {"charge": 55, "id": "smide_136", "name": "ZH253682", "provider": "smide", "range": 27.0, "size": 17, "time": "02/16/2020, 15:08:45"}, "type": "Feature"}, {"geometry": {"coordinates": [8.57389, 47.352752], "type": "Point"}, "properties": {"charge": 100, "id": "smide_205", "name": "ZH253805", "provider": "smide", "range": 50.0, "size": 17, "time": "02/16/2020, 15:08:45"}, "type": "Feature"}, {"geometry": {"coordinates": [8.511913, 47.382392], "type": "Point"}, "properties": {"charge": 56, "id": "smide_100", "name": "ZH253862", "provider": "smide", "range": 28.0, "size": 20, "time": "02/16/2020, 15:08:45"}, "type": "Feature"}, {"geometry": {"coordinates": [8.561935, 47.414988], "type": "Point"}, "properties": {"charge": 47, "id": "smide_141", "name": "ZH253800", "provider": "smide", "range": 23.0, "size": 20, "time": "02/16/2020, 15:08:45"}, "type": "Feature"}, {"geometry": {"coordinates": [8.502131, 47.37029], "type": "Point"}, "properties": {"charge": 60, "id": "smide_149", "name": "ZH253743", "provider": "smide", "range": 30.0, "size": 20, "time": "02/16/2020, 15:08:45"}, "type": "Feature"}, {"geometry": {"coordinates": [8.57309, 47.351188], "type": "Point"}, "properties": {"charge": 55, "id": "smide_16", "name": "ZH253713", "provider": "smide", "range": 27.0, "size": 20, "time": "02/16/2020, 15:08:45"}, "type": "Feature"}, {"geometry": {"coordinates": [8.508254, 47.400568], "type": "Point"}, "properties": {"charge": 27, "id": "smide_74", "name": "ZH253693", "provider": "smide", "range": 13.0, "size": 20, "time": "02/16/2020, 15:08:45"}, "type": "Feature"}, {"geometry": {"coordinates": [8.567387, 47.378584], "type": "Point"}, "properties": {"charge": 67, "id": "smide_161", "name": "ZH253691", "provider": "smide", "range": 33.0, "size": 20, "time": "02/16/2020, 15:08:45"}, "type": "Feature"}, {"geometry": {"coordinates": [8.530224, 47.338356], "type": "Point"}, "properties": {"charge": 87, "id": "smide_4", "name": "ZH253740", "provider": "smide", "range": 43.0, "size": 20, "time": "02/16/2020, 15:08:45"}, "type": "Feature"}, {"geometry": {"coordinates": [8.522272, 47.379952], "type": "Point"}, "properties": {"charge": 69, "id": "smide_160", "name": "ZH253722", "provider": "smide", "range": 34.0, "size": 17, "time": "02/16/2020, 15:08:45"}, "type": "Feature"}, {"geometry": {"coordinates": [8.476936, 47.391525], "type": "Point"}, "properties": {"charge": 12, "id": "smide_137", "name": "ZH258502", "provider": "smide", "range": 6.0, "size": 17, "time": "02/16/2020, 15:08:45"}, "type": "Feature"}, {"geometry": {"coordinates": [8.54199, 47.424564], "type": "Point"}, "properties": {"charge": 57, "id": "smide_178", "name": "ZH253803", "provider": "smide", "range": 28.0, "size": 17, "time": "02/16/2020, 15:08:45"}, "type": "Feature"}, {"geometry": {"coordinates": [8.511003, 47.407551], "type": "Point"}, "properties": {"charge": 54, "id": "smide_55", "name": "ZH253875", "provider": "smide", "range": 27.0, "size": 17, "time": "02/16/2020, 15:08:45"}, "type": "Feature"}, {"geometry": {"coordinates": [8.518001, 47.358564], "type": "Point"}, "properties": {"charge": 57, "id": "smide_96", "name": "ZH256146", "provider": "smide", "range": 28.0, "size": 20, "time": "02/16/2020, 15:08:45"}, "type": "Feature"}, {"geometry": {"coordinates": [8.550583, 47.379992], "type": "Point"}, "properties": {"charge": 100, "id": "smide_58", "name": "ZH259246", "provider": "smide", "range": 50.0, "size": 20, "time": "02/16/2020, 15:08:45"}, "type": "Feature"}, {"geometry": {"coordinates": [8.485909, 47.377076], "type": "Point"}, "properties": {"charge": 89, "id": "smide_54", "name": "ZH253874", "provider": "smide", "range": 44.0, "size": 20, "time": "02/16/2020, 15:08:45"}, "type": "Feature"}, {"geometry": {"coordinates": [8.514143, 47.393568], "type": "Point"}, "properties": {"charge": 75, "id": "smide_175", "name": "ZH253730", "provider": "smide", "range": 37.0, "size": 17, "time": "02/16/2020, 15:08:45"}, "type": "Feature"}, {"geometry": {"coordinates": [8.51594, 47.428791], "type": "Point"}, "properties": {"charge": 37, "id": "smide_162", "name": "ZH253760", "provider": "smide", "range": 18.0, "size": 17, "time": "02/16/2020, 15:08:45"}, "type": "Feature"}, {"geometry": {"coordinates": [8.5091, 47.384788], "type": "Point"}, "properties": {"charge": 12, "id": "smide_95", "name": "ZH253773", "provider": "smide", "range": 6.0, "size": 17, "time": "02/16/2020, 15:08:45"}, "type": "Feature"}, {"geometry": {"coordinates": [8.582225, 47.351888], "type": "Point"}, "properties": {"charge": 27, "id": "smide_163", "name": "ZH256147", "provider": "smide", "range": 13.0, "size": 20, "time": "02/16/2020, 15:08:45"}, "type": "Feature"}, {"geometry": {"coordinates": [8.508383, 47.382392], "type": "Point"}, "properties": {"charge": 75, "id": "smide_112", "name": "ZH263530", "provider": "smide", "range": 37.0, "size": 20, "time": "02/16/2020, 15:08:45"}, "type": "Feature"}, {"geometry": {"coordinates": [8.560933, 47.416273], "type": "Point"}, "properties": {"charge": 92, "id": "smide_38", "name": "ZH253851", "provider": "smide", "range": 46.0, "size": 20, "time": "02/16/2020, 15:08:45"}, "type": "Feature"}, {"geometry": {"coordinates": [8.568218, 47.367844], "type": "Point"}, "properties": {"charge": 100, "id": "smide_6", "name": "ZH253787", "provider": "smide", "range": 50.0, "size": 17, "time": "02/16/2020, 15:08:45"}, "type": "Feature"}, {"geometry": {"coordinates": [8.512646, 47.369168], "type": "Point"}, "properties": {"charge": 86, "id": "smide_18", "name": "ZH253859", "provider": "smide", "range": 43.0, "size": 17, "time": "02/16/2020, 15:08:45"}, "type": "Feature"}, {"geometry": {"coordinates": [8.506819, 47.420608], "type": "Point"}, "properties": {"charge": 64, "id": "smide_192", "name": "ZH253706", "provider": "smide", "range": 32.0, "size": 20, "time": "02/16/2020, 15:08:45"}, "type": "Feature"}, {"geometry": {"coordinates": [8.53999, 47.382948], "type": "Point"}, "properties": {"charge": 21, "id": "smide_5", "name": "ZH261443", "provider": "smide", "range": 10.0, "size": 20, "time": "02/16/2020, 15:08:45"}, "type": "Feature"}, {"geometry": {"coordinates": [8.553876, 47.39886], "type": "Point"}, "properties": {"charge": 100, "id": "smide_85", "name": "ZH253729", "provider": "smide", "range": 50.0, "size": 17, "time": "02/16/2020, 15:08:45"}, "type": "Feature"}, {"geometry": {"coordinates": [8.557103, 47.377324], "type": "Point"}, "properties": {"charge": 45, "id": "smide_29", "name": "ZH253723", "provider": "smide", "range": 22.0, "size": 17, "time": "02/16/2020, 15:08:45"}, "type": "Feature"}, {"geometry": {"coordinates": [8.51903, 47.337264], "type": "Point"}, "properties": {"charge": 37, "id": "smide_48", "name": "ZH253849", "provider": "smide", "range": 18.0, "size": 20, "time": "02/16/2020, 15:08:45"}, "type": "Feature"}, {"geometry": {"coordinates": [8.560422, 47.405768], "type": "Point"}, "properties": {"charge": 100, "id": "smide_46", "name": "ZH253843", "provider": "smide", "range": 50.0, "size": 20, "time": "02/16/2020, 15:08:45"}, "type": "Feature"}, {"geometry": {"coordinates": [8.51542666666667, 47.37413], "type": "Point"}, "properties": {"charge": 27, "id": "bird_83765614-4333-46a2-80dd-6e2d5c934bab", "provider": "bird", "timeStamp": "02/16/2020, 15:08:45"}, "type": "Feature"}, {"geometry": {"coordinates": [8.54254166666667, 47.3723066666667], "type": "Point"}, "properties": {"charge": 47, "id": "bird_68bf44b0-a5f0-4d5a-acca-49d6a48ea136", "provider": "bird", "timeStamp": "02/16/2020, 15:08:45"}, "type": "Feature"}, {"geometry": {"coordinates": [8.53264833333333, 47.3911933333333], "type": "Point"}, "properties": {"charge": 29, "id": "bird_926859b3-95de-4c7b-a3df-02f3f9a4c372", "provider": "bird", "timeStamp": "02/16/2020, 15:08:45"}, "type": "Feature"}, {"geometry": {"coordinates": [8.54535, 47.3756983333333], "type": "Point"}, "properties": {"charge": 25, "id": "bird_bb4bf912-ad09-47ca-8a26-8d0c02994f50", "provider": "bird", "timeStamp": "02/16/2020, 15:08:45"}, "type": "Feature"}, {"geometry": {"coordinates": [8.54467833333333, 47.37492], "type": "Point"}, "properties": {"charge": 33, "id": "bird_547f32b2-1c04-4ee6-89f3-3f9e6ae1e6ed", "provider": "bird", "timeStamp": "02/16/2020, 15:08:45"}, "type": "Feature"}, {"geometry": {"coordinates": [8.52106666666667, 47.389225], "type": "Point"}, "properties": {"charge": 72, "id": "bird_5c1d2be7-d2b7-4bca-b418-a11af241a539", "provider": "bird", "timeStamp": "02/16/2020, 15:08:45"}, "type": "Feature"}, {"geometry": {"coordinates": [8.54392833333333, 47.37429], "type": "Point"}, "properties": {"charge": 47, "id": "bird_dfe85e57-7d3e-4d87-929d-46a35f0b1d6d", "provider": "bird", "timeStamp": "02/16/2020, 15:08:45"}, "type": "Feature"}, {"geometry": {"coordinates": [8.51979166666667, 47.38858], "type": "Point"}, "properties": {"charge": 60, "id": "bird_f120d783-b8cb-472b-9ce8-80e4e21b9f3c", "provider": "bird", "timeStamp": "02/16/2020, 15:08:45"}, "type": "Feature"}, {"geometry": {"coordinates": [8.54057, 47.3883366666667], "type": "Point"}, "properties": {"charge": 15, "id": "bird_1e71a86c-c26c-48cf-9ea2-2e1313e71e08", "provider": "bird", "timeStamp": "02/16/2020, 15:08:45"}, "type": "Feature"}, {"geometry": {"coordinates": [8.53683833333333, 47.3899], "type": "Point"}, "properties": {"charge": 60, "id": "bird_3561598b-5ddc-4047-ad82-ddd841822cba", "provider": "bird", "timeStamp": "02/16/2020, 15:08:45"}, "type": "Feature"}, {"geometry": {"coordinates": [8.51993166666667, 47.388515], "type": "Point"}, "properties": {"charge": 65, "id": "bird_327ca117-fa52-47fb-b489-da3a1627f0cf", "provider": "bird", "timeStamp": "02/16/2020, 15:08:45"}, "type": "Feature"}, {"geometry": {"coordinates": [8.53425666666667, 47.3695416666667], "type": "Point"}, "properties": {"charge": 40, "id": "bird_33fa427b-bcdb-4bc7-aba6-136b28badeee", "provider": "bird", "timeStamp": "02/16/2020, 15:08:45"}, "type": "Feature"}, {"geometry": {"coordinates": [8.54395333333333, 47.3851083333333], "type": "Point"}, "properties": {"charge": 85, "id": "bird_ad65f961-abb9-4664-9bc1-f6a0c0b208f0", "provider": "bird", "timeStamp": "02/16/2020, 15:08:45"}, "type": "Feature"}, {"geometry": {"coordinates": [8.53541166666667, 47.3700033333333], "type": "Point"}, "properties": {"charge": 46, "id": "bird_3691bcd4-9a84-4625-b03b-13a57bbf9576", "provider": "bird", "timeStamp": "02/16/2020, 15:08:45"}, "type": "Feature"}, {"geometry": {"coordinates": [8.544855, 47.376575], "type": "Point"}, "properties": {"charge": 33, "id": "bird_f8f00dd8-5e53-48eb-a968-63b25274f243", "provider": "bird", "timeStamp": "02/16/2020, 15:08:45"}, "type": "Feature"}, {"geometry": {"coordinates": [8.51435333333333, 47.3806566666667], "type": "Point"}, "properties": {"charge": 71, "id": "bird_362b5afe-222e-49f4-b52d-a2b53d40b5c7", "provider": "bird", "timeStamp": "02/16/2020, 15:08:45"}, "type": "Feature"}, {"geometry": {"coordinates": [8.52279166666667, 47.3894233333333], "type": "Point"}, "properties": {"charge": 53, "id": "bird_a9c612e8-8c65-48d3-ac71-d63230e29e8e", "provider": "bird", "timeStamp": "02/16/2020, 15:08:45"}, "type": "Feature"}, {"geometry": {"coordinates": [8.539305, 47.388485], "type": "Point"}, "properties": {"charge": 26, "id": "bird_3f48b157-bdf3-420e-9c5f-c103323613e0", "provider": "bird", "timeStamp": "02/16/2020, 15:08:45"}, "type": "Feature"}, {"geometry": {"coordinates": [8.54399, 47.375405], "type": "Point"}, "properties": {"charge": 80, "id": "bird_e618339c-9265-48ce-9e94-a4b5068bef0f", "provider": "bird", "timeStamp": "02/16/2020, 15:08:45"}, "type": "Feature"}, {"geometry": {"coordinates": [8.53145833333333, 47.3695483333333], "type": "Point"}, "properties": {"charge": 79, "id": "bird_f732b5ad-5e9c-4d63-86a3-6eafe1fd5e02", "provider": "bird", "timeStamp": "02/16/2020, 15:08:45"}, "type": "Feature"}, {"geometry": {"coordinates": [8.520145, 47.3880733333333], "type": "Point"}, "properties": {"charge": 100, "id": "bird_19c3a56b-096f-4823-854b-3e642436d19b", "provider": "bird", "timeStamp": "02/16/2020, 15:08:45"}, "type": "Feature"}, {"geometry": {"coordinates": [8.53945, 47.38823], "type": "Point"}, "properties": {"charge": 58, "id": "bird_0d59d6d5-202b-4960-8a27-1e3dee7393e1", "provider": "bird", "timeStamp": "02/16/2020, 15:08:45"}, "type": "Feature"}, {"geometry": {"coordinates": [8.52020333333333, 47.3880233333333], "type": "Point"}, "properties": {"charge": 100, "id": "bird_dd1e7ba4-3ca9-47d4-808b-a087bc0b33e2", "provider": "bird", "timeStamp": "02/16/2020, 15:08:45"}, "type": "Feature"}, {"geometry": {"coordinates": [8.54381333333333, 47.3754883333333], "type": "Point"}, "properties": {"charge": 78, "id": "bird_8e1c51ec-9407-4441-9e20-66ec95efdc43", "provider": "bird", "timeStamp": "02/16/2020, 15:08:45"}, "type": "Feature"}, {"geometry": {"coordinates": [8.54071833333333, 47.38736], "type": "Point"}, "properties": {"charge": 55, "id": "bird_e63eb2e4-52a0-43c1-bb36-56c899737036", "provider": "bird", "timeStamp": "02/16/2020, 15:08:45"}, "type": "Feature"}, {"geometry": {"coordinates": [8.539405, 47.3718833333333], "type": "Point"}, "properties": {"charge": 51, "id": "bird_8f77137b-4a94-4f2f-adf2-47cca763d903", "provider": "bird", "timeStamp": "02/16/2020, 15:08:45"}, "type": "Feature"}, {"geometry": {"coordinates": [8.54349166666667, 47.3753316666667], "type": "Point"}, "properties": {"charge": 93, "id": "bird_6cba5d78-bd1b-4c6a-9a83-04b9cffc22fd", "provider": "bird", "timeStamp": "02/16/2020, 15:08:45"}, "type": "Feature"}, {"geometry": {"coordinates": [8.54349, 47.375335], "type": "Point"}, "properties": {"charge": 92, "id": "bird_8be46e2c-2d05-477c-a73f-268f113003d3", "provider": "bird", "timeStamp": "02/16/2020, 15:08:45"}, "type": "Feature"}, {"geometry": {"coordinates": [8.54477, 47.382115], "type": "Point"}, "properties": {"charge": 72, "id": "bird_3396d57e-8802-499e-a67e-72823df9272f", "provider": "bird", "timeStamp": "02/16/2020, 15:08:45"}, "type": "Feature"}, {"geometry": {"coordinates": [8.517775, 47.3859933333333], "type": "Point"}, "properties": {"charge": 100, "id": "bird_6d2a699c-4a0e-49e6-bbb8-989b4a32fda6", "provider": "bird", "timeStamp": "02/16/2020, 15:08:45"}, "type": "Feature"}, {"geometry": {"coordinates": [8.51751166666667, 47.385735], "type": "Point"}, "properties": {"charge": 96, "id": "bird_6dcb6c9f-b877-43e1-87d3-f03415c7e849", "provider": "bird", "timeStamp": "02/16/2020, 15:08:45"}, "type": "Feature"}, {"geometry": {"coordinates": [8.54347666666667, 47.37548], "type": "Point"}, "properties": {"charge": 96, "id": "bird_c8ed36c0-7174-4f2c-8bb1-52b38d080410", "provider": "bird", "timeStamp": "02/16/2020, 15:08:45"}, "type": "Feature"}, {"geometry": {"coordinates": [8.51652, 47.3755716666667], "type": "Point"}, "properties": {"charge": 100, "id": "bird_ec835154-55de-47da-9c55-a6e3bac875ae", "provider": "bird", "timeStamp": "02/16/2020, 15:08:45"}, "type": "Feature"}, {"geometry": {"coordinates": [8.5167, 47.375355], "type": "Point"}, "properties": {"charge": 100, "id": "bird_71899588-7b82-4015-b945-026e76d9a3b5", "provider": "bird", "timeStamp": "02/16/2020, 15:08:45"}, "type": "Feature"}, {"geometry": {"coordinates": [8.54121833333333, 47.37331], "type": "Point"}, "properties": {"charge": 60, "id": "bird_6a184347-7be9-4383-9709-e67c819d3918", "provider": "bird", "timeStamp": "02/16/2020, 15:08:45"}, "type": "Feature"}, {"geometry": {"coordinates": [8.517305, 47.38533], "type": "Point"}, "properties": {"charge": 19, "id": "bird_8ac4dc4f-f413-4b5d-b752-498bae0673a2", "provider": "bird", "timeStamp": "02/16/2020, 15:08:45"}, "type": "Feature"}, {"geometry": {"coordinates": [8.53525770778426, 47.3706244085059], "type": "Point"}, "properties": {"charge": 22, "id": "bird_cf4e0649-13e5-40f8-b28d-7a1bbbfbf791", "provider": "bird", "timeStamp": "02/16/2020, 15:08:45"}, "type": "Feature"}, {"geometry": {"coordinates": [8.53515, 47.370605], "type": "Point"}, "properties": {"charge": 53, "id": "bird_e39e9466-5470-4b95-8e3a-52688aae0986", "provider": "bird", "timeStamp": "02/16/2020, 15:08:45"}, "type": "Feature"}, {"geometry": {"coordinates": [8.51792166666667, 47.3857883333333], "type": "Point"}, "properties": {"charge": 100, "id": "bird_1187ac18-cd20-4842-8b5e-4f8b9b4a84b7", "provider": "bird", "timeStamp": "02/16/2020, 15:08:45"}, "type": "Feature"}, {"geometry": {"coordinates": [8.53720666666667, 47.3887366666667], "type": "Point"}, "properties": {"charge": 29, "id": "bird_ffd6da39-c3b7-4d0b-9e05-45c07ca8cc6b", "provider": "bird", "timeStamp": "02/16/2020, 15:08:45"}, "type": "Feature"}, {"geometry": {"coordinates": [8.54362166666667, 47.37614], "type": "Point"}, "properties": {"charge": 45, "id": "bird_4a317a65-7727-439d-80ec-6c762fb35b27", "provider": "bird", "timeStamp": "02/16/2020, 15:08:45"}, "type": "Feature"}, {"geometry": {"coordinates": [8.51678833333333, 47.3755383333333], "type": "Point"}, "properties": {"charge": 98, "id": "bird_4b50e626-396a-4029-a552-ce2e973c60f9", "provider": "bird", "timeStamp": "02/16/2020, 15:08:45"}, "type": "Feature"}, {"geometry": {"coordinates": [8.51727666666667, 47.38506], "type": "Point"}, "properties": {"charge": 73, "id": "bird_1bd31a53-499a-40fe-8c98-f1b642fcd384", "provider": "bird", "timeStamp": "02/16/2020, 15:08:45"}, "type": "Feature"}, {"geometry": {"coordinates": [8.52315, 47.3711616666667], "type": "Point"}, "properties": {"charge": 100, "id": "bird_352a1b20-2047-40d9-859d-6645d6cc566a", "provider": "bird", "timeStamp": "02/16/2020, 15:08:45"}, "type": "Feature"}, {"geometry": {"coordinates": [8.53516666666667, 47.3706516666667], "type": "Point"}, "properties": {"charge": 85, "id": "bird_a74cce1c-6eeb-4fc2-9227-532bbd83c2fd", "provider": "bird", "timeStamp": "02/16/2020, 15:08:45"}, "type": "Feature"}, {"geometry": {"coordinates": [8.52321166666667, 47.3711466666667], "type": "Point"}, "properties": {"charge": 98, "id": "bird_734efa97-d418-4eb7-8f5f-72d85be5f1a2", "provider": "bird", "timeStamp": "02/16/2020, 15:08:45"}, "type": "Feature"}, {"geometry": {"coordinates": [8.52350833333333, 47.3710516666667], "type": "Point"}, "properties": {"charge": 98, "id": "bird_099ede3d-45b8-4f5c-837a-0a4e63ca9ab6", "provider": "bird", "timeStamp": "02/16/2020, 15:08:45"}, "type": "Feature"}, {"geometry": {"coordinates": [8.51670166666667, 47.375775], "type": "Point"}, "properties": {"charge": 53, "id": "bird_c7b435b0-2e7a-4f36-be4b-3a60726cea00", "provider": "bird", "timeStamp": "02/16/2020, 15:08:45"}, "type": "Feature"}, {"geometry": {"coordinates": [8.51672166666667, 47.37579], "type": "Point"}, "properties": {"charge": 33, "id": "bird_a546efc0-ad1e-42c2-ba55-8bff126a1bca", "provider": "bird", "timeStamp": "02/16/2020, 15:08:45"}, "type": "Feature"}, {"geometry": {"coordinates": [8.51674166666667, 47.37577], "type": "Point"}, "properties": {"charge": 99, "id": "bird_060b882b-006a-4ebf-bf4e-131f687e4c15", "provider": "bird", "timeStamp": "02/16/2020, 15:08:45"}, "type": "Feature"}, {"geometry": {"coordinates": [8.518435, 47.3860966666667], "type": "Point"}, "properties": {"charge": 57, "id": "bird_48c5b673-5f68-4fe0-b3ae-9d0502c06c6d", "provider": "bird", "timeStamp": "02/16/2020, 15:08:45"}, "type": "Feature"}, {"geometry": {"coordinates": [8.51836666666667, 47.38602], "type": "Point"}, "properties": {"charge": 70, "id": "bird_a5726f4f-9ddf-49c0-8893-3c1c13615c7a", "provider": "bird", "timeStamp": "02/16/2020, 15:08:45"}, "type": "Feature"}, {"geometry": {"coordinates": [8.523515, 47.3711283333333], "type": "Point"}, "properties": {"charge": 100, "id": "bird_97597760-2cbe-4f88-9f9d-afc7c169a10e", "provider": "bird", "timeStamp": "02/16/2020, 15:08:45"}, "type": "Feature"}, {"geometry": {"coordinates": [8.51794, 47.38559], "type": "Point"}, "properties": {"charge": 99, "id": "bird_f7cee31c-ad55-4407-a475-26d59d1007c6", "provider": "bird", "timeStamp": "02/16/2020, 15:08:45"}, "type": "Feature"}, {"geometry": {"coordinates": [8.51791833333333, 47.385505], "type": "Point"}, "properties": {"charge": 100, "id": "bird_9e641549-2d7d-4b35-9397-243f4b96c07a", "provider": "bird", "timeStamp": "02/16/2020, 15:08:45"}, "type": "Feature"}, {"geometry": {"coordinates": [8.52344166666667, 47.3712083333333], "type": "Point"}, "properties": {"charge": 36, "id": "bird_6e85c1d9-7aa0-4d99-95ce-46768f526e0c", "provider": "bird", "timeStamp": "02/16/2020, 15:08:45"}, "type": "Feature"}, {"geometry": {"coordinates": [8.51780333333333, 47.3853566666667], "type": "Point"}, "properties": {"charge": 100, "id": "bird_a56811ef-5881-40af-966e-b408777f6a12", "provider": "bird", "timeStamp": "02/16/2020, 15:08:45"}, "type": "Feature"}, {"geometry": {"coordinates": [8.523525, 47.3711883333333], "type": "Point"}, "properties": {"charge": 98, "id": "bird_3dad83d8-cc6f-4274-80a0-ffa66a3a0474", "provider": "bird", "timeStamp": "02/16/2020, 15:08:45"}, "type": "Feature"}, {"geometry": {"coordinates": [8.51802666666667, 47.3855783333333], "type": "Point"}, "properties": {"charge": 100, "id": "bird_f8e6196a-c62d-4e39-900d-22fe227841c6", "provider": "bird", "timeStamp": "02/16/2020, 15:08:45"}, "type": "Feature"}, {"geometry": {"coordinates": [8.52345333333333, 47.3712316666667], "type": "Point"}, "properties": {"charge": 99, "id": "bird_9f269acb-0036-468a-ba3b-97560bd65f32", "provider": "bird", "timeStamp": "02/16/2020, 15:08:45"}, "type": "Feature"}, {"geometry": {"coordinates": [8.51791333333333, 47.3853383333333], "type": "Point"}, "properties": {"charge": 100, "id": "bird_b19a0200-31f9-4bbd-9b83-ba39b2d25248", "provider": "bird", "timeStamp": "02/16/2020, 15:08:45"}, "type": "Feature"}, {"geometry": {"coordinates": [8.51693666666667, 47.3758616666667], "type": "Point"}, "properties": {"charge": 80, "id": "bird_36dc4ff7-b7ef-4628-a6ca-950e5dab33c1", "provider": "bird", "timeStamp": "02/16/2020, 15:08:45"}, "type": "Feature"}, {"geometry": {"coordinates": [8.53507166666667, 47.3709416666667], "type": "Point"}, "properties": {"charge": 47, "id": "bird_74ddfb33-db86-4b14-a5d5-d486184f8b89", "provider": "bird", "timeStamp": "02/16/2020, 15:08:45"}, "type": "Feature"}, {"geometry": {"coordinates": [8.541515, 47.3742633333333], "type": "Point"}, "properties": {"charge": 65, "id": "bird_2eca1436-a3ee-4ea5-901d-108dd7ccc443", "provider": "bird", "timeStamp": "02/16/2020, 15:08:45"}, "type": "Feature"}, {"geometry": {"coordinates": [8.53592, 47.3712], "type": "Point"}, "properties": {"charge": 36, "id": "bird_ee32036a-14e5-4cee-a698-6621de1bde42", "provider": "bird", "timeStamp": "02/16/2020, 15:08:45"}, "type": "Feature"}, {"geometry": {"coordinates": [8.52413, 47.3711966666667], "type": "Point"}, "properties": {"charge": 98, "id": "bird_ea1b52b1-53f4-4c46-aae7-4830786ec45d", "provider": "bird", "timeStamp": "02/16/2020, 15:08:45"}, "type": "Feature"}, {"geometry": {"coordinates": [8.52413666666667, 47.3712316666667], "type": "Point"}, "properties": {"charge": 99, "id": "bird_afcebc97-5db0-4702-a669-acaca259162a", "provider": "bird", "timeStamp": "02/16/2020, 15:08:45"}, "type": "Feature"}, {"geometry": {"coordinates": [8.51644666666667, 47.3771516666667], "type": "Point"}, "properties": {"charge": 75, "id": "bird_bf8e1437-5f1f-49ed-a6b8-5409d96340f0", "provider": "bird", "timeStamp": "02/16/2020, 15:08:45"}, "type": "Feature"}, {"geometry": {"coordinates": [8.51632, 47.3776283333333], "type": "Point"}, "properties": {"charge": 92, "id": "bird_0d7406a6-9354-4f08-b18c-c75f4c5d5abb", "provider": "bird", "timeStamp": "02/16/2020, 15:08:45"}, "type": "Feature"}, {"geometry": {"coordinates": [8.51600333333333, 47.3788483333333], "type": "Point"}, "properties": {"charge": 43, "id": "bird_a0759444-9bbd-4f3a-838e-256b9fab8959", "provider": "bird", "timeStamp": "02/16/2020, 15:08:45"}, "type": "Feature"}, {"geometry": {"coordinates": [8.543975, 47.3802], "type": "Point"}, "properties": {"charge": 78, "id": "bird_1f0174d5-11a3-47e4-ab73-88d028cbf635", "provider": "bird", "timeStamp": "02/16/2020, 15:08:45"}, "type": "Feature"}, {"geometry": {"coordinates": [8.54086166666667, 47.3741033333333], "type": "Point"}, "properties": {"charge": 55, "id": "bird_cb7722fe-fb6f-4540-a88a-2a1da2002e8d", "provider": "bird", "timeStamp": "02/16/2020, 15:08:45"}, "type": "Feature"}, {"geometry": {"coordinates": [8.51635333333333, 47.3784033333333], "type": "Point"}, "properties": {"charge": 42, "id": "bird_1e38dd67-17bf-4e54-828d-f4aa62748ed3", "provider": "bird", "timeStamp": "02/16/2020, 15:08:45"}, "type": "Feature"}, {"geometry": {"coordinates": [8.52611666666667, 47.3889533333333], "type": "Point"}, "properties": {"charge": 74, "id": "bird_c3ef8dab-5fea-4087-b0ce-b845d483c704", "provider": "bird", "timeStamp": "02/16/2020, 15:08:45"}, "type": "Feature"}, {"geometry": {"coordinates": [8.526305, 47.3710133333333], "type": "Point"}, "properties": {"charge": 61, "id": "bird_304d6c1c-0682-4f79-a58d-b87caf73a76e", "provider": "bird", "timeStamp": "02/16/2020, 15:08:45"}, "type": "Feature"}, {"geometry": {"coordinates": [8.52619, 47.3888583333333], "type": "Point"}, "properties": {"charge": 30, "id": "bird_b26d016a-2b3f-4922-bb20-147e5344d350", "provider": "bird", "timeStamp": "02/16/2020, 15:08:45"}, "type": "Feature"}, {"geometry": {"coordinates": [8.54211333333333, 47.37587], "type": "Point"}, "properties": {"charge": 47, "id": "bird_0d0334d9-cdc8-4d08-8a05-321dc8d7bf9b", "provider": "bird", "timeStamp": "02/16/2020, 15:08:45"}, "type": "Feature"}, {"geometry": {"coordinates": [8.53641166666667, 47.3879966666667], "type": "Point"}, "properties": {"charge": 69, "id": "bird_844d9700-4128-4fb8-8976-08f9e2564f28", "provider": "bird", "timeStamp": "02/16/2020, 15:08:45"}, "type": "Feature"}, {"geometry": {"coordinates": [8.54047, 47.3744666666667], "type": "Point"}, "properties": {"charge": 85, "id": "bird_508285d9-7979-4c02-a936-8e9fa55eb7d5", "provider": "bird", "timeStamp": "02/16/2020, 15:08:45"}, "type": "Feature"}, {"geometry": {"coordinates": [8.520005, 47.3858716666667], "type": "Point"}, "properties": {"charge": 92, "id": "bird_3fba040f-99fe-4d32-8703-a4e30a892c05", "provider": "bird", "timeStamp": "02/16/2020, 15:08:45"}, "type": "Feature"}, {"geometry": {"coordinates": [8.535385, 47.3718216666667], "type": "Point"}, "properties": {"charge": 48, "id": "bird_7c630a4f-7870-40ac-8e83-c14ab8d28048", "provider": "bird", "timeStamp": "02/16/2020, 15:08:45"}, "type": "Feature"}, {"geometry": {"coordinates": [8.53981833333333, 47.3740316666667], "type": "Point"}, "properties": {"charge": 92, "id": "bird_88b615d3-c765-4972-986a-deac28772a53", "provider": "bird", "timeStamp": "02/16/2020, 15:08:45"}, "type": "Feature"}, {"geometry": {"coordinates": [8.52572, 47.3884116666667], "type": "Point"}, "properties": {"charge": 64, "id": "bird_d1e40569-6abb-4cb0-84fa-4aa09209d835", "provider": "bird", "timeStamp": "02/16/2020, 15:08:45"}, "type": "Feature"}, {"geometry": {"coordinates": [8.51706166666667, 47.3815116666667], "type": "Point"}, "properties": {"charge": 72, "id": "bird_6703431f-e004-4ede-a1a6-4d3a95f9ca67", "provider": "bird", "timeStamp": "02/16/2020, 15:08:45"}, "type": "Feature"}, {"geometry": {"coordinates": [8.541695, 47.376015], "type": "Point"}, "properties": {"charge": 66, "id": "bird_574bc3c9-9b86-4193-87b8-124f40578bae", "provider": "bird", "timeStamp": "02/16/2020, 15:08:45"}, "type": "Feature"}, {"geometry": {"coordinates": [8.51812166666667, 47.3763166666667], "type": "Point"}, "properties": {"charge": 29, "id": "bird_840eeba3-fad3-4e08-b469-b8aa0987845d", "provider": "bird", "timeStamp": "02/16/2020, 15:08:45"}, "type": "Feature"}, {"geometry": {"coordinates": [8.53915833333333, 47.3737566666667], "type": "Point"}, "properties": {"charge": 74, "id": "bird_7576c45a-7ab5-4538-a639-37b40b000e7c", "provider": "bird", "timeStamp": "02/16/2020, 15:08:45"}, "type": "Feature"}, {"geometry": {"coordinates": [8.539005, 47.3738666666667], "type": "Point"}, "properties": {"charge": 66, "id": "bird_4c4e90a6-f90e-4da8-bc10-d7d3751b9f7b", "provider": "bird", "timeStamp": "02/16/2020, 15:08:45"}, "type": "Feature"}, {"geometry": {"coordinates": [8.526365, 47.38821], "type": "Point"}, "properties": {"charge": 37, "id": "bird_60782911-7a1f-4481-a2f8-9c791d13e1f9", "provider": "bird", "timeStamp": "02/16/2020, 15:08:45"}, "type": "Feature"}, {"geometry": {"coordinates": [8.54047333333333, 47.375275], "type": "Point"}, "properties": {"charge": 74, "id": "bird_5449d4b9-0a76-462f-bf55-5c1bd45241dc", "provider": "bird", "timeStamp": "02/16/2020, 15:08:45"}, "type": "Feature"}, {"geometry": {"coordinates": [8.51753666666667, 47.3792833333333], "type": "Point"}, "properties": {"charge": 55, "id": "bird_c3a5b9ec-1b5e-44c4-a449-82f7de00a0e5", "provider": "bird", "timeStamp": "02/16/2020, 15:08:45"},