{"features": [{"geometry": {"coordinates": [8.540062, 47.374392], "type": "Point"}, "properties": {"address": "Uraniastrasse 7", "electric": 7, "id": "pb_60", "manual": 11, "name": "Demo Station Werdm\u00fchleplatz", "provider": "publibike", "timeStamp": "01/30/2020, 21:29:12", "zip": 8001}, "type": "Feature"}, {"geometry": {"coordinates": [8.5452956, 47.4099615], "type": "Point"}, "properties": {"address": "Querstrasse 8", "electric": 1, "id": "pb_61", "manual": 1, "name": "Marktplatz", "provider": "publibike", "timeStamp": "01/30/2020, 21:29:12", "zip": 8050}, "type": "Feature"}, {"geometry": {"coordinates": [8.5156327, 47.3795837], "type": "Point"}, "properties": {"address": "Bullingerstrasse 5", "electric": 2, "id": "pb_80", "manual": 6, "name": "Bullingerplatz", "provider": "publibike", "timeStamp": "01/30/2020, 21:29:12", "zip": 8004}, "type": "Feature"}, {"geometry": {"coordinates": [8.5104051, 47.3899342], "type": "Point"}, "properties": {"address": "Pfingstweidstrasse 96e", "electric": 2, "id": "pb_81", "manual": 1, "name": "Herdern", "provider": "publibike", "timeStamp": "01/30/2020, 21:29:12", "zip": 8001}, "type": "Feature"}, {"geometry": {"coordinates": [8.535718, 47.359675], "type": "Point"}, "properties": {"address": "Mythenquai 50", "electric": 0, "id": "pb_82", "manual": 4, "name": "Hafen Enge", "provider": "publibike", "timeStamp": "01/30/2020, 21:29:12", "zip": 8002}, "type": "Feature"}, {"geometry": {"coordinates": [8.520370505, 47.358663827], "type": "Point"}, "properties": {"address": "Bubenbergstrasse 1", "electric": 3, "id": "pb_83", "manual": 3, "name": "Comerge", "provider": "publibike", "timeStamp": "01/30/2020, 21:29:12", "zip": 8045}, "type": "Feature"}, {"geometry": {"coordinates": [8.5412505, 47.3789825], "type": "Point"}, "properties": {"address": "Museumstrasse 2", "electric": 10, "id": "pb_84", "manual": 9, "name": "Landesmuseum", "provider": "publibike", "timeStamp": "01/30/2020, 21:29:12", "zip": 8001}, "type": "Feature"}, {"geometry": {"coordinates": [8.5235479, 47.3716661], "type": "Point"}, "properties": {"address": "Birmensdorferstrasse 80", "electric": 3, "id": "pb_85", "manual": 6, "name": "Bahnhof Wiedikon", "provider": "publibike", "timeStamp": "01/30/2020, 21:29:12", "zip": 8003}, "type": "Feature"}, {"geometry": {"coordinates": [8.506822854, 47.40781197], "type": "Point"}, "properties": {"address": "Stefano-Franscini-Platz 5", "electric": 4, "id": "pb_86", "manual": 2, "name": "ETH H\u00f6nggerberg", "provider": "publibike", "timeStamp": "01/30/2020, 21:29:12", "zip": 8093}, "type": "Feature"}, {"geometry": {"coordinates": [8.536101, 47.371083], "type": "Point"}, "properties": {"address": "Pelikanplatz 5", "electric": 2, "id": "pb_87", "manual": 6, "name": "Pelikanplatz", "provider": "publibike", "timeStamp": "01/30/2020, 21:29:12", "zip": 8001}, "type": "Feature"}, {"geometry": {"coordinates": [8.5257822, 47.3651936], "type": "Point"}, "properties": {"address": "H\u00fcrlimannplatz 90", "electric": 0, "id": "pb_88", "manual": 3, "name": "H\u00fcrlimannplatz", "provider": "publibike", "timeStamp": "01/30/2020, 21:29:12", "zip": 8002}, "type": "Feature"}, {"geometry": {"coordinates": [8.5313344, 47.3713591], "type": "Point"}, "properties": {"address": "Selnaustrasse 32", "electric": 7, "id": "pb_89", "manual": 2, "name": "Stauffacherbr\u00fccke", "provider": "publibike", "timeStamp": "01/30/2020, 21:29:12", "zip": 8001}, "type": "Feature"}, {"geometry": {"coordinates": [8.5056978, 47.3917964], "type": "Point"}, "properties": {"address": "Sportweg 25", "electric": 3, "id": "pb_90", "manual": 5, "name": "Sportweg", "provider": "publibike", "timeStamp": "01/30/2020, 21:29:12", "zip": 8005}, "type": "Feature"}, {"geometry": {"coordinates": [8.5181701, 47.3917837], "type": "Point"}, "properties": {"address": "Hardturmstrasse 11", "electric": 1, "id": "pb_91", "manual": 4, "name": "Puls 5", "provider": "publibike", "timeStamp": "01/30/2020, 21:29:12", "zip": 8005}, "type": "Feature"}, {"geometry": {"coordinates": [8.5286468, 47.3820827], "type": "Point"}, "properties": {"address": "R\u00f6ntgenstrasse 6", "electric": 4, "id": "pb_92", "manual": 6, "name": "R\u00f6ntgenstrasse", "provider": "publibike", "timeStamp": "01/30/2020, 21:29:12", "zip": 8005}, "type": "Feature"}, {"geometry": {"coordinates": [8.531935, 47.384918], "type": "Point"}, "properties": {"address": "Kornhausbr\u00fccke 1", "electric": 4, "id": "pb_93", "manual": 3, "name": "Limmatplatz", "provider": "publibike", "timeStamp": "01/30/2020, 21:29:12", "zip": 8005}, "type": "Feature"}, {"geometry": {"coordinates": [8.5354006, 47.3758639], "type": "Point"}, "properties": {"address": "Gessnerallee 15", "electric": 2, "id": "pb_94", "manual": 1, "name": "Gessnerallee", "provider": "publibike", "timeStamp": "01/30/2020, 21:29:12", "zip": 8001}, "type": "Feature"}, {"geometry": {"coordinates": [8.523818, 47.377148], "type": "Point"}, "properties": {"address": "Stauffacherstrasse 127", "electric": 8, "id": "pb_95", "manual": 9, "name": "B\u00e4ckeranlage", "provider": "publibike", "timeStamp": "01/30/2020, 21:29:12", "zip": 8004}, "type": "Feature"}, {"geometry": {"coordinates": [8.531836, 47.378548], "type": "Point"}, "properties": {"address": "Lagerstrasse 44", "electric": 7, "id": "pb_96", "manual": 11, "name": "Gustav-Gull-Platz", "provider": "publibike", "timeStamp": "01/30/2020, 21:29:12", "zip": 8004}, "type": "Feature"}, {"geometry": {"coordinates": [8.5104883, 47.3771535], "type": "Point"}, "properties": {"address": "Zurlindenstrasse 291", "electric": 3, "id": "pb_97", "manual": 5, "name": "Zurlindenstrasse", "provider": "publibike", "timeStamp": "01/30/2020, 21:29:12", "zip": 8003}, "type": "Feature"}, {"geometry": {"coordinates": [8.5333139, 47.3731102], "type": "Point"}, "properties": {"address": "Sihlstrasse 81", "electric": 6, "id": "pb_98", "manual": 1, "name": "Sihlstrasse", "provider": "publibike", "timeStamp": "01/30/2020, 21:29:12", "zip": 8001}, "type": "Feature"}, {"geometry": {"coordinates": [8.520532, 47.374951], "type": "Point"}, "properties": {"address": "Feldstrasse 24", "electric": 4, "id": "pb_99", "manual": 7, "name": "Kalkbreite", "provider": "publibike", "timeStamp": "01/30/2020, 21:29:12", "zip": 8004}, "type": "Feature"}, {"geometry": {"coordinates": [8.539046, 47.368064], "type": "Point"}, "properties": {"address": "Talstrasse 12", "electric": 1, "id": "pb_100", "manual": 4, "name": "Z\u00fcrcher Kantonalbank", "provider": "publibike", "timeStamp": "01/30/2020, 21:29:12", "zip": 8001}, "type": "Feature"}, {"geometry": {"coordinates": [8.5348427, 47.3625938], "type": "Point"}, "properties": {"address": "Breitingerstrasse 5", "electric": 0, "id": "pb_101", "manual": 2, "name": "Rentenanstalt", "provider": "publibike", "timeStamp": "01/30/2020, 21:29:12", "zip": 8002}, "type": "Feature"}, {"geometry": {"coordinates": [8.5166922, 47.3897772], "type": "Point"}, "properties": {"address": "Technoparkstrasse 4", "electric": 1, "id": "pb_102", "manual": 3, "name": "Turbinenplatz", "provider": "publibike", "timeStamp": "01/30/2020, 21:29:12", "zip": 8005}, "type": "Feature"}, {"geometry": {"coordinates": [8.539312, 47.3739964], "type": "Point"}, "properties": {"address": "Oetenbachgasse 14", "electric": 6, "id": "pb_104", "manual": 11, "name": "Rennweg", "provider": "publibike", "timeStamp": "01/30/2020, 21:29:12", "zip": 8001}, "type": "Feature"}, {"geometry": {"coordinates": [8.5360685, 47.3775022], "type": "Point"}, "properties": {"address": "Kasernenstrasse 101", "electric": 28, "id": "pb_105", "manual": 35, "name": "Sihlpost", "provider": "publibike", "timeStamp": "01/30/2020, 21:29:12", "zip": 8004}, "type": "Feature"}, {"geometry": {"coordinates": [8.53545, 47.382798], "type": "Point"}, "properties": {"address": "Ausstellungsstrasse 44", "electric": 11, "id": "pb_106", "manual": 5, "name": "Museum f\u00fcr Gestaltung", "provider": "publibike", "timeStamp": "01/30/2020, 21:29:12", "zip": 8005}, "type": "Feature"}, {"geometry": {"coordinates": [8.5306155, 47.3647902], "type": "Point"}, "properties": {"address": "Gutenbergstrasse 1", "electric": 7, "id": "pb_107", "manual": 4, "name": "Bederbr\u00fccke", "provider": "publibike", "timeStamp": "01/30/2020, 21:29:12", "zip": 8002}, "type": "Feature"}, {"geometry": {"coordinates": [8.518982, 47.386741], "type": "Point"}, "properties": {"address": "Geroldstrasse 4", "electric": 10, "id": "pb_108", "manual": 6, "name": "Bahnhof Hardbr\u00fccke", "provider": "publibike", "timeStamp": "01/30/2020, 21:29:12", "zip": 8005}, "type": "Feature"}, {"geometry": {"coordinates": [8.53001018, 47.37247535], "type": "Point"}, "properties": {"address": "Werdstrasse 21", "electric": 1, "id": "pb_109", "manual": 0, "name": "Tamedia", "provider": "publibike", "timeStamp": "01/30/2020, 21:29:12", "zip": 8004}, "type": "Feature"}, {"geometry": {"coordinates": [8.4860017, 47.396401], "type": "Point"}, "properties": {"address": "Gr\u00fcnauring 37", "electric": 5, "id": "pb_110", "manual": 5, "name": "Gr\u00fcnau", "provider": "publibike", "timeStamp": "01/30/2020, 21:29:12", "zip": 8064}, "type": "Feature"}, {"geometry": {"coordinates": [8.548519, 47.376756], "type": "Point"}, "properties": {"address": "R\u00e4mistrasse 101", "electric": 0, "id": "pb_111", "manual": 0, "name": "ETH Zentrum", "provider": "publibike", "timeStamp": "01/30/2020, 21:29:12", "zip": 8006}, "type": "Feature"}, {"geometry": {"coordinates": [8.520449, 47.388151], "type": "Point"}, "properties": {"address": "Josefstrasse 224", "electric": 0, "id": "pb_112", "manual": 5, "name": "Steinfelsareal", "provider": "publibike", "timeStamp": "01/30/2020, 21:29:12", "zip": 8005}, "type": "Feature"}, {"geometry": {"coordinates": [8.520482, 47.37209], "type": "Point"}, "properties": {"address": "Weststrasse 115", "electric": 5, "id": "pb_124", "manual": 5, "name": "Weststrasse", "provider": "publibike", "timeStamp": "01/30/2020, 21:29:12", "zip": 8003}, "type": "Feature"}, {"geometry": {"coordinates": [8.496727, 47.378521], "type": "Point"}, "properties": {"address": "Albisriederstrasse 200", "electric": 4, "id": "pb_125", "manual": 1, "name": "Utogrund", "provider": "publibike", "timeStamp": "01/30/2020, 21:29:12", "zip": 8047}, "type": "Feature"}, {"geometry": {"coordinates": [8.510418, 47.381356], "type": "Point"}, "properties": {"address": "Bullingerstrasse 73", "electric": 6, "id": "pb_126", "manual": 7, "name": "Hardau", "provider": "publibike", "timeStamp": "01/30/2020, 21:29:12", "zip": 8004}, "type": "Feature"}, {"geometry": {"coordinates": [8.525525, 47.361567], "type": "Point"}, "properties": {"address": "Klopstockstrasse 23", "electric": 5, "id": "pb_127", "manual": 5, "name": "Klopstockwiese", "provider": "publibike", "timeStamp": "01/30/2020, 21:29:12", "zip": 8002}, "type": "Feature"}, {"geometry": {"coordinates": [8.518143, 47.363148], "type": "Point"}, "properties": {"address": "Haldenstrasse 8", "electric": 5, "id": "pb_128", "manual": 1, "name": "Binz", "provider": "publibike", "timeStamp": "01/30/2020, 21:29:12", "zip": 8045}, "type": "Feature"}, {"geometry": {"coordinates": [8.542726, 47.379952], "type": "Point"}, "properties": {"address": "Walchestrasse 11", "electric": 1, "id": "pb_129", "manual": 1, "name": "Stampfenbachplatz", "provider": "publibike", "timeStamp": "01/30/2020, 21:29:12", "zip": 8006}, "type": "Feature"}, {"geometry": {"coordinates": [8.488108, 47.391366], "type": "Point"}, "properties": {"address": "Altstetterplatz 1", "electric": 8, "id": "pb_130", "manual": 6, "name": "Bahnhof Altstetten", "provider": "publibike", "timeStamp": "01/30/2020, 21:29:12", "zip": 8048}, "type": "Feature"}, {"geometry": {"coordinates": [8.554114, 47.365119], "type": "Point"}, "properties": {"address": "Kreuzplatz 2", "electric": 6, "id": "pb_131", "manual": 6, "name": "Kreuzplatz", "provider": "publibike", "timeStamp": "01/30/2020, 21:29:12", "zip": 8032}, "type": "Feature"}, {"geometry": {"coordinates": [8.549852, 47.35594], "type": "Point"}, "properties": {"address": "H\u00f6schgasse 3", "electric": 2, "id": "pb_132", "manual": 8, "name": "Blatterwiese", "provider": "publibike", "timeStamp": "01/30/2020, 21:29:12", "zip": 8008}, "type": "Feature"}, {"geometry": {"coordinates": [8.554501, 47.36162], "type": "Point"}, "properties": {"address": "Feldeggstrasse 80", "electric": 0, "id": "pb_133", "manual": 3, "name": "Villa Bleuler", "provider": "publibike", "timeStamp": "01/30/2020, 21:29:12", "zip": 8008}, "type": "Feature"}, {"geometry": {"coordinates": [8.557088, 47.358557], "type": "Point"}, "properties": {"address": "M\u00fchlebachstrasse 131", "electric": 2, "id": "pb_134", "manual": 0, "name": "M\u00fchlebachstrasse", "provider": "publibike", "timeStamp": "01/30/2020, 21:29:12", "zip": 8008}, "type": "Feature"}, {"geometry": {"coordinates": [8.547639, 47.361266], "type": "Point"}, "properties": {"address": "Utoquai 50", "electric": 9, "id": "pb_135", "manual": 8, "name": "Seebad Utoquai", "provider": "publibike", "timeStamp": "01/30/2020, 21:29:12", "zip": 8008}, "type": "Feature"}, {"geometry": {"coordinates": [8.548045, 47.370869], "type": "Point"}, "properties": {"address": "Heimplatz 1", "electric": 12, "id": "pb_137", "manual": 1, "name": "Kunsthaus", "provider": "publibike", "timeStamp": "01/30/2020, 21:29:12", "zip": 8001}, "type": "Feature"}, {"geometry": {"coordinates": [8.543447, 47.375933], "type": "Point"}, "properties": {"address": "Limmatquai 138", "electric": 7, "id": "pb_138", "manual": 8, "name": "Central", "provider": "publibike", "timeStamp": "01/30/2020, 21:29:12", "zip": 8001}, "type": "Feature"}, {"geometry": {"coordinates": [8.549356, 47.408827], "type": "Point"}, "properties": {"address": "Tramstrasse 35", "electric": 3, "id": "pb_139", "manual": 4, "name": "ewz Tramstrasse", "provider": "publibike", "timeStamp": "01/30/2020, 21:29:12", "zip": 8050}, "type": "Feature"}, {"geometry": {"coordinates": [8.533736, 47.366904], "type": "Point"}, "properties": {"address": "Bleicherweg 33", "electric": 3, "id": "pb_140", "manual": 10, "name": "Bleicherweg", "provider": "publibike", "timeStamp": "01/30/2020, 21:29:12", "zip": 8002}, "type": "Feature"}, {"geometry": {"coordinates": [8.544935, 47.366752], "type": "Point"}, "properties": {"address": "Bellevueplatz 2", "electric": 21, "id": "pb_141", "manual": 26, "name": "Bellevue", "provider": "publibike", "timeStamp": "01/30/2020, 21:29:12", "zip": 8001}, "type": "Feature"}, {"geometry": {"coordinates": [8.5285533, 47.3742296], "type": "Point"}, "properties": {"address": "Stauffacherstrasse 41", "electric": 1, "id": "pb_142", "manual": 0, "name": "Stauffacher", "provider": "publibike", "timeStamp": "01/30/2020, 21:29:12", "zip": 8004}, "type": "Feature"}, {"geometry": {"coordinates": [8.523722, 47.3899], "type": "Point"}, "properties": {"address": "Limmatstrasse 310", "electric": 1, "id": "pb_143", "manual": 4, "name": "Escher-Wyss-Platz", "provider": "publibike", "timeStamp": "01/30/2020, 21:29:12", "zip": 8005}, "type": "Feature"}, {"geometry": {"coordinates": [8.491061, 47.392336], "type": "Point"}, "properties": {"address": "Vulkanplatz 1", "electric": 1, "id": "pb_149", "manual": 9, "name": "Vulkanplatz", "provider": "publibike", "timeStamp": "01/30/2020, 21:29:12", "zip": 8048}, "type": "Feature"}, {"geometry": {"coordinates": [8.52306, 47.359872], "type": "Point"}, "properties": {"address": "Giessh\u00fcbelstrasse 15", "electric": 6, "id": "pb_150", "manual": 5, "name": "Utoplatz", "provider": "publibike", "timeStamp": "01/30/2020, 21:29:12", "zip": 8045}, "type": "Feature"}, {"geometry": {"coordinates": [8.486284, 47.387685], "type": "Point"}, "properties": {"address": "Lindenplatz 1", "electric": 5, "id": "pb_151", "manual": 5, "name": "Lindenplatz", "provider": "publibike", "timeStamp": "01/30/2020, 21:29:12", "zip": 8048}, "type": "Feature"}, {"geometry": {"coordinates": [8.49163, 47.389823], "type": "Point"}, "properties": {"address": "Hohlstrasse 563", "electric": 6, "id": "pb_152", "manual": 10, "name": "Luggweg", "provider": "publibike", "timeStamp": "01/30/2020, 21:29:12", "zip": 8048}, "type": "Feature"}, {"geometry": {"coordinates": [8.52174, 47.365272], "type": "Point"}, "properties": {"address": "Manessestrasse 87", "electric": 10, "id": "pb_153", "manual": 6, "name": "Manesseplatz", "provider": "publibike", "timeStamp": "01/30/2020, 21:29:12", "zip": 8045}, "type": "Feature"}, {"geometry": {"coordinates": [8.52714, 47.372329], "type": "Point"}, "properties": {"address": "Werdstrasse 75", "electric": 3, "id": "pb_154", "manual": 5, "name": "Werd", "provider": "publibike", "timeStamp": "01/30/2020, 21:29:12", "zip": 8004}, "type": "Feature"}, {"geometry": {"coordinates": [8.543042, 47.374711], "type": "Point"}, "properties": {"address": "Limmatquai 100", "electric": 0, "id": "pb_155", "manual": 0, "name": "Rudolf-Brun-Br\u00fccke", "provider": "publibike", "timeStamp": "01/30/2020, 21:29:12", "zip": 8001}, "type": "Feature"}, {"geometry": {"coordinates": [8.490837, 47.386596], "type": "Point"}, "properties": {"address": "Badenerstrasse 627", "electric": 2, "id": "pb_156", "manual": 6, "name": "Luggwegstrasse VBZ", "provider": "publibike", "timeStamp": "01/30/2020, 21:29:12", "zip": 8048}, "type": "Feature"}, {"geometry": {"coordinates": [8.535119, 47.355189], "type": "Point"}, "properties": {"address": "Mythenquai 95", "electric": 0, "id": "pb_157", "manual": 4, "name": "Strandbad Mythenquai", "provider": "publibike", "timeStamp": "01/30/2020, 21:29:12", "zip": 8002}, "type": "Feature"}, {"geometry": {"coordinates": [8.545505, 47.373675], "type": "Point"}, "properties": {"address": "Predigerpatz 21", "electric": 5, "id": "pb_158", "manual": 7, "name": "Predigerplatz", "provider": "publibike", "timeStamp": "01/30/2020, 21:29:12", "zip": 8001}, "type": "Feature"}, {"geometry": {"coordinates": [8.515558, 47.371868], "type": "Point"}, "properties": {"address": "Aemtlerstrasse 23", "electric": 5, "id": "pb_159", "manual": 3, "name": "Zwinglihaus", "provider": "publibike", "timeStamp": "01/30/2020, 21:29:12", "zip": 8003}, "type": "Feature"}, {"geometry": {"coordinates": [8.524629, 47.386072], "type": "Point"}, "properties": {"address": "Josefstrasse 188", "electric": 3, "id": "pb_160", "manual": 2, "name": "Josefwiese", "provider": "publibike", "timeStamp": "01/30/2020, 21:29:12", "zip": 8005}, "type": "Feature"}, {"geometry": {"coordinates": [8.527138, 47.387531], "type": "Point"}, "properties": {"address": "R\u00f6ntgenstrasse 87", "electric": 4, "id": "pb_164", "manual": 5, "name": "Markthalle", "provider": "publibike", "timeStamp": "01/30/2020, 21:29:12", "zip": 8005}, "type": "Feature"}, {"geometry": {"coordinates": [8.552717, 47.359978], "type": "Point"}, "properties": {"address": "Seefeldstrasse 96", "electric": 2, "id": "pb_263", "manual": 13, "name": "Feldeggstrasse", "provider": "publibike", "timeStamp": "01/30/2020, 21:29:12", "zip": 8008}, "type": "Feature"}, {"geometry": {"coordinates": [8.553189, 47.353198], "type": "Point"}, "properties": {"address": "Bellerivestrasse 170", "electric": 5, "id": "pb_264", "manual": 1, "name": "Lake Side", "provider": "publibike", "timeStamp": "01/30/2020, 21:29:12", "zip": 8008}, "type": "Feature"}, {"geometry": {"coordinates": [8.543437, 47.369256], "type": "Point"}, "properties": {"address": "Limmatquai 18", "electric": 0, "id": "pb_265", "manual": 0, "name": "Helmhaus", "provider": "publibike", "timeStamp": "01/30/2020, 21:29:12", "zip": 8032}, "type": "Feature"}, {"geometry": {"coordinates": [8.516676, 47.375819], "type": "Point"}, "properties": {"address": "Badenerstrasse 246", "electric": 5, "id": "pb_266", "manual": 2, "name": "Lochergut", "provider": "publibike", "timeStamp": "01/30/2020, 21:29:12", "zip": 8004}, "type": "Feature"}, {"geometry": {"coordinates": [8.514605, 47.389862], "type": "Point"}, "properties": {"address": "Pfingstweidstrasse 60", "electric": 1, "id": "pb_273", "manual": 4, "name": "Westpark", "provider": "publibike", "timeStamp": "01/30/2020, 21:29:12", "zip": 8005}, "type": "Feature"}, {"geometry": {"coordinates": [8.541239126, 47.375991201], "type": "Point"}, "properties": {"address": "Beatenplatz 1", "electric": 5, "id": "pb_274", "manual": 8, "name": "Beatenplatz", "provider": "publibike", "timeStamp": "01/30/2020, 21:29:12", "zip": 8001}, "type": "Feature"}, {"geometry": {"coordinates": [8.5417135, 47.3942197], "type": "Point"}, "properties": {"address": "Scheuchzerstrasse 181", "electric": 5, "id": "pb_275", "manual": 0, "name": "Pauluskirche", "provider": "publibike", "timeStamp": "01/30/2020, 21:29:12", "zip": 8057}, "type": "Feature"}, {"geometry": {"coordinates": [8.5528182, 47.414558], "type": "Point"}, "properties": {"address": "Hagenholzstrasse 51", "electric": 1, "id": "pb_276", "manual": 9, "name": "Airgate", "provider": "publibike", "timeStamp": "01/30/2020, 21:29:12", "zip": 8050}, "type": "Feature"}, {"geometry": {"coordinates": [8.537816, 47.413514], "type": "Point"}, "properties": {"address": "Birchstrasse 183", "electric": 3, "id": "pb_277", "manual": 4, "name": "Lamprechtweg", "provider": "publibike", "timeStamp": "01/30/2020, 21:29:12", "zip": 8050}, "type": "Feature"}, {"geometry": {"coordinates": [8.545602, 47.417701], "type": "Point"}, "properties": {"address": "Felsenrainstrasse 2", "electric": 2, "id": "pb_278", "manual": 7, "name": "Emil-Oberh\u00e4nsli", "provider": "publibike", "timeStamp": "01/30/2020, 21:29:12", "zip": 8050}, "type": "Feature"}, {"geometry": {"coordinates": [8.533647, 47.39808], "type": "Point"}, "properties": {"address": "Bucheggplatz 2", "electric": 3, "id": "pb_279", "manual": 1, "name": "Bucheggplatz", "provider": "publibike", "timeStamp": "01/30/2020, 21:29:12", "zip": 8057}, "type": "Feature"}, {"geometry": {"coordinates": [8.523549, 47.392347], "type": "Point"}, "properties": {"address": "Wipkingerplatz 4", "electric": 2, "id": "pb_280", "manual": 8, "name": "Wipkingerplatz", "provider": "publibike", "timeStamp": "01/30/2020, 21:29:12", "zip": 8037}, "type": "Feature"}, {"geometry": {"coordinates": [8.548562, 47.36691], "type": "Point"}, "properties": {"address": "Galerie \u00fcber Gleis 2/3", "electric": 22, "id": "pb_285", "manual": 3, "name": "Bahnhof Stadelhofen", "provider": "publibike", "timeStamp": "01/30/2020, 21:29:12", "zip": 8001}, "type": "Feature"}, {"geometry": {"coordinates": [8.493822, 47.3985553], "type": "Point"}, "properties": {"address": "Meierwiesenstrasse 12-4", "electric": 2, "id": "pb_286", "manual": 0, "name": "T\u00fcffenwies", "provider": "publibike", "timeStamp": "01/30/2020, 21:29:12", "zip": 8064}, "type": "Feature"}, {"geometry": {"coordinates": [8.552432, 47.3801757], "type": "Point"}, "properties": {"address": "Hochstrasse 34", "electric": 6, "id": "pb_356", "manual": 1, "name": "Siriuswiese", "provider": "publibike", "timeStamp": "01/30/2020, 21:29:12", "zip": 8044}, "type": "Feature"}, {"geometry": {"coordinates": [8.527298, 47.370141], "type": "Point"}, "properties": {"address": "Hallwylstrasse 71", "electric": 6, "id": "pb_357", "manual": 1, "name": "Hallwylstrasse", "provider": "publibike", "timeStamp": "01/30/2020, 21:29:12", "zip": 8004}, "type": "Feature"}, {"geometry": {"coordinates": [8.5414185, 47.3972455], "type": "Point"}, "properties": {"address": "Schaffhauserstrasse 137", "electric": 0, "id": "pb_358", "manual": 3, "name": "Milchbuck", "provider": "publibike", "timeStamp": "01/30/2020, 21:29:12", "zip": 8057}, "type": "Feature"}, {"geometry": {"coordinates": [8.512381, 47.393409], "type": "Point"}, "properties": {"address": "Hardturmstrasse 161", "electric": 2, "id": "pb_359", "manual": 1, "name": "Fischerweg", "provider": "publibike", "timeStamp": "01/30/2020, 21:29:12", "zip": 8005}, "type": "Feature"}, {"geometry": {"coordinates": [8.5421457, 47.3876979], "type": "Point"}, "properties": {"address": "Turnerstrasse 47", "electric": 2, "id": "pb_360", "manual": 1, "name": "Kirche Unterstrass", "provider": "publibike", "timeStamp": "01/30/2020, 21:29:12", "zip": 8006}, "type": "Feature"}, {"geometry": {"coordinates": [8.522117, 47.394554], "type": "Point"}, "properties": {"address": "Dorfstrasse 40", "electric": 2, "id": "pb_361", "manual": 2, "name": "Dorfstrasse", "provider": "publibike", "timeStamp": "01/30/2020, 21:29:12", "zip": 8037}, "type": "Feature"}, {"geometry": {"coordinates": [8.530437, 47.37271], "type": "Point"}, "properties": {"address": "Werdstrasse 25", "electric": 0, "id": "pb_362", "manual": 4, "name": "Stauffachertor", "provider": "publibike", "timeStamp": "01/30/2020, 21:29:12", "zip": 8004}, "type": "Feature"}, {"geometry": {"coordinates": [8.541712, 47.416155], "type": "Point"}, "properties": {"address": "Eggb\u00fchlstrasse 21", "electric": 5, "id": "pb_363", "manual": 4, "name": "Wahlenpark", "provider": "publibike", "timeStamp": "01/30/2020, 21:29:12", "zip": 8050}, "type": "Feature"}, {"geometry": {"coordinates": [8.5595335, 47.3708387], "type": "Point"}, "properties": {"address": "Dolderstrasse 32", "electric": 2, "id": "pb_364", "manual": 0, "name": "Kinderspital", "provider": "publibike", "timeStamp": "01/30/2020, 21:29:12", "zip": 8032}, "type": "Feature"}, {"geometry": {"coordinates": [8.536433, 47.388689], "type": "Point"}, "properties": {"address": "Kornhausstrasse 30", "electric": 3, "id": "pb_365", "manual": 2, "name": "Kornhausstrasse", "provider": "publibike", "timeStamp": "01/30/2020, 21:29:12", "zip": 8006}, "type": "Feature"}, {"geometry": {"coordinates": [8.55033, 47.407098], "type": "Point"}, "properties": {"address": "Schwamendingenstrasse 41", "electric": 3, "id": "pb_366", "manual": 4, "name": "Dorflinde", "provider": "publibike", "timeStamp": "01/30/2020, 21:29:12", "zip": 8050}, "type": "Feature"}, {"geometry": {"coordinates": [8.560476, 47.368199], "type": "Point"}, "properties": {"address": "R\u00f6merhofplatz 5", "electric": 6, "id": "pb_367", "manual": 0, "name": "R\u00f6merhof", "provider": "publibike", "timeStamp": "01/30/2020, 21:29:12", "zip": 8032}, "type": "Feature"}, {"geometry": {"coordinates": [8.5609218, 47.3619068], "type": "Point"}, "properties": {"address": "Forchstrasse 99", "electric": 4, "id": "pb_368", "manual": 1, "name": "Hegibachplatz", "provider": "publibike", "timeStamp": "01/30/2020, 21:29:12", "zip": 8032}, "type": "Feature"}, {"geometry": {"coordinates": [8.5721264, 47.4039985], "type": "Point"}, "properties": {"address": "Winterthurerstrasse 519", "electric": 5, "id": "pb_370", "manual": 4, "name": "Schwamendingerplatz", "provider": "publibike", "timeStamp": "01/30/2020, 21:29:12", "zip": 8051}, "type": "Feature"}, {"geometry": {"coordinates": [8.520168, 47.378556], "type": "Point"}, "properties": {"address": "Herman-Greulich-Strasse 56", "electric": 1, "id": "pb_384", "manual": 6, "name": "Hermann-Greulich-Weg", "provider": "publibike", "timeStamp": "01/30/2020, 21:29:12", "zip": 8004}, "type": "Feature"}, {"geometry": {"coordinates": [8.547912, 47.384923], "type": "Point"}, "properties": {"address": "Culmannstrasse", "electric": 1, "id": "pb_386", "manual": 1, "name": "Rigiplatz", "provider": "publibike", "timeStamp": "01/30/2020, 21:29:12", "zip": 8006}, "type": "Feature"}, {"geometry": {"coordinates": [8.543768, 47.411057], "type": "Point"}, "properties": {"address": "Hofwiesenstrasse 369", "electric": 6, "id": "pb_387", "manual": 1, "name": "Bahnhof Oerlikon S\u00fcd", "provider": "publibike", "timeStamp": "01/30/2020, 21:29:12", "zip": 8050}, "type": "Feature"}, {"geometry": {"coordinates": [8.544185, 47.412732], "type": "Point"}, "properties": {"address": "Jungholzstrasse 6", "electric": 3, "id": "pb_388", "manual": 2, "name": "Max-Frisch-Platz", "provider": "publibike", "timeStamp": "01/30/2020, 21:29:12", "zip": 8050}, "type": "Feature"}, {"geometry": {"coordinates": [8.558096, 47.413032], "type": "Point"}, "properties": {"address": "Andreasstrasse", "electric": 5, "id": "pb_389", "manual": 10, "name": "Hunziker-Areal", "provider": "publibike", "timeStamp": "01/30/2020, 21:29:12", "zip": 8050}, "type": "Feature"}, {"geometry": {"coordinates": [8.533265, 47.412873], "type": "Point"}, "properties": {"address": "Regina-K\u00e4gi-Strasse 1", "electric": 7, "id": "pb_390", "manual": 4, "name": "Luis-H\u00e4fliger-Park", "provider": "publibike", "timeStamp": "01/30/2020, 21:29:12", "zip": 8050}, "type": "Feature"}, {"geometry": {"coordinates": [8.499265, 47.401852], "type": "Point"}, "properties": {"address": "Limmattalstrasse 177", "electric": 5, "id": "pb_391", "manual": 2, "name": "Meierhofplatz", "provider": "publibike", "timeStamp": "01/30/2020, 21:29:12", "zip": 8049}, "type": "Feature"}, {"geometry": {"coordinates": [8.528356, 47.393255], "type": "Point"}, "properties": {"address": "R\u00f6schibachstrasse 73", "electric": 10, "id": "pb_392", "manual": 8, "name": "R\u00f6schibachplatz", "provider": "publibike", "timeStamp": "01/30/2020, 21:29:12", "zip": 8037}, "type": "Feature"}, {"geometry": {"coordinates": [8.538067, 47.415721], "type": "Point"}, "properties": {"address": "Birchstrasse 191", "electric": 4, "id": "pb_393", "manual": 1, "name": "Oerliker Park", "provider": "publibike", "timeStamp": "01/30/2020, 21:29:12", "zip": 8050}, "type": "Feature"}, {"geometry": {"coordinates": [8.5420304, 47.3669233], "type": "Point"}, "properties": {"address": "Stadthausquai 1", "electric": 2, "id": "pb_395", "manual": 9, "name": "B\u00fcrkliplatz", "provider": "publibike", "timeStamp": "01/30/2020, 21:29:12", "zip": 8001}, "type": "Feature"}, {"geometry": {"coordinates": [8.535767, 47.409881], "type": "Point"}, "properties": {"address": "Regensbergstrasse 195", "electric": 2, "id": "pb_396", "manual": 1, "name": "Holunderhof", "provider": "publibike", "timeStamp": "01/30/2020, 21:29:12", "zip": 8050}, "type": "Feature"}, {"geometry": {"coordinates": [8.5116245, 47.3616199], "type": "Point"}, "properties": {"address": "Grubenstrasse 42", "electric": 1, "id": "pb_431", "manual": 1, "name": "Binz Center", "provider": "publibike", "timeStamp": "01/30/2020, 21:29:12", "zip": 8045}, "type": "Feature"}, {"geometry": {"coordinates": [8.547195, 47.382089], "type": "Point"}, "properties": {"address": "Nelkenstrasse 24", "electric": 2, "id": "pb_430", "manual": 0, "name": "Stapferstube", "provider": "publibike", "timeStamp": "01/30/2020, 21:29:12", "zip": 8006}, "type": "Feature"}, {"geometry": {"coordinates": [8.5787183, 47.4039845], "type": "Point"}, "properties": {"address": "Kronwiesenstrasse 35", "electric": 3, "id": "pb_426", "manual": 3, "name": "Kronwiesen", "provider": "publibike", "timeStamp": "01/30/2020, 21:29:12", "zip": 8051}, "type": "Feature"}, {"geometry": {"coordinates": [8.508131, 47.420757], "type": "Point"}, "properties": {"address": "Riedenhaldenstrasse 20-18", "electric": 13, "id": "pb_425", "manual": 5, "name": "Bahnhof Affoltern", "provider": "publibike", "timeStamp": "01/30/2020, 21:29:12", "zip": 8046}, "type": "Feature"}, {"geometry": {"coordinates": [8.532464, 47.406988], "type": "Point"}, "properties": {"address": "K\u00fcnzlistrasse 41", "electric": 4, "id": "pb_424", "manual": 4, "name": "Birchd\u00f6rfli", "provider": "publibike", "timeStamp": "01/30/2020, 21:29:12", "zip": 8057}, "type": "Feature"}, {"geometry": {"coordinates": [8.5777038, 47.4080095], "type": "Point"}, "properties": {"address": "Luegislandstrasse 412", "electric": 7, "id": "pb_429", "manual": 5, "name": "Luegisland", "provider": "publibike", "timeStamp": "01/30/2020, 21:29:12", "zip": 8051}, "type": "Feature"}, {"geometry": {"coordinates": [8.58841, 47.40158], "type": "Point"}, "properties": {"address": "Hirzenbachstrasse 2-4", "electric": 0, "id": "pb_428", "manual": 2, "name": "Hirzenbachstrasse", "provider": "publibike", "timeStamp": "01/30/2020, 21:29:12", "zip": 8051}, "type": "Feature"}, {"geometry": {"coordinates": [8.5563463, 47.4095467], "type": "Point"}, "properties": {"address": "K\u00fchriedweg", "electric": 4, "id": "pb_445", "manual": 5, "name": "Hallenbad Oerlikon", "provider": "publibike", "timeStamp": "01/30/2020, 21:29:12", "zip": 8050}, "type": "Feature"}, {"geometry": {"coordinates": [8.537971, 47.364871], "type": "Point"}, "properties": {"address": "General-Guisan-Quai 17", "electric": 0, "id": "pb_454", "manual": 3, "name": "General-Guisan-Quai", "provider": "publibike", "timeStamp": "01/30/2020, 21:29:12", "zip": 8002}, "type": "Feature"}, {"geometry": {"coordinates": [8.560587, 47.350578], "type": "Point"}, "properties": {"address": "Bellerivestrasse 245", "electric": 9, "id": "pb_450", "manual": 7, "name": "Bahnhof Tiefenbrunnen", "provider": "publibike", "timeStamp": "01/30/2020, 21:29:12", "zip": 8008}, "type": "Feature"}, {"geometry": {"coordinates": [8.5269416, 47.3563719], "type": "Point"}, "properties": {"address": "Waffenplatzstrasse 89", "electric": 3, "id": "pb_452", "manual": 2, "name": "Rieterplatz", "provider": "publibike", "timeStamp": "01/30/2020, 21:29:12", "zip": 8002}, "type": "Feature"}, {"geometry": {"coordinates": [8.514176, 47.3663708], "type": "Point"}, "properties": {"address": "Talwiesenstrasse 92", "electric": 5, "id": "pb_446", "manual": 2, "name": "Binzallee", "provider": "publibike", "timeStamp": "01/30/2020, 21:29:12", "zip": 8055}, "type": "Feature"}, {"geometry": {"coordinates": [8.5070564, 47.371455], "type": "Point"}, "properties": {"address": "Gutstrasse 87", "electric": 3, "id": "pb_447", "manual": 2, "name": "Gutstrasse", "provider": "publibike", "timeStamp": "01/30/2020, 21:29:12", "zip": 8055}, "type": "Feature"}, {"geometry": {"coordinates": [8.4941268, 47.3836391], "type": "Point"}, "properties": {"address": "Flurstrasse 62", "electric": 0, "id": "pb_453", "manual": 1, "name": "Flurpark", "provider": "publibike", "timeStamp": "01/30/2020, 21:29:12", "zip": 8048}, "type": "Feature"}, {"geometry": {"coordinates": [8.500343, 47.380778], "type": "Point"}, "properties": {"address": "Edelweissstrasse 32", "electric": 5, "id": "pb_448", "manual": 3, "name": "Bl\u00fcemliquartier", "provider": "publibike", "timeStamp": "01/30/2020, 21:29:12", "zip": 8048}, "type": "Feature"}, {"geometry": {"coordinates": [8.528796, 47.383858], "type": "Point"}, "properties": {"address": "Gasometerstrasse 24", "electric": 6, "id": "pb_449", "manual": 11, "name": "Gasometerstrasse", "provider": "publibike", "timeStamp": "01/30/2020, 21:29:12", "zip": 8005}, "type": "Feature"}, {"geometry": {"coordinates": [8.4981964, 47.3859194], "type": "Point"}, "properties": {"address": "Baslerstrasse 57", "electric": 3, "id": "pb_455", "manual": 4, "name": "Letzipark", "provider": "publibike", "timeStamp": "01/30/2020, 21:29:12", "zip": 8048}, "type": "Feature"}, {"geometry": {"coordinates": [8.515252, 47.381915], "type": "Point"}, "properties": {"address": "Sihlfeldstrasse 175", "electric": 1, "id": "pb_451", "manual": 2, "name": "Hardplatz", "provider": "publibike", "timeStamp": "01/30/2020, 21:29:12", "zip": 8004}, "type": "Feature"}, {"geometry": {"coordinates": [8.5064743, 47.4188324], "type": "Point"}, "properties": {"address": "Wehntalerstrasse 541", "electric": 3, "id": "pb_427", "manual": 1, "name": "Zehntenhausplatz", "provider": "publibike", "timeStamp": "01/30/2020, 21:29:12", "zip": 8046}, "type": "Feature"}, {"geometry": {"coordinates": [8.537729, 47.379719], "type": "Point"}, "properties": {"address": "Sihlquai/HB", "electric": 5, "id": "pb_513", "manual": 8, "name": "Sihlquai", "provider": "publibike", "timeStamp": "01/30/2020, 21:29:12", "zip": 8005}, "type": "Feature"}, {"geometry": {"coordinates": [8.596202, 47.397885], "type": "Point"}, "properties": {"address": "Bahnhof Stettbach", "electric": 7, "id": "pb_514", "manual": 2, "name": "Bahnhof Stettbach", "provider": "publibike", "timeStamp": "01/30/2020, 21:29:12", "zip": 8051}, "type": "Feature"}, {"geometry": {"coordinates": [8.5543974, 47.3690153], "type": "Point"}, "properties": {"address": "Kasinostrasse 10", "electric": 7, "id": "pb_515", "manual": 0, "name": "Hottingerplatz", "provider": "publibike", "timeStamp": "01/30/2020, 21:29:12", "zip": 8032}, "type": "Feature"}, {"geometry": {"coordinates": [8.534444, 47.351525], "type": "Point"}, "properties": {"address": "Mobile Station Z\u00fcrich 1", "electric": 0, "id": "pb_282", "manual": 0, "name": "Theaterspektakel", "provider": "publibike", "timeStamp": "01/30/2020, 21:29:12", "zip": 8002}, "type": "Feature"}, {"geometry": {"coordinates": [8.516257, 47.367656], "type": "Point"}, "properties": {"address": "Goldbrunnenstrasse 54", "electric": 5, "id": "pb_538", "manual": 1, "name": "Kirche B\u00fchl", "provider": "publibike", "timeStamp": "01/30/2020, 21:29:12", "zip": 8055}, "type": "Feature"}, {"geometry": {"coordinates": [8.555639, 47.416873], "type": "Point"}, "properties": {"address": "Leutschenbachstrasse 50", "electric": 1, "id": "pb_537", "manual": 4, "name": "Leutschenpark", "provider": "publibike", "timeStamp": "01/30/2020, 21:29:12", "zip": 8050}, "type": "Feature"}, {"geometry": {"coordinates": [8.546464, 47.403822], "type": "Point"}, "properties": {"address": "Berninastrasse 45", "electric": 10, "id": "pb_540", "manual": 2, "name": "Berninaplatz", "provider": "publibike", "timeStamp": "01/30/2020, 21:29:12", "zip": 8057}, "type": "Feature"}, {"geometry": {"coordinates": [8.523134, 47.369004], "type": "Point"}, "properties": {"address": "Erlachstrasse 3", "electric": 2, "id": "pb_385", "manual": 5, "name": "Aegerten", "provider": "publibike", "timeStamp": "01/30/2020, 21:29:12", "zip": 8003}, "type": "Feature"}, {"geometry": {"coordinates": [8.49038, 47.381591], "type": "Point"}, "properties": {"address": "Rautistrasse 60", "electric": 6, "id": "pb_536", "manual": 5, "name": "Freilager", "provider": "publibike", "timeStamp": "01/30/2020, 21:29:12", "zip": 8048}, "type": "Feature"}, {"geometry": {"coordinates": [8.496511, 47.375247], "type": "Point"}, "properties": {"address": "Letzigraben 139", "electric": 5, "id": "pb_444", "manual": 3, "name": "Sackzelg", "provider": "publibike", "timeStamp": "01/30/2020, 21:29:12", "zip": 8047}, "type": "Feature"}, {"geometry": {"coordinates": [8.58131, 47.402801], "type": "Point"}, "properties": {"address": "Altwiesenstrasse 104", "electric": 0, "id": "pb_539", "manual": 4, "name": "Glattwiesen", "provider": "publibike", "timeStamp": "01/30/2020, 21:29:12", "zip": 8051}, "type": "Feature"}, {"geometry": {"coordinates": [8.52689, 47.3767], "type": "Point"}, "properties": {"address": "Molkenstrasse 5", "electric": 2, "id": "pb_560", "manual": 7, "name": "Helvetiaplatz", "provider": "publibike", "timeStamp": "01/30/2020, 21:29:12", "zip": 8004}, "type": "Feature"}, {"geometry": {"coordinates": [8.525602, 47.374241], "type": "Point"}, "properties": {"address": "Badenerstrasse 90", "electric": 1, "id": "pb_559", "manual": 6, "name": "Bezirksgeb\u00e4ude", "provider": "publibike", "timeStamp": "01/30/2020, 21:29:12", "zip": 8004}, "type": "Feature"}, {"geometry": {"coordinates": [8.535082, 47.345248], "type": "Point"}, "properties": {"address": "Bachstrasse 15", "electric": 4, "id": "pb_564", "manual": 4, "name": "GZ Wollishofen", "provider": "publibike", "timeStamp": "01/30/2020, 21:29:12", "zip": 8038}, "type": "Feature"}, {"geometry": {"coordinates": [8.514841, 47.370238], "type": "Point"}, "properties": {"address": "Schrennengasse 37", "electric": 1, "id": "pb_562", "manual": 2, "name": "Goldbrunnenplatz", "provider": "publibike", "timeStamp": "01/30/2020, 21:29:12", "zip": 8003}, "type": "Feature"}, {"geometry": {"coordinates": [8.514138, 47.374206], "type": "Point"}, "properties": {"address": "Idaplatz 4", "electric": 1, "id": "pb_557", "manual": 3, "name": "Idaplatz", "provider": "publibike", "timeStamp": "01/30/2020, 21:29:12", "zip": 8003}, "type": "Feature"}, {"geometry": {"coordinates": [8.518432, 47.369549], "type": "Point"}, "properties": {"address": "Brinerstrasse 2", "electric": 2, "id": "pb_558", "manual": 8, "name": "Schmiede Wiedikon", "provider": "publibike", "timeStamp": "01/30/2020, 21:29:12", "zip": 8003}, "type": "Feature"}, {"geometry": {"coordinates": [8.537546, 47.391289], "type": "Point"}, "properties": {"address": "Rotbuchstrasse 15", "electric": 4, "id": "pb_556", "manual": 1, "name": "Schaffhauserplatz", "provider": "publibike", "timeStamp": "01/30/2020, 21:29:12", "zip": 8006}, "type": "Feature"}, {"geometry": {"coordinates": [8.541541, 47.413733], "type": "Point"}, "properties": {"address": "Therese-Giehse-Strasse 11", "electric": 4, "id": "pb_561", "manual": 2, "name": "Center Eleven", "provider": "publibike", "timeStamp": "01/30/2020, 21:29:12", "zip": 8050}, "type": "Feature"}, {"geometry": {"coordinates": [8.534227, 47.360004], "type": "Point"}, "properties": {"address": "Alfred Escher-Strasse 76", "electric": 0, "id": "pb_563", "manual": 0, "name": "Mythenschloss", "provider": "publibike", "timeStamp": "01/30/2020, 21:29:12", "zip": 8002}, "type": "Feature"}, {"geometry": {"coordinates": [8.50373, 47.396172], "type": "Point"}, "properties": {"address": "Hardeggstrasse 6", "electric": 1, "id": "pb_566", "manual": 5, "name": "Am Wasser", "provider": "publibike", "timeStamp": "01/30/2020, 21:29:12", "zip": 8049}, "type": "Feature"}, {"geometry": {"coordinates": [8.532432, 47.381174], "type": "Point"}, "properties": {"address": "Klingenstrasse 9", "electric": 8, "id": "pb_565", "manual": 3, "name": "Zollstrasse", "provider": "publibike", "timeStamp": "01/30/2020, 21:29:12", "zip": 8005}, "type": "Feature"}, {"geometry": {"coordinates": [8.497982, 47.381447], "type": "Point"}, "properties": {"address": "Dennlerstrasse 23", "electric": 7, "id": "pb_567", "manual": 5, "name": "Dennlerstrasse", "provider": "publibike", "timeStamp": "01/30/2020, 21:29:12", "zip": 8047}, "type": "Feature"}, {"geometry": {"coordinates": [8.528049, 47.347701], "type": "Point"}, "properties": {"address": "Mutschellenstrasse 114", "electric": 6, "id": "pb_568", "manual": 2, "name": "Jugendherberge", "provider": "publibike", "timeStamp": "01/30/2020, 21:29:12", "zip": 8038}, "type": "Feature"}, {"geometry": {"coordinates": [8.539016, 47.405751], "type": "Point"}, "properties": {"address": "Ringstrasse 82", "electric": 6, "id": "pb_569", "manual": 2, "name": "Freibad Allenmoos", "provider": "publibike", "timeStamp": "01/30/2020, 21:29:12", "zip": 8057}, "type": "Feature"}, {"geometry": {"coordinates": [8.534974, 47.402164], "type": "Point"}, "properties": {"address": "Brache Guggach", "electric": 5, "id": "pb_572", "manual": 0, "name": "Radiostudio", "provider": "publibike", "timeStamp": "01/30/2020, 21:29:12", "zip": 8057}, "type": "Feature"}, {"geometry": {"coordinates": [8.547901, 47.375556], "type": "Point"}, "properties": {"address": "Karl-Schmid-Strasse 4", "electric": 1, "id": "pb_571", "manual": 0, "name": "ETH/Zoologisches Museum", "provider": "publibike", "timeStamp": "01/30/2020, 21:29:12", "zip": 8006}, "type": "Feature"}, {"geometry": {"coordinates": [8.582398, 47.351581], "type": "Point"}, "properties": {"charge": 88, "id": "smide_2901", "name": "ZH 267278", "provider": "smide", "range": 44.0, "size": 20, "time": "01/30/2020, 21:28:46"}, "type": "Feature"}, {"geometry": {"coordinates": [8.561423, 47.350246], "type": "Point"}, "properties": {"charge": 100, "id": "smide_2895", "name": "ZH 267279", "provider": "smide", "range": 50.0, "size": 20, "time": "01/30/2020, 21:28:46"}, "type": "Feature"}, {"geometry": {"coordinates": [8.535721, 47.378155], "type": "Point"}, "properties": {"charge": 24, "id": "smide_2880", "name": "ZH267289", "provider": "smide", "range": 12.0, "size": 17, "time": "01/30/2020, 21:28:46"}, "type": "Feature"}, {"geometry": {"coordinates": [8.545983, 47.410125], "type": "Point"}, "properties": {"charge": 40, "id": "smide_2874", "name": "ZH 267288", "provider": "smide", "range": 20.0, "size": 17, "time": "01/30/2020, 21:28:46"}, "type": "Feature"}, {"geometry": {"coordinates": [8.53994, 47.378908], "type": "Point"}, "properties": {"charge": 63, "id": "smide_2871", "name": "ZH 267086", "provider": "smide", "range": 31.0, "size": 20, "time": "01/30/2020, 21:28:46"}, "type": "Feature"}, {"geometry": {"coordinates": [8.55058, 47.37977], "type": "Point"}, "properties": {"charge": 80, "id": "smide_2867", "name": "ZH 267090", "provider": "smide", "range": 40.0, "size": 20, "time": "01/30/2020, 21:28:46"}, "type": "Feature"}, {"geometry": {"coordinates": [8.554935, 47.377103], "type": "Point"}, "properties": {"charge": 59, "id": "smide_2861", "name": "ZH 267096", "provider": "smide", "range": 29.0, "size": 17, "time": "01/30/2020, 21:28:46"}, "type": "Feature"}, {"geometry": {"coordinates": [8.5761, 47.34976], "type": "Point"}, "properties": {"charge": 92, "id": "smide_2860", "name": "ZH 267097", "provider": "smide", "range": 46.0, "size": 17, "time": "01/30/2020, 21:28:46"}, "type": "Feature"}, {"geometry": {"coordinates": [8.529215, 47.372365], "type": "Point"}, "properties": {"charge": 70, "id": "smide_2859", "name": "ZH 267098", "provider": "smide", "range": 35.0, "size": 17, "time": "01/30/2020, 21:28:46"}, "type": "Feature"}, {"geometry": {"coordinates": [8.538335, 47.391935], "type": "Point"}, "properties": {"charge": 62, "id": "smide_2856", "name": "ZH 267101", "provider": "smide", "range": 31.0, "size": 17, "time": "01/30/2020, 21:28:46"}, "type": "Feature"}, {"geometry": {"coordinates": [8.582756, 47.350951], "type": "Point"}, "properties": {"charge": 89, "id": "smide_2855", "name": "ZH 267102", "provider": "smide", "range": 44.0, "size": 17, "time": "01/30/2020, 21:28:46"}, "type": "Feature"}, {"geometry": {"coordinates": [8.510555, 47.398498], "type": "Point"}, "properties": {"charge": 87, "id": "smide_2854", "name": "ZH 267103", "provider": "smide", "range": 43.0, "size": 17, "time": "01/30/2020, 21:28:46"}, "type": "Feature"}, {"geometry": {"coordinates": [8.54305, 47.368105], "type": "Point"}, "properties": {"charge": 52, "id": "smide_2833", "name": "ZH 267182", "provider": "smide", "range": 26.0, "size": 20, "time": "01/30/2020, 21:28:46"}, "type": "Feature"}, {"geometry": {"coordinates": [8.570025, 47.35243], "type": "Point"}, "properties": {"charge": 67, "id": "smide_2831", "name": "ZH 267180", "provider": "smide", "range": 33.0, "size": 20, "time": "01/30/2020, 21:28:46"}, "type": "Feature"}, {"geometry": {"coordinates": [8.523161, 47.37081], "type": "Point"}, "properties": {"charge": 87, "id": "smide_2829", "name": "ZH 267049", "provider": "smide", "range": 43.0, "size": 20, "time": "01/30/2020, 21:28:46"}, "type": "Feature"}, {"geometry": {"coordinates": [8.506045, 47.418961], "type": "Point"}, "properties": {"charge": 100, "id": "smide_2804", "name": "ZH266903", "provider": "smide", "range": 50.0, "size": 20, "time": "01/30/2020, 21:28:46"}, "type": "Feature"}, {"geometry": {"coordinates": [8.545898, 47.367506], "type": "Point"}, "properties": {"charge": 76, "id": "smide_2798", "name": "ZH266888", "provider": "smide", "range": 38.0, "size": 17, "time": "01/30/2020, 21:28:46"}, "type": "Feature"}, {"geometry": {"coordinates": [8.529388, 47.393606], "type": "Point"}, "properties": {"charge": 73, "id": "smide_2793", "name": "ZH266883", "provider": "smide", "range": 36.0, "size": 17, "time": "01/30/2020, 21:28:46"}, "type": "Feature"}, {"geometry": {"coordinates": [8.527741, 47.358801], "type": "Point"}, "properties": {"charge": 47, "id": "smide_2790", "name": "ZH266880", "provider": "smide", "range": 23.0, "size": 17, "time": "01/30/2020, 21:28:46"}, "type": "Feature"}, {"geometry": {"coordinates": [8.53602, 47.377641], "type": "Point"}, "properties": {"charge": 84, "id": "smide_2785", "name": "ZH266875", "provider": "smide", "range": 42.0, "size": 17, "time": "01/30/2020, 21:28:46"}, "type": "Feature"}, {"geometry": {"coordinates": [8.555055, 47.383965], "type": "Point"}, "properties": {"charge": 85, "id": "smide_2781", "name": "ZH 266871", "provider": "smide", "range": 42.0, "size": 17, "time": "01/30/2020, 21:28:46"}, "type": "Feature"}, {"geometry": {"coordinates": [8.558018, 47.4125], "type": "Point"}, "properties": {"charge": 34, "id": "smide_2780", "name": "ST1 X #1", "provider": "smide", "range": 17.0, "size": 17, "time": "01/30/2020, 21:28:46"}, "type": "Feature"}, {"geometry": {"coordinates": [8.545259, 47.423604], "type": "Point"}, "properties": {"charge": 86, "id": "smide_2773", "name": "ZH266561", "provider": "smide", "range": 43.0, "size": 17, "time": "01/30/2020, 21:28:46"}, "type": "Feature"}, {"geometry": {"coordinates": [8.4895, 47.37388], "type": "Point"}, "properties": {"charge": 100, "id": "smide_2763", "name": "ZH266641", "provider": "smide", "range": 50.0, "size": 17, "time": "01/30/2020, 21:28:46"}, "type": "Feature"}, {"geometry": {"coordinates": [8.560338, 47.381926], "type": "Point"}, "properties": {"charge": 48, "id": "smide_2761", "name": "ZH266642", "provider": "smide", "range": 24.0, "size": 20, "time": "01/30/2020, 21:28:46"}, "type": "Feature"}, {"geometry": {"coordinates": [8.487793, 47.39094], "type": "Point"}, "properties": {"charge": 74, "id": "smide_2752", "name": "BE343856", "provider": "smide", "range": 37.0, "size": 17, "time": "01/30/2020, 21:28:46"}, "type": "Feature"}, {"geometry": {"coordinates": [8.555291, 47.375392], "type": "Point"}, "properties": {"charge": 97, "id": "smide_2751", "name": "BE343857", "provider": "smide", "range": 48.0, "size": 17, "time": "01/30/2020, 21:28:46"}, "type": "Feature"}, {"geometry": {"coordinates": [8.490975, 47.390752], "type": "Point"}, "properties": {"charge": 49, "id": "smide_2749", "name": "BE343867", "provider": "smide", "range": 24.0, "size": 17, "time": "01/30/2020, 21:28:46"}, "type": "Feature"}, {"geometry": {"coordinates": [8.527794, 47.36918], "type": "Point"}, "properties": {"charge": 17, "id": "smide_2748", "name": "BE335758", "provider": "smide", "range": 8.0, "size": 17, "time": "01/30/2020, 21:28:46"}, "type": "Feature"}, {"geometry": {"coordinates": [8.549071, 47.361832], "type": "Point"}, "properties": {"charge": 97, "id": "smide_2746", "name": "BE335817", "provider": "smide", "range": 48.0, "size": 17, "time": "01/30/2020, 21:28:46"}, "type": "Feature"}, {"geometry": {"coordinates": [8.551522, 47.420716], "type": "Point"}, "properties": {"charge": 94, "id": "smide_2747", "name": "BE335820", "provider": "smide", "range": 47.0, "size": 17, "time": "01/30/2020, 21:28:46"}, "type": "Feature"}, {"geometry": {"coordinates": [8.492954, 47.380604], "type": "Point"}, "properties": {"charge": 38, "id": "smide_2745", "name": "BE335818", "provider": "smide", "range": 19.0, "size": 17, "time": "01/30/2020, 21:28:46"}, "type": "Feature"}, {"geometry": {"coordinates": [8.516941, 47.39828], "type": "Point"}, "properties": {"charge": 56, "id": "smide_2743", "name": "BE343864", "provider": "smide", "range": 28.0, "size": 17, "time": "01/30/2020, 21:28:46"}, "type": "Feature"}, {"geometry": {"coordinates": [8.521757, 47.36546], "type": "Point"}, "properties": {"charge": 84, "id": "smide_2740", "name": "BE343875", "provider": "smide", "range": 42.0, "size": 17, "time": "01/30/2020, 21:28:46"}, "type": "Feature"}, {"geometry": {"coordinates": [8.487206, 47.383973], "type": "Point"}, "properties": {"charge": 78, "id": "smide_2738", "name": "BE343865", "provider": "smide", "range": 39.0, "size": 17, "time": "01/30/2020, 21:28:46"}, "type": "Feature"}, {"geometry": {"coordinates": [8.559012, 47.352432], "type": "Point"}, "properties": {"charge": 59, "id": "smide_2737", "name": "BE336149", "provider": "smide", "range": 29.0, "size": 17, "time": "01/30/2020, 21:28:46"}, "type": "Feature"}, {"geometry": {"coordinates": [8.562682, 47.371588], "type": "Point"}, "properties": {"charge": 76, "id": "smide_2734", "name": "BE343876", "provider": "smide", "range": 38.0, "size": 17, "time": "01/30/2020, 21:28:46"}, "type": "Feature"}, {"geometry": {"coordinates": [8.553305, 47.362644], "type": "Point"}, "properties": {"charge": 13, "id": "smide_2733", "name": "BE343873", "provider": "smide", "range": 6.0, "size": 17, "time": "01/30/2020, 21:28:46"}, "type": "Feature"}, {"geometry": {"coordinates": [8.478436, 47.389624], "type": "Point"}, "properties": {"charge": 78, "id": "smide_2732", "name": "BE343870", "provider": "smide", "range": 39.0, "size": 17, "time": "01/30/2020, 21:28:46"}, "type": "Feature"}, {"geometry": {"coordinates": [8.564733, 47.372828], "type": "Point"}, "properties": {"charge": 84, "id": "smide_2729", "name": "BE343878", "provider": "smide", "range": 42.0, "size": 17, "time": "01/30/2020, 21:28:46"}, "type": "Feature"}, {"geometry": {"coordinates": [8.518638, 47.395355], "type": "Point"}, "properties": {"charge": 26, "id": "smide_2725", "name": "ZH261545", "provider": "smide", "range": 13.0, "size": 0, "time": "01/30/2020, 21:28:46"}, "type": "Feature"}, {"geometry": {"coordinates": [8.563055, 47.38226], "type": "Point"}, "properties": {"charge": 59, "id": "smide_2718", "name": "ZH259019", "provider": "smide", "range": 29.0, "size": 20, "time": "01/30/2020, 21:28:46"}, "type": "Feature"}, {"geometry": {"coordinates": [8.518348, 47.3981], "type": "Point"}, "properties": {"charge": 57, "id": "smide_2717", "name": "ZH263287", "provider": "smide", "range": 28.0, "size": 17, "time": "01/30/2020, 21:28:46"}, "type": "Feature"}, {"geometry": {"coordinates": [8.540863, 47.36998], "type": "Point"}, "properties": {"charge": 29, "id": "smide_2716", "name": "ZH254606", "provider": "smide", "range": 14.0, "size": 17, "time": "01/30/2020, 21:28:46"}, "type": "Feature"}, {"geometry": {"coordinates": [8.537441, 47.340604], "type": "Point"}, "properties": {"charge": 88, "id": "smide_2715", "name": "ZH254605", "provider": "smide", "range": 44.0, "size": 17, "time": "01/30/2020, 21:28:46"}, "type": "Feature"}, {"geometry": {"coordinates": [8.541093, 47.376988], "type": "Point"}, "properties": {"charge": 99, "id": "smide_2710", "name": "ZH256460", "provider": "smide", "range": 49.0, "size": 17, "time": "01/30/2020, 21:28:46"}, "type": "Feature"}, {"geometry": {"coordinates": [8.512784, 47.360052], "type": "Point"}, "properties": {"charge": 88, "id": "smide_2712", "name": "ZH256462", "provider": "smide", "range": 44.0, "size": 17, "time": "01/30/2020, 21:28:46"}, "type": "Feature"}, {"geometry": {"coordinates": [8.560141, 47.372436], "type": "Point"}, "properties": {"charge": 61, "id": "smide_2711", "name": "ZH256463", "provider": "smide", "range": 30.0, "size": 17, "time": "01/30/2020, 21:28:46"}, "type": "Feature"}, {"geometry": {"coordinates": [8.563878, 47.34811], "type": "Point"}, "properties": {"charge": 74, "id": "smide_2709", "name": "ZH256466", "provider": "smide", "range": 37.0, "size": 20, "time": "01/30/2020, 21:28:46"}, "type": "Feature"}, {"geometry": {"coordinates": [8.542061, 47.424528], "type": "Point"}, "properties": {"charge": 80, "id": "smide_2707", "name": "ZH256467", "provider": "smide", "range": 40.0, "size": 20, "time": "01/30/2020, 21:28:46"}, "type": "Feature"}, {"geometry": {"coordinates": [8.489049, 47.374592], "type": "Point"}, "properties": {"charge": 35, "id": "smide_2708", "name": "ZH256464", "provider": "smide", "range": 17.0, "size": 17, "time": "01/30/2020, 21:28:46"}, "type": "Feature"}, {"geometry": {"coordinates": [8.539424, 47.372112], "type": "Point"}, "properties": {"charge": 56, "id": "smide_2706", "name": "ZH256322", "provider": "smide", "range": 28.0, "size": 20, "time": "01/30/2020, 21:28:46"}, "type": "Feature"}, {"geometry": {"coordinates": [8.537122, 47.419128], "type": "Point"}, "properties": {"charge": 31, "id": "smide_2705", "name": "ZH256471", "provider": "smide", "range": 15.0, "size": 20, "time": "01/30/2020, 21:28:46"}, "type": "Feature"}, {"geometry": {"coordinates": [8.563271, 47.372316], "type": "Point"}, "properties": {"charge": 100, "id": "smide_2701", "name": "ZH256468", "provider": "smide", "range": 50.0, "size": 20, "time": "01/30/2020, 21:28:46"}, "type": "Feature"}, {"geometry": {"coordinates": [8.553808, 47.381936], "type": "Point"}, "properties": {"charge": 81, "id": "smide_2700", "name": "ZH256470", "provider": "smide", "range": 40.0, "size": 20, "time": "01/30/2020, 21:28:46"}, "type": "Feature"}, {"geometry": {"coordinates": [8.568417, 47.367652], "type": "Point"}, "properties": {"charge": 100, "id": "smide_2699", "name": "ZH254611", "provider": "smide", "range": 50.0, "size": 20, "time": "01/30/2020, 21:28:46"}, "type": "Feature"}, {"geometry": {"coordinates": [8.511205, 47.370952], "type": "Point"}, "properties": {"charge": 33, "id": "smide_2696", "name": "ZH254616", "provider": "smide", "range": 16.0, "size": 20, "time": "01/30/2020, 21:28:46"}, "type": "Feature"}, {"geometry": {"coordinates": [8.537293, 47.3777], "type": "Point"}, "properties": {"charge": 80, "id": "smide_2694", "name": "ZH254610", "provider": "smide", "range": 40.0, "size": 20, "time": "01/30/2020, 21:28:46"}, "type": "Feature"}, {"geometry": {"coordinates": [8.536113, 47.402411], "type": "Point"}, "properties": {"charge": 71, "id": "smide_2691", "name": "ZH254622", "provider": "smide", "range": 35.0, "size": 20, "time": "01/30/2020, 21:28:46"}, "type": "Feature"}, {"geometry": {"coordinates": [8.56532, 47.357901], "type": "Point"}, "properties": {"charge": 59, "id": "smide_2690", "name": "ZH254625", "provider": "smide", "range": 29.0, "size": 20, "time": "01/30/2020, 21:28:46"}, "type": "Feature"}, {"geometry": {"coordinates": [8.495327, 47.423804], "type": "Point"}, "properties": {"charge": 85, "id": "smide_2689", "name": "ZH254623", "provider": "smide", "range": 42.0, "size": 20, "time": "01/30/2020, 21:28:46"}, "type": "Feature"}, {"geometry": {"coordinates": [8.542698, 47.410824], "type": "Point"}, "properties": {"charge": 67, "id": "smide_2687", "name": "ZH263529", "provider": "smide", "range": 33.0, "size": 20, "time": "01/30/2020, 21:28:46"}, "type": "Feature"}, {"geometry": {"coordinates": [8.56338, 47.382368], "type": "Point"}, "properties": {"charge": 78, "id": "smide_2684", "name": "ZH254626", "provider": "smide", "range": 39.0, "size": 20, "time": "01/30/2020, 21:28:46"}, "type": "Feature"}, {"geometry": {"coordinates": [8.558741, 47.352825], "type": "Point"}, "properties": {"charge": 53, "id": "smide_2683", "name": "ZH254620", "provider": "smide", "range": 26.0, "size": 20, "time": "01/30/2020, 21:28:46"}, "type": "Feature"}, {"geometry": {"coordinates": [8.587516, 47.403204], "type": "Point"}, "properties": {"charge": 71, "id": "smide_2680", "name": "ZH254619", "provider": "smide", "range": 35.0, "size": 20, "time": "01/30/2020, 21:28:46"}, "type": "Feature"}, {"geometry": {"coordinates": [8.576517, 47.351244], "type": "Point"}, "properties": {"charge": 83, "id": "smide_2679", "name": "ZH258489", "provider": "smide", "range": 41.0, "size": 17, "time": "01/30/2020, 21:28:46"}, "type": "Feature"}, {"geometry": {"coordinates": [8.526058, 47.372932], "type": "Point"}, "properties": {"charge": 43, "id": "smide_2671", "name": "ZH258645", "provider": "smide", "range": 21.0, "size": 17, "time": "01/30/2020, 21:28:46"}, "type": "Feature"}, {"geometry": {"coordinates": [8.508716, 47.395716], "type": "Point"}, "properties": {"charge": 100, "id": "smide_2669", "name": "ZH263294", "provider": "smide", "range": 50.0, "size": 17, "time": "01/30/2020, 21:28:46"}, "type": "Feature"}, {"geometry": {"coordinates": [8.552621, 47.384744], "type": "Point"}, "properties": {"charge": 81, "id": "smide_2666", "name": "ZH258653", "provider": "smide", "range": 40.0, "size": 17, "time": "01/30/2020, 21:28:46"}, "type": "Feature"}, {"geometry": {"coordinates": [8.508135, 47.393552], "type": "Point"}, "properties": {"charge": 91, "id": "smide_2665", "name": "ZH258644", "provider": "smide", "range": 45.0, "size": 17, "time": "01/30/2020, 21:28:46"}, "type": "Feature"}, {"geometry": {"coordinates": [8.540955, 47.377172], "type": "Point"}, "properties": {"charge": 52, "id": "smide_2664", "name": "ZH258652", "provider": "smide", "range": 26.0, "size": 17, "time": "01/30/2020, 21:28:46"}, "type": "Feature"}, {"geometry": {"coordinates": [8.546117, 47.412228], "type": "Point"}, "properties": {"charge": 60, "id": "smide_2663", "name": "ZH258649", "provider": "smide", "range": 30.0, "size": 17, "time": "01/30/2020, 21:28:46"}, "type": "Feature"}, {"geometry": {"coordinates": [8.568476, 47.36686], "type": "Point"}, "properties": {"charge": 35, "id": "smide_2662", "name": "ZH258643", "provider": "smide", "range": 17.0, "size": 17, "time": "01/30/2020, 21:28:46"}, "type": "Feature"}, {"geometry": {"coordinates": [8.561028, 47.372744], "type": "Point"}, "properties": {"charge": 99, "id": "smide_2648", "name": "ZH257930", "provider": "smide", "range": 49.0, "size": 20, "time": "01/30/2020, 21:28:46"}, "type": "Feature"}, {"geometry": {"coordinates": [8.569991, 47.352018], "type": "Point"}, "properties": {"charge": 63, "id": "smide_2657", "name": "ZH257936", "provider": "smide", "range": 31.0, "size": 17, "time": "01/30/2020, 21:28:46"}, "type": "Feature"}, {"geometry": {"coordinates": [8.542615, 47.382816], "type": "Point"}, "properties": {"charge": 84, "id": "smide_2647", "name": "ZH257932", "provider": "smide", "range": 42.0, "size": 20, "time": "01/30/2020, 21:28:46"}, "type": "Feature"}, {"geometry": {"coordinates": [8.51945, 47.370512], "type": "Point"}, "properties": {"charge": 72, "id": "smide_2645", "name": "ZH257933", "provider": "smide", "range": 36.0, "size": 20, "time": "01/30/2020, 21:28:46"}, "type": "Feature"}, {"geometry": {"coordinates": [8.498443, 47.399038], "type": "Point"}, "properties": {"charge": 87, "id": "smide_3", "name": "ZH253765", "provider": "smide", "range": 43.0, "size": 20, "time": "01/30/2020, 21:28:46"}, "type": "Feature"}, {"geometry": {"coordinates": [8.486183, 47.403541], "type": "Point"}, "properties": {"charge": 14, "id": "smide_105", "name": "ZH253804", "provider": "smide", "range": 7.0, "size": 17, "time": "01/30/2020, 21:28:46"}, "type": "Feature"}, {"geometry": {"coordinates": [8.542037, 47.40764], "type": "Point"}, "properties": {"charge": 91, "id": "smide_186", "name": "ZH253751", "provider": "smide", "range": 45.0, "size": 20, "time": "01/30/2020, 21:28:46"}, "type": "Feature"}, {"geometry": {"coordinates": [8.571173, 47.352504], "type": "Point"}, "properties": {"charge": 93, "id": "smide_173", "name": "ZH258501", "provider": "smide", "range": 46.0, "size": 17, "time": "01/30/2020, 21:28:46"}, "type": "Feature"}, {"geometry": {"coordinates": [8.559244, 47.406], "type": "Point"}, "properties": {"charge": 73, "id": "smide_77", "name": "ZH261548", "provider": "smide", "range": 36.0, "size": 20, "time": "01/30/2020, 21:28:46"}, "type": "Feature"}, {"geometry": {"coordinates": [8.508449, 47.400468], "type": "Point"}, "properties": {"charge": 100, "id": "smide_200", "name": "ZH253801", "provider": "smide", "range": 50.0, "size": 20, "time": "01/30/2020, 21:28:46"}, "type": "Feature"}, {"geometry": {"coordinates": [8.538783, 47.337886], "type": "Point"}, "properties": {"charge": 85, "id": "smide_197", "name": "ZH253864", "provider": "smide", "range": 42.0, "size": 20, "time": "01/30/2020, 21:28:46"}, "type": "Feature"}, {"geometry": {"coordinates": [8.534124, 47.401344], "type": "Point"}, "properties": {"charge": 40, "id": "smide_199", "name": "ZH253766", "provider": "smide", "range": 20.0, "size": 20, "time": "01/30/2020, 21:28:46"}, "type": "Feature"}, {"geometry": {"coordinates": [8.541801, 47.376824], "type": "Point"}, "properties": {"charge": 70, "id": "smide_8", "name": "ZH253861", "provider": "smide", "range": 35.0, "size": 17, "time": "01/30/2020, 21:28:46"}, "type": "Feature"}, {"geometry": {"coordinates": [8.558545, 47.382678], "type": "Point"}, "properties": {"charge": 76, "id": "smide_45", "name": "ZH253716", "provider": "smide", "range": 38.0, "size": 17, "time": "01/30/2020, 21:28:46"}, "type": "Feature"}, {"geometry": {"coordinates": [8.536626, 47.377992], "type": "Point"}, "properties": {"charge": 72, "id": "smide_188", "name": "ZH261543", "provider": "smide", "range": 36.0, "size": 20, "time": "01/30/2020, 21:28:46"}, "type": "Feature"}, {"geometry": {"coordinates": [8.518103, 47.36766], "type": "Point"}, "properties": {"charge": 90, "id": "smide_101", "name": "ZH253814", "provider": "smide", "range": 45.0, "size": 17, "time": "01/30/2020, 21:28:46"}, "type": "Feature"}, {"geometry": {"coordinates": [8.511415, 47.409108], "type": "Point"}, "properties": {"charge": 100, "id": "smide_143", "name": "ZH253778", "provider": "smide", "range": 50.0, "size": 17, "time": "01/30/2020, 21:28:46"}, "type": "Feature"}, {"geometry": {"coordinates": [8.540411, 47.41179], "type": "Point"}, "properties": {"charge": 26, "id": "smide_180", "name": "ZH253824", "provider": "smide", "range": 13.0, "size": 20, "time": "01/30/2020, 21:28:46"}, "type": "Feature"}, {"geometry": {"coordinates": [8.564167, 47.349204], "type": "Point"}, "properties": {"charge": 80, "id": "smide_20", "name": "ZH253770", "provider": "smide", "range": 40.0, "size": 20, "time": "01/30/2020, 21:28:46"}, "type": "Feature"}, {"geometry": {"coordinates": [8.50937, 47.35494], "type": "Point"}, "properties": {"charge": 80, "id": "smide_50", "name": "ZH253853", "provider": "smide", "range": 40.0, "size": 17, "time": "01/30/2020, 21:28:46"}, "type": "Feature"}, {"geometry": {"coordinates": [8.536746, 47.389978], "type": "Point"}, "properties": {"charge": 84, "id": "smide_30", "name": "ZH253813", "provider": "smide", "range": 42.0, "size": 20, "time": "01/30/2020, 21:28:46"}, "type": "Feature"}, {"geometry": {"coordinates": [8.538611, 47.3792], "type": "Point"}, "properties": {"charge": 23, "id": "smide_10", "name": "ZH253855", "provider": "smide", "range": 11.0, "size": 17, "time": "01/30/2020, 21:28:46"}, "type": "Feature"}, {"geometry": {"coordinates": [8.528261, 47.395076], "type": "Point"}, "properties": {"charge": 76, "id": "smide_179", "name": "ZH253687", "provider": "smide", "range": 38.0, "size": 20, "time": "01/30/2020, 21:28:46"}, "type": "Feature"}, {"geometry": {"coordinates": [8.539244, 47.377108], "type": "Point"}, "properties": {"charge": 53, "id": "smide_165", "name": "ZH253752", "provider": "smide", "range": 26.0, "size": 17, "time": "01/30/2020, 21:28:46"}, "type": "Feature"}, {"geometry": {"coordinates": [8.567005, 47.360404], "type": "Point"}, "properties": {"charge": 63, "id": "smide_76", "name": "ZH253764", "provider": "smide", "range": 31.0, "size": 17, "time": "01/30/2020, 21:28:46"}, "type": "Feature"}, {"geometry": {"coordinates": [8.54142, 47.371884], "type": "Point"}, "properties": {"charge": 76, "id": "smide_129", "name": "ZH261378", "provider": "smide", "range": 38.0, "size": 17, "time": "01/30/2020, 21:28:46"}, "type": "Feature"}, {"geometry": {"coordinates": [8.518143, 47.36768], "type": "Point"}, "properties": {"charge": 69, "id": "smide_49", "name": "ZH253873", "provider": "smide", "range": 34.0, "size": 17, "time": "01/30/2020, 21:28:46"}, "type": "Feature"}, {"geometry": {"coordinates": [8.522135, 47.389532], "type": "Point"}, "properties": {"charge": 98, "id": "smide_94", "name": "ZH253754", "provider": "smide", "range": 49.0, "size": 17, "time": "01/30/2020, 21:28:46"}, "type": "Feature"}, {"geometry": {"coordinates": [8.54405, 47.36931], "type": "Point"}, "properties": {"charge": 91, "id": "smide_191", "name": "ZH253762", "provider": "smide", "range": 45.0, "size": 17, "time": "01/30/2020, 21:28:46"}, "type": "Feature"}, {"geometry": {"coordinates": [8.561613, 47.368398], "type": "Point"}, "properties": {"charge": 57, "id": "smide_202", "name": "ZH253830", "provider": "smide", "range": 28.0, "size": 17, "time": "01/30/2020, 21:28:46"}, "type": "Feature"}, {"geometry": {"coordinates": [8.539724, 47.408896], "type": "Point"}, "properties": {"charge": 73, "id": "smide_56", "name": "ZH261442", "provider": "smide", "range": 36.0, "size": 20, "time": "01/30/2020, 21:28:46"}, "type": "Feature"}, {"geometry": {"coordinates": [8.5486, 47.385773], "type": "Point"}, "properties": {"charge": 89, "id": "smide_47", "name": "ZH253858", "provider": "smide", "range": 44.0, "size": 17, "time": "01/30/2020, 21:28:46"}, "type": "Feature"}, {"geometry": {"coordinates": [8.551496, 47.379952], "type": "Point"}, "properties": {"charge": 46, "id": "smide_150", "name": "ZH253703", "provider": "smide", "range": 23.0, "size": 20, "time": "01/30/2020, 21:28:46"}, "type": "Feature"}, {"geometry": {"coordinates": [8.559382, 47.404176], "type": "Point"}, "properties": {"charge": 100, "id": "smide_66", "name": "ZH253818", "provider": "smide", "range": 50.0, "size": 20, "time": "01/30/2020, 21:28:46"}, "type": "Feature"}, {"geometry": {"coordinates": [8.582783, 47.350972], "type": "Point"}, "properties": {"charge": 77, "id": "smide_127", "name": "ZH253808", "provider": "smide", "range": 38.0, "size": 20, "time": "01/30/2020, 21:28:46"}, "type": "Feature"}, {"geometry": {"coordinates": [8.539375, 47.415571], "type": "Point"}, "properties": {"charge": 91, "id": "smide_145", "name": "ZH253780", "provider": "smide", "range": 45.0, "size": 20, "time": "01/30/2020, 21:28:46"}, "type": "Feature"}, {"geometry": {"coordinates": [8.55536, 47.360044], "type": "Point"}, "properties": {"charge": 52, "id": "smide_114", "name": "ZH253878", "provider": "smide", "range": 26.0, "size": 20, "time": "01/30/2020, 21:28:46"}, "type": "Feature"}, {"geometry": {"coordinates": [8.538208, 47.379512], "type": "Point"}, "properties": {"charge": 28, "id": "smide_203", "name": "ZH261547", "provider": "smide", "range": 14.0, "size": 17, "time": "01/30/2020, 21:28:46"}, "type": "Feature"}, {"geometry": {"coordinates": [8.533199, 47.417128], "type": "Point"}, "properties": {"charge": 84, "id": "smide_21", "name": "ZH253841", "provider": "smide", "range": 42.0, "size": 17, "time": "01/30/2020, 21:28:46"}, "type": "Feature"}, {"geometry": {"coordinates": [8.516623, 47.371236], "type": "Point"}, "properties": {"charge": 41, "id": "smide_189", "name": "ZH253845", "provider": "smide", "range": 20.0, "size": 20, "time": "01/30/2020, 21:28:46"}, "type": "Feature"}, {"geometry": {"coordinates": [8.554621, 47.402928], "type": "Point"}, "properties": {"charge": 59, "id": "smide_81", "name": "ZH253753", "provider": "smide", "range": 29.0, "size": 17, "time": "01/30/2020, 21:28:46"}, "type": "Feature"}, {"geometry": {"coordinates": [8.514674, 47.392692], "type": "Point"}, "properties": {"charge": 41, "id": "smide_148", "name": "ZH253844", "provider": "smide", "range": 20.0, "size": 20, "time": "01/30/2020, 21:28:46"}, "type": "Feature"}, {"geometry": {"coordinates": [8.542132, 47.424756], "type": "Point"}, "properties": {"charge": 72, "id": "smide_171", "name": "ZH253689", "provider": "smide", "range": 36.0, "size": 20, "time": "01/30/2020, 21:28:46"}, "type": "Feature"}, {"geometry": {"coordinates": [8.531778, 47.34688], "type": "Point"}, "properties": {"charge": 85, "id": "smide_93", "name": "ZH253681", "provider": "smide", "range": 42.0, "size": 17, "time": "01/30/2020, 21:28:46"}, "type": "Feature"}, {"geometry": {"coordinates": [8.573551, 47.352384], "type": "Point"}, "properties": {"charge": 88, "id": "smide_67", "name": "ZH253779", "provider": "smide", "range": 44.0, "size": 17, "time": "01/30/2020, 21:28:46"}, "type": "Feature"}, {"geometry": {"coordinates": [8.555527, 47.358096], "type": "Point"}, "properties": {"charge": 91, "id": "smide_133", "name": "ZH253848", "provider": "smide", "range": 45.0, "size": 20, "time": "01/30/2020, 21:28:46"}, "type": "Feature"}, {"geometry": {"coordinates": [8.479866, 47.385465], "type": "Point"}, "properties": {"charge": 67, "id": "smide_118", "name": "ZH253759", "provider": "smide", "range": 33.0, "size": 20, "time": "01/30/2020, 21:28:46"}, "type": "Feature"}, {"geometry": {"coordinates": [8.524381, 47.392684], "type": "Point"}, "properties": {"charge": 66, "id": "smide_142", "name": "ZH258745", "provider": "smide", "range": 33.0, "size": 17, "time": "01/30/2020, 21:28:46"}, "type": "Feature"}, {"geometry": {"coordinates": [8.538515, 47.379283], "type": "Point"}, "properties": {"charge": 80, "id": "smide_166", "name": "ZH253728", "provider": "smide", "range": 40.0, "size": 17, "time": "01/30/2020, 21:28:46"}, "type": "Feature"}, {"geometry": {"coordinates": [8.495553, 47.38204], "type": "Point"}, "properties": {"charge": 89, "id": "smide_126", "name": "ZH268400", "provider": "smide", "range": 44.0, "size": 17, "time": "01/30/2020, 21:28:46"}, "type": "Feature"}, {"geometry": {"coordinates": [8.51608, 47.37153], "type": "Point"}, "properties": {"charge": 73, "id": "smide_44", "name": "ZH253837", "provider": "smide", "range": 36.0, "size": 17, "time": "01/30/2020, 21:28:46"}, "type": "Feature"}, {"geometry": {"coordinates": [8.551778, 47.389218], "type": "Point"}, "properties": {"charge": 84, "id": "smide_98", "name": "ZH256321", "provider": "smide", "range": 42.0, "size": 17, "time": "01/30/2020, 21:28:46"}, "type": "Feature"}, {"geometry": {"coordinates": [8.572011, 47.355168], "type": "Point"}, "properties": {"charge": 100, "id": "smide_154", "name": "ZH253744", "provider": "smide", "range": 50.0, "size": 20, "time": "01/30/2020, 21:28:46"}, "type": "Feature"}, {"geometry": {"coordinates": [8.505169, 47.400364], "type": "Point"}, "properties": {"charge": 32, "id": "smide_92", "name": "ZH253798", "provider": "smide", "range": 16.0, "size": 17, "time": "01/30/2020, 21:28:46"}, "type": "Feature"}, {"geometry": {"coordinates": [8.487403, 47.38394], "type": "Point"}, "properties": {"charge": 87, "id": "smide_167", "name": "ZH253854", "provider": "smide", "range": 43.0, "size": 17, "time": "01/30/2020, 21:28:46"}, "type": "Feature"}, {"geometry": {"coordinates": [8.537319, 47.379556], "type": "Point"}, "properties": {"charge": 42, "id": "smide_111", "name": "ZH253763", "provider": "smide", "range": 21.0, "size": 17, "time": "01/30/2020, 21:28:46"}, "type": "Feature"}, {"geometry": {"coordinates": [8.524343, 47.38804], "type": "Point"}, "properties": {"charge": 40, "id": "smide_40", "name": "ZH253690", "provider": "smide", "range": 20.0, "size": 20, "time": "01/30/2020, 21:28:46"}, "type": "Feature"}, {"geometry": {"coordinates": [8.557812, 47.352084], "type": "Point"}, "properties": {"charge": 99, "id": "smide_1", "name": "ZH253776", "provider": "smide", "range": 49.0, "size": 17, "time": "01/30/2020, 21:28:46"}, "type": "Feature"}, {"geometry": {"coordinates": [8.554299, 47.359288], "type": "Point"}, "properties": {"charge": 100, "id": "smide_28", "name": "ZH253831", "provider": "smide", "range": 50.0, "size": 17, "time": "01/30/2020, 21:28:46"}, "type": "Feature"}, {"geometry": {"coordinates": [8.516951, 47.398178], "type": "Point"}, "properties": {"charge": 98, "id": "smide_14", "name": "ZH253749", "provider": "smide", "range": 49.0, "size": 20, "time": "01/30/2020, 21:28:46"}, "type": "Feature"}, {"geometry": {"coordinates": [8.555644, 47.384408], "type": "Point"}, "properties": {"charge": 69, "id": "smide_130", "name": "ZH253847", "provider": "smide", "range": 34.0, "size": 20, "time": "01/30/2020, 21:28:46"}, "type": "Feature"}, {"geometry": {"coordinates": [8.543029, 47.392284], "type": "Point"}, "properties": {"charge": 53, "id": "smide_24", "name": "ZH253696", "provider": "smide", "range": 26.0, "size": 20, "time": "01/30/2020, 21:28:46"}, "type": "Feature"}, {"geometry": {"coordinates": [8.554339, 47.359276], "type": "Point"}, "properties": {"charge": 80, "id": "smide_83", "name": "ZH253869", "provider": "smide", "range": 40.0, "size": 20, "time": "01/30/2020, 21:28:46"}, "type": "Feature"}, {"geometry": {"coordinates": [8.48913, 47.386416], "type": "Point"}, "properties": {"charge": 73, "id": "smide_193", "name": "ZH253738", "provider": "smide", "range": 36.0, "size": 20, "time": "01/30/2020, 21:28:46"}, "type": "Feature"}, {"geometry": {"coordinates": [8.558965, 47.414896], "type": "Point"}, "properties": {"charge": 100, "id": "smide_73", "name": "ZH261379", "provider": "smide", "range": 50.0, "size": 20, "time": "01/30/2020, 21:28:46"}, "type": "Feature"}, {"geometry": {"coordinates": [8.484103, 47.376061], "type": "Point"}, "properties": {"charge": 100, "id": "smide_158", "name": "ZH253870", "provider": "smide", "range": 50.0, "size": 20, "time": "01/30/2020, 21:28:46"}, "type": "Feature"}, {"geometry": {"coordinates": [8.494373, 47.4243], "type": "Point"}, "properties": {"charge": 21, "id": "smide_100", "name": "ZH253862", "provider": "smide", "range": 10.0, "size": 20, "time": "01/30/2020, 21:28:46"}, "type": "Feature"}, {"geometry": {"coordinates": [8.487276, 47.367511], "type": "Point"}, "properties": {"charge": 37, "id": "smide_134", "name": "ZH253741", "provider": "smide", "range": 18.0, "size": 20, "time": "01/30/2020, 21:28:46"}, "type": "Feature"}, {"geometry": {"coordinates": [8.53278, 47.377521], "type": "Point"}, "properties": {"charge": 50, "id": "smide_141", "name": "ZH253800", "provider": "smide", "range": 25.0, "size": 20, "time": "01/30/2020, 21:28:46"}, "type": "Feature"}, {"geometry": {"coordinates": [8.560175, 47.370348], "type": "Point"}, "properties": {"charge": 73, "id": "smide_149", "name": "ZH253743", "provider": "smide", "range": 36.0, "size": 20, "time": "01/30/2020, 21:28:46"}, "type": "Feature"}, {"geometry": {"coordinates": [8.518128, 47.396112], "type": "Point"}, "properties": {"charge": 91, "id": "smide_16", "name": "ZH253713", "provider": "smide", "range": 45.0, "size": 20, "time": "01/30/2020, 21:28:46"}, "type": "Feature"}, {"geometry": {"coordinates": [8.53056, 47.41396], "type": "Point"}, "properties": {"charge": 89, "id": "smide_74", "name": "ZH253693", "provider": "smide", "range": 44.0, "size": 20, "time": "01/30/2020, 21:28:46"}, "type": "Feature"}, {"geometry": {"coordinates": [8.537051, 47.36723], "type": "Point"}, "properties": {"charge": 100, "id": "smide_33", "name": "ZH253782", "provider": "smide", "range": 50.0, "size": 20, "time": "01/30/2020, 21:28:46"}, "type": "Feature"}, {"geometry": {"coordinates": [8.546012, 47.368124], "type": "Point"}, "properties": {"charge": 76, "id": "smide_161", "name": "ZH253691", "provider": "smide", "range": 38.0, "size": 20, "time": "01/30/2020, 21:28:46"}, "type": "Feature"}, {"geometry": {"coordinates": [8.536498, 47.377908], "type": "Point"}, "properties": {"charge": 84, "id": "smide_183", "name": "ZH253868", "provider": "smide", "range": 42.0, "size": 17, "time": "01/30/2020, 21:28:46"}, "type": "Feature"}, {"geometry": {"coordinates": [8.483357, 47.37466], "type": "Point"}, "properties": {"charge": 100, "id": "smide_42", "name": "ZH253846", "provider": "smide", "range": 50.0, "size": 20, "time": "01/30/2020, 21:28:46"}, "type": "Feature"}, {"geometry": {"coordinates": [8.539358, 47.41926], "type": "Point"}, "properties": {"charge": 97, "id": "smide_4", "name": "ZH253740", "provider": "smide", "range": 48.0, "size": 20, "time": "01/30/2020, 21:28:46"}, "type": "Feature"}, {"geometry": {"coordinates": [8.56341, 47.40938], "type": "Point"}, "properties": {"charge": 60, "id": "smide_160", "name": "ZH253722", "provider": "smide", "range": 30.0, "size": 17, "time": "01/30/2020, 21:28:46"}, "type": "Feature"}, {"geometry": {"coordinates": [8.573381, 47.348948], "type": "Point"}, "properties": {"charge": 98, "id": "smide_137", "name": "ZH258502", "provider": "smide", "range": 49.0, "size": 17, "time": "01/30/2020, 21:28:46"}, "type": "Feature"}, {"geometry": {"coordinates": [8.540177, 47.378932], "type": "Point"}, "properties": {"charge": 33, "id": "smide_178", "name": "ZH253803", "provider": "smide", "range": 16.0, "size": 17, "time": "01/30/2020, 21:28:46"}, "type": "Feature"}, {"geometry": {"coordinates": [8.547681, 47.422633], "type": "Point"}, "properties": {"charge": 73, "id": "smide_55", "name": "ZH253875", "provider": "smide", "range": 36.0, "size": 17, "time": "01/30/2020, 21:28:46"}, "type": "Feature"}, {"geometry": {"coordinates": [8.517108, 47.39842], "type": "Point"}, "properties": {"charge": 59, "id": "smide_96", "name": "ZH256146", "provider": "smide", "range": 29.0, "size": 20, "time": "01/30/2020, 21:28:46"}, "type": "Feature"}, {"geometry": {"coordinates": [8.481224, 47.393932], "type": "Point"}, "properties": {"charge": 60, "id": "smide_58", "name": "ZH259246", "provider": "smide", "range": 30.0, "size": 20, "time": "01/30/2020, 21:28:46"}, "type": "Feature"}, {"geometry": {"coordinates": [8.561021, 47.367136], "type": "Point"}, "properties": {"charge": 91, "id": "smide_54", "name": "ZH253874", "provider": "smide", "range": 45.0, "size": 20, "time": "01/30/2020, 21:28:46"}, "type": "Feature"}, {"geometry": {"coordinates": [8.552008, 47.38972], "type": "Point"}, "properties": {"charge": 100, "id": "smide_175", "name": "ZH253730", "provider": "smide", "range": 50.0, "size": 17, "time": "01/30/2020, 21:28:46"}, "type": "Feature"}, {"geometry": {"coordinates": [8.564578, 47.369404], "type": "Point"}, "properties": {"charge": 98, "id": "smide_163", "name": "ZH256147", "provider": "smide", "range": 49.0, "size": 20, "time": "01/30/2020, 21:28:46"}, "type": "Feature"}, {"geometry": {"coordinates": [8.489736, 47.392788], "type": "Point"}, "properties": {"charge": 81, "id": "smide_112", "name": "ZH263530", "provider": "smide", "range": 40.0, "size": 20, "time": "01/30/2020, 21:28:46"}, "type": "Feature"}, {"geometry": {"coordinates": [8.543604, 47.378888], "type": "Point"}, "properties": {"charge": 59, "id": "smide_122", "name": "ZH253850", "provider": "smide", "range": 29.0, "size": 20, "time": "01/30/2020, 21:28:46"}, "type": "Feature"}, {"geometry": {"coordinates": [8.54524, 47.365801], "type": "Point"}, "properties": {"charge": 10, "id": "smide_38", "name": "ZH253851", "provider": "smide", "range": 5.0, "size": 20, "time": "01/30/2020, 21:28:46"}, "type": "Feature"}, {"geometry": {"coordinates": [8.516286, 47.385428], "type": "Point"}, "properties": {"charge": 98, "id": "smide_6", "name": "ZH253787", "provider": "smide", "range": 49.0, "size": 17, "time": "01/30/2020, 21:28:46"}, "type": "Feature"}, {"geometry": {"coordinates": [8.55689, 47.404052], "type": "Point"}, "properties": {"charge": 48, "id": "smide_18", "name": "ZH253859", "provider": "smide", "range": 24.0, "size": 17, "time": "01/30/2020, 21:28:46"}, "type": "Feature"}, {"geometry": {"coordinates": [8.541442, 47.378876], "type": "Point"}, "properties": {"charge": 94, "id": "smide_12", "name": "ZH253685", "provider": "smide", "range": 47.0, "size": 17, "time": "01/30/2020, 21:28:46"}, "type": "Feature"}, {"geometry": {"coordinates": [8.538066, 47.366472], "type": "Point"}, "properties": {"charge": 19, "id": "smide_192", "name": "ZH253706", "provider": "smide", "range": 9.0, "size": 20, "time": "01/30/2020, 21:28:46"}, "type": "Feature"}, {"geometry": {"coordinates": [8.559661, 47.416032], "type": "Point"}, "properties": {"charge": 99, "id": "smide_39", "name": "ZH253714", "provider": "smide", "range": 49.0, "size": 20, "time": "01/30/2020, 21:28:46"}, "type": "Feature"}, {"geometry": {"coordinates": [8.540956, 47.368966], "type": "Point"}, "properties": {"charge": 91, "id": "smide_5", "name": "ZH261443", "provider": "smide", "range": 45.0, "size": 20, "time": "01/30/2020, 21:28:46"}, "type": "Feature"}, {"geometry": {"coordinates": [8.562343, 47.377623], "type": "Point"}, "properties": {"charge": 100, "id": "smide_85", "name": "ZH253729", "provider": "smide", "range": 50.0, "size": 17, "time": "01/30/2020, 21:28:46"}, "type": "Feature"}, {"geometry": {"coordinates": [8.545489, 47.413024], "type": "Point"}, "properties": {"charge": 57, "id": "smide_29", "name": "ZH253723", "provider": "smide", "range": 28.0, "size": 17, "time": "01/30/2020, 21:28:46"}, "type": "Feature"}, {"geometry": {"coordinates": [8.524357, 47.395832], "type": "Point"}, "properties": {"charge": 72, "id": "smide_48", "name": "ZH253849", "provider": "smide", "range": 36.0, "size": 20, "time": "01/30/2020, 21:28:46"}, "type": "Feature"}, {"geometry": {"coordinates": [8.538462, 47.379288], "type": "Point"}, "properties": {"charge": 20, "id": "smide_46", "name": "ZH253843", "provider": "smide", "range": 10.0, "size": 20, "time": "01/30/2020, 21:28:46"}, "type": "Feature"}, {"geometry": {"coordinates": [8.52935833333333, 47.3937683333333], "type": "Point"}, "properties": {"charge": 75, "id": "bird_7b5dd720-a514-4152-bdba-86934ca836ce", "provider": "bird", "timeStamp": "01/30/2020, 21:28:45"}, "type": "Feature"}, {"geometry": {"coordinates": [8.51399333333333, 47.3715433333333], "type": "Point"}, "properties": {"charge": 31, "id": "bird_ab189ad0-94be-445d-9ec4-7480425cfd13", "provider": "bird", "timeStamp": "01/30/2020, 21:28:45"}, "type": "Feature"}, {"geometry": {"coordinates": [8.52934666666667, 47.3937033333333], "type": "Point"}, "properties": {"charge": 84, "id": "bird_1dba2a90-acbc-4cb5-8949-3f100ef86595", "provider": "bird", "timeStamp": "01/30/2020, 21:28:45"}, "type": "Feature"}, {"geometry": {"coordinates": [8.529325, 47.3937], "type": "Point"}, "properties": {"charge": 89, "id": "bird_07c4620f-1480-469c-bed7-63ab2828bf4c", "provider": "bird", "timeStamp": "01/30/2020, 21:28:45"}, "type": "Feature"}, {"geometry": {"coordinates": [8.52927833333333, 47.3936916666667], "type": "Point"}, "properties": {"charge": 87, "id": "bird_8dcd5a08-cd73-4b09-b652-80abe2ee67e1", "provider": "bird", "timeStamp": "01/30/2020, 21:28:45"}, "type": "Feature"}, {"geometry": {"coordinates": [8.516645, 47.3697133333333], "type": "Point"}, "properties": {"charge": 97, "id": "bird_143edcd3-f99b-4af2-80aa-8c810a423410", "provider": "bird", "timeStamp": "01/30/2020, 21:28:45"}, "type": "Feature"}, {"geometry": {"coordinates": [8.51, 47.3781083333333], "type": "Point"}, "properties": {"charge": 96, "id": "bird_623cbcb4-460c-405a-90de-7969e161fef3", "provider": "bird", "timeStamp": "01/30/2020, 21:28:45"}, "type": "Feature"}, {"geometry": {"coordinates": [8.51005666666667, 47.378155], "type": "Point"}, "properties": {"charge": 92, "id": "bird_d9dbd0eb-63b6-4992-8000-86c8c0f50090", "provider": "bird", "timeStamp": "01/30/2020, 21:28:45"}, "type": "Feature"}, {"geometry": {"coordinates": [8.53616, 47.3670266666667], "type": "Point"}, "properties": {"charge": 53, "id": "bird_377d6927-1019-4310-893f-0390ef082810", "provider": "bird", "timeStamp": "01/30/2020, 21:28:45"}, "type": "Feature"}, {"geometry": {"coordinates": [8.51016, 47.3780333333333], "type": "Point"}, "properties": {"charge": 61, "id": "bird_7656c2f7-23ac-4d71-a8f8-e0e0d3749297", "provider": "bird", "timeStamp": "01/30/2020, 21:28:45"}, "type": "Feature"}, {"geometry": {"coordinates": [8.51332166666667, 47.3875233333333], "type": "Point"}, "properties": {"charge": 65, "id": "bird_daf78aca-b701-49b0-b55c-7cd6d94445f5", "provider": "bird", "timeStamp": "01/30/2020, 21:28:45"}, "type": "Feature"}, {"geometry": {"coordinates": [8.52926166666667, 47.3935316666667], "type": "Point"}, "properties": {"charge": 84, "id": "bird_972145d7-4adf-48d1-9d31-52c4536f0aa3", "provider": "bird", "timeStamp": "01/30/2020, 21:28:45"}, "type": "Feature"}, {"geometry": {"coordinates": [8.52916666666667, 47.3935083333333], "type": "Point"}, "properties": {"charge": 93, "id": "bird_44238b20-f91a-45bf-97c5-3eb9ae1376d9", "provider": "bird", "timeStamp": "01/30/2020, 21:28:45"}, "type": "Feature"}, {"geometry": {"coordinates": [8.51348, 47.387565], "type": "Point"}, "properties": {"charge": 58, "id": "bird_5a77f98c-600e-4684-b1e2-ee1c26a96ba4", "provider": "bird", "timeStamp": "01/30/2020, 21:28:45"}, "type": "Feature"}, {"geometry": {"coordinates": [8.52919833333333, 47.3934866666667], "type": "Point"}, "properties": {"charge": 84, "id": "bird_b114ae4b-4092-4739-a4fa-4fa5ba535431", "provider": "bird", "timeStamp": "01/30/2020, 21:28:45"}, "type": "Feature"}, {"geometry": {"coordinates": [8.51023666666667, 47.37843], "type": "Point"}, "properties": {"charge": 92, "id": "bird_a8e17aff-57c8-4393-b6c3-4a387398179b", "provider": "bird", "timeStamp": "01/30/2020, 21:28:45"}, "type": "Feature"}, {"geometry": {"coordinates": [8.51026, 47.3784483333333], "type": "Point"}, "properties": {"charge": 98, "id": "bird_6265dbf3-fd84-4b8b-a2d3-2e269fee9570", "provider": "bird", "timeStamp": "01/30/2020, 21:28:45"}, "type": "Feature"}, {"geometry": {"coordinates": [8.52640166666667, 47.3932], "type": "Point"}, "properties": {"charge": 62, "id": "bird_4faa1086-c7f0-4147-8ac9-5d762141bddb", "provider": "bird", "timeStamp": "01/30/2020, 21:28:45"}, "type": "Feature"}, {"geometry": {"coordinates": [8.51039166666667, 47.3783566666667], "type": "Point"}, "properties": {"charge": 91, "id": "bird_19cc1447-1b7a-4a02-9302-86dfaa26cc6b", "provider": "bird", "timeStamp": "01/30/2020, 21:28:45"}, "type": "Feature"}, {"geometry": {"coordinates": [8.52810833333333, 47.366695], "type": "Point"}, "properties": {"charge": 30, "id": "bird_987e7f39-9a41-42c0-a977-c3743f9e8ef4", "provider": "bird", "timeStamp": "01/30/2020, 21:28:45"}, "type": "Feature"}, {"geometry": {"coordinates": [8.51079833333333, 47.3770566666667], "type": "Point"}, "properties": {"charge": 40, "id": "bird_1f0fb49e-1e7c-4d45-9e42-d8aeb04bf580", "provider": "bird", "timeStamp": "01/30/2020, 21:28:45"}, "type": "Feature"}, {"geometry": {"coordinates": [8.53385, 47.366955], "type": "Point"}, "properties": {"charge": 44, "id": "bird_3ddea71e-94ab-41cb-a31d-e55e1fca65e7", "provider": "bird", "timeStamp": "01/30/2020, 21:28:45"}, "type": "Feature"}, {"geometry": {"coordinates": [8.51052333333333, 47.37841], "type": "Point"}, "properties": {"charge": 92, "id": "bird_9cf4995b-8bf6-461d-af36-ec3c2ae5ceb4", "provider": "bird", "timeStamp": "01/30/2020, 21:28:45"}, "type": "Feature"}, {"geometry": {"coordinates": [8.518175, 47.369415], "type": "Point"}, "properties": {"charge": 24, "id": "bird_12eea7b5-c2bc-489a-9260-52334ce7f974", "provider": "bird", "timeStamp": "01/30/2020, 21:28:45"}, "type": "Feature"}, {"geometry": {"coordinates": [8.54091, 47.3690333333333], "type": "Point"}, "properties": {"charge": 74, "id": "bird_6304e1f7-1d62-48bc-ae5d-74b968a36453", "provider": "bird", "timeStamp": "01/30/2020, 21:28:45"}, "type": "Feature"}, {"geometry": {"coordinates": [8.51624166666667, 47.3893133333333], "type": "Point"}, "properties": {"charge": 73, "id": "bird_d57d5312-81d7-43cf-b122-cd85ce62a8df", "provider": "bird", "timeStamp": "01/30/2020, 21:28:45"}, "type": "Feature"}, {"geometry": {"coordinates": [8.51067, 47.3786583333333], "type": "Point"}, "properties": {"charge": 51, "id": "bird_da9b967b-16b8-43bb-8885-2c7f5247e01c", "provider": "bird", "timeStamp": "01/30/2020, 21:28:45"}, "type": "Feature"}, {"geometry": {"coordinates": [8.51391166666667, 47.3727], "type": "Point"}, "properties": {"charge": 53, "id": "bird_489ce7d7-19a8-4a16-90cc-f5d6094e366e", "provider": "bird", "timeStamp": "01/30/2020, 21:28:45"}, "type": "Feature"}, {"geometry": {"coordinates": [8.51125, 47.3767733333333], "type": "Point"}, "properties": {"charge": 20, "id": "bird_cc4537c5-bbe5-4085-8176-d27d3c791bf6", "provider": "bird", "timeStamp": "01/30/2020, 21:28:45"}, "type": "Feature"}, {"geometry": {"coordinates": [8.54601, 47.3727183333333], "type": "Point"}, "properties": {"charge": 22, "id": "bird_2ca096f2-d941-4152-95ce-8b771a995515", "provider": "bird", "timeStamp": "01/30/2020, 21:28:45"}, "type": "Feature"}, {"geometry": {"coordinates": [8.51730833333333, 47.389725], "type": "Point"}, "properties": {"charge": 33, "id": "bird_5a256a98-5db4-450c-81c7-e3708d705a23", "provider": "bird", "timeStamp": "01/30/2020, 21:28:45"}, "type": "Feature"}, {"geometry": {"coordinates": [8.51762333333333, 47.38984], "type": "Point"}, "properties": {"charge": 35, "id": "bird_86b46bbc-90b5-4db9-8d74-7fac0b7a36ae", "provider": "bird", "timeStamp": "01/30/2020, 21:28:45"}, "type": "Feature"}, {"geometry": {"coordinates": [8.52881, 47.3928683333333], "type": "Point"}, "properties": {"charge": 70, "id": "bird_4b09b17e-50cd-4720-a96d-9ed28ed4f8cf", "provider": "bird", "timeStamp": "01/30/2020, 21:28:45"}, "type": "Feature"}, {"geometry": {"coordinates": [8.511355, 47.3825033333333], "type": "Point"}, "properties": {"charge": 51, "id": "bird_5c8287f5-8198-4f5a-b1bd-29e20f640979", "provider": "bird", "timeStamp": "01/30/2020, 21:28:45"}, "type": "Feature"}, {"geometry": {"coordinates": [8.5151, 47.3878666666667], "type": "Point"}, "properties": {"charge": 49, "id": "bird_ff36fe86-75b7-4f85-90db-1e8652654d17", "provider": "bird", "timeStamp": "01/30/2020, 21:28:45"}, "type": "Feature"}, {"geometry": {"coordinates": [8.52839333333333, 47.392685], "type": "Point"}, "properties": {"charge": 31, "id": "bird_c3833c67-b2df-462a-965b-c9dc5f96eef2", "provider": "bird", "timeStamp": "01/30/2020, 21:28:45"}, "type": "Feature"}, {"geometry": {"coordinates": [8.53639166666667, 47.3681366666667], "type": "Point"}, "properties": {"charge": 25, "id": "bird_8ba572af-61d2-4491-92ff-e2f084939b52", "provider": "bird", "timeStamp": "01/30/2020, 21:28:45"}, "type": "Feature"}, {"geometry": {"coordinates": [8.51471833333333, 47.387165], "type": "Point"}, "properties": {"charge": 53, "id": "bird_dcdc21f5-3ec6-4182-9365-e3fa418cbb74", "provider": "bird", "timeStamp": "01/30/2020, 21:28:45"}, "type": "Feature"}, {"geometry": {"coordinates": [8.51497666666667, 47.3873933333333], "type": "Point"}, "properties": {"charge": 73, "id": "bird_2a35a00e-2a2b-4763-85f3-50fc756cb636", "provider": "bird", "timeStamp": "01/30/2020, 21:28:45"}, "type": "Feature"}, {"geometry": {"coordinates": [8.53174666666667, 47.367515], "type": "Point"}, "properties": {"charge": 25, "id": "bird_d0406750-b783-4ceb-92b3-39ccfa31b0eb", "provider": "bird", "timeStamp": "01/30/2020, 21:28:45"}, "type": "Feature"}, {"geometry": {"coordinates": [8.54812166666667, 47.3774333333333], "type": "Point"}, "properties": {"charge": 64, "id": "bird_bf4fd5aa-e40f-4fe7-922c-57d34c4104d3", "provider": "bird", "timeStamp": "01/30/2020, 21:28:45"}, "type": "Feature"}, {"geometry": {"coordinates": [8.53981833333333, 47.3906016666667], "type": "Point"}, "properties": {"charge": 60, "id": "bird_869ac397-bfb2-436c-979f-6729262a9130", "provider": "bird", "timeStamp": "01/30/2020, 21:28:45"}, "type": "Feature"}, {"geometry": {"coordinates": [8.54382833333333, 47.3718716666667], "type": "Point"}, "properties": {"charge": 34, "id": "bird_de203de1-431b-422b-9c95-1e6e23876523", "provider": "bird", "timeStamp": "01/30/2020, 21:28:45"}, "type": "Feature"}, {"geometry": {"coordinates": [8.54393833333333, 47.3720283333333], "type": "Point"}, "properties": {"charge": 21, "id": "bird_667b4059-d4a7-4e60-a5c1-9e1157668b90", "provider": "bird", "timeStamp": "01/30/2020, 21:28:45"}, "type": "Feature"}, {"geometry": {"coordinates": [8.5177, 47.38905], "type": "Point"}, "properties": {"charge": 54, "id": "bird_756c7258-2093-442c-ac2c-fd658e7d4652", "provider": "bird", "timeStamp": "01/30/2020, 21:28:45"}, "type": "Feature"}, {"geometry": {"coordinates": [8.53997166666667, 47.3901983333333], "type": "Point"}, "properties": {"charge": 24, "id": "bird_af6b4e7b-df99-4333-bcae-2547588f7246", "provider": "bird", "timeStamp": "01/30/2020, 21:28:45"}, "type": "Feature"}, {"geometry": {"coordinates": [8.53823833333333, 47.369175], "type": "Point"}, "properties": {"charge": 53, "id": "bird_d62084bf-4eb7-4eb4-9192-c15c076e44e4", "provider": "bird", "timeStamp": "01/30/2020, 21:28:45"}, "type": "Feature"}, {"geometry": {"coordinates": [8.53000833333333, 47.3680883333333], "type": "Point"}, "properties": {"charge": 22, "id": "bird_fcbf1940-d4c9-4d63-83d6-e9efe1f02f89", "provider": "bird", "timeStamp": "01/30/2020, 21:28:45"}, "type": "Feature"}, {"geometry": {"coordinates": [8.53294666666667, 47.3683166666667], "type": "Point"}, "properties": {"charge": 36, "id": "bird_f57aa683-285c-44f1-94a1-01b9a3599828", "provider": "bird", "timeStamp": "01/30/2020, 21:28:45"}, "type": "Feature"}, {"geometry": {"coordinates": [8.54571666666667, 47.3751483333333], "type": "Point"}, "properties": {"charge": 40, "id": "bird_c518b89b-15e6-4354-a53b-da4e1f229ee3", "provider": "bird", "timeStamp": "01/30/2020, 21:28:45"}, "type": "Feature"}, {"geometry": {"coordinates": [8.530675, 47.3683583333333], "type": "Point"}, "properties": {"charge": 75, "id": "bird_ce4d1f8a-ddcf-4b7b-8f20-1062b54e08e2", "provider": "bird", "timeStamp": "01/30/2020, 21:28:45"}, "type": "Feature"}, {"geometry": {"coordinates": [8.53826, 47.3698116666667], "type": "Point"}, "properties": {"charge": 26, "id": "bird_7e892bd2-9844-44f4-9246-a22cbc938ae8", "provider": "bird", "timeStamp": "01/30/2020, 21:28:45"}, "type": "Feature"}, {"geometry": {"coordinates": [8.52116166666667, 47.3899033333333], "type": "Point"}, "properties": {"charge": 82, "id": "bird_9d4e7ac6-37da-4ec1-989d-488b06712078", "provider": "bird", "timeStamp": "01/30/2020, 21:28:45"}, "type": "Feature"}, {"geometry": {"coordinates": [8.52203833333333, 47.390205], "type": "Point"}, "properties": {"charge": 75, "id": "bird_4c360c9d-f4ee-4683-b7b8-903b8d165103", "provider": "bird", "timeStamp": "01/30/2020, 21:28:45"}, "type": "Feature"}, {"geometry": {"coordinates": [8.544655, 47.374145], "type": "Point"}, "properties": {"charge": 89, "id": "bird_0aa54622-eb4a-4998-9bc7-9c58ba8dfb98", "provider": "bird", "timeStamp": "01/30/2020, 21:28:45"}, "type": "Feature"}, {"geometry": {"coordinates": [8.53917333333333, 47.389695], "type": "Point"}, "properties": {"charge": 75, "id": "bird_50fd7456-79c5-4416-aedd-911dc362eb03", "provider": "bird", "timeStamp": "01/30/2020, 21:28:45"}, "type": "Feature"}, {"geometry": {"coordinates": [8.53917166666667, 47.3896633333333], "type": "Point"}, "properties": {"charge": 70, "id": "bird_72f360e2-ffad-4da3-8318-2a80dcbf70de", "provider": "bird", "timeStamp": "01/30/2020, 21:28:45"}, "type": "Feature"}, {"geometry": {"coordinates": [8.52321833333333, 47.3695833333333], "type": "Point"}, "properties": {"charge": 64, "id": "bird_695e6194-4a78-47e9-8bdf-4e2f471193e3", "provider": "bird", "timeStamp": "01/30/2020, 21:28:45"}, "type": "Feature"}, {"geometry": {"coordinates": [8.51812666666667, 47.3880533333333], "type": "Point"}, "properties": {"charge": 62, "id": "bird_78336904-44a1-4186-b64d-7d211864170a", "provider": "bird", "timeStamp": "01/30/2020, 21:28:45"}, "type": "Feature"}, {"geometry": {"coordinates": [8.52204833333333, 47.3900066666667], "type": "Point"}, "properties": {"charge": 87, "id": "bird_8719bdc8-385a-4b66-83be-ee22af78d2f9", "provider": "bird", "timeStamp": "01/30/2020, 21:28:45"}, "type": "Feature"}, {"geometry": {"coordinates": [8.52086833333333, 47.3704683333333], "type": "Point"}, "properties": {"charge": 64, "id": "bird_f807358d-0d93-4fa4-b330-f1f0af06d4af", "provider": "bird", "timeStamp": "01/30/2020, 21:28:45"}, "type": "Feature"}, {"geometry": {"coordinates": [8.54092166666667, 47.3714216666667], "type": "Point"}, "properties": {"charge": 81, "id": "bird_8012590f-d42b-493a-a340-4b388d6dcb5d", "provider": "bird", "timeStamp": "01/30/2020, 21:28:45"}, "type": "Feature"}, {"geometry": {"coordinates": [8.51587666666667, 47.3857883333333], "type": "Point"}, "properties": {"charge": 42, "id": "bird_acd7cac0-92a7-4040-ba1d-b3beb993e3f1", "provider": "bird", "timeStamp": "01/30/2020, 21:28:45"}, "type": "Feature"}, {"geometry": {"coordinates": [8.51465666666667, 47.3759], "type": "Point"}, "properties": {"charge": 66, "id": "bird_df18a8ba-1663-45d0-81b4-3e449ac5e5a8", "provider": "bird", "timeStamp": "01/30/2020, 21:28:45"}, "type": "Feature"}, {"geometry": {"coordinates": [8.514645, 47.3759883333333], "type": "Point"}, "properties": {"charge": 93, "id": "bird_8cd2fe00-071b-4efd-bb4e-9c53935c4778", "provider": "bird", "timeStamp": "01/30/2020, 21:28:45"}, "type": "Feature"}, {"geometry": {"coordinates": [8.51607333333333, 47.38564], "type": "Point"}, "properties": {"charge": 39, "id": "bird_1adfdcc4-7cee-4c58-b3f9-08e1ce2ed215", "provider": "bird", "timeStamp": "01/30/2020, 21:28:45"}, "type": "Feature"}, {"geometry": {"coordinates": [8.52173666666667, 47.38932], "type": "Point"}, "properties": {"charge": 73, "id": "bird_6336aad0-9941-4732-a287-84e8b302bb66", "provider": "bird", "timeStamp": "01/30/2020, 21:28:45"}, "type": "Feature"}, {"geometry": {"coordinates": [8.51870666666667, 47.3875083333333], "type": "Point"},