{"features": [{"geometry": {"coordinates": [8.540062, 47.374392], "type": "Point"}, "properties": {"address": "Uraniastrasse 7", "electric": 1, "id": "pb_60", "manual": 19, "name": "Demo Station Werdm\u00fchleplatz", "provider": "publibike", "timeStamp": "02/25/2020, 10:19:00", "zip": 8001}, "type": "Feature"}, {"geometry": {"coordinates": [8.5452956, 47.4099615], "type": "Point"}, "properties": {"address": "Querstrasse 8", "electric": 1, "id": "pb_61", "manual": 4, "name": "Marktplatz", "provider": "publibike", "timeStamp": "02/25/2020, 10:19:00", "zip": 8050}, "type": "Feature"}, {"geometry": {"coordinates": [8.5156327, 47.3795837], "type": "Point"}, "properties": {"address": "Bullingerstrasse 5", "electric": 0, "id": "pb_80", "manual": 0, "name": "Bullingerplatz", "provider": "publibike", "timeStamp": "02/25/2020, 10:19:00", "zip": 8004}, "type": "Feature"}, {"geometry": {"coordinates": [8.5104051, 47.3899342], "type": "Point"}, "properties": {"address": "Pfingstweidstrasse 96e", "electric": 4, "id": "pb_81", "manual": 2, "name": "Herdern", "provider": "publibike", "timeStamp": "02/25/2020, 10:19:00", "zip": 8001}, "type": "Feature"}, {"geometry": {"coordinates": [8.535718, 47.359675], "type": "Point"}, "properties": {"address": "Mythenquai 50", "electric": 20, "id": "pb_82", "manual": 8, "name": "Hafen Enge", "provider": "publibike", "timeStamp": "02/25/2020, 10:19:00", "zip": 8002}, "type": "Feature"}, {"geometry": {"coordinates": [8.520370505, 47.358663827], "type": "Point"}, "properties": {"address": "Bubenbergstrasse 1", "electric": 9, "id": "pb_83", "manual": 7, "name": "Comerge", "provider": "publibike", "timeStamp": "02/25/2020, 10:19:00", "zip": 8045}, "type": "Feature"}, {"geometry": {"coordinates": [8.5412505, 47.3789825], "type": "Point"}, "properties": {"address": "Museumstrasse 2", "electric": 5, "id": "pb_84", "manual": 17, "name": "Landesmuseum", "provider": "publibike", "timeStamp": "02/25/2020, 10:19:00", "zip": 8001}, "type": "Feature"}, {"geometry": {"coordinates": [8.5235479, 47.3716661], "type": "Point"}, "properties": {"address": "Birmensdorferstrasse 80", "electric": 2, "id": "pb_85", "manual": 10, "name": "Bahnhof Wiedikon", "provider": "publibike", "timeStamp": "02/25/2020, 10:19:00", "zip": 8003}, "type": "Feature"}, {"geometry": {"coordinates": [8.506822854, 47.40781197], "type": "Point"}, "properties": {"address": "Stefano-Franscini-Platz 5", "electric": 30, "id": "pb_86", "manual": 0, "name": "ETH H\u00f6nggerberg", "provider": "publibike", "timeStamp": "02/25/2020, 10:19:00", "zip": 8093}, "type": "Feature"}, {"geometry": {"coordinates": [8.536101, 47.371083], "type": "Point"}, "properties": {"address": "Pelikanplatz 5", "electric": 2, "id": "pb_87", "manual": 2, "name": "Pelikanplatz", "provider": "publibike", "timeStamp": "02/25/2020, 10:19:00", "zip": 8001}, "type": "Feature"}, {"geometry": {"coordinates": [8.5257822, 47.3651936], "type": "Point"}, "properties": {"address": "H\u00fcrlimannplatz 90", "electric": 46, "id": "pb_88", "manual": 20, "name": "H\u00fcrlimannplatz", "provider": "publibike", "timeStamp": "02/25/2020, 10:19:00", "zip": 8002}, "type": "Feature"}, {"geometry": {"coordinates": [8.5313344, 47.3713591], "type": "Point"}, "properties": {"address": "Selnaustrasse 32", "electric": 3, "id": "pb_89", "manual": 6, "name": "Stauffacherbr\u00fccke", "provider": "publibike", "timeStamp": "02/25/2020, 10:19:00", "zip": 8001}, "type": "Feature"}, {"geometry": {"coordinates": [8.5056978, 47.3917964], "type": "Point"}, "properties": {"address": "Sportweg 25", "electric": 4, "id": "pb_90", "manual": 11, "name": "Sportweg", "provider": "publibike", "timeStamp": "02/25/2020, 10:19:00", "zip": 8005}, "type": "Feature"}, {"geometry": {"coordinates": [8.5181701, 47.3917837], "type": "Point"}, "properties": {"address": "Hardturmstrasse 11", "electric": 4, "id": "pb_91", "manual": 2, "name": "Puls 5", "provider": "publibike", "timeStamp": "02/25/2020, 10:19:00", "zip": 8005}, "type": "Feature"}, {"geometry": {"coordinates": [8.5286468, 47.3820827], "type": "Point"}, "properties": {"address": "R\u00f6ntgenstrasse 6", "electric": 1, "id": "pb_92", "manual": 1, "name": "R\u00f6ntgenstrasse", "provider": "publibike", "timeStamp": "02/25/2020, 10:19:00", "zip": 8005}, "type": "Feature"}, {"geometry": {"coordinates": [8.531935, 47.384918], "type": "Point"}, "properties": {"address": "Kornhausbr\u00fccke 1", "electric": 1, "id": "pb_93", "manual": 6, "name": "Limmatplatz", "provider": "publibike", "timeStamp": "02/25/2020, 10:19:00", "zip": 8005}, "type": "Feature"}, {"geometry": {"coordinates": [8.5354006, 47.3758639], "type": "Point"}, "properties": {"address": "Gessnerallee 15", "electric": 3, "id": "pb_94", "manual": 1, "name": "Gessnerallee", "provider": "publibike", "timeStamp": "02/25/2020, 10:19:00", "zip": 8001}, "type": "Feature"}, {"geometry": {"coordinates": [8.523818, 47.377148], "type": "Point"}, "properties": {"address": "Stauffacherstrasse 127", "electric": 4, "id": "pb_95", "manual": 3, "name": "B\u00e4ckeranlage", "provider": "publibike", "timeStamp": "02/25/2020, 10:19:00", "zip": 8004}, "type": "Feature"}, {"geometry": {"coordinates": [8.531836, 47.378548], "type": "Point"}, "properties": {"address": "Lagerstrasse 44", "electric": 7, "id": "pb_96", "manual": 12, "name": "Gustav-Gull-Platz", "provider": "publibike", "timeStamp": "02/25/2020, 10:19:00", "zip": 8004}, "type": "Feature"}, {"geometry": {"coordinates": [8.5104883, 47.3771535], "type": "Point"}, "properties": {"address": "Zurlindenstrasse 291", "electric": 0, "id": "pb_97", "manual": 12, "name": "Zurlindenstrasse", "provider": "publibike", "timeStamp": "02/25/2020, 10:19:00", "zip": 8003}, "type": "Feature"}, {"geometry": {"coordinates": [8.5333139, 47.3731102], "type": "Point"}, "properties": {"address": "Sihlstrasse 81", "electric": 3, "id": "pb_98", "manual": 4, "name": "Sihlstrasse", "provider": "publibike", "timeStamp": "02/25/2020, 10:19:00", "zip": 8001}, "type": "Feature"}, {"geometry": {"coordinates": [8.520532, 47.374951], "type": "Point"}, "properties": {"address": "Feldstrasse 24", "electric": 1, "id": "pb_99", "manual": 3, "name": "Kalkbreite", "provider": "publibike", "timeStamp": "02/25/2020, 10:19:00", "zip": 8004}, "type": "Feature"}, {"geometry": {"coordinates": [8.539046, 47.368064], "type": "Point"}, "properties": {"address": "Talstrasse 12", "electric": 6, "id": "pb_100", "manual": 7, "name": "Z\u00fcrcher Kantonalbank", "provider": "publibike", "timeStamp": "02/25/2020, 10:19:00", "zip": 8001}, "type": "Feature"}, {"geometry": {"coordinates": [8.5348427, 47.3625938], "type": "Point"}, "properties": {"address": "Breitingerstrasse 5", "electric": 1, "id": "pb_101", "manual": 1, "name": "Rentenanstalt", "provider": "publibike", "timeStamp": "02/25/2020, 10:19:00", "zip": 8002}, "type": "Feature"}, {"geometry": {"coordinates": [8.5166922, 47.3897772], "type": "Point"}, "properties": {"address": "Technoparkstrasse 4", "electric": 8, "id": "pb_102", "manual": 5, "name": "Turbinenplatz", "provider": "publibike", "timeStamp": "02/25/2020, 10:19:00", "zip": 8005}, "type": "Feature"}, {"geometry": {"coordinates": [8.539312, 47.3739964], "type": "Point"}, "properties": {"address": "Oetenbachgasse 14", "electric": 6, "id": "pb_104", "manual": 4, "name": "Rennweg", "provider": "publibike", "timeStamp": "02/25/2020, 10:19:00", "zip": 8001}, "type": "Feature"}, {"geometry": {"coordinates": [8.5360685, 47.3775022], "type": "Point"}, "properties": {"address": "Kasernenstrasse 101", "electric": 7, "id": "pb_105", "manual": 1, "name": "Sihlpost", "provider": "publibike", "timeStamp": "02/25/2020, 10:19:00", "zip": 8004}, "type": "Feature"}, {"geometry": {"coordinates": [8.53545, 47.382798], "type": "Point"}, "properties": {"address": "Ausstellungsstrasse 44", "electric": 2, "id": "pb_106", "manual": 9, "name": "Museum f\u00fcr Gestaltung", "provider": "publibike", "timeStamp": "02/25/2020, 10:19:00", "zip": 8005}, "type": "Feature"}, {"geometry": {"coordinates": [8.5306155, 47.3647902], "type": "Point"}, "properties": {"address": "Gutenbergstrasse 1", "electric": 3, "id": "pb_107", "manual": 6, "name": "Bederbr\u00fccke", "provider": "publibike", "timeStamp": "02/25/2020, 10:19:00", "zip": 8002}, "type": "Feature"}, {"geometry": {"coordinates": [8.518982, 47.386741], "type": "Point"}, "properties": {"address": "Geroldstrasse 4", "electric": 0, "id": "pb_108", "manual": 2, "name": "Bahnhof Hardbr\u00fccke", "provider": "publibike", "timeStamp": "02/25/2020, 10:19:00", "zip": 8005}, "type": "Feature"}, {"geometry": {"coordinates": [8.53001018, 47.37247535], "type": "Point"}, "properties": {"address": "Werdstrasse 21", "electric": 14, "id": "pb_109", "manual": 0, "name": "Tamedia", "provider": "publibike", "timeStamp": "02/25/2020, 10:19:00", "zip": 8004}, "type": "Feature"}, {"geometry": {"coordinates": [8.4860017, 47.396401], "type": "Point"}, "properties": {"address": "Gr\u00fcnauring 37", "electric": 6, "id": "pb_110", "manual": 6, "name": "Gr\u00fcnau", "provider": "publibike", "timeStamp": "02/25/2020, 10:19:00", "zip": 8064}, "type": "Feature"}, {"geometry": {"coordinates": [8.548519, 47.376756], "type": "Point"}, "properties": {"address": "R\u00e4mistrasse 101", "electric": 91, "id": "pb_111", "manual": 5, "name": "ETH Zentrum", "provider": "publibike", "timeStamp": "02/25/2020, 10:19:00", "zip": 8006}, "type": "Feature"}, {"geometry": {"coordinates": [8.520449, 47.388151], "type": "Point"}, "properties": {"address": "Josefstrasse 224", "electric": 3, "id": "pb_112", "manual": 2, "name": "Steinfelsareal", "provider": "publibike", "timeStamp": "02/25/2020, 10:19:00", "zip": 8005}, "type": "Feature"}, {"geometry": {"coordinates": [8.520482, 47.37209], "type": "Point"}, "properties": {"address": "Weststrasse 115", "electric": 0, "id": "pb_124", "manual": 4, "name": "Weststrasse", "provider": "publibike", "timeStamp": "02/25/2020, 10:19:00", "zip": 8003}, "type": "Feature"}, {"geometry": {"coordinates": [8.496727, 47.378521], "type": "Point"}, "properties": {"address": "Albisriederstrasse 200", "electric": 1, "id": "pb_125", "manual": 6, "name": "Utogrund", "provider": "publibike", "timeStamp": "02/25/2020, 10:19:00", "zip": 8047}, "type": "Feature"}, {"geometry": {"coordinates": [8.510418, 47.381356], "type": "Point"}, "properties": {"address": "Bullingerstrasse 73", "electric": 3, "id": "pb_126", "manual": 14, "name": "Hardau", "provider": "publibike", "timeStamp": "02/25/2020, 10:19:00", "zip": 8004}, "type": "Feature"}, {"geometry": {"coordinates": [8.525525, 47.361567], "type": "Point"}, "properties": {"address": "Klopstockstrasse 23", "electric": 1, "id": "pb_127", "manual": 3, "name": "Klopstockwiese", "provider": "publibike", "timeStamp": "02/25/2020, 10:19:00", "zip": 8002}, "type": "Feature"}, {"geometry": {"coordinates": [8.518143, 47.363148], "type": "Point"}, "properties": {"address": "Haldenstrasse 8", "electric": 1, "id": "pb_128", "manual": 1, "name": "Binz", "provider": "publibike", "timeStamp": "02/25/2020, 10:19:00", "zip": 8045}, "type": "Feature"}, {"geometry": {"coordinates": [8.542726, 47.379952], "type": "Point"}, "properties": {"address": "Walchestrasse 11", "electric": 10, "id": "pb_129", "manual": 5, "name": "Stampfenbachplatz", "provider": "publibike", "timeStamp": "02/25/2020, 10:19:00", "zip": 8006}, "type": "Feature"}, {"geometry": {"coordinates": [8.488108, 47.391366], "type": "Point"}, "properties": {"address": "Altstetterplatz 1", "electric": 2, "id": "pb_130", "manual": 4, "name": "Bahnhof Altstetten", "provider": "publibike", "timeStamp": "02/25/2020, 10:19:00", "zip": 8048}, "type": "Feature"}, {"geometry": {"coordinates": [8.554114, 47.365119], "type": "Point"}, "properties": {"address": "Kreuzplatz 2", "electric": 0, "id": "pb_131", "manual": 2, "name": "Kreuzplatz", "provider": "publibike", "timeStamp": "02/25/2020, 10:19:00", "zip": 8032}, "type": "Feature"}, {"geometry": {"coordinates": [8.549852, 47.35594], "type": "Point"}, "properties": {"address": "H\u00f6schgasse 3", "electric": 5, "id": "pb_132", "manual": 3, "name": "Blatterwiese", "provider": "publibike", "timeStamp": "02/25/2020, 10:19:00", "zip": 8008}, "type": "Feature"}, {"geometry": {"coordinates": [8.554501, 47.36162], "type": "Point"}, "properties": {"address": "Feldeggstrasse 80", "electric": 1, "id": "pb_133", "manual": 2, "name": "Villa Bleuler", "provider": "publibike", "timeStamp": "02/25/2020, 10:19:00", "zip": 8008}, "type": "Feature"}, {"geometry": {"coordinates": [8.557088, 47.358557], "type": "Point"}, "properties": {"address": "M\u00fchlebachstrasse 131", "electric": 0, "id": "pb_134", "manual": 0, "name": "M\u00fchlebachstrasse", "provider": "publibike", "timeStamp": "02/25/2020, 10:19:00", "zip": 8008}, "type": "Feature"}, {"geometry": {"coordinates": [8.547639, 47.361266], "type": "Point"}, "properties": {"address": "Utoquai 50", "electric": 6, "id": "pb_135", "manual": 8, "name": "Seebad Utoquai", "provider": "publibike", "timeStamp": "02/25/2020, 10:19:00", "zip": 8008}, "type": "Feature"}, {"geometry": {"coordinates": [8.548045, 47.370869], "type": "Point"}, "properties": {"address": "Heimplatz 1", "electric": 2, "id": "pb_137", "manual": 3, "name": "Kunsthaus", "provider": "publibike", "timeStamp": "02/25/2020, 10:19:00", "zip": 8001}, "type": "Feature"}, {"geometry": {"coordinates": [8.543447, 47.375933], "type": "Point"}, "properties": {"address": "Limmatquai 138", "electric": 1, "id": "pb_138", "manual": 12, "name": "Central", "provider": "publibike", "timeStamp": "02/25/2020, 10:19:00", "zip": 8001}, "type": "Feature"}, {"geometry": {"coordinates": [8.549356, 47.408827], "type": "Point"}, "properties": {"address": "Tramstrasse 35", "electric": 5, "id": "pb_139", "manual": 4, "name": "ewz Tramstrasse", "provider": "publibike", "timeStamp": "02/25/2020, 10:19:00", "zip": 8050}, "type": "Feature"}, {"geometry": {"coordinates": [8.533736, 47.366904], "type": "Point"}, "properties": {"address": "Bleicherweg 33", "electric": 0, "id": "pb_140", "manual": 7, "name": "Bleicherweg", "provider": "publibike", "timeStamp": "02/25/2020, 10:19:00", "zip": 8002}, "type": "Feature"}, {"geometry": {"coordinates": [8.544935, 47.366752], "type": "Point"}, "properties": {"address": "Bellevueplatz 2", "electric": 8, "id": "pb_141", "manual": 24, "name": "Bellevue", "provider": "publibike", "timeStamp": "02/25/2020, 10:19:00", "zip": 8001}, "type": "Feature"}, {"geometry": {"coordinates": [8.5285533, 47.3742296], "type": "Point"}, "properties": {"address": "Stauffacherstrasse 41", "electric": 0, "id": "pb_142", "manual": 4, "name": "Stauffacher", "provider": "publibike", "timeStamp": "02/25/2020, 10:19:00", "zip": 8004}, "type": "Feature"}, {"geometry": {"coordinates": [8.523722, 47.3899], "type": "Point"}, "properties": {"address": "Limmatstrasse 310", "electric": 0, "id": "pb_143", "manual": 0, "name": "Escher-Wyss-Platz", "provider": "publibike", "timeStamp": "02/25/2020, 10:19:00", "zip": 8005}, "type": "Feature"}, {"geometry": {"coordinates": [8.491061, 47.392336], "type": "Point"}, "properties": {"address": "Vulkanplatz 1", "electric": 1, "id": "pb_149", "manual": 9, "name": "Vulkanplatz", "provider": "publibike", "timeStamp": "02/25/2020, 10:19:00", "zip": 8048}, "type": "Feature"}, {"geometry": {"coordinates": [8.52306, 47.359872], "type": "Point"}, "properties": {"address": "Giessh\u00fcbelstrasse 15", "electric": 1, "id": "pb_150", "manual": 2, "name": "Utoplatz", "provider": "publibike", "timeStamp": "02/25/2020, 10:19:00", "zip": 8045}, "type": "Feature"}, {"geometry": {"coordinates": [8.486284, 47.387685], "type": "Point"}, "properties": {"address": "Lindenplatz 1", "electric": 3, "id": "pb_151", "manual": 9, "name": "Lindenplatz", "provider": "publibike", "timeStamp": "02/25/2020, 10:19:00", "zip": 8048}, "type": "Feature"}, {"geometry": {"coordinates": [8.49163, 47.389823], "type": "Point"}, "properties": {"address": "Hohlstrasse 563", "electric": 7, "id": "pb_152", "manual": 0, "name": "Luggweg", "provider": "publibike", "timeStamp": "02/25/2020, 10:19:00", "zip": 8048}, "type": "Feature"}, {"geometry": {"coordinates": [8.52174, 47.365272], "type": "Point"}, "properties": {"address": "Manessestrasse 87", "electric": 1, "id": "pb_153", "manual": 4, "name": "Manesseplatz", "provider": "publibike", "timeStamp": "02/25/2020, 10:19:00", "zip": 8045}, "type": "Feature"}, {"geometry": {"coordinates": [8.52714, 47.372329], "type": "Point"}, "properties": {"address": "Werdstrasse 75", "electric": 2, "id": "pb_154", "manual": 7, "name": "Werd", "provider": "publibike", "timeStamp": "02/25/2020, 10:19:00", "zip": 8004}, "type": "Feature"}, {"geometry": {"coordinates": [8.543042, 47.374711], "type": "Point"}, "properties": {"address": "Limmatquai 100", "electric": 0, "id": "pb_155", "manual": 0, "name": "Rudolf-Brun-Br\u00fccke", "provider": "publibike", "timeStamp": "02/25/2020, 10:19:00", "zip": 8001}, "type": "Feature"}, {"geometry": {"coordinates": [8.490837, 47.386596], "type": "Point"}, "properties": {"address": "Badenerstrasse 627", "electric": 5, "id": "pb_156", "manual": 6, "name": "Luggwegstrasse VBZ", "provider": "publibike", "timeStamp": "02/25/2020, 10:19:00", "zip": 8048}, "type": "Feature"}, {"geometry": {"coordinates": [8.535119, 47.355189], "type": "Point"}, "properties": {"address": "Mythenquai 95", "electric": 1, "id": "pb_157", "manual": 14, "name": "Strandbad Mythenquai", "provider": "publibike", "timeStamp": "02/25/2020, 10:19:00", "zip": 8002}, "type": "Feature"}, {"geometry": {"coordinates": [8.545505, 47.373675], "type": "Point"}, "properties": {"address": "Predigerpatz 21", "electric": 1, "id": "pb_158", "manual": 12, "name": "Predigerplatz", "provider": "publibike", "timeStamp": "02/25/2020, 10:19:00", "zip": 8001}, "type": "Feature"}, {"geometry": {"coordinates": [8.515558, 47.371868], "type": "Point"}, "properties": {"address": "Aemtlerstrasse 23", "electric": 0, "id": "pb_159", "manual": 0, "name": "Zwinglihaus", "provider": "publibike", "timeStamp": "02/25/2020, 10:19:00", "zip": 8003}, "type": "Feature"}, {"geometry": {"coordinates": [8.524629, 47.386072], "type": "Point"}, "properties": {"address": "Josefstrasse 188", "electric": 0, "id": "pb_160", "manual": 3, "name": "Josefwiese", "provider": "publibike", "timeStamp": "02/25/2020, 10:19:00", "zip": 8005}, "type": "Feature"}, {"geometry": {"coordinates": [8.527138, 47.387531], "type": "Point"}, "properties": {"address": "R\u00f6ntgenstrasse 87", "electric": 7, "id": "pb_164", "manual": 3, "name": "Markthalle", "provider": "publibike", "timeStamp": "02/25/2020, 10:19:00", "zip": 8005}, "type": "Feature"}, {"geometry": {"coordinates": [8.552717, 47.359978], "type": "Point"}, "properties": {"address": "Seefeldstrasse 96", "electric": 0, "id": "pb_263", "manual": 8, "name": "Feldeggstrasse", "provider": "publibike", "timeStamp": "02/25/2020, 10:19:00", "zip": 8008}, "type": "Feature"}, {"geometry": {"coordinates": [8.553189, 47.353198], "type": "Point"}, "properties": {"address": "Bellerivestrasse 170", "electric": 2, "id": "pb_264", "manual": 0, "name": "Lake Side", "provider": "publibike", "timeStamp": "02/25/2020, 10:19:00", "zip": 8008}, "type": "Feature"}, {"geometry": {"coordinates": [8.543437, 47.369256], "type": "Point"}, "properties": {"address": "Limmatquai 18", "electric": 0, "id": "pb_265", "manual": 0, "name": "Helmhaus", "provider": "publibike", "timeStamp": "02/25/2020, 10:19:00", "zip": 8032}, "type": "Feature"}, {"geometry": {"coordinates": [8.516676, 47.375819], "type": "Point"}, "properties": {"address": "Badenerstrasse 246", "electric": 2, "id": "pb_266", "manual": 1, "name": "Lochergut", "provider": "publibike", "timeStamp": "02/25/2020, 10:19:00", "zip": 8004}, "type": "Feature"}, {"geometry": {"coordinates": [8.514605, 47.389862], "type": "Point"}, "properties": {"address": "Pfingstweidstrasse 60", "electric": 12, "id": "pb_273", "manual": 4, "name": "Westpark", "provider": "publibike", "timeStamp": "02/25/2020, 10:19:00", "zip": 8005}, "type": "Feature"}, {"geometry": {"coordinates": [8.541239126, 47.375991201], "type": "Point"}, "properties": {"address": "Beatenplatz 1", "electric": 3, "id": "pb_274", "manual": 13, "name": "Beatenplatz", "provider": "publibike", "timeStamp": "02/25/2020, 10:19:00", "zip": 8001}, "type": "Feature"}, {"geometry": {"coordinates": [8.5417135, 47.3942197], "type": "Point"}, "properties": {"address": "Scheuchzerstrasse 181", "electric": 0, "id": "pb_275", "manual": 0, "name": "Pauluskirche", "provider": "publibike", "timeStamp": "02/25/2020, 10:19:00", "zip": 8057}, "type": "Feature"}, {"geometry": {"coordinates": [8.5528182, 47.414558], "type": "Point"}, "properties": {"address": "Hagenholzstrasse 51", "electric": 2, "id": "pb_276", "manual": 4, "name": "Airgate", "provider": "publibike", "timeStamp": "02/25/2020, 10:19:00", "zip": 8050}, "type": "Feature"}, {"geometry": {"coordinates": [8.537816, 47.413514], "type": "Point"}, "properties": {"address": "Birchstrasse 183", "electric": 0, "id": "pb_277", "manual": 2, "name": "Lamprechtweg", "provider": "publibike", "timeStamp": "02/25/2020, 10:19:00", "zip": 8050}, "type": "Feature"}, {"geometry": {"coordinates": [8.545602, 47.417701], "type": "Point"}, "properties": {"address": "Felsenrainstrasse 2", "electric": 0, "id": "pb_278", "manual": 1, "name": "Emil-Oberh\u00e4nsli", "provider": "publibike", "timeStamp": "02/25/2020, 10:19:00", "zip": 8050}, "type": "Feature"}, {"geometry": {"coordinates": [8.533647, 47.39808], "type": "Point"}, "properties": {"address": "Bucheggplatz 2", "electric": 1, "id": "pb_279", "manual": 0, "name": "Bucheggplatz", "provider": "publibike", "timeStamp": "02/25/2020, 10:19:00", "zip": 8057}, "type": "Feature"}, {"geometry": {"coordinates": [8.523549, 47.392347], "type": "Point"}, "properties": {"address": "Wipkingerplatz 4", "electric": 0, "id": "pb_280", "manual": 0, "name": "Wipkingerplatz", "provider": "publibike", "timeStamp": "02/25/2020, 10:19:00", "zip": 8037}, "type": "Feature"}, {"geometry": {"coordinates": [8.548562, 47.36691], "type": "Point"}, "properties": {"address": "Galerie \u00fcber Gleis 2/3", "electric": 11, "id": "pb_285", "manual": 10, "name": "Bahnhof Stadelhofen", "provider": "publibike", "timeStamp": "02/25/2020, 10:19:00", "zip": 8001}, "type": "Feature"}, {"geometry": {"coordinates": [8.493822, 47.3985553], "type": "Point"}, "properties": {"address": "Meierwiesenstrasse 12-4", "electric": 0, "id": "pb_286", "manual": 5, "name": "T\u00fcffenwies", "provider": "publibike", "timeStamp": "02/25/2020, 10:19:00", "zip": 8064}, "type": "Feature"}, {"geometry": {"coordinates": [8.552432, 47.3801757], "type": "Point"}, "properties": {"address": "Hochstrasse 34", "electric": 1, "id": "pb_356", "manual": 2, "name": "Siriuswiese", "provider": "publibike", "timeStamp": "02/25/2020, 10:19:00", "zip": 8044}, "type": "Feature"}, {"geometry": {"coordinates": [8.527298, 47.370141], "type": "Point"}, "properties": {"address": "Hallwylstrasse 71", "electric": 0, "id": "pb_357", "manual": 2, "name": "Hallwylstrasse", "provider": "publibike", "timeStamp": "02/25/2020, 10:19:00", "zip": 8004}, "type": "Feature"}, {"geometry": {"coordinates": [8.5414185, 47.3972455], "type": "Point"}, "properties": {"address": "Schaffhauserstrasse 137", "electric": 0, "id": "pb_358", "manual": 0, "name": "Milchbuck", "provider": "publibike", "timeStamp": "02/25/2020, 10:19:00", "zip": 8057}, "type": "Feature"}, {"geometry": {"coordinates": [8.512381, 47.393409], "type": "Point"}, "properties": {"address": "Hardturmstrasse 161", "electric": 3, "id": "pb_359", "manual": 2, "name": "Fischerweg", "provider": "publibike", "timeStamp": "02/25/2020, 10:19:00", "zip": 8005}, "type": "Feature"}, {"geometry": {"coordinates": [8.5421457, 47.3876979], "type": "Point"}, "properties": {"address": "Turnerstrasse 47", "electric": 0, "id": "pb_360", "manual": 0, "name": "Kirche Unterstrass", "provider": "publibike", "timeStamp": "02/25/2020, 10:19:00", "zip": 8006}, "type": "Feature"}, {"geometry": {"coordinates": [8.522117, 47.394554], "type": "Point"}, "properties": {"address": "Dorfstrasse 40", "electric": 0, "id": "pb_361", "manual": 1, "name": "Dorfstrasse", "provider": "publibike", "timeStamp": "02/25/2020, 10:19:00", "zip": 8037}, "type": "Feature"}, {"geometry": {"coordinates": [8.530437, 47.37271], "type": "Point"}, "properties": {"address": "Werdstrasse 25", "electric": 6, "id": "pb_362", "manual": 5, "name": "Stauffachertor", "provider": "publibike", "timeStamp": "02/25/2020, 10:19:00", "zip": 8004}, "type": "Feature"}, {"geometry": {"coordinates": [8.541712, 47.416155], "type": "Point"}, "properties": {"address": "Eggb\u00fchlstrasse 21", "electric": 6, "id": "pb_363", "manual": 2, "name": "Wahlenpark", "provider": "publibike", "timeStamp": "02/25/2020, 10:19:00", "zip": 8050}, "type": "Feature"}, {"geometry": {"coordinates": [8.5595335, 47.3708387], "type": "Point"}, "properties": {"address": "Dolderstrasse 32", "electric": 3, "id": "pb_364", "manual": 3, "name": "Kinderspital", "provider": "publibike", "timeStamp": "02/25/2020, 10:19:00", "zip": 8032}, "type": "Feature"}, {"geometry": {"coordinates": [8.536433, 47.388689], "type": "Point"}, "properties": {"address": "Kornhausstrasse 30", "electric": 1, "id": "pb_365", "manual": 0, "name": "Kornhausstrasse", "provider": "publibike", "timeStamp": "02/25/2020, 10:19:00", "zip": 8006}, "type": "Feature"}, {"geometry": {"coordinates": [8.55033, 47.407098], "type": "Point"}, "properties": {"address": "Schwamendingenstrasse 41", "electric": 2, "id": "pb_366", "manual": 1, "name": "Dorflinde", "provider": "publibike", "timeStamp": "02/25/2020, 10:19:00", "zip": 8050}, "type": "Feature"}, {"geometry": {"coordinates": [8.560476, 47.368199], "type": "Point"}, "properties": {"address": "R\u00f6merhofplatz 5", "electric": 2, "id": "pb_367", "manual": 0, "name": "R\u00f6merhof", "provider": "publibike", "timeStamp": "02/25/2020, 10:19:00", "zip": 8032}, "type": "Feature"}, {"geometry": {"coordinates": [8.5609218, 47.3619068], "type": "Point"}, "properties": {"address": "Forchstrasse 99", "electric": 10, "id": "pb_368", "manual": 2, "name": "Hegibachplatz", "provider": "publibike", "timeStamp": "02/25/2020, 10:19:00", "zip": 8032}, "type": "Feature"}, {"geometry": {"coordinates": [8.5721264, 47.4039985], "type": "Point"}, "properties": {"address": "Winterthurerstrasse 519", "electric": 5, "id": "pb_370", "manual": 0, "name": "Schwamendingerplatz", "provider": "publibike", "timeStamp": "02/25/2020, 10:19:00", "zip": 8051}, "type": "Feature"}, {"geometry": {"coordinates": [8.520168, 47.378556], "type": "Point"}, "properties": {"address": "Herman-Greulich-Strasse 56", "electric": 2, "id": "pb_384", "manual": 3, "name": "Hermann-Greulich-Weg", "provider": "publibike", "timeStamp": "02/25/2020, 10:19:00", "zip": 8004}, "type": "Feature"}, {"geometry": {"coordinates": [8.547912, 47.384923], "type": "Point"}, "properties": {"address": "Culmannstrasse", "electric": 4, "id": "pb_386", "manual": 3, "name": "Rigiplatz", "provider": "publibike", "timeStamp": "02/25/2020, 10:19:00", "zip": 8006}, "type": "Feature"}, {"geometry": {"coordinates": [8.543768, 47.411057], "type": "Point"}, "properties": {"address": "Hofwiesenstrasse 369", "electric": 2, "id": "pb_387", "manual": 5, "name": "Bahnhof Oerlikon S\u00fcd", "provider": "publibike", "timeStamp": "02/25/2020, 10:19:00", "zip": 8050}, "type": "Feature"}, {"geometry": {"coordinates": [8.544185, 47.412732], "type": "Point"}, "properties": {"address": "Jungholzstrasse 6", "electric": 1, "id": "pb_388", "manual": 3, "name": "Max-Frisch-Platz", "provider": "publibike", "timeStamp": "02/25/2020, 10:19:00", "zip": 8050}, "type": "Feature"}, {"geometry": {"coordinates": [8.558096, 47.413032], "type": "Point"}, "properties": {"address": "Andreasstrasse", "electric": 0, "id": "pb_389", "manual": 5, "name": "Hunziker-Areal", "provider": "publibike", "timeStamp": "02/25/2020, 10:19:00", "zip": 8050}, "type": "Feature"}, {"geometry": {"coordinates": [8.533265, 47.412873], "type": "Point"}, "properties": {"address": "Regina-K\u00e4gi-Strasse 1", "electric": 1, "id": "pb_390", "manual": 3, "name": "Luis-H\u00e4fliger-Park", "provider": "publibike", "timeStamp": "02/25/2020, 10:19:00", "zip": 8050}, "type": "Feature"}, {"geometry": {"coordinates": [8.499265, 47.401852], "type": "Point"}, "properties": {"address": "Limmattalstrasse 177", "electric": 0, "id": "pb_391", "manual": 0, "name": "Meierhofplatz", "provider": "publibike", "timeStamp": "02/25/2020, 10:19:00", "zip": 8049}, "type": "Feature"}, {"geometry": {"coordinates": [8.528356, 47.393255], "type": "Point"}, "properties": {"address": "R\u00f6schibachstrasse 73", "electric": 1, "id": "pb_392", "manual": 10, "name": "R\u00f6schibachplatz", "provider": "publibike", "timeStamp": "02/25/2020, 10:19:00", "zip": 8037}, "type": "Feature"}, {"geometry": {"coordinates": [8.538067, 47.415721], "type": "Point"}, "properties": {"address": "Birchstrasse 191", "electric": 9, "id": "pb_393", "manual": 3, "name": "Oerliker Park", "provider": "publibike", "timeStamp": "02/25/2020, 10:19:00", "zip": 8050}, "type": "Feature"}, {"geometry": {"coordinates": [8.5420304, 47.3669233], "type": "Point"}, "properties": {"address": "Stadthausquai 1", "electric": 1, "id": "pb_395", "manual": 4, "name": "B\u00fcrkliplatz", "provider": "publibike", "timeStamp": "02/25/2020, 10:19:00", "zip": 8001}, "type": "Feature"}, {"geometry": {"coordinates": [8.535767, 47.409881], "type": "Point"}, "properties": {"address": "Regensbergstrasse 195", "electric": 4, "id": "pb_396", "manual": 2, "name": "Holunderhof", "provider": "publibike", "timeStamp": "02/25/2020, 10:19:00", "zip": 8050}, "type": "Feature"}, {"geometry": {"coordinates": [8.5116245, 47.3616199], "type": "Point"}, "properties": {"address": "Grubenstrasse 42", "electric": 4, "id": "pb_431", "manual": 5, "name": "Binz Center", "provider": "publibike", "timeStamp": "02/25/2020, 10:19:00", "zip": 8045}, "type": "Feature"}, {"geometry": {"coordinates": [8.547195, 47.382089], "type": "Point"}, "properties": {"address": "Nelkenstrasse 24", "electric": 1, "id": "pb_430", "manual": 4, "name": "Stapferstube", "provider": "publibike", "timeStamp": "02/25/2020, 10:19:00", "zip": 8006}, "type": "Feature"}, {"geometry": {"coordinates": [8.5787183, 47.4039845], "type": "Point"}, "properties": {"address": "Kronwiesenstrasse 35", "electric": 3, "id": "pb_426", "manual": 4, "name": "Kronwiesen", "provider": "publibike", "timeStamp": "02/25/2020, 10:19:00", "zip": 8051}, "type": "Feature"}, {"geometry": {"coordinates": [8.508131, 47.420757], "type": "Point"}, "properties": {"address": "Riedenhaldenstrasse 20-18", "electric": 6, "id": "pb_425", "manual": 3, "name": "Bahnhof Affoltern", "provider": "publibike", "timeStamp": "02/25/2020, 10:19:00", "zip": 8046}, "type": "Feature"}, {"geometry": {"coordinates": [8.532464, 47.406988], "type": "Point"}, "properties": {"address": "K\u00fcnzlistrasse 41", "electric": 1, "id": "pb_424", "manual": 1, "name": "Birchd\u00f6rfli", "provider": "publibike", "timeStamp": "02/25/2020, 10:19:00", "zip": 8057}, "type": "Feature"}, {"geometry": {"coordinates": [8.5777038, 47.4080095], "type": "Point"}, "properties": {"address": "Luegislandstrasse 412", "electric": 3, "id": "pb_429", "manual": 0, "name": "Luegisland", "provider": "publibike", "timeStamp": "02/25/2020, 10:19:00", "zip": 8051}, "type": "Feature"}, {"geometry": {"coordinates": [8.58841, 47.40158], "type": "Point"}, "properties": {"address": "Hirzenbachstrasse 2-4", "electric": 4, "id": "pb_428", "manual": 0, "name": "Hirzenbachstrasse", "provider": "publibike", "timeStamp": "02/25/2020, 10:19:00", "zip": 8051}, "type": "Feature"}, {"geometry": {"coordinates": [8.5563463, 47.4095467], "type": "Point"}, "properties": {"address": "K\u00fchriedweg", "electric": 2, "id": "pb_445", "manual": 7, "name": "Hallenbad Oerlikon", "provider": "publibike", "timeStamp": "02/25/2020, 10:19:00", "zip": 8050}, "type": "Feature"}, {"geometry": {"coordinates": [8.537971, 47.364871], "type": "Point"}, "properties": {"address": "General-Guisan-Quai 17", "electric": 2, "id": "pb_454", "manual": 10, "name": "General-Guisan-Quai", "provider": "publibike", "timeStamp": "02/25/2020, 10:19:00", "zip": 8002}, "type": "Feature"}, {"geometry": {"coordinates": [8.560587, 47.350578], "type": "Point"}, "properties": {"address": "Bellerivestrasse 245", "electric": 5, "id": "pb_450", "manual": 3, "name": "Bahnhof Tiefenbrunnen", "provider": "publibike", "timeStamp": "02/25/2020, 10:19:00", "zip": 8008}, "type": "Feature"}, {"geometry": {"coordinates": [8.5269416, 47.3563719], "type": "Point"}, "properties": {"address": "Waffenplatzstrasse 89", "electric": 3, "id": "pb_452", "manual": 1, "name": "Rieterplatz", "provider": "publibike", "timeStamp": "02/25/2020, 10:19:00", "zip": 8002}, "type": "Feature"}, {"geometry": {"coordinates": [8.514176, 47.3663708], "type": "Point"}, "properties": {"address": "Talwiesenstrasse 92", "electric": 0, "id": "pb_446", "manual": 2, "name": "Binzallee", "provider": "publibike", "timeStamp": "02/25/2020, 10:19:00", "zip": 8055}, "type": "Feature"}, {"geometry": {"coordinates": [8.5070564, 47.371455], "type": "Point"}, "properties": {"address": "Gutstrasse 87", "electric": 5, "id": "pb_447", "manual": 1, "name": "Gutstrasse", "provider": "publibike", "timeStamp": "02/25/2020, 10:19:00", "zip": 8055}, "type": "Feature"}, {"geometry": {"coordinates": [8.4941268, 47.3836391], "type": "Point"}, "properties": {"address": "Flurstrasse 62", "electric": 2, "id": "pb_453", "manual": 12, "name": "Flurpark", "provider": "publibike", "timeStamp": "02/25/2020, 10:19:00", "zip": 8048}, "type": "Feature"}, {"geometry": {"coordinates": [8.500343, 47.380778], "type": "Point"}, "properties": {"address": "Edelweissstrasse 32", "electric": 1, "id": "pb_448", "manual": 6, "name": "Bl\u00fcemliquartier", "provider": "publibike", "timeStamp": "02/25/2020, 10:19:00", "zip": 8048}, "type": "Feature"}, {"geometry": {"coordinates": [8.528796, 47.383858], "type": "Point"}, "properties": {"address": "Gasometerstrasse 24", "electric": 0, "id": "pb_449", "manual": 3, "name": "Gasometerstrasse", "provider": "publibike", "timeStamp": "02/25/2020, 10:19:00", "zip": 8005}, "type": "Feature"}, {"geometry": {"coordinates": [8.4981964, 47.3859194], "type": "Point"}, "properties": {"address": "Baslerstrasse 57", "electric": 12, "id": "pb_455", "manual": 10, "name": "Letzipark", "provider": "publibike", "timeStamp": "02/25/2020, 10:19:00", "zip": 8048}, "type": "Feature"}, {"geometry": {"coordinates": [8.515252, 47.381915], "type": "Point"}, "properties": {"address": "Sihlfeldstrasse 175", "electric": 0, "id": "pb_451", "manual": 7, "name": "Hardplatz", "provider": "publibike", "timeStamp": "02/25/2020, 10:19:00", "zip": 8004}, "type": "Feature"}, {"geometry": {"coordinates": [8.5064743, 47.4188324], "type": "Point"}, "properties": {"address": "Wehntalerstrasse 541", "electric": 5, "id": "pb_427", "manual": 0, "name": "Zehntenhausplatz", "provider": "publibike", "timeStamp": "02/25/2020, 10:19:00", "zip": 8046}, "type": "Feature"}, {"geometry": {"coordinates": [8.537729, 47.379719], "type": "Point"}, "properties": {"address": "Sihlquai/HB", "electric": 1, "id": "pb_513", "manual": 1, "name": "Sihlquai", "provider": "publibike", "timeStamp": "02/25/2020, 10:19:00", "zip": 8005}, "type": "Feature"}, {"geometry": {"coordinates": [8.596202, 47.397885], "type": "Point"}, "properties": {"address": "Bahnhof Stettbach", "electric": 1, "id": "pb_514", "manual": 0, "name": "Bahnhof Stettbach", "provider": "publibike", "timeStamp": "02/25/2020, 10:19:00", "zip": 8051}, "type": "Feature"}, {"geometry": {"coordinates": [8.5543974, 47.3690153], "type": "Point"}, "properties": {"address": "Kasinostrasse 10", "electric": 0, "id": "pb_515", "manual": 0, "name": "Hottingerplatz", "provider": "publibike", "timeStamp": "02/25/2020, 10:19:00", "zip": 8032}, "type": "Feature"}, {"geometry": {"coordinates": [8.534444, 47.351525], "type": "Point"}, "properties": {"address": "Mobile Station Z\u00fcrich 1", "electric": 0, "id": "pb_282", "manual": 0, "name": "Theaterspektakel", "provider": "publibike", "timeStamp": "02/25/2020, 10:19:00", "zip": 8002}, "type": "Feature"}, {"geometry": {"coordinates": [8.516257, 47.367656], "type": "Point"}, "properties": {"address": "Goldbrunnenstrasse 54", "electric": 2, "id": "pb_538", "manual": 4, "name": "Kirche B\u00fchl", "provider": "publibike", "timeStamp": "02/25/2020, 10:19:00", "zip": 8055}, "type": "Feature"}, {"geometry": {"coordinates": [8.555639, 47.416873], "type": "Point"}, "properties": {"address": "Leutschenbachstrasse 50", "electric": 0, "id": "pb_537", "manual": 6, "name": "Leutschenpark", "provider": "publibike", "timeStamp": "02/25/2020, 10:19:00", "zip": 8050}, "type": "Feature"}, {"geometry": {"coordinates": [8.546464, 47.403822], "type": "Point"}, "properties": {"address": "Berninastrasse 45", "electric": 2, "id": "pb_540", "manual": 1, "name": "Berninaplatz", "provider": "publibike", "timeStamp": "02/25/2020, 10:19:00", "zip": 8057}, "type": "Feature"}, {"geometry": {"coordinates": [8.523134, 47.369004], "type": "Point"}, "properties": {"address": "Erlachstrasse 3", "electric": 0, "id": "pb_385", "manual": 3, "name": "Aegerten", "provider": "publibike", "timeStamp": "02/25/2020, 10:19:00", "zip": 8003}, "type": "Feature"}, {"geometry": {"coordinates": [8.49038, 47.381591], "type": "Point"}, "properties": {"address": "Rautistrasse 60", "electric": 11, "id": "pb_536", "manual": 4, "name": "Freilager", "provider": "publibike", "timeStamp": "02/25/2020, 10:19:00", "zip": 8048}, "type": "Feature"}, {"geometry": {"coordinates": [8.496511, 47.375247], "type": "Point"}, "properties": {"address": "Letzigraben 139", "electric": 3, "id": "pb_444", "manual": 8, "name": "Sackzelg", "provider": "publibike", "timeStamp": "02/25/2020, 10:19:00", "zip": 8047}, "type": "Feature"}, {"geometry": {"coordinates": [8.58131, 47.402801], "type": "Point"}, "properties": {"address": "Altwiesenstrasse 104", "electric": 9, "id": "pb_539", "manual": 1, "name": "Glattwiesen", "provider": "publibike", "timeStamp": "02/25/2020, 10:19:00", "zip": 8051}, "type": "Feature"}, {"geometry": {"coordinates": [8.52689, 47.3767], "type": "Point"}, "properties": {"address": "Molkenstrasse 5", "electric": 1, "id": "pb_560", "manual": 8, "name": "Helvetiaplatz", "provider": "publibike", "timeStamp": "02/25/2020, 10:19:00", "zip": 8004}, "type": "Feature"}, {"geometry": {"coordinates": [8.525602, 47.374241], "type": "Point"}, "properties": {"address": "Badenerstrasse 90", "electric": 0, "id": "pb_559", "manual": 3, "name": "Bezirksgeb\u00e4ude", "provider": "publibike", "timeStamp": "02/25/2020, 10:19:00", "zip": 8004}, "type": "Feature"}, {"geometry": {"coordinates": [8.535082, 47.345248], "type": "Point"}, "properties": {"address": "Bachstrasse 15", "electric": 3, "id": "pb_564", "manual": 4, "name": "GZ Wollishofen", "provider": "publibike", "timeStamp": "02/25/2020, 10:19:00", "zip": 8038}, "type": "Feature"}, {"geometry": {"coordinates": [8.514841, 47.370238], "type": "Point"}, "properties": {"address": "Schrennengasse 37", "electric": 4, "id": "pb_562", "manual": 0, "name": "Goldbrunnenplatz", "provider": "publibike", "timeStamp": "02/25/2020, 10:19:00", "zip": 8003}, "type": "Feature"}, {"geometry": {"coordinates": [8.514138, 47.374206], "type": "Point"}, "properties": {"address": "Idaplatz 4", "electric": 0, "id": "pb_557", "manual": 1, "name": "Idaplatz", "provider": "publibike", "timeStamp": "02/25/2020, 10:19:00", "zip": 8003}, "type": "Feature"}, {"geometry": {"coordinates": [8.518432, 47.369549], "type": "Point"}, "properties": {"address": "Brinerstrasse 2", "electric": 1, "id": "pb_558", "manual": 5, "name": "Schmiede Wiedikon", "provider": "publibike", "timeStamp": "02/25/2020, 10:19:00", "zip": 8003}, "type": "Feature"}, {"geometry": {"coordinates": [8.537546, 47.391289], "type": "Point"}, "properties": {"address": "Rotbuchstrasse 15", "electric": 0, "id": "pb_556", "manual": 0, "name": "Schaffhauserplatz", "provider": "publibike", "timeStamp": "02/25/2020, 10:19:00", "zip": 8006}, "type": "Feature"}, {"geometry": {"coordinates": [8.541541, 47.413733], "type": "Point"}, "properties": {"address": "Therese-Giehse-Strasse 11", "electric": 1, "id": "pb_561", "manual": 0, "name": "Center Eleven", "provider": "publibike", "timeStamp": "02/25/2020, 10:19:00", "zip": 8050}, "type": "Feature"}, {"geometry": {"coordinates": [8.534227, 47.360004], "type": "Point"}, "properties": {"address": "Alfred Escher-Strasse 76", "electric": 18, "id": "pb_563", "manual": 2, "name": "Mythenschloss", "provider": "publibike", "timeStamp": "02/25/2020, 10:19:00", "zip": 8002}, "type": "Feature"}, {"geometry": {"coordinates": [8.50373, 47.396172], "type": "Point"}, "properties": {"address": "Hardeggstrasse 6", "electric": 1, "id": "pb_566", "manual": 3, "name": "Am Wasser", "provider": "publibike", "timeStamp": "02/25/2020, 10:19:00", "zip": 8049}, "type": "Feature"}, {"geometry": {"coordinates": [8.532432, 47.381174], "type": "Point"}, "properties": {"address": "Klingenstrasse 9", "electric": 1, "id": "pb_565", "manual": 4, "name": "Zollstrasse", "provider": "publibike", "timeStamp": "02/25/2020, 10:19:00", "zip": 8005}, "type": "Feature"}, {"geometry": {"coordinates": [8.497982, 47.381447], "type": "Point"}, "properties": {"address": "Dennlerstrasse 23", "electric": 2, "id": "pb_567", "manual": 2, "name": "Dennlerstrasse", "provider": "publibike", "timeStamp": "02/25/2020, 10:19:00", "zip": 8047}, "type": "Feature"}, {"geometry": {"coordinates": [8.528049, 47.347701], "type": "Point"}, "properties": {"address": "Mutschellenstrasse 114", "electric": 3, "id": "pb_568", "manual": 8, "name": "Jugendherberge", "provider": "publibike", "timeStamp": "02/25/2020, 10:19:00", "zip": 8038}, "type": "Feature"}, {"geometry": {"coordinates": [8.539016, 47.405751], "type": "Point"}, "properties": {"address": "Ringstrasse 82", "electric": 0, "id": "pb_569", "manual": 1, "name": "Freibad Allenmoos", "provider": "publibike", "timeStamp": "02/25/2020, 10:19:00", "zip": 8057}, "type": "Feature"}, {"geometry": {"coordinates": [8.534974, 47.402164], "type": "Point"}, "properties": {"address": "Brache Guggach", "electric": 1, "id": "pb_572", "manual": 3, "name": "Radiostudio", "provider": "publibike", "timeStamp": "02/25/2020, 10:19:00", "zip": 8057}, "type": "Feature"}, {"geometry": {"coordinates": [8.547901, 47.375556], "type": "Point"}, "properties": {"address": "Karl-Schmid-Strasse 4", "electric": 7, "id": "pb_571", "manual": 1, "name": "ETH/Zoologisches Museum", "provider": "publibike", "timeStamp": "02/25/2020, 10:19:00", "zip": 8006}, "type": "Feature"}, {"geometry": {"coordinates": [8.530848, 47.384963], "type": "Point"}, "properties": {"charge": 100, "id": "smide_2880", "name": "ZH267289", "provider": "smide", "range": 50.0, "size": 17, "time": "02/25/2020, 10:18:30"}, "type": "Feature"}, {"geometry": {"coordinates": [8.513935, 47.386986], "type": "Point"}, "properties": {"charge": 17, "id": "smide_2871", "name": "ZH 267086", "provider": "smide", "range": 8.0, "size": 20, "time": "02/25/2020, 10:18:30"}, "type": "Feature"}, {"geometry": {"coordinates": [8.574771, 47.373073], "type": "Point"}, "properties": {"charge": 46, "id": "smide_2867", "name": "ZH 267090", "provider": "smide", "range": 23.0, "size": 20, "time": "02/25/2020, 10:18:30"}, "type": "Feature"}, {"geometry": {"coordinates": [8.54857, 47.378033], "type": "Point"}, "properties": {"charge": 29, "id": "smide_2861", "name": "ZH 267096", "provider": "smide", "range": 14.0, "size": 17, "time": "02/25/2020, 10:18:30"}, "type": "Feature"}, {"geometry": {"coordinates": [8.518998, 47.386561], "type": "Point"}, "properties": {"charge": 48, "id": "smide_2856", "name": "ZH 267101", "provider": "smide", "range": 24.0, "size": 17, "time": "02/25/2020, 10:18:30"}, "type": "Feature"}, {"geometry": {"coordinates": [8.55129, 47.414756], "type": "Point"}, "properties": {"charge": 60, "id": "smide_2854", "name": "ZH 267103", "provider": "smide", "range": 30.0, "size": 17, "time": "02/25/2020, 10:18:30"}, "type": "Feature"}, {"geometry": {"coordinates": [8.526658, 47.351741], "type": "Point"}, "properties": {"charge": 81, "id": "smide_2831", "name": "ZH 267180", "provider": "smide", "range": 40.0, "size": 20, "time": "02/25/2020, 10:18:30"}, "type": "Feature"}, {"geometry": {"coordinates": [8.562038, 47.350456], "type": "Point"}, "properties": {"charge": 24, "id": "smide_2795", "name": "ZH 266885", "provider": "smide", "range": 12.0, "size": 17, "time": "02/25/2020, 10:18:30"}, "type": "Feature"}, {"geometry": {"coordinates": [8.502791, 47.364956], "type": "Point"}, "properties": {"charge": 100, "id": "smide_2793", "name": "ZH266883", "provider": "smide", "range": 50.0, "size": 17, "time": "02/25/2020, 10:18:30"}, "type": "Feature"}, {"geometry": {"coordinates": [8.538138, 47.415871], "type": "Point"}, "properties": {"charge": 100, "id": "smide_2785", "name": "ZH266875", "provider": "smide", "range": 50.0, "size": 17, "time": "02/25/2020, 10:18:30"}, "type": "Feature"}, {"geometry": {"coordinates": [8.562406, 47.382881], "type": "Point"}, "properties": {"charge": 98, "id": "smide_2780", "name": "ST1 X #1", "provider": "smide", "range": 49.0, "size": 17, "time": "02/25/2020, 10:18:30"}, "type": "Feature"}, {"geometry": {"coordinates": [8.550019, 47.398464], "type": "Point"}, "properties": {"charge": 95, "id": "smide_2773", "name": "ZH266561", "provider": "smide", "range": 47.0, "size": 17, "time": "02/25/2020, 10:18:30"}, "type": "Feature"}, {"geometry": {"coordinates": [8.48373, 47.397604], "type": "Point"}, "properties": {"charge": 76, "id": "smide_2763", "name": "ZH266641", "provider": "smide", "range": 38.0, "size": 17, "time": "02/25/2020, 10:18:30"}, "type": "Feature"}, {"geometry": {"coordinates": [8.487576, 47.39374], "type": "Point"}, "properties": {"charge": 12, "id": "smide_2761", "name": "ZH266642", "provider": "smide", "range": 6.0, "size": 20, "time": "02/25/2020, 10:18:30"}, "type": "Feature"}, {"geometry": {"coordinates": [8.507414, 47.392656], "type": "Point"}, "properties": {"charge": 26, "id": "smide_2759", "name": "ZH266639", "provider": "smide", "range": 13.0, "size": 17, "time": "02/25/2020, 10:18:30"}, "type": "Feature"}, {"geometry": {"coordinates": [8.551469, 47.3687], "type": "Point"}, "properties": {"charge": 43, "id": "smide_2758", "name": "ZH266638 M", "provider": "smide", "range": 21.0, "size": 17, "time": "02/25/2020, 10:18:30"}, "type": "Feature"}, {"geometry": {"coordinates": [8.514329, 47.357336], "type": "Point"}, "properties": {"charge": 97, "id": "smide_2743", "name": "BE343864", "provider": "smide", "range": 48.0, "size": 17, "time": "02/25/2020, 10:18:30"}, "type": "Feature"}, {"geometry": {"coordinates": [8.534878, 47.39296], "type": "Point"}, "properties": {"charge": 99, "id": "smide_2742", "name": "BE343866", "provider": "smide", "range": 49.0, "size": 17, "time": "02/25/2020, 10:18:30"}, "type": "Feature"}, {"geometry": {"coordinates": [8.553184, 47.401756], "type": "Point"}, "properties": {"charge": 53, "id": "smide_2737", "name": "BE336149", "provider": "smide", "range": 26.0, "size": 17, "time": "02/25/2020, 10:18:30"}, "type": "Feature"}, {"geometry": {"coordinates": [8.57488, 47.373204], "type": "Point"}, "properties": {"charge": 89, "id": "smide_2734", "name": "BE343876", "provider": "smide", "range": 44.0, "size": 17, "time": "02/25/2020, 10:18:30"}, "type": "Feature"}, {"geometry": {"coordinates": [8.493715, 47.398552], "type": "Point"}, "properties": {"charge": 51, "id": "smide_2732", "name": "BE343870", "provider": "smide", "range": 25.0, "size": 17, "time": "02/25/2020, 10:18:30"}, "type": "Feature"}, {"geometry": {"coordinates": [8.564421, 47.346596], "type": "Point"}, "properties": {"charge": 95, "id": "smide_2729", "name": "BE343878", "provider": "smide", "range": 47.0, "size": 17, "time": "02/25/2020, 10:18:30"}, "type": "Feature"}, {"geometry": {"coordinates": [8.485105, 47.394315], "type": "Point"}, "properties": {"charge": 31, "id": "smide_2725", "name": "ZH261545", "provider": "smide", "range": 15.0, "size": 0, "time": "02/25/2020, 10:18:30"}, "type": "Feature"}, {"geometry": {"coordinates": [8.542493, 47.371283], "type": "Point"}, "properties": {"charge": 100, "id": "smide_2718", "name": "ZH259019", "provider": "smide", "range": 50.0, "size": 20, "time": "02/25/2020, 10:18:30"}, "type": "Feature"}, {"geometry": {"coordinates": [8.548965, 47.366871], "type": "Point"}, "properties": {"charge": 60, "id": "smide_2716", "name": "ZH254606", "provider": "smide", "range": 30.0, "size": 17, "time": "02/25/2020, 10:18:30"}, "type": "Feature"}, {"geometry": {"coordinates": [8.57275, 47.380548], "type": "Point"}, "properties": {"charge": 87, "id": "smide_2715", "name": "ZH254605", "provider": "smide", "range": 43.0, "size": 17, "time": "02/25/2020, 10:18:30"}, "type": "Feature"}, {"geometry": {"coordinates": [8.55779, 47.417604], "type": "Point"}, "properties": {"charge": 56, "id": "smide_2714", "name": "ZH256461", "provider": "smide", "range": 28.0, "size": 17, "time": "02/25/2020, 10:18:30"}, "type": "Feature"}, {"geometry": {"coordinates": [8.504287, 47.42346], "type": "Point"}, "properties": {"charge": 66, "id": "smide_2710", "name": "ZH256460", "provider": "smide", "range": 33.0, "size": 17, "time": "02/25/2020, 10:18:30"}, "type": "Feature"}, {"geometry": {"coordinates": [8.508883, 47.354188], "type": "Point"}, "properties": {"charge": 53, "id": "smide_2712", "name": "ZH256462", "provider": "smide", "range": 26.0, "size": 17, "time": "02/25/2020, 10:18:30"}, "type": "Feature"}, {"geometry": {"coordinates": [8.53509, 47.392673], "type": "Point"}, "properties": {"charge": 84, "id": "smide_2709", "name": "ZH256466", "provider": "smide", "range": 42.0, "size": 20, "time": "02/25/2020, 10:18:30"}, "type": "Feature"}, {"geometry": {"coordinates": [8.507248, 47.407008], "type": "Point"}, "properties": {"charge": 53, "id": "smide_2701", "name": "ZH256468", "provider": "smide", "range": 26.0, "size": 20, "time": "02/25/2020, 10:18:30"}, "type": "Feature"}, {"geometry": {"coordinates": [8.547614, 47.422428], "type": "Point"}, "properties": {"charge": 59, "id": "smide_2697", "name": "ZH254629", "provider": "smide", "range": 29.0, "size": 20, "time": "02/25/2020, 10:18:30"}, "type": "Feature"}, {"geometry": {"coordinates": [8.542588, 47.411968], "type": "Point"}, "properties": {"charge": 75, "id": "smide_2696", "name": "ZH254616", "provider": "smide", "range": 37.0, "size": 20, "time": "02/25/2020, 10:18:30"}, "type": "Feature"}, {"geometry": {"coordinates": [8.548285, 47.377432], "type": "Point"}, "properties": {"charge": 32, "id": "smide_2694", "name": "ZH254610", "provider": "smide", "range": 16.0, "size": 20, "time": "02/25/2020, 10:18:30"}, "type": "Feature"}, {"geometry": {"coordinates": [8.560783, 47.383851], "type": "Point"}, "properties": {"charge": 63, "id": "smide_2691", "name": "ZH254622", "provider": "smide", "range": 31.0, "size": 20, "time": "02/25/2020, 10:18:30"}, "type": "Feature"}, {"geometry": {"coordinates": [8.50249, 47.420448], "type": "Point"}, "properties": {"charge": 50, "id": "smide_2690", "name": "ZH254625", "provider": "smide", "range": 25.0, "size": 20, "time": "02/25/2020, 10:18:30"}, "type": "Feature"}, {"geometry": {"coordinates": [8.518462, 47.362956], "type": "Point"}, "properties": {"charge": 55, "id": "smide_2689", "name": "ZH254623", "provider": "smide", "range": 27.0, "size": 20, "time": "02/25/2020, 10:18:30"}, "type": "Feature"}, {"geometry": {"coordinates": [8.557299, 47.402888], "type": "Point"}, "properties": {"charge": 88, "id": "smide_2687", "name": "ZH263529", "provider": "smide", "range": 44.0, "size": 20, "time": "02/25/2020, 10:18:30"}, "type": "Feature"}, {"geometry": {"coordinates": [8.509493, 47.413564], "type": "Point"}, "properties": {"charge": 41, "id": "smide_2686", "name": "ZH263288", "provider": "smide", "range": 20.0, "size": 20, "time": "02/25/2020, 10:18:30"}, "type": "Feature"}, {"geometry": {"coordinates": [8.51245, 47.383596], "type": "Point"}, "properties": {"charge": 90, "id": "smide_2684", "name": "ZH254626", "provider": "smide", "range": 45.0, "size": 20, "time": "02/25/2020, 10:18:30"}, "type": "Feature"}, {"geometry": {"coordinates": [8.565276, 47.408045], "type": "Point"}, "properties": {"charge": 42, "id": "smide_2683", "name": "ZH254620", "provider": "smide", "range": 21.0, "size": 20, "time": "02/25/2020, 10:18:30"}, "type": "Feature"}, {"geometry": {"coordinates": [8.560839, 47.383836], "type": "Point"}, "properties": {"charge": 88, "id": "smide_2680", "name": "ZH254619", "provider": "smide", "range": 44.0, "size": 20, "time": "02/25/2020, 10:18:30"}, "type": "Feature"}, {"geometry": {"coordinates": [8.573966, 47.352744], "type": "Point"}, "properties": {"charge": 48, "id": "smide_2679", "name": "ZH258489", "provider": "smide", "range": 24.0, "size": 17, "time": "02/25/2020, 10:18:30"}, "type": "Feature"}, {"geometry": {"coordinates": [8.513552, 47.377844], "type": "Point"}, "properties": {"charge": 76, "id": "smide_2674", "name": "ZH258654", "provider": "smide", "range": 38.0, "size": 17, "time": "02/25/2020, 10:18:30"}, "type": "Feature"}, {"geometry": {"coordinates": [8.547497, 47.364932], "type": "Point"}, "properties": {"charge": 75, "id": "smide_2671", "name": "ZH258645", "provider": "smide", "range": 37.0, "size": 17, "time": "02/25/2020, 10:18:30"}, "type": "Feature"}, {"geometry": {"coordinates": [8.518096, 47.391284], "type": "Point"}, "properties": {"charge": 80, "id": "smide_2666", "name": "ZH258653", "provider": "smide", "range": 40.0, "size": 17, "time": "02/25/2020, 10:18:30"}, "type": "Feature"}, {"geometry": {"coordinates": [8.511176, 47.361684], "type": "Point"}, "properties": {"charge": 71, "id": "smide_2665", "name": "ZH258644", "provider": "smide", "range": 35.0, "size": 17, "time": "02/25/2020, 10:18:30"}, "type": "Feature"}, {"geometry": {"coordinates": [8.545194, 47.38638], "type": "Point"}, "properties": {"charge": 71, "id": "smide_2664", "name": "ZH258652", "provider": "smide", "range": 35.0, "size": 17, "time": "02/25/2020, 10:18:30"}, "type": "Feature"}, {"geometry": {"coordinates": [8.491314, 47.394832], "type": "Point"}, "properties": {"charge": 99, "id": "smide_2663", "name": "ZH258649", "provider": "smide", "range": 49.0, "size": 17, "time": "02/25/2020, 10:18:30"}, "type": "Feature"}, {"geometry": {"coordinates": [8.560763, 47.383072], "type": "Point"}, "properties": {"charge": 56, "id": "smide_2662", "name": "ZH258643", "provider": "smide", "range": 28.0, "size": 17, "time": "02/25/2020, 10:18:30"}, "type": "Feature"}, {"geometry": {"coordinates": [8.518165, 47.388304], "type": "Point"}, "properties": {"charge": 100, "id": "smide_2660", "name": "ZH258647", "provider": "smide", "range": 50.0, "size": 17, "time": "02/25/2020, 10:18:30"}, "type": "Feature"}, {"geometry": {"coordinates": [8.486148, 47.38772], "type": "Point"}, "properties": {"charge": 45, "id": "smide_2648", "name": "ZH257930", "provider": "smide", "range": 22.0, "size": 20, "time": "02/25/2020, 10:18:30"}, "type": "Feature"}, {"geometry": {"coordinates": [8.570155, 47.35248], "type": "Point"}, "properties": {"charge": 24, "id": "smide_2657", "name": "ZH257936", "provider": "smide", "range": 12.0, "size": 17, "time": "02/25/2020, 10:18:30"}, "type": "Feature"}, {"geometry": {"coordinates": [8.560222, 47.381348], "type": "Point"}, "properties": {"charge": 20, "id": "smide_2647", "name": "ZH257932", "provider": "smide", "range": 10.0, "size": 20, "time": "02/25/2020, 10:18:30"}, "type": "Feature"}, {"geometry": {"coordinates": [8.497177, 47.401868], "type": "Point"}, "properties": {"charge": 45, "id": "smide_2645", "name": "ZH257933", "provider": "smide", "range": 22.0, "size": 20, "time": "02/25/2020, 10:18:30"}, "type": "Feature"}, {"geometry": {"coordinates": [8.556516, 47.384965], "type": "Point"}, "properties": {"charge": 98, "id": "smide_3", "name": "ZH253765", "provider": "smide", "range": 49.0, "size": 20, "time": "02/25/2020, 10:18:30"}, "type": "Feature"}, {"geometry": {"coordinates": [8.569494, 47.352008], "type": "Point"}, "properties": {"charge": 59, "id": "smide_77", "name": "ZH261548", "provider": "smide", "range": 29.0, "size": 20, "time": "02/25/2020, 10:18:30"}, "type": "Feature"}, {"geometry": {"coordinates": [8.491352, 47.371732], "type": "Point"}, "properties": {"charge": 85, "id": "smide_200", "name": "ZH253801", "provider": "smide", "range": 42.0, "size": 20, "time": "02/25/2020, 10:18:30"}, "type": "Feature"}, {"geometry": {"coordinates": [8.508321, 47.391061], "type": "Point"}, "properties": {"charge": 81, "id": "smide_201", "name": "ZH253698", "provider": "smide", "range": 40.0, "size": 17, "time": "02/25/2020, 10:18:30"}, "type": "Feature"}, {"geometry": {"coordinates": [8.518191, 47.3883], "type": "Point"}, "properties": {"charge": 42, "id": "smide_71", "name": "ZH253742", "provider": "smide", "range": 21.0, "size": 20, "time": "02/25/2020, 10:18:30"}, "type": "Feature"}, {"geometry": {"coordinates": [8.556984, 47.352744], "type": "Point"}, "properties": {"charge": 63, "id": "smide_101", "name": "ZH253814", "provider": "smide", "range": 31.0, "size": 17, "time": "02/25/2020, 10:18:30"}, "type": "Feature"}, {"geometry": {"coordinates": [8.490958, 47.390604], "type": "Point"}, "properties": {"charge": 49, "id": "smide_9", "name": "ZH253796", "provider": "smide", "range": 24.0, "size": 17, "time": "02/25/2020, 10:18:30"}, "type": "Feature"}, {"geometry": {"coordinates": [8.514374, 47.378352], "type": "Point"}, "properties": {"charge": 80, "id": "smide_143", "name": "ZH253778", "provider": "smide", "range": 40.0, "size": 17, "time": "02/25/2020, 10:18:30"}, "type": "Feature"}, {"geometry": {"coordinates": [8.523878, 47.37848], "type": "Point"}, "properties": {"charge": 30, "id": "smide_180", "name": "ZH253824", "provider": "smide", "range": 15.0, "size": 20, "time": "02/25/2020, 10:18:30"}, "type": "Feature"}, {"geometry": {"coordinates": [8.509645, 47.393976], "type": "Point"}, "properties": {"charge": 52, "id": "smide_50", "name": "ZH253853", "provider": "smide", "range": 26.0, "size": 17, "time": "02/25/2020, 10:18:30"}, "type": "Feature"}, {"geometry": {"coordinates": [8.55256, 47.414591], "type": "Point"}, "properties": {"charge": 100, "id": "smide_30", "name": "ZH253813", "provider": "smide", "range": 50.0, "size": 20, "time": "02/25/2020, 10:18:30"}, "type": "Feature"}, {"geometry": {"coordinates": [8.569118, 47.373281], "type": "Point"}, "properties": {"charge": 60, "id": "smide_10", "name": "ZH253855", "provider": "smide", "range": 30.0, "size": 17, "time": "02/25/2020, 10:18:30"}, "type": "Feature"}, {"geometry": {"coordinates": [8.568776, 47.373448], "type": "Point"}, "properties": {"charge": 84, "id": "smide_179", "name": "ZH253687", "provider": "smide", "range": 42.0, "size": 20, "time": "02/25/2020, 10:18:30"}, "type": "Feature"}, {"geometry": {"coordinates": [8.525715, 47.372232], "type": "Point"}, "properties": {"charge": 15, "id": "smide_84", "name": "ZH253733", "provider": "smide", "range": 7.0, "size": 17, "time": "02/25/2020, 10:18:30"}, "type": "Feature"}, {"geometry": {"coordinates": [8.564367, 47.409324], "type": "Point"}, "properties": {"charge": 46, "id": "smide_35", "name": "ZH253755", "provider": "smide", "range": 23.0, "size": 20, "time": "02/25/2020, 10:18:30"}, "type": "Feature"}, {"geometry": {"coordinates": [8.494177, 47.383536], "type": "Point"}, "properties": {"charge": 51, "id": "smide_119", "name": "ZH253686", "provider": "smide", "range": 25.0, "size": 20, "time": "02/25/2020, 10:18:30"}, "type": "Feature"}, {"geometry": {"coordinates": [8.542364, 47.400792], "type": "Point"}, "properties": {"charge": 43, "id": "smide_76", "name": "ZH253764", "provider": "smide", "range": 21.0, "size": 17, "time": "02/25/2020, 10:18:30"}, "type": "Feature"}, {"geometry": {"coordinates": [8.523052, 47.370896], "type": "Point"}, "properties": {"charge": 56, "id": "smide_129", "name": "ZH261378", "provider": "smide", "range": 28.0, "size": 17, "time": "02/25/2020, 10:18:30"}, "type": "Feature"}, {"geometry": {"coordinates": [8.550581, 47.362526], "type": "Point"}, "properties": {"charge": 76, "id": "smide_49", "name": "ZH253873", "provider": "smide", "range": 38.0, "size": 17, "time": "02/25/2020, 10:18:30"}, "type": "Feature"}, {"geometry": {"coordinates": [8.519071, 47.337256], "type": "Point"}, "properties": {"charge": 86, "id": "smide_94", "name": "ZH253754", "provider": "smide", "range": 43.0, "size": 17, "time": "02/25/2020, 10:18:30"}, "type": "Feature"}, {"geometry": {"coordinates": [8.567651, 47.36054], "type": "Point"}, "properties": {"charge": 45, "id": "smide_37", "name": "ZH261377", "provider": "smide", "range": 22.0, "size": 20, "time": "02/25/2020, 10:18:30"}, "type": "Feature"}, {"geometry": {"coordinates": [8.56069, 47.382968], "type": "Point"}, "properties": {"charge": 67, "id": "smide_191", "name": "ZH253762", "provider": "smide", "range": 33.0, "size": 17, "time": "02/25/2020, 10:18:30"}, "type": "Feature"}, {"geometry": {"coordinates": [8.474728, 47.38585], "type": "Point"}, "properties": {"charge": 29, "id": "smide_202", "name": "ZH253830", "provider": "smide", "range": 14.0, "size": 17, "time": "02/25/2020, 10:18:30"}, "type": "Feature"}, {"geometry": {"coordinates": [8.531494, 47.34064], "type": "Point"}, "properties": {"charge": 60, "id": "smide_56", "name": "ZH261442", "provider": "smide", "range": 30.0, "size": 20, "time": "02/25/2020, 10:18:30"}, "type": "Feature"}, {"geometry": {"coordinates": [8.517946, 47.33923], "type": "Point"}, "properties": {"charge": 34, "id": "smide_47", "name": "ZH253858", "provider": "smide", "range": 17.0, "size": 17, "time": "02/25/2020, 10:18:30"}, "type": "Feature"}, {"geometry": {"coordinates": [8.569046, 47.373103], "type": "Point"}, "properties": {"charge": 12, "id": "smide_97", "name": "ZH253799", "provider": "smide", "range": 6.0, "size": 20, "time": "02/25/2020, 10:18:30"}, "type": "Feature"}, {"geometry": {"coordinates": [8.476716, 47.387364], "type": "Point"}, "properties": {"charge": 77, "id": "smide_66", "name": "ZH253818", "provider": "smide", "range": 38.0, "size": 20, "time": "02/25/2020, 10:18:30"}, "type": "Feature"}, {"geometry": {"coordinates": [8.496901, 47.362856], "type": "Point"}, "properties": {"charge": 90, "id": "smide_17", "name": "ZH253793", "provider": "smide", "range": 45.0, "size": 17, "time": "02/25/2020, 10:18:30"}, "type": "Feature"}, {"geometry": {"coordinates": [8.512798, 47.361176], "type": "Point"}, "properties": {"charge": 55, "id": "smide_21", "name": "ZH253841", "provider": "smide", "range": 27.0, "size": 17, "time": "02/25/2020, 10:18:30"}, "type": "Feature"}, {"geometry": {"coordinates": [8.548456, 47.377928], "type": "Point"}, "properties": {"charge": 74, "id": "smide_164", "name": "ZH253775", "provider": "smide", "range": 37.0, "size": 17, "time": "02/25/2020, 10:18:30"}, "type": "Feature"}, {"geometry": {"coordinates": [8.475786, 47.38432], "type": "Point"}, "properties": {"charge": 67, "id": "smide_189", "name": "ZH253845", "provider": "smide", "range": 33.0, "size": 20, "time": "02/25/2020, 10:18:30"}, "type": "Feature"}, {"geometry": {"coordinates": [8.51811, 47.388292], "type": "Point"}, "properties": {"charge": 81, "id": "smide_81", "name": "ZH253753", "provider": "smide", "range": 40.0, "size": 17, "time": "02/25/2020, 10:18:30"}, "type": "Feature"}, {"geometry": {"coordinates": [8.50211, 47.369112], "type": "Point"}, "properties": {"charge": 63, "id": "smide_171", "name": "ZH253689", "provider": "smide", "range": 31.0, "size": 20, "time": "02/25/2020, 10:18:30"}, "type": "Feature"}, {"geometry": {"coordinates": [8.509415, 47.413636], "type": "Point"}, "properties": {"charge": 86, "id": "smide_67", "name": "ZH253779", "provider": "smide", "range": 43.0, "size": 17, "time": "02/25/2020, 10:18:30"}, "type": "Feature"}, {"geometry": {"coordinates": [8.515468, 47.372025], "type": "Point"}, "properties": {"charge": 70, "id": "smide_118", "name": "ZH253759", "provider": "smide", "range": 35.0, "size": 20, "time": "02/25/2020, 10:18:30"}, "type": "Feature"}, {"geometry": {"coordinates": [8.560739, 47.368068], "type": "Point"}, "properties": {"charge": 26, "id": "smide_142", "name": "ZH258745", "provider": "smide", "range": 13.0, "size": 17, "time": "02/25/2020, 10:18:30"}, "type": "Feature"}, {"geometry": {"coordinates": [8.53343, 47.406755], "type": "Point"}, "properties": {"charge": 85, "id": "smide_166", "name": "ZH253728", "provider": "smide", "range": 42.0, "size": 17, "time": "02/25/2020, 10:18:30"}, "type": "Feature"}, {"geometry": {"coordinates": [8.507529, 47.391052], "type": "Point"}, "properties": {"charge": 45, "id": "smide_126", "name": "ZH268400", "provider": "smide", "range": 22.0, "size": 17, "time": "02/25/2020, 10:18:30"}, "type": "Feature"}, {"geometry": {"coordinates": [8.515836, 47.386715], "type": "Point"}, "properties": {"charge": 33, "id": "smide_44", "name": "ZH253837", "provider": "smide", "range": 16.0, "size": 17, "time": "02/25/2020, 10:18:30"}, "type": "Feature"}, {"geometry": {"coordinates": [8.57735, 47.350445], "type": "Point"}, "properties": {"charge": 100, "id": "smide_98", "name": "ZH256321", "provider": "smide", "range": 50.0, "size": 17, "time": "02/25/2020, 10:18:30"}, "type": "Feature"}, {"geometry": {"coordinates": [8.560606, 47.383183], "type": "Point"}, "properties": {"charge": 87, "id": "smide_57", "name": "ZH253772", "provider": "smide", "range": 43.0, "size": 17, "time": "02/25/2020, 10:18:30"}, "type": "Feature"}, {"geometry": {"coordinates": [8.575997, 47.349796], "type": "Point"}, "properties": {"charge": 35, "id": "smide_154", "name": "ZH253744", "provider": "smide", "range": 17.0, "size": 20, "time": "02/25/2020, 10:18:30"}, "type": "Feature"}, {"geometry": {"coordinates": [8.514383, 47.357372], "type": "Point"}, "properties": {"charge": 69, "id": "smide_7", "name": "ZH256289", "provider": "smide", "range": 34.0, "size": 20, "time": "02/25/2020, 10:18:30"}, "type": "Feature"}, {"geometry": {"coordinates": [8.58019, 47.350952], "type": "Point"}, "properties": {"charge": 41, "id": "smide_92", "name": "ZH253798", "provider": "smide", "range": 20.0, "size": 17, "time": "02/25/2020, 10:18:30"}, "type": "Feature"}, {"geometry": {"coordinates": [8.496612, 47.382168], "type": "Point"}, "properties": {"charge": 71, "id": "smide_111", "name": "ZH253763", "provider": "smide", "range": 35.0, "size": 17, "time": "02/25/2020, 10:18:30"}, "type": "Feature"}, {"geometry": {"coordinates": [8.504446, 47.35188], "type": "Point"}, "properties": {"charge": 90, "id": "smide_40", "name": "ZH253690", "provider": "smide", "range": 45.0, "size": 20, "time": "02/25/2020, 10:18:30"}, "type": "Feature"}, {"geometry": {"coordinates": [8.562598, 47.410468], "type": "Point"}, "properties": {"charge": 99, "id": "smide_1", "name": "ZH253776", "provider": "smide", "range": 49.0, "size": 17, "time": "02/25/2020, 10:18:30"}, "type": "Feature"}, {"geometry": {"coordinates": [8.573957, 47.352764], "type": "Point"}, "properties": {"charge": 94, "id": "smide_28", "name": "ZH253831", "provider": "smide", "range": 47.0, "size": 17, "time": "02/25/2020, 10:18:30"}, "type": "Feature"}, {"geometry": {"coordinates": [8.516823, 47.384911], "type": "Point"}, "properties": {"charge": 29, "id": "smide_14", "name": "ZH253749", "provider": "smide", "range": 14.0, "size": 20, "time": "02/25/2020, 10:18:30"}, "type": "Feature"}, {"geometry": {"coordinates": [8.514551, 47.355631], "type": "Point"}, "properties": {"charge": 66, "id": "smide_24", "name": "ZH253696", "provider": "smide", "range": 33.0, "size": 20, "time": "02/25/2020, 10:18:30"}, "type": "Feature"}, {"geometry": {"coordinates": [8.522166, 47.358671], "type": "Point"}, "properties": {"charge": 71, "id": "smide_107", "name": "ZH253819", "provider": "smide", "range": 35.0, "size": 17, "time": "02/25/2020, 10:18:30"}, "type": "Feature"}, {"geometry": {"coordinates": [8.557437, 47.418528], "type": "Point"}, "properties": {"charge": 41, "id": "smide_136", "name": "ZH253682", "provider": "smide", "range": 20.0, "size": 17, "time": "02/25/2020, 10:18:30"}, "type": "Feature"}, {"geometry": {"coordinates": [8.513539, 47.361932], "type": "Point"}, "properties": {"charge": 79, "id": "smide_83", "name": "ZH253869", "provider": "smide", "range": 39.0, "size": 20, "time": "02/25/2020, 10:18:30"}, "type": "Feature"}, {"geometry": {"coordinates": [8.53153, 47.395628], "type": "Point"}, "properties": {"charge": 24, "id": "smide_205", "name": "ZH253805", "provider": "smide", "range": 12.0, "size": 17, "time": "02/25/2020, 10:18:30"}, "type": "Feature"}, {"geometry": {"coordinates": [8.58225, 47.351876], "type": "Point"}, "properties": {"charge": 88, "id": "smide_193", "name": "ZH253738", "provider": "smide", "range": 44.0, "size": 20, "time": "02/25/2020, 10:18:30"}, "type": "Feature"}, {"geometry": {"coordinates": [8.494706, 47.383908], "type": "Point"}, "properties": {"charge": 41, "id": "smide_73", "name": "ZH261379", "provider": "smide", "range": 20.0, "size": 20, "time": "02/25/2020, 10:18:30"}, "type": "Feature"}, {"geometry": {"coordinates": [8.534918, 47.359543], "type": "Point"}, "properties": {"charge": 61, "id": "smide_158", "name": "ZH253870", "provider": "smide", "range": 30.0, "size": 20, "time": "02/25/2020, 10:18:30"}, "type": "Feature"}, {"geometry": {"coordinates": [8.50209, 47.369028], "type": "Point"}, "properties": {"charge": 100, "id": "smide_100", "name": "ZH253862", "provider": "smide", "range": 50.0, "size": 20, "time": "02/25/2020, 10:18:30"}, "type": "Feature"}, {"geometry": {"coordinates": [8.559311, 47.414825], "type": "Point"}, "properties": {"charge": 56, "id": "smide_134", "name": "ZH253741", "provider": "smide", "range": 28.0, "size": 20, "time": "02/25/2020, 10:18:30"}, "type": "Feature"}, {"geometry": {"coordinates": [8.56031, 47.382148], "type": "Point"}, "properties": {"charge": 83, "id": "smide_141", "name": "ZH253800", "provider": "smide", "range": 41.0, "size": 20, "time": "02/25/2020, 10:18:30"}, "type": "Feature"}, {"geometry": {"coordinates": [8.50959, 47.393715], "type": "Point"}, "properties": {"charge": 93, "id": "smide_149", "name": "ZH253743", "provider": "smide", "range": 46.0, "size": 20, "time": "02/25/2020, 10:18:30"}, "type": "Feature"}, {"geometry": {"coordinates": [8.563693, 47.349724], "type": "Point"}, "properties": {"charge": 45, "id": "smide_16", "name": "ZH253713", "provider": "smide", "range": 22.0, "size": 20, "time": "02/25/2020, 10:18:30"}, "type": "Feature"}, {"geometry": {"coordinates": [8.517282, 47.355956], "type": "Point"}, "properties": {"charge": 60, "id": "smide_74", "name": "ZH253693", "provider": "smide", "range": 30.0, "size": 20, "time": "02/25/2020, 10:18:30"}, "type": "Feature"}, {"geometry": {"coordinates": [8.566131, 47.362263], "type": "Point"}, "properties": {"charge": 14, "id": "smide_33", "name": "ZH253782", "provider": "smide", "range": 7.0, "size": 20, "time": "02/25/2020, 10:18:30"}, "type": "Feature"}, {"geometry": {"coordinates": [8.537682, 47.41232], "type": "Point"}, "properties": {"charge": 100, "id": "smide_161", "name": "ZH253691", "provider": "smide", "range": 50.0, "size": 20, "time": "02/25/2020, 10:18:30"}, "type": "Feature"}, {"geometry": {"coordinates": [8.557545, 47.406943], "type": "Point"}, "properties": {"charge": 67, "id": "smide_183", "name": "ZH253868", "provider": "smide", "range": 33.0, "size": 17, "time": "02/25/2020, 10:18:30"}, "type": "Feature"}, {"geometry": {"coordinates": [8.564425, 47.373408], "type": "Point"}, "properties": {"charge": 83, "id": "smide_42", "name": "ZH253846", "provider": "smide", "range": 41.0, "size": 20, "time": "02/25/2020, 10:18:30"}, "type": "Feature"}, {"geometry": {"coordinates": [8.493393, 47.382756], "type": "Point"}, "properties": {"charge": 65, "id": "smide_4", "name": "ZH253740", "provider": "smide", "range": 32.0, "size": 20, "time": "02/25/2020, 10:18:30"}, "type": "Feature"}, {"geometry": {"coordinates": [8.528214, 47.386944], "type": "Point"}, "properties": {"charge": 83, "id": "smide_160", "name": "ZH253722", "provider": "smide", "range": 41.0, "size": 17, "time": "02/25/2020, 10:18:30"}, "type": "Feature"}, {"geometry": {"coordinates": [8.551943, 47.36122], "type": "Point"}, "properties": {"charge": 88, "id": "smide_137", "name": "ZH258502", "provider": "smide", "range": 44.0, "size": 17, "time": "02/25/2020, 10:18:30"}, "type": "Feature"}, {"geometry": {"coordinates": [8.560738, 47.382961], "type": "Point"}, "properties": {"charge": 54, "id": "smide_55", "name": "ZH253875", "provider": "smide", "range": 27.0, "size": 17, "time": "02/25/2020, 10:18:30"}, "type": "Feature"}, {"geometry": {"coordinates": [8.554183, 47.357372], "type": "Point"}, "properties": {"charge": 18, "id": "smide_58", "name": "ZH259246", "provider": "smide", "range": 9.0, "size": 20, "time": "02/25/2020, 10:18:30"}, "type": "Feature"}, {"geometry": {"coordinates": [8.535913, 47.39976], "type": "Point"}, "properties": {"charge": 51, "id": "smide_54", "name": "ZH253874", "provider": "smide", "range": 25.0, "size": 20, "time": "02/25/2020, 10:18:30"}, "type": "Feature"}, {"geometry": {"coordinates": [8.554543, 47.367596], "type": "Point"}, "properties": {"charge": 75, "id": "smide_175", "name": "ZH253730", "provider": "smide", "range": 37.0, "size": 17, "time": "02/25/2020, 10:18:30"}, "type": "Feature"}, {"geometry": {"coordinates": [8.5364, 47.391316], "type": "Point"}, "properties": {"charge": 36, "id": "smide_162", "name": "ZH253760", "provider": "smide", "range": 18.0, "size": 17, "time": "02/25/2020, 10:18:30"}, "type": "Feature"}, {"geometry": {"coordinates": [8.569528, 47.35206], "type": "Point"}, "properties": {"charge": 72, "id": "smide_95", "name": "ZH253773", "provider": "smide", "range": 36.0, "size": 17, "time": "02/25/2020, 10:18:30"}, "type": "Feature"}, {"geometry": {"coordinates": [8.548541, 47.361368], "type": "Point"}, "properties": {"charge": 65, "id": "smide_163", "name": "ZH256147", "provider": "smide", "range": 32.0, "size": 20, "time": "02/25/2020, 10:18:30"}, "type": "Feature"}, {"geometry": {"coordinates": [8.560884, 47.383872], "type": "Point"}, "properties": {"charge": 42, "id": "smide_112", "name": "ZH263530", "provider": "smide", "range": 21.0, "size": 20, "time": "02/25/2020, 10:18:30"}, "type": "Feature"}, {"geometry": {"coordinates": [8.574928, 47.372915], "type": "Point"}, "properties": {"charge": 52, "id": "smide_38", "name": "ZH253851", "provider": "smide", "range": 26.0, "size": 20, "time": "02/25/2020, 10:18:30"}, "type": "Feature"}, {"geometry": {"coordinates": [8.563528, 47.382224], "type": "Point"}, "properties": {"charge": 65, "id": "smide_6", "name": "ZH253787", "provider": "smide", "range": 32.0, "size": 17, "time": "02/25/2020, 10:18:30"}, "type": "Feature"}, {"geometry": {"coordinates": [8.509192, 47.382188], "type": "Point"}, "properties": {"charge": 67, "id": "smide_12", "name": "ZH253685", "provider": "smide", "range": 33.0, "size": 17, "time": "02/25/2020, 10:18:30"}, "type": "Feature"}, {"geometry": {"coordinates": [8.495048, 47.385312], "type": "Point"}, "properties": {"charge": 87, "id": "smide_192", "name": "ZH253706", "provider": "smide", "range": 43.0, "size": 20, "time": "02/25/2020, 10:18:30"}, "type": "Feature"}, {"geometry": {"coordinates": [8.52033, 47.358453], "type": "Point"}, "properties": {"charge": 42, "id": "smide_5", "name": "ZH261443", "provider": "smide", "range": 21.0, "size": 20, "time": "02/25/2020, 10:18:30"}, "type": "Feature"}, {"geometry": {"coordinates": [8.490245, 47.388358], "type": "Point"}, "properties": {"charge": 100, "id": "smide_85", "name": "ZH253729", "provider": "smide", "range": 50.0, "size": 17, "time": "02/25/2020, 10:18:30"}, "type": "Feature"}, {"geometry": {"coordinates": [8.569477, 47.352028], "type": "Point"}, "properties": {"charge": 44, "id": "smide_29", "name": "ZH253723", "provider": "smide", "range": 22.0, "size": 17, "time": "02/25/2020, 10:18:30"}, "type": "Feature"}, {"geometry": {"coordinates": [8.533028, 47.38082], "type": "Point"}, "properties": {"charge": 100, "id": "smide_48", "name": "ZH253849", "provider": "smide", "range": 50.0, "size": 20, "time": "02/25/2020, 10:18:30"}, "type": "Feature"}, {"geometry": {"coordinates": [8.563108, 47.404044], "type": "Point"}, "properties": {"charge": 37, "id": "smide_46", "name": "ZH253843", "provider": "smide", "range": 18.0, "size": 20, "time": "02/25/2020, 10:18:30"}, "type": "Feature"}, {"geometry": {"coordinates": [8.51341166666667, 47.37516], "type": "Point"}, "properties": {"charge": 93, "id": "bird_bf93f709-60e9-419d-9d86-11803c327be6", "provider": "bird", "timeStamp": "02/25/2020, 10:18:29"}, "type": "Feature"}, {"geometry": {"coordinates": [8.53857666666667, 47.36927], "type": "Point"}, "properties": {"charge": 99, "id": "bird_0111e866-9e96-4c6c-b3c7-d5dacc4b2622", "provider": "bird", "timeStamp": "02/25/2020, 10:18:29"}, "type": "Feature"}, {"geometry": {"coordinates": [8.5385, 47.3693116666667], "type": "Point"}, "properties": {"charge": 100, "id": "bird_a904e516-071f-4cce-bbc8-52ce73749407", "provider": "bird", "timeStamp": "02/25/2020, 10:18:29"}, "type": "Feature"}, {"geometry": {"coordinates": [8.53833333333333, 47.36932], "type": "Point"}, "properties": {"charge": 79, "id": "bird_f1c8f1af-9f47-4f3d-8c54-4c895d16c3a9", "provider": "bird", "timeStamp": "02/25/2020, 10:18:29"}, "type": "Feature"}, {"geometry": {"coordinates": [8.536435, 47.3912116666667], "type": "Point"}, "properties": {"charge": 91, "id": "bird_21925341-bbb0-47d7-811c-27e913d6a011", "provider": "bird", "timeStamp": "02/25/2020, 10:18:29"}, "type": "Feature"}, {"geometry": {"coordinates": [8.53237333333333, 47.3681066666667], "type": "Point"}, "properties": {"charge": 81, "id": "bird_c15c7e40-3303-44f1-9032-fddc4ea27c93", "provider": "bird", "timeStamp": "02/25/2020, 10:18:29"}, "type": "Feature"}, {"geometry": {"coordinates": [8.54496166666667, 47.3736616666667], "type": "Point"}, "properties": {"charge": 75, "id": "bird_4ff446b1-4186-488c-9a2a-d4f90c744dd3", "provider": "bird", "timeStamp": "02/25/2020, 10:18:29"}, "type": "Feature"}, {"geometry": {"coordinates": [8.51902, 47.3893083333333], "type": "Point"}, "properties": {"charge": 60, "id": "bird_39f1be75-372a-426d-945d-f92e710425ab", "provider": "bird", "timeStamp": "02/25/2020, 10:18:29"}, "type": "Feature"}, {"geometry": {"coordinates": [8.53846666666667, 47.369575], "type": "Point"}, "properties": {"charge": 100, "id": "bird_48d2d34e-7424-4de5-b47b-91e0c35cbb8c", "provider": "bird", "timeStamp": "02/25/2020, 10:18:29"}, "type": "Feature"}, {"geometry": {"coordinates": [8.51495333333333, 47.373905], "type": "Point"}, "properties": {"charge": 76, "id": "bird_e8b1f627-fff4-4455-892f-a4b91e27cc4b", "provider": "bird", "timeStamp": "02/25/2020, 10:18:29"}, "type": "Feature"}, {"geometry": {"coordinates": [8.51275333333333, 47.3821266666667], "type": "Point"}, "properties": {"charge": 40, "id": "bird_fe585af8-4707-4818-ae02-802a1bab7fb7", "provider": "bird", "timeStamp": "02/25/2020, 10:18:29"}, "type": "Feature"}, {"geometry": {"coordinates": [8.51642333333333, 47.3874283333333], "type": "Point"}, "properties": {"charge": 40, "id": "bird_90e341cf-bbc9-4d17-9ddc-ccdad19149ae", "provider": "bird", "timeStamp": "02/25/2020, 10:18:29"}, "type": "Feature"}, {"geometry": {"coordinates": [8.54121333333333, 47.3709866666667], "type": "Point"}, "properties": {"charge": 82, "id": "bird_3858ad5c-5210-4ba6-adc1-d25e22766e79", "provider": "bird", "timeStamp": "02/25/2020, 10:18:29"}, "type": "Feature"}, {"geometry": {"coordinates": [8.54664, 47.376575], "type": "Point"}, "properties": {"charge": 60, "id": "bird_a8eab544-bed8-4ac0-ade4-10aac52c2e49", "provider": "bird", "timeStamp": "02/25/2020, 10:18:29"}, "type": "Feature"}, {"geometry": {"coordinates": [8.53567833333333, 47.368915], "type": "Point"}, "properties": {"charge": 22, "id": "bird_a55cbe64-8a88-4033-9e7b-bb4fe2d90b62", "provider": "bird", "timeStamp": "02/25/2020, 10:18:29"}, "type": "Feature"}, {"geometry": {"coordinates": [8.538245, 47.3697016666667], "type": "Point"}, "properties": {"charge": 100, "id": "bird_9d114d83-66ed-423a-b490-3399ca34e839", "provider": "bird", "timeStamp": "02/25/2020, 10:18:29"}, "type": "Feature"}, {"geometry": {"coordinates": [8.54724833333333, 47.38044], "type": "Point"}, "properties": {"charge": 28, "id": "bird_bd25a682-9635-46a3-9837-5dfcefe7eace", "provider": "bird", "timeStamp": "02/25/2020, 10:18:29"}, "type": "Feature"}, {"geometry": {"coordinates": [8.51588, 47.38649], "type": "Point"}, "properties": {"charge": 33, "id": "bird_f0cc1608-1f9c-47f0-a4d7-e71d6cc1c406", "provider": "bird", "timeStamp": "02/25/2020, 10:18:29"}, "type": "Feature"}, {"geometry": {"coordinates": [8.54616, 47.37635], "type": "Point"}, "properties": {"charge": 44, "id": "bird_7151de62-97a0-418e-b389-e92f11067b94", "provider": "bird", "timeStamp": "02/25/2020, 10:18:29"}, "type": "Feature"}, {"geometry": {"coordinates": [8.54697166666667, 47.37933], "type": "Point"}, "properties": {"charge": 19, "id": "bird_48eea5d5-689b-4c77-8e90-cf5e78c6eb1a", "provider": "bird", "timeStamp": "02/25/2020, 10:18:29"}, "type": "Feature"}, {"geometry": {"coordinates": [8.51770166666667, 47.372085], "type": "Point"}, "properties": {"charge": 64, "id": "bird_5c6c5f16-bb25-4608-aae0-bb55bec76a1f", "provider": "bird", "timeStamp": "02/25/2020, 10:18:29"}, "type": "Feature"}, {"geometry": {"coordinates": [8.51659833333333, 47.386955], "type": "Point"}, "properties": {"charge": 25, "id": "bird_ec94d222-8392-480c-8286-3b4dbfe7f6df", "provider": "bird", "timeStamp": "02/25/2020, 10:18:29"}, "type": "Feature"}, {"geometry": {"coordinates": [8.51752833333333, 47.3724783333333], "type": "Point"}, "properties": {"charge": 75, "id": "bird_446c75d9-ceeb-4130-bff7-3d3eced58917", "provider": "bird", "timeStamp": "02/25/2020, 10:18:29"}, "type": "Feature"}, {"geometry": {"coordinates": [8.51865833333333, 47.3881983333333], "type": "Point"}, "properties": {"charge": 26, "id": "bird_2d9af6a2-5e8f-48fa-b029-773e15999aab", "provider": "bird", "timeStamp": "02/25/2020, 10:18:29"}, "type": "Feature"}, {"geometry": {"coordinates": [8.51719833333333, 47.372955], "type": "Point"}, "properties": {"charge": 31, "id": "bird_6c3345c7-abbc-48c9-aa87-a927e0c60f29", "provider": "bird", "timeStamp": "02/25/2020, 10:18:29"}, "type": "Feature"}, {"geometry": {"coordinates": [8.52343666666667, 47.3901216666667], "type": "Point"}, "properties": {"charge": 29, "id": "bird_9fcdf7df-5b52-4b7f-adad-14ecaf6ff660", "provider": "bird", "timeStamp": "02/25/2020, 10:18:29"}, "type": "Feature"}, {"geometry": {"coordinates": [8.529925, 47.3689583333333], "type": "Point"}, "properties": {"charge": 75, "id": "bird_8c2f63e2-6def-4ac8-a614-552031eec830", "provider": "bird", "timeStamp": "02/25/2020, 10:18:29"}, "type": "Feature"}, {"geometry": {"coordinates": [8.53987666666667, 47.3712533333333], "type": "Point"}, "properties": {"charge": 81, "id": "bird_a9f30e26-7205-4439-bcab-b3db48539c78", "provider": "bird", "timeStamp": "02/25/2020, 10:18:29"}, "type": "Feature"}, {"geometry": {"coordinates": [8.53151, 47.3690383333333], "type": "Point"}, "properties": {"charge": 79, "id": "bird_217a8beb-459c-4de6-97cb-03e8ce575644", "provider": "bird", "timeStamp": "02/25/2020, 10:18:29"}, "type": "Feature"}, {"geometry": {"coordinates": [8.51411666666667, 47.3821416666667], "type": "Point"}, "properties": {"charge": 60, "id": "bird_c25f7e36-6851-4e32-a6eb-087e63738f00", "provider": "bird", "timeStamp": "02/25/2020, 10:18:29"}, "type": "Feature"}, {"geometry": {"coordinates": [8.52303333333333, 47.3701166666667], "type": "Point"}, "properties": {"charge": 64, "id": "bird_b1e0910b-9c7f-4c65-8ba2-6214c37a9a39", "provider": "bird", "timeStamp": "02/25/2020, 10:18:29"}, "type": "Feature"}, {"geometry": {"coordinates": [8.51909166666667, 47.3721083333333], "type": "Point"}, "properties": {"charge": 35, "id": "bird_8c41794d-80c0-4639-b84b-cde737148920", "provider": "bird", "timeStamp": "02/25/2020, 10:18:29"}, "type": "Feature"}, {"geometry": {"coordinates": [8.52225166666667, 47.389435], "type": "Point"}, "properties": {"charge": 12, "id": "bird_aa8ec451-ffef-4649-a30e-4cfc60702a67", "provider": "bird", "timeStamp": "02/25/2020, 10:18:29"}, "type": "Feature"}, {"geometry": {"coordinates": [8.514255, 47.3783266666667], "type": "Point"}, "properties": {"charge": 65, "id": "bird_8858ef86-d349-4e52-b47e-5ac55210b19b", "provider": "bird", "timeStamp": "02/25/2020, 10:18:29"}, "type": "Feature"}, {"geometry": {"coordinates": [8.51829166666667, 47.3727116666667], "type": "Point"}, "properties": {"charge": 53, "id": "bird_a7e0bb4d-c817-47ae-8b93-6dc5ec2dca66", "provider": "bird", "timeStamp": "02/25/2020, 10:18:29"}, "type": "Feature"}, {"geometry": {"coordinates": [8.521275, 47.3889], "type": "Point"}, "properties": {"charge": 84, "id": "bird_4f8011e6-b532-457f-9b45-b3d29bf27e8b", "provider": "bird", "timeStamp": "02/25/2020, 10:18:29"}, "type": "Feature"}, {"geometry": {"coordinates": [8.523365, 47.3896716666667], "type": "Point"}, "properties": {"charge": 17, "id": "bird_897ce362-03c4-4cfa-be09-f33c78376f82", "provider": "bird", "timeStamp": "02/25/2020, 10:18:29"}, "type": "Feature"}, {"geometry": {"coordinates": [8.514895, 47.382805], "type": "Point"}, "properties": {"charge": 20, "id": "bird_8d1e04de-3c4c-4618-9ed9-36b2870576f3", "provider": "bird", "timeStamp": "02/25/2020, 10:18:29"}, "type": "Feature"}, {"geometry": {"coordinates": [8.52120333333333, 47.3887516666667], "type": "Point"}, "properties": {"charge": 30, "id": "bird_e8c32186-e55c-4296-aa48-8d9075e93015", "provider": "bird", "timeStamp": "02/25/2020, 10:18:29"}, "type": "Feature"}, {"geometry": {"coordinates": [8.51747, 47.3862383333333], "type": "Point"}, "properties": {"charge": 93, "id": "bird_bda392a4-dffa-40ee-b171-4804ed3ed32e", "provider": "bird", "timeStamp": "02/25/2020, 10:18:29"}, "type": "Feature"}, {"geometry": {"coordinates": [8.51731, 47.3859666666667], "type": "Point"}, "properties": {"charge": 25, "id": "bird_7d6752bc-0dbe-4d14-9f53-96fc431dd912", "provider": "bird", "timeStamp": "02/25/2020, 10:18:29"}, "type": "Feature"}, {"geometry": {"coordinates": [8.517785, 47.38639], "type": "Point"}, "properties": {"charge": 76, "id": "bird_79f2fd9d-5be1-481d-9892-156c719bb897", "provider": "bird", "timeStamp": "02/25/2020, 10:18:29"}, "type": "Feature"}, {"geometry": {"coordinates": [8.51786166666667, 47.3863716666667], "type": "Point"}, "properties": {"charge": 91, "id": "bird_d69fd246-44da-400b-a66f-708ed451b337", "provider": "bird", "timeStamp": "02/25/2020, 10:18:29"}, "type": "Feature"}, {"geometry": {"coordinates": [8.51656833333333, 47.3848533333333], "type": "Point"}, "properties": {"charge": 72, "id": "bird_a7392df7-5a5e-487b-8210-f4e28c17d21e", "provider": "bird", "timeStamp": "02/25/2020, 10:18:29"}, "type": "Feature"}, {"geometry": {"coordinates": [8.51694833333333, 47.3747066666667], "type": "Point"}, "properties": {"charge": 76, "id": "bird_ca3e570c-a429-4687-9e17-028a1ad4960c", "provider": "bird", "timeStamp": "02/25/2020, 10:18:29"}, "type": "Feature"}, {"geometry": {"coordinates": [8.51798, 47.3862683333333], "type": "Point"}, "properties": {"charge": 93, "id": "bird_c6bd0995-1dfb-44e2-ab12-8a405789e1fa", "provider": "bird", "timeStamp": "02/25/2020, 10:18:29"}, "type": "Feature"}, {"geometry": {"coordinates": [8.537525, 47.3889166666667], "type": "Point"}, "properties": {"charge": 74, "id": "bird_5711e003-c3a4-4c1c-9628-8cdeda69f5c9", "provider": "bird", "timeStamp": "02/25/2020, 10:18:29"}, "type": "Feature"}, {"geometry": {"coordinates": [8.53526333333333, 47.3703766666667], "type": "Point"}, "properties": {"charge": 72, "id": "bird_4be24610-43f6-4f0a-a497-3749b8c9857a", "provider": "bird", "timeStamp": "02/25/2020, 10:18:29"}, "type": "Feature"}, {"geometry": {"coordinates": [8.51763666666667, 47.3859016666667], "type": "Point"}, "properties": {"charge": 87, "id": "bird_1372d635-d3db-4935-afdf-ee3e88115ecd", "provider": "bird", "timeStamp": "02/25/2020, 10:18:29"}, "type": "Feature"}, {"geometry": {"coordinates": [8.51529166666667, 47.3821866666667], "type": "Point"}, "properties": {"charge": 89, "id": "bird_be6d008a-36fd-4abd-bfed-966ed1de7a57", "provider": "bird", "timeStamp": "02/25/2020, 10:18:29"}, "type": "Feature"}, {"geometry": {"coordinates": [8.53518333333333, 47.37043], "type": "Point"}, "properties": {"charge": 75, "id": "bird_296797e2-176b-42fd-99b0-1bee46cb5a36", "provider": "bird", "timeStamp": "02/25/2020, 10:18:29"}, "type": "Feature"}, {"geometry": {"coordinates": [8.51756833333333, 47.374275], "type": "Point"}, "properties": {"charge": 22, "id": "bird_059c5dff-04f3-415c-ac0a-4790cb203362", "provider": "bird", "timeStamp": "02/25/2020, 10:18:29"}, "type": "Feature"}, {"geometry": {"coordinates": [8.5165, 47.3755383333333], "type": "Point"}, "properties": {"charge": 100, "id": "bird_727f604d-a1c3-4f5f-9dd9-f5d53d2dba43", "provider": "bird", "timeStamp": "02/25/2020, 10:18:29"}, "type": "Feature"}, {"geometry": {"coordinates": [8.543845, 47.37611], "type": "Point"}, "properties": {"charge": 13, "id": "bird_e947c290-c329-4295-806c-be35ec2bca6e", "provider": "bird", "timeStamp": "02/25/2020, 10:18:29"}, "type": "Feature"}, {"geometry": {"coordinates": [8.51536166666667, 47.382175], "type": "Point"}, "properties": {"charge": 89, "id": "bird_fc246cb2-8b30-4eeb-824a-c95220ed79ae", "provider": "bird", "timeStamp": "02/25/2020, 10:18:29"}, "type": "Feature"}, {"geometry": {"coordinates": [8.54392833333333, 47.3762583333333], "type": "Point"}, "properties": {"charge": 82, "id": "bird_a7ad26e0-8bc9-4e27-8f7e-17259ce5f6a3", "provider": "bird", "timeStamp": "02/25/2020, 10:18:29"}, "type": "Feature"}, {"geometry": {"coordinates": [8.51761166666667, 47.3856766666667], "type": "Point"}, "properties": {"charge": 74, "id": "bird_76daa289-e394-4727-977b-ddae6ee6f6c9", "provider": "bird", "timeStamp": "02/25/2020, 10:18:29"}, "type": "Feature"}, {"geometry": {"coordinates": [8.51834666666667, 47.38633], "type": "Point"}, "properties": {"charge": 89, "id": "bird_e711c8ca-10a5-4533-baa7-937806540a96", "provider": "bird", "timeStamp": "02/25/2020, 10:18:29"}, "type": "Feature"}, {"geometry": {"coordinates": [8.51818666666667, 47.3861816666667], "type": "Point"}, "properties": {"charge": 94, "id": "bird_8a37573a-2a31-446f-b7e6-d2986cf7758e", "provider": "bird", "timeStamp": "02/25/2020, 10:18:29"}, "type": "Feature"}, {"geometry": {"coordinates": [8.54404333333333, 47.37661], "type": "Point"}, "properties": {"charge": 90, "id": "bird_4b90bcdf-eea4-430f-ab12-3b9cfd491a31", "provider": "bird", "timeStamp": "02/25/2020, 10:18:29"}, "type": "Feature"}, {"geometry": {"coordinates": [8.54398833333333, 47.37656], "type": "Point"}, "properties": {"charge": 89, "id": "bird_5804b6a4-fc22-498b-97dd-5aedb1201dd6", "provider": "bird", "timeStamp": "02/25/2020, 10:18:29"}, "type": "Feature"}, {"geometry": {"coordinates": [8.54396833333333, 47.3765533333333], "type": "Point"}, "properties": {"charge": 89, "id": "bird_4875636f-83e5-4bcd-ac1a-9f1f5fa20522", "provider": "bird", "timeStamp": "02/25/2020, 10:18:29"}, "type": "Feature"}, {"geometry": {"coordinates": [8.53361666666667, 47.3702466666667], "type": "Point"}, "properties": {"charge": 61, "id": "bird_bce812fa-636a-40ea-8a0f-1957e413f0c1", "provider": "bird", "timeStamp": "02/25/2020, 10:18:29"}, "type": "Feature"}, {"geometry": {"coordinates": [8.516685, 47.3755533333333], "type": "Point"}, "properties": {"charge": 51, "id": "bird_40205b11-7fb6-4830-a2e8-afc5eed33e24", "provider": "bird", "timeStamp": "02/25/2020, 10:18:29"}, "type": "Feature"}, {"geometry": {"coordinates": [8.51714333333333, 47.3849983333333], "type": "Point"}, "properties": {"charge": 83, "id": "bird_73f6efee-4de4-4aae-87ba-8a8528eb29c5", "provider": "bird", "timeStamp": "02/25/2020, 10:18:29"}, "type": "Feature"}, {"geometry": {"coordinates": [8.54370333333333, 47.3761933333333], "type": "Point"}, "properties": {"charge": 78, "id": "bird_ff1df3b9-3815-4c70-bb83-687ab402b659", "provider": "bird", "timeStamp": "02/25/2020, 10:18:29"}, "type": "Feature"}, {"geometry": {"coordinates": [8.51841333333333, 47.3862416666667], "type": "Point"}, "properties": {"charge": 96, "id": "bird_a556a70c-d26b-4b63-9f16-57cafa35f9f9", "provider": "bird", "timeStamp": "02/25/2020, 10:18:29"}, "type": "Feature"}, {"geometry": {"coordinates": [8.51675333333333, 47.375565], "type": "Point"}, "properties": {"charge": 31, "id": "bird_295644cf-e9e2-4181-a84b-f93ae870731c", "provider": "bird", "timeStamp": "02/25/2020, 10:18:29"}, "type": "Feature"}, {"geometry": {"coordinates": [8.51727, 47.38504], "type": "Point"}, "properties": {"charge": 18, "id": "bird_92629d80-8ef6-4010-97c0-2d3f020334da", "provider": "bird", "timeStamp": "02/25/2020, 10:18:29"}, "type": "Feature"}, {"geometry": {"coordinates": [8.51779833333333, 47.3855966666667], "type": "Point"}, "properties": {"charge": 94, "id": "bird_9e8bed34-17d8-4dc8-bf98-c75726c73f36", "provider": "bird", "timeStamp": "02/25/2020, 10:18:29"}, "type": "Feature"}, {"geometry": {"coordinates": [8.52319666666667, 47.3711616666667], "type": "Point"}, "properties": {"charge": 84, "id": "bird_7f8646a1-1440-408c-ba1b-e26b75156c89", "provider": "bird", "timeStamp": "02/25/2020, 10:18:29"}, "type": "Feature"}, {"geometry": {"coordinates": [8.52334666666667, 47.371135], "type": "Point"}, "properties": {"charge": 80, "id": "bird_e1cf2fa4-f56b-4502-8275-92aeef173022", "provider": "bird", "timeStamp": "02/25/2020, 10:18:29"}, "type": "Feature"}, {"geometry": {"coordinates": [8.51833, 47.386025], "type": "Point"}, "properties": {"charge": 93, "id": "bird_56980fea-7cc4-41ea-9c4f-c867143c4a66", "provider": "bird", "timeStamp": "02/25/2020, 10:18:29"}, "type": "Feature"}, {"geometry": {"coordinates": [8.52728833333333, 47.37024], "type": "Point"}, "properties": {"charge": 91, "id": "bird_cef611bc-aef9-45fd-9892-4abff1295894", "provider": "bird", "timeStamp": "02/25/2020, 10:18:29"}, "type": "Feature"}, {"geometry": {"coordinates": [8.51674833333333, 47.375755], "type": "Point"}, "properties": {"charge": 79, "id": "bird_79829c2d-768a-4854-8cda-6c7c5cf4c292", "provider": "bird", "timeStamp": "02/25/2020, 10:18:29"}, "type": "Feature"}, {"geometry": {"coordinates": [8.54406666666667, 47.3772166666667], "type": "Point"}, "properties": {"charge": 55, "id": "bird_b09481a4-0325-419e-a42a-e01269a6be69", "provider": "bird", "timeStamp": "02/25/2020, 10:18:29"}, "type": "Feature"}, {"geometry": {"coordinates": [8.51846666666667, 47.38612], "type": "Point"}, "properties": {"charge": 96, "id": "bird_26a09425-3c14-4ca7-a63d-0c48172ca20a", "provider": "bird", "timeStamp": "02/25/2020, 10:18:29"}, "type": "Feature"}, {"geometry": {"coordinates": [8.51675166666667, 47.37577], "type": "Point"}, "properties": {"charge": 84, "id": "bird_b7f0c9e2-e4ee-49fb-9ef4-7bf5828eb815", "provider": "bird", "timeStamp": "02/25/2020, 10:18:29"}, "type": "Feature"}, {"geometry": {"coordinates": [8.51830333333333, 47.3859666666667], "type": "Point"}, "properties": {"charge": 96, "id": "bird_154526e1-72bd-43c9-b04b-1a4a5140928f", "provider": "bird", "timeStamp": "02/25/2020, 10:18:29"}, "type": "Feature"}, {"geometry": {"coordinates": [8.516855, 47.375705], "type": "Point"}, "properties": {"charge": 36, "id": "bird_1b411d9d-0bdf-478a-9ab9-5057ccd8658d", "provider": "bird", "timeStamp": "02/25/2020, 10:18:29"}, "type": "Feature"}, {"geometry": {"coordinates": [8.51786333333333, 47.385425], "type": "Point"}, "properties": {"charge": 92, "id": "bird_424084ef-a0f8-4884-9dad-fd4944e36f58", "provider": "bird", "timeStamp": "02/25/2020, 10:18:29"}, "type": "Feature"}, {"geometry": {"coordinates": [8.51838833333333, 47.385925], "type": "Point"}, "properties": {"charge": 92, "id": "bird_efb4b167-7147-4071-8a9a-0c1598646b6d", "provider": "bird", "timeStamp": "02/25/2020, 10:18:29"}, "type": "Feature"}, {"geometry": {"coordinates": [8.53599333333333, 47.37112], "type": "Point"}, "properties": {"charge": 100, "id": "bird_eb43eaf4-0a17-491b-9cd7-d4482ecef782", "provider": "bird", "timeStamp": "02/25/2020, 10:18:29"}, "type": "Feature"}, {"geometry": {"coordinates": [8.53595333333333, 47.3711283333333], "type": "Point"}, "properties": {"charge": 100, "id": "bird_6d330b0e-a909-4854-97be-10477a5a1737", "provider": "bird", "timeStamp": "02/25/2020, 10:18:29"}, "type": "Feature"}, {"geometry": {"coordinates": [8.53638666666667, 47.388695], "type": "Point"}, "properties": {"charge": 10, "id": "bird_a63858bc-13ae-4da1-9627-30f90ca93cee", "provider": "bird", "timeStamp": "02/25/2020, 10:18:29"}, "type": "Feature"}, {"geometry": {"coordinates": [8.523545, 47.3886116666667], "type": "Point"}, "properties": {"charge": 48, "id": "bird_821d4fbe-bde6-4aea-87e5-2f26a5e01fa7", "provider": "bird", "timeStamp": "02/25/2020, 10:18:29"}, "type": "Feature"}, {"geometry": {"coordinates": [8.51798, 47.3851583333333], "type": "Point"}, "properties": {"charge": 44, "id": "bird_1a697638-42c4-4c6e-bfca-398c0b9f5c2a", "provider": "bird", "timeStamp": "02/25/2020, 10:18:29"}, "type": "Feature"}, {"geometry": {"coordinates": [8.51817666666667, 47.38533], "type": "Point"}, "properties": {"charge": 93, "id": "bird_117a77d9-fe9f-41e6-9b1f-d9bf72e37e41", "provider": "bird", "timeStamp": "02/25/2020, 10:18:29"}, "type": "Feature"}, {"geometry": {"coordinates": [8.515855, 47.3797066666667], "type": "Point"}, "properties": {"charge": 84, "id": "bird_2f4334d6-e9f3-4314-8cad-2ebfa8203258", "provider": "bird", "timeStamp": "02/25/2020, 10:18:29"}, "type": "Feature"}, {"geometry": {"coordinates": [8.51586, 47.3797266666667], "type": "Point"}, "properties": {"charge": 82, "id": "bird_cdcf0264-11a0-4934-b9f3-711f817f5b24", "provider": "bird", "timeStamp": "02/25/2020, 10:18:29"}, "type": "Feature"}, {"geometry": {"coordinates": [8.51761833333333, 47.37537], "type": "Point"}, "properties": {"charge": 83, "id": "bird_493106b1-1d87-466a-bbd5-2ea995ad41f2", "provider": "bird", "timeStamp": "02/25/2020, 10:18:29"}, "type": "Feature"}, {"geometry": {"coordinates": [8.51832, 47.3853716666667], "type": "Point"}, "properties": {"charge": 80, "id": "bird_5d811538-f01e-4993-adaf-6cad88b464f3", "provider": "bird", "timeStamp": "02/25/2020, 10:18:29"}, "type": "Feature"}, {"geometry": {"coordinates": [8.543465, 47.3771583333333], "type": "Point"}, "properties": {"charge": 91, "id": "bird_896fd51d-f501-44c5-907a-46b4c524950d", "provider": "bird", "timeStamp": "02/25/2020, 10:18:29"}, "type": "Feature"}, {"geometry": {"coordinates": [8.518475, 47.3854833333333], "type": "Point"}, "properties": {"charge": 92, "id": "bird_b03e53bf-34f3-4c27-9f83-fbd57ef32d96", "provider": "bird", "timeStamp": "02/25/2020, 10:18:29"}, "type": "Feature"}, {"geometry": {"coordinates": [8.52345833333333, 47.38844], "type": "Point"}, "properties": {"charge": 25, "id": "bird_347a6824-946d-4ce3-bc59-b66568014cd5", "provider": "bird", "timeStamp": "02/25/2020, 10:18:29"}, "type": "Feature"}, {"geometry": {"coordinates": [8.51854166666667, 47.3855133333333], "type": "Point"}, "properties": {"charge": 94, "id": "bird_eb909e3f-0c56-4d66-826f-84c6b006dedd", "provider": "bird", "timeStamp": "02/25/2020, 10:18:29"}, "type": "Feature"}, {"geometry": {"coordinates": [8.54166666666667, 47.37489], "type": "Point"}, "properties": {"charge": 34, "id": "bird_ed696d16-5959-4920-b10d-2dc84075fc6a", "provider": "bird", "timeStamp": "02/25/2020, 10:18:29"}, "type": "Feature"}, {"geometry": {"coordinates": [8.52917333333333, 47.37064], "type": "Point"}, "properties": {"charge": 75, "id": "bird_ae655ac6-8ee2-49ae-9ca8-7c2a0b9af92b", "provider": "bird", "timeStamp": "02/25/2020, 10:18:29"}, "type": "Feature"},