{"features": [{"geometry": {"coordinates": [8.540062, 47.374392], "type": "Point"}, "properties": {"address": "Uraniastrasse 7", "electric": 0, "id": "pb_60", "manual": 4, "name": "Demo Station Werdm\u00fchleplatz", "provider": "publibike", "timeStamp": "03/14/2020, 01:05:15", "zip": 8001}, "type": "Feature"}, {"geometry": {"coordinates": [8.5452956, 47.4099615], "type": "Point"}, "properties": {"address": "Querstrasse 8", "electric": 5, "id": "pb_61", "manual": 4, "name": "Marktplatz", "provider": "publibike", "timeStamp": "03/14/2020, 01:05:15", "zip": 8050}, "type": "Feature"}, {"geometry": {"coordinates": [8.5156327, 47.3795837], "type": "Point"}, "properties": {"address": "Bullingerstrasse 5", "electric": 9, "id": "pb_80", "manual": 14, "name": "Bullingerplatz", "provider": "publibike", "timeStamp": "03/14/2020, 01:05:15", "zip": 8004}, "type": "Feature"}, {"geometry": {"coordinates": [8.5104051, 47.3899342], "type": "Point"}, "properties": {"address": "Pfingstweidstrasse 96e", "electric": 0, "id": "pb_81", "manual": 2, "name": "Herdern", "provider": "publibike", "timeStamp": "03/14/2020, 01:05:15", "zip": 8001}, "type": "Feature"}, {"geometry": {"coordinates": [8.535718, 47.359675], "type": "Point"}, "properties": {"address": "Mythenquai 50", "electric": 1, "id": "pb_82", "manual": 1, "name": "Hafen Enge", "provider": "publibike", "timeStamp": "03/14/2020, 01:05:15", "zip": 8002}, "type": "Feature"}, {"geometry": {"coordinates": [8.520370505, 47.358663827], "type": "Point"}, "properties": {"address": "Bubenbergstrasse 1", "electric": 5, "id": "pb_83", "manual": 6, "name": "Comerge", "provider": "publibike", "timeStamp": "03/14/2020, 01:05:15", "zip": 8045}, "type": "Feature"}, {"geometry": {"coordinates": [8.5412505, 47.3789825], "type": "Point"}, "properties": {"address": "Museumstrasse 2", "electric": 15, "id": "pb_84", "manual": 20, "name": "Landesmuseum", "provider": "publibike", "timeStamp": "03/14/2020, 01:05:15", "zip": 8001}, "type": "Feature"}, {"geometry": {"coordinates": [8.5235479, 47.3716661], "type": "Point"}, "properties": {"address": "Birmensdorferstrasse 80", "electric": 5, "id": "pb_85", "manual": 6, "name": "Bahnhof Wiedikon", "provider": "publibike", "timeStamp": "03/14/2020, 01:05:15", "zip": 8003}, "type": "Feature"}, {"geometry": {"coordinates": [8.506822854, 47.40781197], "type": "Point"}, "properties": {"address": "Stefano-Franscini-Platz 5", "electric": 1, "id": "pb_86", "manual": 0, "name": "ETH H\u00f6nggerberg", "provider": "publibike", "timeStamp": "03/14/2020, 01:05:15", "zip": 8093}, "type": "Feature"}, {"geometry": {"coordinates": [8.536101, 47.371083], "type": "Point"}, "properties": {"address": "Pelikanplatz 5", "electric": 1, "id": "pb_87", "manual": 7, "name": "Pelikanplatz", "provider": "publibike", "timeStamp": "03/14/2020, 01:05:15", "zip": 8001}, "type": "Feature"}, {"geometry": {"coordinates": [8.5257822, 47.3651936], "type": "Point"}, "properties": {"address": "H\u00fcrlimannplatz 90", "electric": 3, "id": "pb_88", "manual": 7, "name": "H\u00fcrlimannplatz", "provider": "publibike", "timeStamp": "03/14/2020, 01:05:15", "zip": 8002}, "type": "Feature"}, {"geometry": {"coordinates": [8.5313344, 47.3713591], "type": "Point"}, "properties": {"address": "Selnaustrasse 32", "electric": 3, "id": "pb_89", "manual": 5, "name": "Stauffacherbr\u00fccke", "provider": "publibike", "timeStamp": "03/14/2020, 01:05:15", "zip": 8001}, "type": "Feature"}, {"geometry": {"coordinates": [8.5056978, 47.3917964], "type": "Point"}, "properties": {"address": "Sportweg 25", "electric": 0, "id": "pb_90", "manual": 1, "name": "Sportweg", "provider": "publibike", "timeStamp": "03/14/2020, 01:05:15", "zip": 8005}, "type": "Feature"}, {"geometry": {"coordinates": [8.5181701, 47.3917837], "type": "Point"}, "properties": {"address": "Hardturmstrasse 11", "electric": 1, "id": "pb_91", "manual": 1, "name": "Puls 5", "provider": "publibike", "timeStamp": "03/14/2020, 01:05:15", "zip": 8005}, "type": "Feature"}, {"geometry": {"coordinates": [8.5286468, 47.3820827], "type": "Point"}, "properties": {"address": "R\u00f6ntgenstrasse 6", "electric": 1, "id": "pb_92", "manual": 5, "name": "R\u00f6ntgenstrasse", "provider": "publibike", "timeStamp": "03/14/2020, 01:05:15", "zip": 8005}, "type": "Feature"}, {"geometry": {"coordinates": [8.531935, 47.384918], "type": "Point"}, "properties": {"address": "Kornhausbr\u00fccke 1", "electric": 2, "id": "pb_93", "manual": 13, "name": "Limmatplatz", "provider": "publibike", "timeStamp": "03/14/2020, 01:05:15", "zip": 8005}, "type": "Feature"}, {"geometry": {"coordinates": [8.5354006, 47.3758639], "type": "Point"}, "properties": {"address": "Gessnerallee 15", "electric": 1, "id": "pb_94", "manual": 4, "name": "Gessnerallee", "provider": "publibike", "timeStamp": "03/14/2020, 01:05:15", "zip": 8001}, "type": "Feature"}, {"geometry": {"coordinates": [8.523818, 47.377148], "type": "Point"}, "properties": {"address": "Stauffacherstrasse 127", "electric": 1, "id": "pb_95", "manual": 3, "name": "B\u00e4ckeranlage", "provider": "publibike", "timeStamp": "03/14/2020, 01:05:15", "zip": 8004}, "type": "Feature"}, {"geometry": {"coordinates": [8.531836, 47.378548], "type": "Point"}, "properties": {"address": "Lagerstrasse 44", "electric": 0, "id": "pb_96", "manual": 12, "name": "Gustav-Gull-Platz", "provider": "publibike", "timeStamp": "03/14/2020, 01:05:15", "zip": 8004}, "type": "Feature"}, {"geometry": {"coordinates": [8.5104883, 47.3771535], "type": "Point"}, "properties": {"address": "Zurlindenstrasse 291", "electric": 0, "id": "pb_97", "manual": 8, "name": "Zurlindenstrasse", "provider": "publibike", "timeStamp": "03/14/2020, 01:05:15", "zip": 8003}, "type": "Feature"}, {"geometry": {"coordinates": [8.5333139, 47.3731102], "type": "Point"}, "properties": {"address": "Sihlstrasse 81", "electric": 1, "id": "pb_98", "manual": 2, "name": "Sihlstrasse", "provider": "publibike", "timeStamp": "03/14/2020, 01:05:15", "zip": 8001}, "type": "Feature"}, {"geometry": {"coordinates": [8.520532, 47.374951], "type": "Point"}, "properties": {"address": "Feldstrasse 24", "electric": 3, "id": "pb_99", "manual": 4, "name": "Kalkbreite", "provider": "publibike", "timeStamp": "03/14/2020, 01:05:15", "zip": 8004}, "type": "Feature"}, {"geometry": {"coordinates": [8.539046, 47.368064], "type": "Point"}, "properties": {"address": "Talstrasse 12", "electric": 0, "id": "pb_100", "manual": 3, "name": "Z\u00fcrcher Kantonalbank", "provider": "publibike", "timeStamp": "03/14/2020, 01:05:15", "zip": 8001}, "type": "Feature"}, {"geometry": {"coordinates": [8.5348427, 47.3625938], "type": "Point"}, "properties": {"address": "Breitingerstrasse 5", "electric": 0, "id": "pb_101", "manual": 1, "name": "Rentenanstalt", "provider": "publibike", "timeStamp": "03/14/2020, 01:05:15", "zip": 8002}, "type": "Feature"}, {"geometry": {"coordinates": [8.5166922, 47.3897772], "type": "Point"}, "properties": {"address": "Technoparkstrasse 4", "electric": 0, "id": "pb_102", "manual": 0, "name": "Turbinenplatz", "provider": "publibike", "timeStamp": "03/14/2020, 01:05:15", "zip": 8005}, "type": "Feature"}, {"geometry": {"coordinates": [8.539312, 47.3739964], "type": "Point"}, "properties": {"address": "Oetenbachgasse 14", "electric": 2, "id": "pb_104", "manual": 5, "name": "Rennweg", "provider": "publibike", "timeStamp": "03/14/2020, 01:05:15", "zip": 8001}, "type": "Feature"}, {"geometry": {"coordinates": [8.5360685, 47.3775022], "type": "Point"}, "properties": {"address": "Kasernenstrasse 101", "electric": 17, "id": "pb_105", "manual": 32, "name": "Sihlpost", "provider": "publibike", "timeStamp": "03/14/2020, 01:05:15", "zip": 8004}, "type": "Feature"}, {"geometry": {"coordinates": [8.53545, 47.382798], "type": "Point"}, "properties": {"address": "Ausstellungsstrasse 44", "electric": 0, "id": "pb_106", "manual": 6, "name": "Museum f\u00fcr Gestaltung", "provider": "publibike", "timeStamp": "03/14/2020, 01:05:15", "zip": 8005}, "type": "Feature"}, {"geometry": {"coordinates": [8.5306155, 47.3647902], "type": "Point"}, "properties": {"address": "Gutenbergstrasse 1", "electric": 8, "id": "pb_107", "manual": 4, "name": "Bederbr\u00fccke", "provider": "publibike", "timeStamp": "03/14/2020, 01:05:15", "zip": 8002}, "type": "Feature"}, {"geometry": {"coordinates": [8.518982, 47.386741], "type": "Point"}, "properties": {"address": "Geroldstrasse 4", "electric": 2, "id": "pb_108", "manual": 16, "name": "Bahnhof Hardbr\u00fccke", "provider": "publibike", "timeStamp": "03/14/2020, 01:05:15", "zip": 8005}, "type": "Feature"}, {"geometry": {"coordinates": [8.53001018, 47.37247535], "type": "Point"}, "properties": {"address": "Werdstrasse 21", "electric": 0, "id": "pb_109", "manual": 5, "name": "Tamedia", "provider": "publibike", "timeStamp": "03/14/2020, 01:05:15", "zip": 8004}, "type": "Feature"}, {"geometry": {"coordinates": [8.4860017, 47.396401], "type": "Point"}, "properties": {"address": "Gr\u00fcnauring 37", "electric": 11, "id": "pb_110", "manual": 1, "name": "Gr\u00fcnau", "provider": "publibike", "timeStamp": "03/14/2020, 01:05:15", "zip": 8064}, "type": "Feature"}, {"geometry": {"coordinates": [8.548519, 47.376756], "type": "Point"}, "properties": {"address": "R\u00e4mistrasse 101", "electric": 3, "id": "pb_111", "manual": 0, "name": "ETH Zentrum", "provider": "publibike", "timeStamp": "03/14/2020, 01:05:15", "zip": 8006}, "type": "Feature"}, {"geometry": {"coordinates": [8.520449, 47.388151], "type": "Point"}, "properties": {"address": "Josefstrasse 224", "electric": 0, "id": "pb_112", "manual": 2, "name": "Steinfelsareal", "provider": "publibike", "timeStamp": "03/14/2020, 01:05:15", "zip": 8005}, "type": "Feature"}, {"geometry": {"coordinates": [8.520482, 47.37209], "type": "Point"}, "properties": {"address": "Weststrasse 115", "electric": 2, "id": "pb_124", "manual": 4, "name": "Weststrasse", "provider": "publibike", "timeStamp": "03/14/2020, 01:05:15", "zip": 8003}, "type": "Feature"}, {"geometry": {"coordinates": [8.496727, 47.378521], "type": "Point"}, "properties": {"address": "Albisriederstrasse 200", "electric": 2, "id": "pb_125", "manual": 15, "name": "Utogrund", "provider": "publibike", "timeStamp": "03/14/2020, 01:05:15", "zip": 8047}, "type": "Feature"}, {"geometry": {"coordinates": [8.510418, 47.381356], "type": "Point"}, "properties": {"address": "Bullingerstrasse 73", "electric": 5, "id": "pb_126", "manual": 4, "name": "Hardau", "provider": "publibike", "timeStamp": "03/14/2020, 01:05:15", "zip": 8004}, "type": "Feature"}, {"geometry": {"coordinates": [8.525525, 47.361567], "type": "Point"}, "properties": {"address": "Klopstockstrasse 23", "electric": 2, "id": "pb_127", "manual": 8, "name": "Klopstockwiese", "provider": "publibike", "timeStamp": "03/14/2020, 01:05:15", "zip": 8002}, "type": "Feature"}, {"geometry": {"coordinates": [8.518143, 47.363148], "type": "Point"}, "properties": {"address": "Haldenstrasse 8", "electric": 1, "id": "pb_128", "manual": 2, "name": "Binz", "provider": "publibike", "timeStamp": "03/14/2020, 01:05:15", "zip": 8045}, "type": "Feature"}, {"geometry": {"coordinates": [8.542726, 47.379952], "type": "Point"}, "properties": {"address": "Walchestrasse 11", "electric": 6, "id": "pb_129", "manual": 1, "name": "Stampfenbachplatz", "provider": "publibike", "timeStamp": "03/14/2020, 01:05:15", "zip": 8006}, "type": "Feature"}, {"geometry": {"coordinates": [8.488108, 47.391366], "type": "Point"}, "properties": {"address": "Altstetterplatz 1", "electric": 4, "id": "pb_130", "manual": 2, "name": "Bahnhof Altstetten", "provider": "publibike", "timeStamp": "03/14/2020, 01:05:15", "zip": 8048}, "type": "Feature"}, {"geometry": {"coordinates": [8.554114, 47.365119], "type": "Point"}, "properties": {"address": "Kreuzplatz 2", "electric": 16, "id": "pb_131", "manual": 7, "name": "Kreuzplatz", "provider": "publibike", "timeStamp": "03/14/2020, 01:05:15", "zip": 8032}, "type": "Feature"}, {"geometry": {"coordinates": [8.549852, 47.35594], "type": "Point"}, "properties": {"address": "H\u00f6schgasse 3", "electric": 0, "id": "pb_132", "manual": 7, "name": "Blatterwiese", "provider": "publibike", "timeStamp": "03/14/2020, 01:05:15", "zip": 8008}, "type": "Feature"}, {"geometry": {"coordinates": [8.554501, 47.36162], "type": "Point"}, "properties": {"address": "Feldeggstrasse 80", "electric": 7, "id": "pb_133", "manual": 0, "name": "Villa Bleuler", "provider": "publibike", "timeStamp": "03/14/2020, 01:05:15", "zip": 8008}, "type": "Feature"}, {"geometry": {"coordinates": [8.557088, 47.358557], "type": "Point"}, "properties": {"address": "M\u00fchlebachstrasse 131", "electric": 2, "id": "pb_134", "manual": 4, "name": "M\u00fchlebachstrasse", "provider": "publibike", "timeStamp": "03/14/2020, 01:05:15", "zip": 8008}, "type": "Feature"}, {"geometry": {"coordinates": [8.547639, 47.361266], "type": "Point"}, "properties": {"address": "Utoquai 50", "electric": 5, "id": "pb_135", "manual": 2, "name": "Seebad Utoquai", "provider": "publibike", "timeStamp": "03/14/2020, 01:05:15", "zip": 8008}, "type": "Feature"}, {"geometry": {"coordinates": [8.548045, 47.370869], "type": "Point"}, "properties": {"address": "Heimplatz 1", "electric": 6, "id": "pb_137", "manual": 7, "name": "Kunsthaus", "provider": "publibike", "timeStamp": "03/14/2020, 01:05:15", "zip": 8001}, "type": "Feature"}, {"geometry": {"coordinates": [8.543447, 47.375933], "type": "Point"}, "properties": {"address": "Limmatquai 138", "electric": 0, "id": "pb_138", "manual": 0, "name": "Central", "provider": "publibike", "timeStamp": "03/14/2020, 01:05:15", "zip": 8001}, "type": "Feature"}, {"geometry": {"coordinates": [8.549356, 47.408827], "type": "Point"}, "properties": {"address": "Tramstrasse 35", "electric": 4, "id": "pb_139", "manual": 2, "name": "ewz Tramstrasse", "provider": "publibike", "timeStamp": "03/14/2020, 01:05:15", "zip": 8050}, "type": "Feature"}, {"geometry": {"coordinates": [8.533736, 47.366904], "type": "Point"}, "properties": {"address": "Bleicherweg 33", "electric": 2, "id": "pb_140", "manual": 2, "name": "Bleicherweg", "provider": "publibike", "timeStamp": "03/14/2020, 01:05:15", "zip": 8002}, "type": "Feature"}, {"geometry": {"coordinates": [8.544935, 47.366752], "type": "Point"}, "properties": {"address": "Bellevueplatz 2", "electric": 14, "id": "pb_141", "manual": 27, "name": "Bellevue", "provider": "publibike", "timeStamp": "03/14/2020, 01:05:15", "zip": 8001}, "type": "Feature"}, {"geometry": {"coordinates": [8.5285533, 47.3742296], "type": "Point"}, "properties": {"address": "Stauffacherstrasse 41", "electric": 0, "id": "pb_142", "manual": 2, "name": "Stauffacher", "provider": "publibike", "timeStamp": "03/14/2020, 01:05:15", "zip": 8004}, "type": "Feature"}, {"geometry": {"coordinates": [8.523722, 47.3899], "type": "Point"}, "properties": {"address": "Limmatstrasse 310", "electric": 2, "id": "pb_143", "manual": 11, "name": "Escher-Wyss-Platz", "provider": "publibike", "timeStamp": "03/14/2020, 01:05:15", "zip": 8005}, "type": "Feature"}, {"geometry": {"coordinates": [8.491061, 47.392336], "type": "Point"}, "properties": {"address": "Vulkanplatz 1", "electric": 2, "id": "pb_149", "manual": 11, "name": "Vulkanplatz", "provider": "publibike", "timeStamp": "03/14/2020, 01:05:15", "zip": 8048}, "type": "Feature"}, {"geometry": {"coordinates": [8.52306, 47.359872], "type": "Point"}, "properties": {"address": "Giessh\u00fcbelstrasse 15", "electric": 11, "id": "pb_150", "manual": 12, "name": "Utoplatz", "provider": "publibike", "timeStamp": "03/14/2020, 01:05:15", "zip": 8045}, "type": "Feature"}, {"geometry": {"coordinates": [8.486284, 47.387685], "type": "Point"}, "properties": {"address": "Lindenplatz 1", "electric": 11, "id": "pb_151", "manual": 5, "name": "Lindenplatz", "provider": "publibike", "timeStamp": "03/14/2020, 01:05:15", "zip": 8048}, "type": "Feature"}, {"geometry": {"coordinates": [8.49163, 47.389823], "type": "Point"}, "properties": {"address": "Hohlstrasse 563", "electric": 1, "id": "pb_152", "manual": 3, "name": "Luggweg", "provider": "publibike", "timeStamp": "03/14/2020, 01:05:15", "zip": 8048}, "type": "Feature"}, {"geometry": {"coordinates": [8.52174, 47.365272], "type": "Point"}, "properties": {"address": "Manessestrasse 87", "electric": 3, "id": "pb_153", "manual": 1, "name": "Manesseplatz", "provider": "publibike", "timeStamp": "03/14/2020, 01:05:15", "zip": 8045}, "type": "Feature"}, {"geometry": {"coordinates": [8.52714, 47.372329], "type": "Point"}, "properties": {"address": "Werdstrasse 75", "electric": 0, "id": "pb_154", "manual": 0, "name": "Werd", "provider": "publibike", "timeStamp": "03/14/2020, 01:05:15", "zip": 8004}, "type": "Feature"}, {"geometry": {"coordinates": [8.543042, 47.374711], "type": "Point"}, "properties": {"address": "Limmatquai 100", "electric": 0, "id": "pb_155", "manual": 0, "name": "Rudolf-Brun-Br\u00fccke", "provider": "publibike", "timeStamp": "03/14/2020, 01:05:15", "zip": 8001}, "type": "Feature"}, {"geometry": {"coordinates": [8.490837, 47.386596], "type": "Point"}, "properties": {"address": "Badenerstrasse 627", "electric": 4, "id": "pb_156", "manual": 14, "name": "Luggwegstrasse VBZ", "provider": "publibike", "timeStamp": "03/14/2020, 01:05:15", "zip": 8048}, "type": "Feature"}, {"geometry": {"coordinates": [8.535119, 47.355189], "type": "Point"}, "properties": {"address": "Mythenquai 95", "electric": 6, "id": "pb_157", "manual": 7, "name": "Strandbad Mythenquai", "provider": "publibike", "timeStamp": "03/14/2020, 01:05:15", "zip": 8002}, "type": "Feature"}, {"geometry": {"coordinates": [8.545505, 47.373675], "type": "Point"}, "properties": {"address": "Predigerpatz 21", "electric": 0, "id": "pb_158", "manual": 5, "name": "Predigerplatz", "provider": "publibike", "timeStamp": "03/14/2020, 01:05:15", "zip": 8001}, "type": "Feature"}, {"geometry": {"coordinates": [8.515558, 47.371868], "type": "Point"}, "properties": {"address": "Aemtlerstrasse 23", "electric": 5, "id": "pb_159", "manual": 7, "name": "Zwinglihaus", "provider": "publibike", "timeStamp": "03/14/2020, 01:05:15", "zip": 8003}, "type": "Feature"}, {"geometry": {"coordinates": [8.524629, 47.386072], "type": "Point"}, "properties": {"address": "Josefstrasse 188", "electric": 10, "id": "pb_160", "manual": 6, "name": "Josefwiese", "provider": "publibike", "timeStamp": "03/14/2020, 01:05:15", "zip": 8005}, "type": "Feature"}, {"geometry": {"coordinates": [8.527138, 47.387531], "type": "Point"}, "properties": {"address": "R\u00f6ntgenstrasse 87", "electric": 3, "id": "pb_164", "manual": 7, "name": "Markthalle", "provider": "publibike", "timeStamp": "03/14/2020, 01:05:15", "zip": 8005}, "type": "Feature"}, {"geometry": {"coordinates": [8.552717, 47.359978], "type": "Point"}, "properties": {"address": "Seefeldstrasse 96", "electric": 6, "id": "pb_263", "manual": 6, "name": "Feldeggstrasse", "provider": "publibike", "timeStamp": "03/14/2020, 01:05:15", "zip": 8008}, "type": "Feature"}, {"geometry": {"coordinates": [8.553189, 47.353198], "type": "Point"}, "properties": {"address": "Bellerivestrasse 170", "electric": 5, "id": "pb_264", "manual": 3, "name": "Lake Side", "provider": "publibike", "timeStamp": "03/14/2020, 01:05:15", "zip": 8008}, "type": "Feature"}, {"geometry": {"coordinates": [8.543437, 47.369256], "type": "Point"}, "properties": {"address": "Limmatquai 18", "electric": 0, "id": "pb_265", "manual": 0, "name": "Helmhaus", "provider": "publibike", "timeStamp": "03/14/2020, 01:05:15", "zip": 8032}, "type": "Feature"}, {"geometry": {"coordinates": [8.516676, 47.375819], "type": "Point"}, "properties": {"address": "Badenerstrasse 246", "electric": 12, "id": "pb_266", "manual": 7, "name": "Lochergut", "provider": "publibike", "timeStamp": "03/14/2020, 01:05:15", "zip": 8004}, "type": "Feature"}, {"geometry": {"coordinates": [8.514605, 47.389862], "type": "Point"}, "properties": {"address": "Pfingstweidstrasse 60", "electric": 0, "id": "pb_273", "manual": 0, "name": "Westpark", "provider": "publibike", "timeStamp": "03/14/2020, 01:05:15", "zip": 8005}, "type": "Feature"}, {"geometry": {"coordinates": [8.541239126, 47.375991201], "type": "Point"}, "properties": {"address": "Beatenplatz 1", "electric": 0, "id": "pb_274", "manual": 4, "name": "Beatenplatz", "provider": "publibike", "timeStamp": "03/14/2020, 01:05:15", "zip": 8001}, "type": "Feature"}, {"geometry": {"coordinates": [8.5417135, 47.3942197], "type": "Point"}, "properties": {"address": "Scheuchzerstrasse 181", "electric": 7, "id": "pb_275", "manual": 1, "name": "Pauluskirche", "provider": "publibike", "timeStamp": "03/14/2020, 01:05:15", "zip": 8057}, "type": "Feature"}, {"geometry": {"coordinates": [8.5528182, 47.414558], "type": "Point"}, "properties": {"address": "Hagenholzstrasse 51", "electric": 2, "id": "pb_276", "manual": 10, "name": "Airgate", "provider": "publibike", "timeStamp": "03/14/2020, 01:05:15", "zip": 8050}, "type": "Feature"}, {"geometry": {"coordinates": [8.537816, 47.413514], "type": "Point"}, "properties": {"address": "Birchstrasse 183", "electric": 2, "id": "pb_277", "manual": 1, "name": "Lamprechtweg", "provider": "publibike", "timeStamp": "03/14/2020, 01:05:15", "zip": 8050}, "type": "Feature"}, {"geometry": {"coordinates": [8.545602, 47.417701], "type": "Point"}, "properties": {"address": "Felsenrainstrasse 2", "electric": 3, "id": "pb_278", "manual": 5, "name": "Emil-Oberh\u00e4nsli", "provider": "publibike", "timeStamp": "03/14/2020, 01:05:15", "zip": 8050}, "type": "Feature"}, {"geometry": {"coordinates": [8.533647, 47.39808], "type": "Point"}, "properties": {"address": "Bucheggplatz 2", "electric": 5, "id": "pb_279", "manual": 2, "name": "Bucheggplatz", "provider": "publibike", "timeStamp": "03/14/2020, 01:05:15", "zip": 8057}, "type": "Feature"}, {"geometry": {"coordinates": [8.523549, 47.392347], "type": "Point"}, "properties": {"address": "Wipkingerplatz 4", "electric": 1, "id": "pb_280", "manual": 1, "name": "Wipkingerplatz", "provider": "publibike", "timeStamp": "03/14/2020, 01:05:15", "zip": 8037}, "type": "Feature"}, {"geometry": {"coordinates": [8.548562, 47.36691], "type": "Point"}, "properties": {"address": "Galerie \u00fcber Gleis 2/3", "electric": 28, "id": "pb_285", "manual": 7, "name": "Bahnhof Stadelhofen", "provider": "publibike", "timeStamp": "03/14/2020, 01:05:15", "zip": 8001}, "type": "Feature"}, {"geometry": {"coordinates": [8.493822, 47.3985553], "type": "Point"}, "properties": {"address": "Meierwiesenstrasse 12-4", "electric": 3, "id": "pb_286", "manual": 5, "name": "T\u00fcffenwies", "provider": "publibike", "timeStamp": "03/14/2020, 01:05:15", "zip": 8064}, "type": "Feature"}, {"geometry": {"coordinates": [8.552432, 47.3801757], "type": "Point"}, "properties": {"address": "Hochstrasse 34", "electric": 0, "id": "pb_356", "manual": 1, "name": "Siriuswiese", "provider": "publibike", "timeStamp": "03/14/2020, 01:05:15", "zip": 8044}, "type": "Feature"}, {"geometry": {"coordinates": [8.527298, 47.370141], "type": "Point"}, "properties": {"address": "Hallwylstrasse 71", "electric": 0, "id": "pb_357", "manual": 0, "name": "Hallwylstrasse", "provider": "publibike", "timeStamp": "03/14/2020, 01:05:15", "zip": 8004}, "type": "Feature"}, {"geometry": {"coordinates": [8.5414185, 47.3972455], "type": "Point"}, "properties": {"address": "Schaffhauserstrasse 137", "electric": 5, "id": "pb_358", "manual": 1, "name": "Milchbuck", "provider": "publibike", "timeStamp": "03/14/2020, 01:05:15", "zip": 8057}, "type": "Feature"}, {"geometry": {"coordinates": [8.512381, 47.393409], "type": "Point"}, "properties": {"address": "Hardturmstrasse 161", "electric": 4, "id": "pb_359", "manual": 7, "name": "Fischerweg", "provider": "publibike", "timeStamp": "03/14/2020, 01:05:15", "zip": 8005}, "type": "Feature"}, {"geometry": {"coordinates": [8.5421457, 47.3876979], "type": "Point"}, "properties": {"address": "Turnerstrasse 47", "electric": 4, "id": "pb_360", "manual": 1, "name": "Kirche Unterstrass", "provider": "publibike", "timeStamp": "03/14/2020, 01:05:15", "zip": 8006}, "type": "Feature"}, {"geometry": {"coordinates": [8.522117, 47.394554], "type": "Point"}, "properties": {"address": "Dorfstrasse 40", "electric": 8, "id": "pb_361", "manual": 3, "name": "Dorfstrasse", "provider": "publibike", "timeStamp": "03/14/2020, 01:05:15", "zip": 8037}, "type": "Feature"}, {"geometry": {"coordinates": [8.530437, 47.37271], "type": "Point"}, "properties": {"address": "Werdstrasse 25", "electric": 2, "id": "pb_362", "manual": 4, "name": "Stauffachertor", "provider": "publibike", "timeStamp": "03/14/2020, 01:05:15", "zip": 8004}, "type": "Feature"}, {"geometry": {"coordinates": [8.541712, 47.416155], "type": "Point"}, "properties": {"address": "Eggb\u00fchlstrasse 21", "electric": 1, "id": "pb_363", "manual": 5, "name": "Wahlenpark", "provider": "publibike", "timeStamp": "03/14/2020, 01:05:15", "zip": 8050}, "type": "Feature"}, {"geometry": {"coordinates": [8.5595335, 47.3708387], "type": "Point"}, "properties": {"address": "Dolderstrasse 32", "electric": 4, "id": "pb_364", "manual": 3, "name": "Kinderspital", "provider": "publibike", "timeStamp": "03/14/2020, 01:05:15", "zip": 8032}, "type": "Feature"}, {"geometry": {"coordinates": [8.536433, 47.388689], "type": "Point"}, "properties": {"address": "Kornhausstrasse 30", "electric": 0, "id": "pb_365", "manual": 1, "name": "Kornhausstrasse", "provider": "publibike", "timeStamp": "03/14/2020, 01:05:15", "zip": 8006}, "type": "Feature"}, {"geometry": {"coordinates": [8.55033, 47.407098], "type": "Point"}, "properties": {"address": "Schwamendingenstrasse 41", "electric": 5, "id": "pb_366", "manual": 2, "name": "Dorflinde", "provider": "publibike", "timeStamp": "03/14/2020, 01:05:15", "zip": 8050}, "type": "Feature"}, {"geometry": {"coordinates": [8.560476, 47.368199], "type": "Point"}, "properties": {"address": "R\u00f6merhofplatz 5", "electric": 6, "id": "pb_367", "manual": 1, "name": "R\u00f6merhof", "provider": "publibike", "timeStamp": "03/14/2020, 01:05:15", "zip": 8032}, "type": "Feature"}, {"geometry": {"coordinates": [8.5609218, 47.3619068], "type": "Point"}, "properties": {"address": "Forchstrasse 99", "electric": 4, "id": "pb_368", "manual": 5, "name": "Hegibachplatz", "provider": "publibike", "timeStamp": "03/14/2020, 01:05:15", "zip": 8032}, "type": "Feature"}, {"geometry": {"coordinates": [8.5721264, 47.4039985], "type": "Point"}, "properties": {"address": "Winterthurerstrasse 519", "electric": 11, "id": "pb_370", "manual": 0, "name": "Schwamendingerplatz", "provider": "publibike", "timeStamp": "03/14/2020, 01:05:15", "zip": 8051}, "type": "Feature"}, {"geometry": {"coordinates": [8.520168, 47.378556], "type": "Point"}, "properties": {"address": "Herman-Greulich-Strasse 56", "electric": 0, "id": "pb_384", "manual": 0, "name": "Hermann-Greulich-Weg", "provider": "publibike", "timeStamp": "03/14/2020, 01:05:15", "zip": 8004}, "type": "Feature"}, {"geometry": {"coordinates": [8.547912, 47.384923], "type": "Point"}, "properties": {"address": "Culmannstrasse", "electric": 0, "id": "pb_386", "manual": 0, "name": "Rigiplatz", "provider": "publibike", "timeStamp": "03/14/2020, 01:05:15", "zip": 8006}, "type": "Feature"}, {"geometry": {"coordinates": [8.543768, 47.411057], "type": "Point"}, "properties": {"address": "Hofwiesenstrasse 369", "electric": 2, "id": "pb_387", "manual": 3, "name": "Bahnhof Oerlikon S\u00fcd", "provider": "publibike", "timeStamp": "03/14/2020, 01:05:15", "zip": 8050}, "type": "Feature"}, {"geometry": {"coordinates": [8.544185, 47.412732], "type": "Point"}, "properties": {"address": "Jungholzstrasse 6", "electric": 1, "id": "pb_388", "manual": 0, "name": "Max-Frisch-Platz", "provider": "publibike", "timeStamp": "03/14/2020, 01:05:15", "zip": 8050}, "type": "Feature"}, {"geometry": {"coordinates": [8.558096, 47.413032], "type": "Point"}, "properties": {"address": "Andreasstrasse", "electric": 7, "id": "pb_389", "manual": 6, "name": "Hunziker-Areal", "provider": "publibike", "timeStamp": "03/14/2020, 01:05:15", "zip": 8050}, "type": "Feature"}, {"geometry": {"coordinates": [8.533265, 47.412873], "type": "Point"}, "properties": {"address": "Regina-K\u00e4gi-Strasse 1", "electric": 1, "id": "pb_390", "manual": 3, "name": "Luis-H\u00e4fliger-Park", "provider": "publibike", "timeStamp": "03/14/2020, 01:05:15", "zip": 8050}, "type": "Feature"}, {"geometry": {"coordinates": [8.499265, 47.401852], "type": "Point"}, "properties": {"address": "Limmattalstrasse 177", "electric": 6, "id": "pb_391", "manual": 0, "name": "Meierhofplatz", "provider": "publibike", "timeStamp": "03/14/2020, 01:05:15", "zip": 8049}, "type": "Feature"}, {"geometry": {"coordinates": [8.528356, 47.393255], "type": "Point"}, "properties": {"address": "R\u00f6schibachstrasse 73", "electric": 4, "id": "pb_392", "manual": 5, "name": "R\u00f6schibachplatz", "provider": "publibike", "timeStamp": "03/14/2020, 01:05:15", "zip": 8037}, "type": "Feature"}, {"geometry": {"coordinates": [8.538067, 47.415721], "type": "Point"}, "properties": {"address": "Birchstrasse 191", "electric": 7, "id": "pb_393", "manual": 0, "name": "Oerliker Park", "provider": "publibike", "timeStamp": "03/14/2020, 01:05:15", "zip": 8050}, "type": "Feature"}, {"geometry": {"coordinates": [8.5420304, 47.3669233], "type": "Point"}, "properties": {"address": "Stadthausquai 1", "electric": 1, "id": "pb_395", "manual": 11, "name": "B\u00fcrkliplatz", "provider": "publibike", "timeStamp": "03/14/2020, 01:05:15", "zip": 8001}, "type": "Feature"}, {"geometry": {"coordinates": [8.535767, 47.409881], "type": "Point"}, "properties": {"address": "Regensbergstrasse 195", "electric": 1, "id": "pb_396", "manual": 3, "name": "Holunderhof", "provider": "publibike", "timeStamp": "03/14/2020, 01:05:15", "zip": 8050}, "type": "Feature"}, {"geometry": {"coordinates": [8.5116245, 47.3616199], "type": "Point"}, "properties": {"address": "Grubenstrasse 42", "electric": 1, "id": "pb_431", "manual": 0, "name": "Binz Center", "provider": "publibike", "timeStamp": "03/14/2020, 01:05:15", "zip": 8045}, "type": "Feature"}, {"geometry": {"coordinates": [8.547195, 47.382089], "type": "Point"}, "properties": {"address": "Nelkenstrasse 24", "electric": 5, "id": "pb_430", "manual": 1, "name": "Stapferstube", "provider": "publibike", "timeStamp": "03/14/2020, 01:05:15", "zip": 8006}, "type": "Feature"}, {"geometry": {"coordinates": [8.5787183, 47.4039845], "type": "Point"}, "properties": {"address": "Kronwiesenstrasse 35", "electric": 5, "id": "pb_426", "manual": 4, "name": "Kronwiesen", "provider": "publibike", "timeStamp": "03/14/2020, 01:05:15", "zip": 8051}, "type": "Feature"}, {"geometry": {"coordinates": [8.508131, 47.420757], "type": "Point"}, "properties": {"address": "Riedenhaldenstrasse 20-18", "electric": 5, "id": "pb_425", "manual": 4, "name": "Bahnhof Affoltern", "provider": "publibike", "timeStamp": "03/14/2020, 01:05:15", "zip": 8046}, "type": "Feature"}, {"geometry": {"coordinates": [8.532464, 47.406988], "type": "Point"}, "properties": {"address": "K\u00fcnzlistrasse 41", "electric": 7, "id": "pb_424", "manual": 1, "name": "Birchd\u00f6rfli", "provider": "publibike", "timeStamp": "03/14/2020, 01:05:15", "zip": 8057}, "type": "Feature"}, {"geometry": {"coordinates": [8.5777038, 47.4080095], "type": "Point"}, "properties": {"address": "Luegislandstrasse 412", "electric": 5, "id": "pb_429", "manual": 3, "name": "Luegisland", "provider": "publibike", "timeStamp": "03/14/2020, 01:05:15", "zip": 8051}, "type": "Feature"}, {"geometry": {"coordinates": [8.58841, 47.40158], "type": "Point"}, "properties": {"address": "Hirzenbachstrasse 2-4", "electric": 12, "id": "pb_428", "manual": 7, "name": "Hirzenbachstrasse", "provider": "publibike", "timeStamp": "03/14/2020, 01:05:15", "zip": 8051}, "type": "Feature"}, {"geometry": {"coordinates": [8.5563463, 47.4095467], "type": "Point"}, "properties": {"address": "K\u00fchriedweg", "electric": 4, "id": "pb_445", "manual": 4, "name": "Hallenbad Oerlikon", "provider": "publibike", "timeStamp": "03/14/2020, 01:05:15", "zip": 8050}, "type": "Feature"}, {"geometry": {"coordinates": [8.537971, 47.364871], "type": "Point"}, "properties": {"address": "General-Guisan-Quai 17", "electric": 6, "id": "pb_454", "manual": 1, "name": "General-Guisan-Quai", "provider": "publibike", "timeStamp": "03/14/2020, 01:05:15", "zip": 8002}, "type": "Feature"}, {"geometry": {"coordinates": [8.560587, 47.350578], "type": "Point"}, "properties": {"address": "Bellerivestrasse 245", "electric": 7, "id": "pb_450", "manual": 7, "name": "Bahnhof Tiefenbrunnen", "provider": "publibike", "timeStamp": "03/14/2020, 01:05:15", "zip": 8008}, "type": "Feature"}, {"geometry": {"coordinates": [8.5269416, 47.3563719], "type": "Point"}, "properties": {"address": "Waffenplatzstrasse 89", "electric": 2, "id": "pb_452", "manual": 4, "name": "Rieterplatz", "provider": "publibike", "timeStamp": "03/14/2020, 01:05:15", "zip": 8002}, "type": "Feature"}, {"geometry": {"coordinates": [8.514176, 47.3663708], "type": "Point"}, "properties": {"address": "Talwiesenstrasse 92", "electric": 8, "id": "pb_446", "manual": 1, "name": "Binzallee", "provider": "publibike", "timeStamp": "03/14/2020, 01:05:15", "zip": 8055}, "type": "Feature"}, {"geometry": {"coordinates": [8.5070564, 47.371455], "type": "Point"}, "properties": {"address": "Gutstrasse 87", "electric": 9, "id": "pb_447", "manual": 4, "name": "Gutstrasse", "provider": "publibike", "timeStamp": "03/14/2020, 01:05:15", "zip": 8055}, "type": "Feature"}, {"geometry": {"coordinates": [8.4941268, 47.3836391], "type": "Point"}, "properties": {"address": "Flurstrasse 62", "electric": 8, "id": "pb_453", "manual": 2, "name": "Flurpark", "provider": "publibike", "timeStamp": "03/14/2020, 01:05:15", "zip": 8048}, "type": "Feature"}, {"geometry": {"coordinates": [8.500343, 47.380778], "type": "Point"}, "properties": {"address": "Edelweissstrasse 32", "electric": 1, "id": "pb_448", "manual": 5, "name": "Bl\u00fcemliquartier", "provider": "publibike", "timeStamp": "03/14/2020, 01:05:15", "zip": 8048}, "type": "Feature"}, {"geometry": {"coordinates": [8.528796, 47.383858], "type": "Point"}, "properties": {"address": "Gasometerstrasse 24", "electric": 10, "id": "pb_449", "manual": 8, "name": "Gasometerstrasse", "provider": "publibike", "timeStamp": "03/14/2020, 01:05:15", "zip": 8005}, "type": "Feature"}, {"geometry": {"coordinates": [8.4981964, 47.3859194], "type": "Point"}, "properties": {"address": "Baslerstrasse 57", "electric": 13, "id": "pb_455", "manual": 3, "name": "Letzipark", "provider": "publibike", "timeStamp": "03/14/2020, 01:05:15", "zip": 8048}, "type": "Feature"}, {"geometry": {"coordinates": [8.515252, 47.381915], "type": "Point"}, "properties": {"address": "Sihlfeldstrasse 175", "electric": 5, "id": "pb_451", "manual": 14, "name": "Hardplatz", "provider": "publibike", "timeStamp": "03/14/2020, 01:05:15", "zip": 8004}, "type": "Feature"}, {"geometry": {"coordinates": [8.5064743, 47.4188324], "type": "Point"}, "properties": {"address": "Wehntalerstrasse 541", "electric": 5, "id": "pb_427", "manual": 1, "name": "Zehntenhausplatz", "provider": "publibike", "timeStamp": "03/14/2020, 01:05:15", "zip": 8046}, "type": "Feature"}, {"geometry": {"coordinates": [8.537729, 47.379719], "type": "Point"}, "properties": {"address": "Sihlquai/HB", "electric": 0, "id": "pb_513", "manual": 24, "name": "Sihlquai", "provider": "publibike", "timeStamp": "03/14/2020, 01:05:15", "zip": 8005}, "type": "Feature"}, {"geometry": {"coordinates": [8.596202, 47.397885], "type": "Point"}, "properties": {"address": "Bahnhof Stettbach", "electric": 6, "id": "pb_514", "manual": 0, "name": "Bahnhof Stettbach", "provider": "publibike", "timeStamp": "03/14/2020, 01:05:15", "zip": 8051}, "type": "Feature"}, {"geometry": {"coordinates": [8.5543974, 47.3690153], "type": "Point"}, "properties": {"address": "Kasinostrasse 10", "electric": 7, "id": "pb_515", "manual": 1, "name": "Hottingerplatz", "provider": "publibike", "timeStamp": "03/14/2020, 01:05:15", "zip": 8032}, "type": "Feature"}, {"geometry": {"coordinates": [8.534444, 47.351525], "type": "Point"}, "properties": {"address": "Mobile Station Z\u00fcrich 1", "electric": 0, "id": "pb_282", "manual": 0, "name": "Theaterspektakel", "provider": "publibike", "timeStamp": "03/14/2020, 01:05:15", "zip": 8002}, "type": "Feature"}, {"geometry": {"coordinates": [8.516257, 47.367656], "type": "Point"}, "properties": {"address": "Goldbrunnenstrasse 54", "electric": 14, "id": "pb_538", "manual": 0, "name": "Kirche B\u00fchl", "provider": "publibike", "timeStamp": "03/14/2020, 01:05:15", "zip": 8055}, "type": "Feature"}, {"geometry": {"coordinates": [8.555639, 47.416873], "type": "Point"}, "properties": {"address": "Leutschenbachstrasse 50", "electric": 6, "id": "pb_537", "manual": 7, "name": "Leutschenpark", "provider": "publibike", "timeStamp": "03/14/2020, 01:05:15", "zip": 8050}, "type": "Feature"}, {"geometry": {"coordinates": [8.546464, 47.403822], "type": "Point"}, "properties": {"address": "Berninastrasse 45", "electric": 11, "id": "pb_540", "manual": 3, "name": "Berninaplatz", "provider": "publibike", "timeStamp": "03/14/2020, 01:05:15", "zip": 8057}, "type": "Feature"}, {"geometry": {"coordinates": [8.523134, 47.369004], "type": "Point"}, "properties": {"address": "Erlachstrasse 3", "electric": 4, "id": "pb_385", "manual": 5, "name": "Aegerten", "provider": "publibike", "timeStamp": "03/14/2020, 01:05:15", "zip": 8003}, "type": "Feature"}, {"geometry": {"coordinates": [8.49038, 47.381591], "type": "Point"}, "properties": {"address": "Rautistrasse 60", "electric": 15, "id": "pb_536", "manual": 2, "name": "Freilager", "provider": "publibike", "timeStamp": "03/14/2020, 01:05:15", "zip": 8048}, "type": "Feature"}, {"geometry": {"coordinates": [8.496511, 47.375247], "type": "Point"}, "properties": {"address": "Letzigraben 139", "electric": 7, "id": "pb_444", "manual": 6, "name": "Sackzelg", "provider": "publibike", "timeStamp": "03/14/2020, 01:05:15", "zip": 8047}, "type": "Feature"}, {"geometry": {"coordinates": [8.58131, 47.402801], "type": "Point"}, "properties": {"address": "Altwiesenstrasse 104", "electric": 3, "id": "pb_539", "manual": 3, "name": "Glattwiesen", "provider": "publibike", "timeStamp": "03/14/2020, 01:05:15", "zip": 8051}, "type": "Feature"}, {"geometry": {"coordinates": [8.52689, 47.3767], "type": "Point"}, "properties": {"address": "Molkenstrasse 5", "electric": 7, "id": "pb_560", "manual": 11, "name": "Helvetiaplatz", "provider": "publibike", "timeStamp": "03/14/2020, 01:05:15", "zip": 8004}, "type": "Feature"}, {"geometry": {"coordinates": [8.525602, 47.374241], "type": "Point"}, "properties": {"address": "Badenerstrasse 90", "electric": 4, "id": "pb_559", "manual": 3, "name": "Bezirksgeb\u00e4ude", "provider": "publibike", "timeStamp": "03/14/2020, 01:05:15", "zip": 8004}, "type": "Feature"}, {"geometry": {"coordinates": [8.535082, 47.345248], "type": "Point"}, "properties": {"address": "Bachstrasse 15", "electric": 6, "id": "pb_564", "manual": 6, "name": "GZ Wollishofen", "provider": "publibike", "timeStamp": "03/14/2020, 01:05:15", "zip": 8038}, "type": "Feature"}, {"geometry": {"coordinates": [8.514841, 47.370238], "type": "Point"}, "properties": {"address": "Schrennengasse 37", "electric": 2, "id": "pb_562", "manual": 6, "name": "Goldbrunnenplatz", "provider": "publibike", "timeStamp": "03/14/2020, 01:05:15", "zip": 8003}, "type": "Feature"}, {"geometry": {"coordinates": [8.514138, 47.374206], "type": "Point"}, "properties": {"address": "Idaplatz 4", "electric": 2, "id": "pb_557", "manual": 11, "name": "Idaplatz", "provider": "publibike", "timeStamp": "03/14/2020, 01:05:15", "zip": 8003}, "type": "Feature"}, {"geometry": {"coordinates": [8.518432, 47.369549], "type": "Point"}, "properties": {"address": "Brinerstrasse 2", "electric": 0, "id": "pb_558", "manual": 2, "name": "Schmiede Wiedikon", "provider": "publibike", "timeStamp": "03/14/2020, 01:05:15", "zip": 8003}, "type": "Feature"}, {"geometry": {"coordinates": [8.537546, 47.391289], "type": "Point"}, "properties": {"address": "Rotbuchstrasse 15", "electric": 1, "id": "pb_556", "manual": 0, "name": "Schaffhauserplatz", "provider": "publibike", "timeStamp": "03/14/2020, 01:05:15", "zip": 8006}, "type": "Feature"}, {"geometry": {"coordinates": [8.541541, 47.413733], "type": "Point"}, "properties": {"address": "Therese-Giehse-Strasse 11", "electric": 0, "id": "pb_561", "manual": 0, "name": "Center Eleven", "provider": "publibike", "timeStamp": "03/14/2020, 01:05:15", "zip": 8050}, "type": "Feature"}, {"geometry": {"coordinates": [8.534227, 47.360004], "type": "Point"}, "properties": {"address": "Alfred Escher-Strasse 76", "electric": 1, "id": "pb_563", "manual": 1, "name": "Mythenschloss", "provider": "publibike", "timeStamp": "03/14/2020, 01:05:15", "zip": 8002}, "type": "Feature"}, {"geometry": {"coordinates": [8.50373, 47.396172], "type": "Point"}, "properties": {"address": "Hardeggstrasse 6", "electric": 4, "id": "pb_566", "manual": 1, "name": "Am Wasser", "provider": "publibike", "timeStamp": "03/14/2020, 01:05:15", "zip": 8049}, "type": "Feature"}, {"geometry": {"coordinates": [8.532432, 47.381174], "type": "Point"}, "properties": {"address": "Klingenstrasse 9", "electric": 0, "id": "pb_565", "manual": 8, "name": "Zollstrasse", "provider": "publibike", "timeStamp": "03/14/2020, 01:05:15", "zip": 8005}, "type": "Feature"}, {"geometry": {"coordinates": [8.497982, 47.381447], "type": "Point"}, "properties": {"address": "Dennlerstrasse 23", "electric": 2, "id": "pb_567", "manual": 5, "name": "Dennlerstrasse", "provider": "publibike", "timeStamp": "03/14/2020, 01:05:15", "zip": 8047}, "type": "Feature"}, {"geometry": {"coordinates": [8.528049, 47.347701], "type": "Point"}, "properties": {"address": "Mutschellenstrasse 114", "electric": 10, "id": "pb_568", "manual": 2, "name": "Jugendherberge", "provider": "publibike", "timeStamp": "03/14/2020, 01:05:15", "zip": 8038}, "type": "Feature"}, {"geometry": {"coordinates": [8.539016, 47.405751], "type": "Point"}, "properties": {"address": "Ringstrasse 82", "electric": 5, "id": "pb_569", "manual": 3, "name": "Freibad Allenmoos", "provider": "publibike", "timeStamp": "03/14/2020, 01:05:15", "zip": 8057}, "type": "Feature"}, {"geometry": {"coordinates": [8.534974, 47.402164], "type": "Point"}, "properties": {"address": "Brache Guggach", "electric": 0, "id": "pb_572", "manual": 0, "name": "Radiostudio", "provider": "publibike", "timeStamp": "03/14/2020, 01:05:15", "zip": 8057}, "type": "Feature"}, {"geometry": {"coordinates": [8.547901, 47.375556], "type": "Point"}, "properties": {"address": "Karl-Schmid-Strasse 4", "electric": 0, "id": "pb_571", "manual": 0, "name": "ETH/Zoologisches Museum", "provider": "publibike", "timeStamp": "03/14/2020, 01:05:15", "zip": 8006}, "type": "Feature"}, {"geometry": {"coordinates": [8.517333, 47.361401], "type": "Point"}, "properties": {"charge": 100, "id": "smide_2895", "name": "ZH 267279", "provider": "smide", "range": 50.0, "size": 20, "time": "03/21/2020, 00:31:13"}, "type": "Feature"}, {"geometry": {"coordinates": [8.545161, 47.415936], "type": "Point"}, "properties": {"charge": 41, "id": "smide_2880", "name": "ZH267289", "provider": "smide", "range": 20.0, "size": 17, "time": "03/21/2020, 00:31:13"}, "type": "Feature"}, {"geometry": {"coordinates": [8.568026, 47.368168], "type": "Point"}, "properties": {"charge": 43, "id": "smide_2871", "name": "ZH 267086", "provider": "smide", "range": 21.0, "size": 20, "time": "03/21/2020, 00:31:13"}, "type": "Feature"}, {"geometry": {"coordinates": [8.52182, 47.357115], "type": "Point"}, "properties": {"charge": 79, "id": "smide_2868", "name": "ZH 267089", "provider": "smide", "range": 39.0, "size": 20, "time": "03/21/2020, 00:31:13"}, "type": "Feature"}, {"geometry": {"coordinates": [8.546575, 47.416591], "type": "Point"}, "properties": {"charge": 87, "id": "smide_2856", "name": "ZH 267101", "provider": "smide", "range": 43.0, "size": 17, "time": "03/21/2020, 00:31:13"}, "type": "Feature"}, {"geometry": {"coordinates": [8.557, 47.420203], "type": "Point"}, "properties": {"charge": 87, "id": "smide_2855", "name": "ZH 267102", "provider": "smide", "range": 43.0, "size": 17, "time": "03/21/2020, 00:31:13"}, "type": "Feature"}, {"geometry": {"coordinates": [8.55743, 47.376831], "type": "Point"}, "properties": {"charge": 100, "id": "smide_2854", "name": "ZH 267103", "provider": "smide", "range": 50.0, "size": 17, "time": "03/21/2020, 00:31:13"}, "type": "Feature"}, {"geometry": {"coordinates": [8.54884, 47.378001], "type": "Point"}, "properties": {"charge": 61, "id": "smide_2819", "name": "ZH266943", "provider": "smide", "range": 30.0, "size": 20, "time": "03/21/2020, 00:31:13"}, "type": "Feature"}, {"geometry": {"coordinates": [8.502028, 47.368696], "type": "Point"}, "properties": {"charge": 100, "id": "smide_2804", "name": "ZH266903", "provider": "smide", "range": 50.0, "size": 20, "time": "03/21/2020, 00:31:13"}, "type": "Feature"}, {"geometry": {"coordinates": [8.528215, 47.378361], "type": "Point"}, "properties": {"charge": 99, "id": "smide_2785", "name": "ZH266875", "provider": "smide", "range": 49.0, "size": 17, "time": "03/21/2020, 00:31:13"}, "type": "Feature"}, {"geometry": {"coordinates": [8.532258, 47.400008], "type": "Point"}, "properties": {"charge": 15, "id": "smide_2773", "name": "ZH266561", "provider": "smide", "range": 7.0, "size": 17, "time": "03/21/2020, 00:31:13"}, "type": "Feature"}, {"geometry": {"coordinates": [8.540438, 47.393828], "type": "Point"}, "properties": {"charge": 23, "id": "smide_2771", "name": "ZH266559", "provider": "smide", "range": 11.0, "size": 17, "time": "03/21/2020, 00:31:13"}, "type": "Feature"}, {"geometry": {"coordinates": [8.574128, 47.352068], "type": "Point"}, "properties": {"charge": 38, "id": "smide_2763", "name": "ZH266641", "provider": "smide", "range": 19.0, "size": 17, "time": "03/21/2020, 00:31:13"}, "type": "Feature"}, {"geometry": {"coordinates": [8.491974, 47.381128], "type": "Point"}, "properties": {"charge": 100, "id": "smide_2758", "name": "ZH266638 M", "provider": "smide", "range": 50.0, "size": 17, "time": "03/21/2020, 00:31:13"}, "type": "Feature"}, {"geometry": {"coordinates": [8.544978, 47.41458], "type": "Point"}, "properties": {"charge": 50, "id": "smide_2752", "name": "BE343856", "provider": "smide", "range": 25.0, "size": 17, "time": "03/21/2020, 00:31:13"}, "type": "Feature"}, {"geometry": {"coordinates": [8.52993, 47.333568], "type": "Point"}, "properties": {"charge": 59, "id": "smide_2751", "name": "BE343857", "provider": "smide", "range": 29.0, "size": 17, "time": "03/21/2020, 00:31:13"}, "type": "Feature"}, {"geometry": {"coordinates": [8.533152, 47.366336], "type": "Point"}, "properties": {"charge": 37, "id": "smide_2749", "name": "BE343867", "provider": "smide", "range": 18.0, "size": 17, "time": "03/21/2020, 00:31:13"}, "type": "Feature"}, {"geometry": {"coordinates": [8.523293, 47.375868], "type": "Point"}, "properties": {"charge": 83, "id": "smide_2748", "name": "BE335758", "provider": "smide", "range": 41.0, "size": 17, "time": "03/21/2020, 00:31:13"}, "type": "Feature"}, {"geometry": {"coordinates": [8.482971, 47.388424], "type": "Point"}, "properties": {"charge": 99, "id": "smide_2746", "name": "BE335817", "provider": "smide", "range": 49.0, "size": 17, "time": "03/21/2020, 00:31:13"}, "type": "Feature"}, {"geometry": {"coordinates": [8.517488, 47.358435], "type": "Point"}, "properties": {"charge": 98, "id": "smide_2747", "name": "BE335820", "provider": "smide", "range": 49.0, "size": 17, "time": "03/21/2020, 00:31:13"}, "type": "Feature"}, {"geometry": {"coordinates": [8.496857, 47.378436], "type": "Point"}, "properties": {"charge": 55, "id": "smide_2743", "name": "BE343864", "provider": "smide", "range": 27.0, "size": 17, "time": "03/21/2020, 00:31:13"}, "type": "Feature"}, {"geometry": {"coordinates": [8.567377, 47.378572], "type": "Point"}, "properties": {"charge": 74, "id": "smide_2742", "name": "BE343866", "provider": "smide", "range": 37.0, "size": 17, "time": "03/21/2020, 00:31:13"}, "type": "Feature"}, {"geometry": {"coordinates": [8.530781, 47.364916], "type": "Point"}, "properties": {"charge": 97, "id": "smide_2738", "name": "BE343865", "provider": "smide", "range": 48.0, "size": 17, "time": "03/21/2020, 00:31:13"}, "type": "Feature"}, {"geometry": {"coordinates": [8.545039, 47.376936], "type": "Point"}, "properties": {"charge": 83, "id": "smide_2737", "name": "BE336149", "provider": "smide", "range": 41.0, "size": 17, "time": "03/21/2020, 00:31:13"}, "type": "Feature"}, {"geometry": {"coordinates": [8.514228, 47.382596], "type": "Point"}, "properties": {"charge": 69, "id": "smide_2734", "name": "BE343876", "provider": "smide", "range": 34.0, "size": 17, "time": "03/21/2020, 00:31:13"}, "type": "Feature"}, {"geometry": {"coordinates": [8.5513, 47.401088], "type": "Point"}, "properties": {"charge": 52, "id": "smide_2733", "name": "BE343873", "provider": "smide", "range": 26.0, "size": 17, "time": "03/21/2020, 00:31:13"}, "type": "Feature"}, {"geometry": {"coordinates": [8.55988, 47.417692], "type": "Point"}, "properties": {"charge": 38, "id": "smide_2732", "name": "BE343870", "provider": "smide", "range": 19.0, "size": 17, "time": "03/21/2020, 00:31:13"}, "type": "Feature"}, {"geometry": {"coordinates": [8.525877, 47.365056], "type": "Point"}, "properties": {"charge": 100, "id": "smide_2729", "name": "BE343878", "provider": "smide", "range": 50.0, "size": 17, "time": "03/21/2020, 00:31:13"}, "type": "Feature"}, {"geometry": {"coordinates": [8.582248, 47.351808], "type": "Point"}, "properties": {"charge": 43, "id": "smide_2725", "name": "ZH261545", "provider": "smide", "range": 21.0, "size": 0, "time": "03/21/2020, 00:31:13"}, "type": "Feature"}, {"geometry": {"coordinates": [8.562988, 47.38239], "type": "Point"}, "properties": {"charge": 28, "id": "smide_2718", "name": "ZH259019", "provider": "smide", "range": 14.0, "size": 20, "time": "03/21/2020, 00:31:13"}, "type": "Feature"}, {"geometry": {"coordinates": [8.574541, 47.35226], "type": "Point"}, "properties": {"charge": 79, "id": "smide_2717", "name": "ZH263287", "provider": "smide", "range": 39.0, "size": 17, "time": "03/21/2020, 00:31:13"}, "type": "Feature"}, {"geometry": {"coordinates": [8.514536, 47.357544], "type": "Point"}, "properties": {"charge": 42, "id": "smide_2715", "name": "ZH254605", "provider": "smide", "range": 21.0, "size": 17, "time": "03/21/2020, 00:31:13"}, "type": "Feature"}, {"geometry": {"coordinates": [8.557289, 47.383156], "type": "Point"}, "properties": {"charge": 16, "id": "smide_2714", "name": "ZH256461", "provider": "smide", "range": 8.0, "size": 17, "time": "03/21/2020, 00:31:13"}, "type": "Feature"}, {"geometry": {"coordinates": [8.537593, 47.339828], "type": "Point"}, "properties": {"charge": 100, "id": "smide_2709", "name": "ZH256466", "provider": "smide", "range": 50.0, "size": 20, "time": "03/21/2020, 00:31:13"}, "type": "Feature"}, {"geometry": {"coordinates": [8.524173, 47.3981], "type": "Point"}, "properties": {"charge": 94, "id": "smide_2707", "name": "ZH256467", "provider": "smide", "range": 47.0, "size": 20, "time": "03/21/2020, 00:31:13"}, "type": "Feature"}, {"geometry": {"coordinates": [8.552752, 47.3575], "type": "Point"}, "properties": {"charge": 18, "id": "smide_2708", "name": "ZH256464", "provider": "smide", "range": 9.0, "size": 17, "time": "03/21/2020, 00:31:13"}, "type": "Feature"}, {"geometry": {"coordinates": [8.52752, 47.39426], "type": "Point"}, "properties": {"charge": 62, "id": "smide_2706", "name": "ZH256322", "provider": "smide", "range": 31.0, "size": 20, "time": "03/21/2020, 00:31:13"}, "type": "Feature"}, {"geometry": {"coordinates": [8.493763, 47.400276], "type": "Point"}, "properties": {"charge": 98, "id": "smide_2701", "name": "ZH256468", "provider": "smide", "range": 49.0, "size": 20, "time": "03/21/2020, 00:31:13"}, "type": "Feature"}, {"geometry": {"coordinates": [8.582998, 47.351764], "type": "Point"}, "properties": {"charge": 49, "id": "smide_2700", "name": "ZH256470", "provider": "smide", "range": 24.0, "size": 20, "time": "03/21/2020, 00:31:13"}, "type": "Feature"}, {"geometry": {"coordinates": [8.542471, 47.385372], "type": "Point"}, "properties": {"charge": 64, "id": "smide_2697", "name": "ZH254629", "provider": "smide", "range": 32.0, "size": 20, "time": "03/21/2020, 00:31:13"}, "type": "Feature"}, {"geometry": {"coordinates": [8.510405, 47.395992], "type": "Point"}, "properties": {"charge": 84, "id": "smide_2694", "name": "ZH254610", "provider": "smide", "range": 42.0, "size": 20, "time": "03/21/2020, 00:31:13"}, "type": "Feature"}, {"geometry": {"coordinates": [8.553078, 47.387161], "type": "Point"}, "properties": {"charge": 10, "id": "smide_2691", "name": "ZH254622", "provider": "smide", "range": 5.0, "size": 20, "time": "03/21/2020, 00:31:13"}, "type": "Feature"}, {"geometry": {"coordinates": [8.510665, 47.371825], "type": "Point"}, "properties": {"charge": 53, "id": "smide_2690", "name": "ZH254625", "provider": "smide", "range": 26.0, "size": 20, "time": "03/21/2020, 00:31:13"}, "type": "Feature"}, {"geometry": {"coordinates": [8.511258, 47.39028], "type": "Point"}, "properties": {"charge": 10, "id": "smide_2689", "name": "ZH254623", "provider": "smide", "range": 5.0, "size": 20, "time": "03/21/2020, 00:31:13"}, "type": "Feature"}, {"geometry": {"coordinates": [8.5392, 47.3383], "type": "Point"}, "properties": {"charge": 91, "id": "smide_2687", "name": "ZH263529", "provider": "smide", "range": 45.0, "size": 20, "time": "03/21/2020, 00:31:13"}, "type": "Feature"}, {"geometry": {"coordinates": [8.523808, 47.373104], "type": "Point"}, "properties": {"charge": 81, "id": "smide_2684", "name": "ZH254626", "provider": "smide", "range": 40.0, "size": 20, "time": "03/21/2020, 00:31:13"}, "type": "Feature"}, {"geometry": {"coordinates": [8.513221, 47.374591], "type": "Point"}, "properties": {"charge": 65, "id": "smide_2683", "name": "ZH254620", "provider": "smide", "range": 32.0, "size": 20, "time": "03/21/2020, 00:31:13"}, "type": "Feature"}, {"geometry": {"coordinates": [8.502046, 47.368932], "type": "Point"}, "properties": {"charge": 100, "id": "smide_2679", "name": "ZH258489", "provider": "smide", "range": 50.0, "size": 17, "time": "03/21/2020, 00:31:13"}, "type": "Feature"}, {"geometry": {"coordinates": [8.507806, 47.391], "type": "Point"}, "properties": {"charge": 100, "id": "smide_2674", "name": "ZH258654", "provider": "smide", "range": 50.0, "size": 17, "time": "03/21/2020, 00:31:13"}, "type": "Feature"}, {"geometry": {"coordinates": [8.56413, 47.366872], "type": "Point"}, "properties": {"charge": 22, "id": "smide_2669", "name": "ZH263294", "provider": "smide", "range": 11.0, "size": 17, "time": "03/21/2020, 00:31:13"}, "type": "Feature"}, {"geometry": {"coordinates": [8.532827, 47.453632], "type": "Point"}, "properties": {"charge": 86, "id": "smide_2666", "name": "ZH258653", "provider": "smide", "range": 43.0, "size": 17, "time": "03/21/2020, 00:31:13"}, "type": "Feature"}, {"geometry": {"coordinates": [8.526385, 47.338948], "type": "Point"}, "properties": {"charge": 57, "id": "smide_2664", "name": "ZH258652", "provider": "smide", "range": 28.0, "size": 17, "time": "03/21/2020, 00:31:13"}, "type": "Feature"}, {"geometry": {"coordinates": [8.573554, 47.348976], "type": "Point"}, "properties": {"charge": 58, "id": "smide_2663", "name": "ZH258649", "provider": "smide", "range": 28.0, "size": 17, "time": "03/21/2020, 00:31:13"}, "type": "Feature"}, {"geometry": {"coordinates": [8.516148, 47.370624], "type": "Point"}, "properties": {"charge": 70, "id": "smide_2662", "name": "ZH258643", "provider": "smide", "range": 35.0, "size": 17, "time": "03/21/2020, 00:31:13"}, "type": "Feature"}, {"geometry": {"coordinates": [8.508409, 47.420828], "type": "Point"}, "properties": {"charge": 21, "id": "smide_2660", "name": "ZH258647", "provider": "smide", "range": 10.0, "size": 17, "time": "03/21/2020, 00:31:13"}, "type": "Feature"}, {"geometry": {"coordinates": [8.514296, 47.357126], "type": "Point"}, "properties": {"charge": 69, "id": "smide_2657", "name": "ZH257936", "provider": "smide", "range": 34.0, "size": 17, "time": "03/21/2020, 00:31:13"}, "type": "Feature"}, {"geometry": {"coordinates": [8.525093, 47.366316], "type": "Point"}, "properties": {"charge": 90, "id": "smide_2645", "name": "ZH257933", "provider": "smide", "range": 45.0, "size": 20, "time": "03/21/2020, 00:31:13"}, "type": "Feature"}, {"geometry": {"coordinates": [8.52404, 47.374301], "type": "Point"}, "properties": {"charge": 100, "id": "smide_3", "name": "ZH253765", "provider": "smide", "range": 50.0, "size": 20, "time": "03/21/2020, 00:31:13"}, "type": "Feature"}, {"geometry": {"coordinates": [8.57646, 47.351151], "type": "Point"}, "properties": {"charge": 87, "id": "smide_105", "name": "ZH253804", "provider": "smide", "range": 43.0, "size": 17, "time": "03/21/2020, 00:31:13"}, "type": "Feature"}, {"geometry": {"coordinates": [8.523951, 47.369715], "type": "Point"}, "properties": {"charge": 70, "id": "smide_77", "name": "ZH261548", "provider": "smide", "range": 35.0, "size": 20, "time": "03/21/2020, 00:31:13"}, "type": "Feature"}, {"geometry": {"coordinates": [8.562993, 47.369366], "type": "Point"}, "properties": {"charge": 97, "id": "smide_201", "name": "ZH253698", "provider": "smide", "range": 48.0, "size": 17, "time": "03/21/2020, 00:31:13"}, "type": "Feature"}, {"geometry": {"coordinates": [8.520962, 47.397396], "type": "Point"}, "properties": {"charge": 59, "id": "smide_71", "name": "ZH253742", "provider": "smide", "range": 29.0, "size": 20, "time": "03/21/2020, 00:31:13"}, "type": "Feature"}, {"geometry": {"coordinates": [8.513737, 47.369676], "type": "Point"}, "properties": {"charge": 80, "id": "smide_101", "name": "ZH253814", "provider": "smide", "range": 40.0, "size": 17, "time": "03/21/2020, 00:31:13"}, "type": "Feature"}, {"geometry": {"coordinates": [8.555861, 47.369548], "type": "Point"}, "properties": {"charge": 70, "id": "smide_9", "name": "ZH253796", "provider": "smide", "range": 35.0, "size": 17, "time": "03/21/2020, 00:31:13"}, "type": "Feature"}, {"geometry": {"coordinates": [8.542418, 47.366656], "type": "Point"}, "properties": {"charge": 83, "id": "smide_143", "name": "ZH253778", "provider": "smide", "range": 41.0, "size": 17, "time": "03/21/2020, 00:31:13"}, "type": "Feature"}, {"geometry": {"coordinates": [8.511871, 47.398575], "type": "Point"}, "properties": {"charge": 80, "id": "smide_180", "name": "ZH253824", "provider": "smide", "range": 40.0, "size": 20, "time": "03/21/2020, 00:31:13"}, "type": "Feature"}, {"geometry": {"coordinates": [8.55826, 47.365096], "type": "Point"}, "properties": {"charge": 89, "id": "smide_50", "name": "ZH253853", "provider": "smide", "range": 44.0, "size": 17, "time": "03/21/2020, 00:31:13"}, "type": "Feature"}, {"geometry": {"coordinates": [8.540995, 47.387896], "type": "Point"}, "properties": {"charge": 13, "id": "smide_30", "name": "ZH253813", "provider": "smide", "range": 6.0, "size": 20, "time": "03/21/2020, 00:31:13"}, "type": "Feature"}, {"geometry": {"coordinates": [8.503658, 47.37758], "type": "Point"}, "properties": {"charge": 100, "id": "smide_10", "name": "ZH253855", "provider": "smide", "range": 50.0, "size": 17, "time": "03/21/2020, 00:31:13"}, "type": "Feature"}, {"geometry": {"coordinates": [8.502348, 47.370311], "type": "Point"}, "properties": {"charge": 42, "id": "smide_79", "name": "ZH253711", "provider": "smide", "range": 21.0, "size": 20, "time": "03/21/2020, 00:31:13"}, "type": "Feature"}, {"geometry": {"coordinates": [8.551154, 47.389604], "type": "Point"}, "properties": {"charge": 47, "id": "smide_84", "name": "ZH253733", "provider": "smide", "range": 23.0, "size": 17, "time": "03/21/2020, 00:31:13"}, "type": "Feature"}, {"geometry": {"coordinates": [8.533743, 47.384816], "type": "Point"}, "properties": {"charge": 17, "id": "smide_165", "name": "ZH253752", "provider": "smide", "range": 8.0, "size": 17, "time": "03/21/2020, 00:31:13"}, "type": "Feature"}, {"geometry": {"coordinates": [8.526492, 47.366888], "type": "Point"}, "properties": {"charge": 93, "id": "smide_35", "name": "ZH253755", "provider": "smide", "range": 46.0, "size": 20, "time": "03/21/2020, 00:31:13"}, "type": "Feature"}, {"geometry": {"coordinates": [8.575941, 47.349793], "type": "Point"}, "properties": {"charge": 68, "id": "smide_49", "name": "ZH253873", "provider": "smide", "range": 34.0, "size": 17, "time": "03/21/2020, 00:31:13"}, "type": "Feature"}, {"geometry": {"coordinates": [8.570089, 47.352324], "type": "Point"}, "properties": {"charge": 100, "id": "smide_94", "name": "ZH253754", "provider": "smide", "range": 50.0, "size": 17, "time": "03/21/2020, 00:31:13"}, "type": "Feature"}, {"geometry": {"coordinates": [8.521638, 47.36287], "type": "Point"}, "properties": {"charge": 33, "id": "smide_202", "name": "ZH253830", "provider": "smide", "range": 16.0, "size": 17, "time": "03/21/2020, 00:31:13"}, "type": "Feature"}, {"geometry": {"coordinates": [8.524435, 47.379228], "type": "Point"}, "properties": {"charge": 52, "id": "smide_56", "name": "ZH261442", "provider": "smide", "range": 26.0, "size": 20, "time": "03/21/2020, 00:31:13"}, "type": "Feature"}, {"geometry": {"coordinates": [8.565653, 47.359953], "type": "Point"}, "properties": {"charge": 21, "id": "smide_47", "name": "ZH253858", "provider": "smide", "range": 10.0, "size": 17, "time": "03/21/2020, 00:31:13"}, "type": "Feature"}, {"geometry": {"coordinates": [8.478485, 47.389632], "type": "Point"}, "properties": {"charge": 18, "id": "smide_150", "name": "ZH253703", "provider": "smide", "range": 9.0, "size": 20, "time": "03/21/2020, 00:31:13"}, "type": "Feature"}, {"geometry": {"coordinates": [8.531505, 47.412161], "type": "Point"}, "properties": {"charge": 59, "id": "smide_97", "name": "ZH253799", "provider": "smide", "range": 29.0, "size": 20, "time": "03/21/2020, 00:31:13"}, "type": "Feature"}, {"geometry": {"coordinates": [8.572793, 47.348791], "type": "Point"}, "properties": {"charge": 87, "id": "smide_17", "name": "ZH253793", "provider": "smide", "range": 43.0, "size": 17, "time": "03/21/2020, 00:31:13"}, "type": "Feature"}, {"geometry": {"coordinates": [8.569107, 47.373008], "type": "Point"}, "properties": {"charge": 100, "id": "smide_127", "name": "ZH253808", "provider": "smide", "range": 50.0, "size": 20, "time": "03/21/2020, 00:31:13"}, "type": "Feature"}, {"geometry": {"coordinates": [8.538718, 47.376076], "type": "Point"}, "properties": {"charge": 37, "id": "smide_145", "name": "ZH253780", "provider": "smide", "range": 18.0, "size": 20, "time": "03/21/2020, 00:31:13"}, "type": "Feature"}, {"geometry": {"coordinates": [8.515844, 47.37052], "type": "Point"}, "properties": {"charge": 65, "id": "smide_114", "name": "ZH253878", "provider": "smide", "range": 32.0, "size": 20, "time": "03/21/2020, 00:31:13"}, "type": "Feature"}, {"geometry": {"coordinates": [8.574176, 47.358384], "type": "Point"}, "properties": {"charge": 99, "id": "smide_21", "name": "ZH253841", "provider": "smide", "range": 49.0, "size": 17, "time": "03/21/2020, 00:31:13"}, "type": "Feature"}, {"geometry": {"coordinates": [8.525956, 47.365084], "type": "Point"}, "properties": {"charge": 100, "id": "smide_164", "name": "ZH253775", "provider": "smide", "range": 50.0, "size": 17, "time": "03/21/2020, 00:31:13"}, "type": "Feature"}, {"geometry": {"coordinates": [8.537155, 47.419108], "type": "Point"}, "properties": {"charge": 17, "id": "smide_171", "name": "ZH253689", "provider": "smide", "range": 8.0, "size": 20, "time": "03/21/2020, 00:31:13"}, "type": "Feature"}, {"geometry": {"coordinates": [8.557335, 47.403548], "type": "Point"}, "properties": {"charge": 40, "id": "smide_93", "name": "ZH253681", "provider": "smide", "range": 20.0, "size": 17, "time": "03/21/2020, 00:31:13"}, "type": "Feature"}, {"geometry": {"coordinates": [8.518539, 47.387516], "type": "Point"}, "properties": {"charge": 66, "id": "smide_67", "name": "ZH253779", "provider": "smide", "range": 33.0, "size": 17, "time": "03/21/2020, 00:31:13"}, "type": "Feature"}, {"geometry": {"coordinates": [8.50359, 47.365688], "type": "Point"}, "properties": {"charge": 45, "id": "smide_126", "name": "ZH268400", "provider": "smide", "range": 22.0, "size": 17, "time": "03/21/2020, 00:31:13"}, "type": "Feature"}, {"geometry": {"coordinates": [8.48447, 47.39359], "type": "Point"}, "properties": {"charge": 31, "id": "smide_44", "name": "ZH253837", "provider": "smide", "range": 15.0, "size": 17, "time": "03/21/2020, 00:31:13"}, "type": "Feature"}, {"geometry": {"coordinates": [8.505007, 47.39952], "type": "Point"}, "properties": {"charge": 52, "id": "smide_154", "name": "ZH253744", "provider": "smide", "range": 26.0, "size": 20, "time": "03/21/2020, 00:31:13"}, "type": "Feature"}, {"geometry": {"coordinates": [8.525953, 47.365112], "type": "Point"}, "properties": {"charge": 81, "id": "smide_92", "name": "ZH253798", "provider": "smide", "range": 40.0, "size": 17, "time": "03/21/2020, 00:31:13"}, "type": "Feature"}, {"geometry": {"coordinates": [8.56253, 47.377768], "type": "Point"}, "properties": {"charge": 35, "id": "smide_65", "name": "ZH253810", "provider": "smide", "range": 17.0, "size": 17, "time": "03/21/2020, 00:31:13"}, "type": "Feature"}, {"geometry": {"coordinates": [8.540252, 47.414944], "type": "Point"}, "properties": {"charge": 62, "id": "smide_28", "name": "ZH253831", "provider": "smide", "range": 31.0, "size": 17, "time": "03/21/2020, 00:31:13"}, "type": "Feature"}, {"geometry": {"coordinates": [8.531548, 47.384333], "type": "Point"}, "properties": {"charge": 87, "id": "smide_14", "name": "ZH253749", "provider": "smide", "range": 43.0, "size": 20, "time": "03/21/2020, 00:31:13"}, "type": "Feature"}, {"geometry": {"coordinates": [8.564005, 47.366412], "type": "Point"}, "properties": {"charge": 100, "id": "smide_130", "name": "ZH253847", "provider": "smide", "range": 50.0, "size": 20, "time": "03/21/2020, 00:31:13"}, "type": "Feature"}, {"geometry": {"coordinates": [8.575034, 47.344276], "type": "Point"}, "properties": {"charge": 59, "id": "smide_136", "name": "ZH253682", "provider": "smide", "range": 29.0, "size": 17, "time": "03/21/2020, 00:31:13"}, "type": "Feature"}, {"geometry": {"coordinates": [8.51226, 47.37288], "type": "Point"}, "properties": {"charge": 100, "id": "smide_73", "name": "ZH261379", "provider": "smide", "range": 50.0, "size": 20, "time": "03/21/2020, 00:31:13"}, "type": "Feature"}, {"geometry": {"coordinates": [8.538101, 47.401226], "type": "Point"}, "properties": {"charge": 80, "id": "smide_158", "name": "ZH253870", "provider": "smide", "range": 40.0, "size": 20, "time": "03/21/2020, 00:31:13"}, "type": "Feature"}, {"geometry": {"coordinates": [8.483704, 47.397484], "type": "Point"}, "properties": {"charge": 70, "id": "smide_100", "name": "ZH253862", "provider": "smide", "range": 35.0, "size": 20, "time": "03/21/2020, 00:31:13"}, "type": "Feature"}, {"geometry": {"coordinates": [8.526675, 47.39294], "type": "Point"}, "properties": {"charge": 57, "id": "smide_141", "name": "ZH253800", "provider": "smide", "range": 28.0, "size": 20, "time": "03/21/2020, 00:31:13"}, "type": "Feature"}, {"geometry": {"coordinates": [8.503768, 47.377456], "type": "Point"}, "properties": {"charge": 20, "id": "smide_149", "name": "ZH253743", "provider": "smide", "range": 10.0, "size": 20, "time": "03/21/2020, 00:31:13"}, "type": "Feature"}, {"geometry": {"coordinates": [8.498738, 47.402592], "type": "Point"}, "properties": {"charge": 77, "id": "smide_16", "name": "ZH253713", "provider": "smide", "range": 38.0, "size": 20, "time": "03/21/2020, 00:31:13"}, "type": "Feature"}, {"geometry": {"coordinates": [8.54719, 47.403658], "type": "Point"}, "properties": {"charge": 89, "id": "smide_33", "name": "ZH253782", "provider": "smide", "range": 44.0, "size": 20, "time": "03/21/2020, 00:31:13"}, "type": "Feature"}, {"geometry": {"coordinates": [8.567365, 47.378572], "type": "Point"}, "properties": {"charge": 95, "id": "smide_161", "name": "ZH253691", "provider": "smide", "range": 47.0, "size": 20, "time": "03/21/2020, 00:31:13"}, "type": "Feature"}, {"geometry": {"coordinates": [8.502023, 47.36891], "type": "Point"}, "properties": {"charge": 30, "id": "smide_183", "name": "ZH253868", "provider": "smide", "range": 15.0, "size": 17, "time": "03/21/2020, 00:31:13"}, "type": "Feature"}, {"geometry": {"coordinates": [8.520802, 47.424188], "type": "Point"}, "properties": {"charge": 85, "id": "smide_42", "name": "ZH253846", "provider": "smide", "range": 42.0, "size": 20, "time": "03/21/2020, 00:31:13"}, "type": "Feature"}, {"geometry": {"coordinates": [8.562053, 47.410536], "type": "Point"}, "properties": {"charge": 17, "id": "smide_160", "name": "ZH253722", "provider": "smide", "range": 8.0, "size": 17, "time": "03/21/2020, 00:31:13"}, "type": "Feature"}, {"geometry": {"coordinates": [8.54026, 47.389176], "type": "Point"}, "properties": {"charge": 16, "id": "smide_137", "name": "ZH258502", "provider": "smide", "range": 8.0, "size": 17, "time": "03/21/2020, 00:31:13"}, "type": "Feature"}, {"geometry": {"coordinates": [8.53542, 47.363791], "type": "Point"}, "properties": {"charge": 100, "id": "smide_55", "name": "ZH253875", "provider": "smide", "range": 50.0, "size": 17, "time": "03/21/2020, 00:31:13"}, "type": "Feature"}, {"geometry": {"coordinates": [8.563393, 47.367652], "type": "Point"}, "properties": {"charge": 97, "id": "smide_96", "name": "ZH256146", "provider": "smide", "range": 48.0, "size": 20, "time": "03/21/2020, 00:31:13"}, "type": "Feature"}, {"geometry": {"coordinates": [8.546735, 47.392088], "type": "Point"}, "properties": {"charge": 67, "id": "smide_58", "name": "ZH259246", "provider": "smide", "range": 33.0, "size": 20, "time": "03/21/2020, 00:31:13"}, "type": "Feature"}, {"geometry": {"coordinates": [8.536714, 47.343024], "type": "Point"}, "properties": {"charge": 100, "id": "smide_54", "name": "ZH253874", "provider": "smide", "range": 50.0, "size": 20, "time": "03/21/2020, 00:31:13"}, "type": "Feature"}, {"geometry": {"coordinates": [8.505835, 47.395975], "type": "Point"}, "properties": {"charge": 100, "id": "smide_162", "name": "ZH253760", "provider": "smide", "range": 50.0, "size": 17, "time": "03/21/2020, 00:31:13"}, "type": "Feature"}, {"geometry": {"coordinates": [8.569174, 47.373088], "type": "Point"}, "properties": {"charge": 79, "id": "smide_95", "name": "ZH253773", "provider": "smide", "range": 39.0, "size": 17, "time": "03/21/2020, 00:31:13"}, "type": "Feature"}, {"geometry": {"coordinates": [8.50999, 47.392236], "type": "Point"}, "properties": {"charge": 66, "id": "smide_112", "name": "ZH263530", "provider": "smide", "range": 33.0, "size": 20, "time": "03/21/2020, 00:31:13"}, "type": "Feature"}, {"geometry": {"coordinates": [8.498149, 47.403124], "type": "Point"}, "properties": {"charge": 29, "id": "smide_122", "name": "ZH253850", "provider": "smide", "range": 14.0, "size": 20, "time": "03/21/2020, 00:31:13"}, "type": "Feature"}, {"geometry": {"coordinates": [8.562341, 47.370265], "type": "Point"}, "properties": {"charge": 49, "id": "smide_38", "name": "ZH253851", "provider": "smide", "range": 24.0, "size": 20, "time": "03/21/2020, 00:31:13"}, "type": "Feature"}, {"geometry": {"coordinates": [8.564067, 47.366356], "type": "Point"}, "properties": {"charge": 60, "id": "smide_6", "name": "ZH253787", "provider": "smide", "range": 30.0, "size": 17, "time": "03/21/2020, 00:31:13"}, "type": "Feature"}, {"geometry": {"coordinates": [8.499713, 47.359625], "type": "Point"}, "properties": {"charge": 83, "id": "smide_18", "name": "ZH253859", "provider": "smide", "range": 41.0, "size": 17, "time": "03/21/2020, 00:31:13"}, "type": "Feature"}, {"geometry": {"coordinates": [8.520968, 47.385476], "type": "Point"}, "properties": {"charge": 81, "id": "smide_192", "name": "ZH253706", "provider": "smide", "range": 40.0, "size": 20, "time": "03/21/2020, 00:31:13"}, "type": "Feature"}, {"geometry": {"coordinates": [8.533418, 47.409133], "type": "Point"}, "properties": {"charge": 81, "id": "smide_39", "name": "ZH253714", "provider": "smide", "range": 40.0, "size": 20, "time": "03/21/2020, 00:31:13"}, "type": "Feature"}, {"geometry": {"coordinates": [8.558576, 47.414838], "type": "Point"}, "properties": {"charge": 100, "id": "smide_5", "name": "ZH261443", "provider": "smide", "range": 50.0, "size": 20, "time": "03/21/2020, 00:31:13"}, "type": "Feature"}, {"geometry": {"coordinates": [8.506455, 47.352296], "type": "Point"}, "properties": {"charge": 100, "id": "smide_85", "name": "ZH253729", "provider": "smide", "range": 50.0, "size": 17, "time": "03/21/2020, 00:31:13"}, "type": "Feature"}, {"geometry": {"coordinates": [8.557082, 47.376976], "type": "Point"}, "properties": {"charge": 46, "id": "smide_29", "name": "ZH253723", "provider": "smide", "range": 23.0, "size": 17, "time": "03/21/2020, 00:31:13"}, "type": "Feature"}, {"geometry": {"coordinates": [8.560393, 47.381956], "type": "Point"}, "properties": {"charge": 100, "id": "smide_132", "name": "ZH253857", "provider": "smide", "range": 50.0, "size": 17, "time": "03/21/2020, 00:31:13"}, "type": "Feature"}, {"geometry": {"coordinates": [8.518586, 47.365512], "type": "Point"}, "properties": {"charge": 91, "id": "smide_46", "name": "ZH253843", "provider": "smide", "range": 45.0, "size": 20, "time": "03/21/2020, 00:31:13"}, "type": "Feature"}, {"geometry": {"coordinates": [8.52162, 47.3894083333333], "type": "Point"}, "properties": {"charge": 81, "id": "bird_07e6e1e2-2446-4f65-8c4b-37dc98d6d762", "provider": "bird", "timeStamp": "03/21/2020, 00:21:50"}, "type": "Feature"}, {"geometry": {"coordinates": [8.51622666666667, 47.3742783333333], "type": "Point"}, "properties": {"charge": 62, "id": "bird_5ebe53dc-b201-4a8e-b9d6-701c01e38cdc", "provider": "bird", "timeStamp": "03/21/2020, 00:21:50"}, "type": "Feature"}, {"geometry": {"coordinates": [8.521595, 47.389325], "type": "Point"}, "properties": {"charge": 80, "id": "bird_34c8daa9-9aa3-46d4-8151-a69fa6d08b0a", "provider": "bird", "timeStamp": "03/21/2020, 00:21:50"}, "type": "Feature"}, {"geometry": {"coordinates": [8.52008166666667, 47.38858], "type": "Point"}, "properties": {"charge": 81, "id": "bird_fc314912-1a04-4a2a-8efa-de4e8607d61c", "provider": "bird", "timeStamp": "03/21/2020, 00:21:50"}, "type": "Feature"}, {"geometry": {"coordinates": [8.51994166666667, 47.3884816666667], "type": "Point"}, "properties": {"charge": 52, "id": "bird_507f1962-c41b-41b0-9316-3510d916242d", "provider": "bird", "timeStamp": "03/21/2020, 00:21:50"}, "type": "Feature"}, {"geometry": {"coordinates": [8.51995833333333, 47.3884666666667], "type": "Point"}, "properties": {"charge": 27, "id": "bird_95e11dd2-5299-4aab-8c2a-ad7d0bb27047", "provider": "bird", "timeStamp": "03/21/2020, 00:21:50"}, "type": "Feature"}, {"geometry": {"coordinates": [8.53281, 47.3906666666667], "type": "Point"}, "properties": {"charge": 39, "id": "bird_6d1a4be9-5784-48b7-a8e5-beb03b3d2579", "provider": "bird", "timeStamp": "03/21/2020, 00:21:50"}, "type": "Feature"}, {"geometry": {"coordinates": [8.516915, 47.3859783333333], "type": "Point"}, "properties": {"charge": 56, "id": "bird_ee1dbf44-beeb-4ffb-b5e2-bf4462b45b13", "provider": "bird", "timeStamp": "03/21/2020, 00:21:50"}, "type": "Feature"}, {"geometry": {"coordinates": [8.51772, 47.3865816666667], "type": "Point"}, "properties": {"charge": 83, "id": "bird_39a917fd-08f4-4f01-8e14-400e333cddeb", "provider": "bird", "timeStamp": "03/21/2020, 00:21:50"}, "type": "Feature"}, {"geometry": {"coordinates": [8.52183833333333, 47.3890266666667], "type": "Point"}, "properties": {"charge": 57, "id": "bird_70b02c2c-515d-4698-a98b-1b78f1c9ed42", "provider": "bird", "timeStamp": "03/21/2020, 00:21:50"}, "type": "Feature"}, {"geometry": {"coordinates": [8.517345, 47.386155], "type": "Point"}, "properties": {"charge": 27, "id": "bird_516d199c-717d-4bc4-bd18-0a47e5565f18", "provider": "bird", "timeStamp": "03/21/2020, 00:21:50"}, "type": "Feature"}, {"geometry": {"coordinates": [8.51498166666667, 47.3825683333333], "type": "Point"}, "properties": {"charge": 37, "id": "bird_e2a23ac3-58e1-4780-afb1-c46b5af51ccd", "provider": "bird", "timeStamp": "03/21/2020, 00:21:50"}, "type": "Feature"}, {"geometry": {"coordinates": [8.51473333333333, 47.3783566666667], "type": "Point"}, "properties": {"charge": 13, "id": "bird_dc308b14-ebfd-4ccf-8f9b-22674093b1df", "provider": "bird", "timeStamp": "03/21/2020, 00:21:50"}, "type": "Feature"}, {"geometry": {"coordinates": [8.51523666666667, 47.3769033333333], "type": "Point"}, "properties": {"charge": 37, "id": "bird_6a0d1596-315f-4bec-b501-2e28785de9cd", "provider": "bird", "timeStamp": "03/21/2020, 00:21:50"}, "type": "Feature"}, {"geometry": {"coordinates": [8.51768666666667, 47.3862883333333], "type": "Point"}, "properties": {"charge": 88, "id": "bird_b841df7f-f112-442c-a15d-ddf11e36e8c2", "provider": "bird", "timeStamp": "03/21/2020, 00:21:50"}, "type": "Feature"}, {"geometry": {"coordinates": [8.51504, 47.37754], "type": "Point"}, "properties": {"charge": 43, "id": "bird_9a96e499-4373-45d6-b51e-7282006cae46", "provider": "bird", "timeStamp": "03/21/2020, 00:21:50"}, "type": "Feature"}, {"geometry": {"coordinates": [8.515455, 47.3766066666667], "type": "Point"}, "properties": {"charge": 52, "id": "bird_892e9ca8-a642-4eee-a96c-d8a30df0d76f", "provider": "bird", "timeStamp": "03/21/2020, 00:21:50"}, "type": "Feature"}, {"geometry": {"coordinates": [8.52052333333333, 47.3882033333333], "type": "Point"}, "properties": {"charge": 73, "id": "bird_749f96a9-0026-43f6-bda3-131eb62e0996", "provider": "bird", "timeStamp": "03/21/2020, 00:21:50"}, "type": "Feature"}, {"geometry": {"coordinates": [8.52023833333333, 47.3880316666667], "type": "Point"}, "properties": {"charge": 85, "id": "bird_165a92f0-9ff4-472a-b7fc-8b9cf41793f4", "provider": "bird", "timeStamp": "03/21/2020, 00:21:50"}, "type": "Feature"}, {"geometry": {"coordinates": [8.51943166666667, 47.3875266666667], "type": "Point"}, "properties": {"charge": 51, "id": "bird_f08f4ff8-ad2d-45ae-91e9-f6bc259cbad5", "provider": "bird", "timeStamp": "03/21/2020, 00:21:50"}, "type": "Feature"}, {"geometry": {"coordinates": [8.54385333333333, 47.3755716666667], "type": "Point"}, "properties": {"charge": 24, "id": "bird_b41557c4-3e20-4129-9093-19e43628096d", "provider": "bird", "timeStamp": "03/21/2020, 00:21:50"}, "type": "Feature"}, {"geometry": {"coordinates": [8.54196833333333, 47.3735733333333], "type": "Point"}, "properties": {"charge": 40, "id": "bird_6727389d-d02b-433d-85f4-b4db2fcdfe85", "provider": "bird", "timeStamp": "03/21/2020, 00:21:50"}, "type": "Feature"}, {"geometry": {"coordinates": [8.51802333333333, 47.3864066666667], "type": "Point"}, "properties": {"charge": 91, "id": "bird_9c72f976-0afc-46ec-81aa-250e3e041eeb", "provider": "bird", "timeStamp": "03/21/2020, 00:21:50"}, "type": "Feature"}, {"geometry": {"coordinates": [8.52238833333333, 47.3889533333333], "type": "Point"}, "properties": {"charge": 64, "id": "bird_4f049915-7837-4880-965f-bc29d70bc270", "provider": "bird", "timeStamp": "03/21/2020, 00:21:50"}, "type": "Feature"}, {"geometry": {"coordinates": [8.51485666666667, 47.37878], "type": "Point"}, "properties": {"charge": 46, "id": "bird_6baddbf9-ecd1-465c-b741-c44479fe7031", "provider": "bird", "timeStamp": "03/21/2020, 00:21:50"}, "type": "Feature"}, {"geometry": {"coordinates": [8.51723333333333, 47.3855933333333], "type": "Point"}, "properties": {"charge": 34, "id": "bird_e0f4f86f-ed2d-462d-a3e5-30eb017c81e0", "provider": "bird", "timeStamp": "03/21/2020, 00:21:50"}, "type": "Feature"}, {"geometry": {"coordinates": [8.51515666666667, 47.3821566666667], "type": "Point"}, "properties": {"charge": 55, "id": "bird_da2d0af6-9a37-4b3e-9bba-d1c400ec1508", "provider": "bird", "timeStamp": "03/21/2020, 00:21:50"}, "type": "Feature"}, {"geometry": {"coordinates": [8.51739, 47.3856616666667], "type": "Point"}, "properties": {"charge": 83, "id": "bird_3c23e93d-10bd-4542-bb41-d256c8f9aa3d", "provider": "bird", "timeStamp": "03/21/2020, 00:21:50"}, "type": "Feature"}, {"geometry": {"coordinates": [8.52167666666667, 47.3885533333333], "type": "Point"}, "properties": {"charge": 82, "id": "bird_34225a2d-07a7-403a-b23b-36de576fadee", "provider": "bird", "timeStamp": "03/21/2020, 00:21:50"}, "type": "Feature"}, {"geometry": {"coordinates": [8.51525, 47.3821983333333], "type": "Point"}, "properties": {"charge": 37, "id": "bird_7c8aa28e-5468-4dd9-ab32-a8add64ed13a", "provider": "bird", "timeStamp": "03/21/2020, 00:21:50"}, "type": "Feature"}, {"geometry": {"coordinates": [8.51526333333333, 47.3821983333333], "type": "Point"}, "properties": {"charge": 39, "id": "bird_23c3ce52-ce58-4ad1-a36c-ef10a152d68b", "provider": "bird", "timeStamp": "03/21/2020, 00:21:50"}, "type": "Feature"}, {"geometry": {"coordinates": [8.51813166666667, 47.3862883333333], "type": "Point"}, "properties": {"charge": 90, "id": "bird_30f3066a-87de-476a-bd3e-03e8323310cf", "provider": "bird", "timeStamp": "03/21/2020, 00:21:50"}, "type": "Feature"}, {"geometry": {"coordinates": [8.515305, 47.3821716666667], "type": "Point"}, "properties": {"charge": 71, "id": "bird_61c59cf1-3845-4d05-8f49-6e78c304a6d4", "provider": "bird", "timeStamp": "03/21/2020, 00:21:50"}, "type": "Feature"}, {"geometry": {"coordinates": [8.51533333333333, 47.3821683333333], "type": "Point"}, "properties": {"charge": 25, "id": "bird_609a3a7d-0fd5-46a5-88e5-02d2fc25160d", "provider": "bird", "timeStamp": "03/21/2020, 00:21:50"}, "type": "Feature"}, {"geometry": {"coordinates": [8.54335666666667, 47.3753616666667], "type": "Point"}, "properties": {"charge": 75, "id": "bird_32d1c086-86f5-4b44-9738-3bca9b1c8ad1", "provider": "bird", "timeStamp": "03/21/2020, 00:21:50"}, "type": "Feature"}, {"geometry": {"coordinates": [8.51533666666667, 47.38216], "type": "Point"}, "properties": {"charge": 71, "id": "bird_c80b879e-e65e-40fa-977d-340b0ebdd8d3", "provider": "bird", "timeStamp": "03/21/2020, 00:21:50"}, "type": "Feature"}, {"geometry": {"coordinates": [8.54411333333333, 47.3765866666667], "type": "Point"}, "properties": {"charge": 24, "id": "bird_77fff3a6-4a67-4f41-bbf5-9a629bc4df0e", "provider": "bird", "timeStamp": "03/21/2020, 00:21:50"}, "type": "Feature"}, {"geometry": {"coordinates": [8.51792, 47.3859933333333], "type": "Point"}, "properties": {"charge": 81, "id": "bird_223c37b8-5105-4d64-bd11-5693ad712045", "provider": "bird", "timeStamp": "03/21/2020, 00:21:50"}, "type": "Feature"}, {"geometry": {"coordinates": [8.53495333333333, 47.3704566666667], "type": "Point"}, "properties": {"charge": 89, "id": "bird_81e0641e-b48f-45fb-8131-0c7a8edb4d12", "provider": "bird", "timeStamp": "03/21/2020, 00:21:50"}, "type": "Feature"}, {"geometry": {"coordinates": [8.51825666666667, 47.386135], "type": "Point"}, "properties": {"charge": 89, "id": "bird_facde6ea-b241-467c-92c4-c8f90387c17e", "provider": "bird", "timeStamp": "03/21/2020, 00:21:50"}, "type": "Feature"}, {"geometry": {"coordinates": [8.54393166666667, 47.376595], "type": "Point"}, "properties": {"charge": 75, "id": "bird_cab5d6a0-53e3-441f-a2c1-8ad987b0efae", "provider": "bird", "timeStamp": "03/21/2020, 00:21:50"}, "type": "Feature"}, {"geometry": {"coordinates": [8.51723833333333, 47.3850783333333], "type": "Point"}, "properties": {"charge": 49, "id": "bird_dfd00fd2-df34-420a-a941-d89271ab9f22", "provider": "bird", "timeStamp": "03/21/2020, 00:21:50"}, "type": "Feature"}, {"geometry": {"coordinates": [8.52420333333333, 47.3707883333333], "type": "Point"}, "properties": {"charge": 51, "id": "bird_07a98aab-6a93-4f38-a9e2-da3d1244461a", "provider": "bird", "timeStamp": "03/21/2020, 00:21:50"}, "type": "Feature"}, {"geometry": {"coordinates": [8.51850333333333, 47.3862916666667], "type": "Point"}, "properties": {"charge": 82, "id": "bird_c73578d3-a295-41dd-8fe0-38c408e53768", "provider": "bird", "timeStamp": "03/21/2020, 00:21:50"}, "type": "Feature"}, {"geometry": {"coordinates": [8.51771833333333, 47.3855633333333], "type": "Point"}, "properties": {"charge": 93, "id": "bird_ebf02e2e-6c0b-484a-ba15-6c0492c00002", "provider": "bird", "timeStamp": "03/21/2020, 00:21:50"}, "type": "Feature"}, {"geometry": {"coordinates": [8.53514, 47.3706366666667], "type": "Point"}, "properties": {"charge": 76, "id": "bird_ec794be3-4891-496d-b151-9275578e213c", "provider": "bird", "timeStamp": "03/21/2020, 00:21:50"}, "type": "Feature"}, {"geometry": {"coordinates": [8.51675833333333, 47.37569], "type": "Point"}, "properties": {"charge": 81, "id": "bird_242feca0-001d-4697-9638-5b0f4300d2ec", "provider": "bird", "timeStamp": "03/21/2020, 00:21:50"}, "type": "Feature"}, {"geometry": {"coordinates": [8.51844, 47.3861316666667], "type": "Point"}, "properties": {"charge": 84, "id": "bird_01d71bbc-b678-4787-9357-5eb228a3357c", "provider": "bird", "timeStamp": "03/21/2020, 00:21:50"}, "type": "Feature"}, {"geometry": {"coordinates": [8.5178, 47.3855016666667], "type": "Point"}, "properties": {"charge": 93, "id": "bird_0621a985-d1c7-45bd-a279-d0f33db4fcd3", "provider": "bird", "timeStamp": "03/21/2020, 00:21:50"}, "type": "Feature"}, {"geometry": {"coordinates": [8.51852333333333, 47.3861583333333], "type": "Point"}, "properties": {"charge": 88, "id": "bird_abb369d2-71f8-406a-a15f-0849e1048782", "provider": "bird", "timeStamp": "03/21/2020, 00:21:50"}, "type": "Feature"}, {"geometry": {"coordinates": [8.543635, 47.3763916666667], "type": "Point"}, "properties": {"charge": 75, "id": "bird_1ef07dae-8c61-406a-b75f-254b547bec67", "provider": "bird", "timeStamp": "03/21/2020, 00:21:50"}, "type": "Feature"}, {"geometry": {"coordinates": [8.51829666666667, 47.3859483333333], "type": "Point"}, "properties": {"charge": 84, "id": "bird_708a42c6-5052-4e8c-9b9f-e5cf291f7e98", "provider": "bird", "timeStamp": "03/21/2020, 00:21:50"}, "type": "Feature"}, {"geometry": {"coordinates": [8.515475, 47.3791466666667], "type": "Point"}, "properties": {"charge": 34, "id": "bird_2224a3ef-96c5-4c70-8ba8-53ae2c2beaba", "provider": "bird", "timeStamp": "03/21/2020, 00:21:50"}, "type": "Feature"}, {"geometry": {"coordinates": [8.51653166666667, 47.3764083333333], "type": "Point"}, "properties": {"charge": 53, "id": "bird_7407749e-7004-40b9-b8c2-8fa4372b5378", "provider": "bird", "timeStamp": "03/21/2020, 00:21:50"}, "type": "Feature"}, {"geometry": {"coordinates": [8.543875, 47.3772466666667], "type": "Point"}, "properties": {"charge": 60, "id": "bird_9fc605cb-ec1f-42db-ac02-85f91a972619", "provider": "bird", "timeStamp": "03/21/2020, 00:21:50"}, "type": "Feature"}, {"geometry": {"coordinates": [8.51562, 47.37957], "type": "Point"}, "properties": {"charge": 13, "id": "bird_4eac97f6-31fc-4e85-976f-1d244ef199ae", "provider": "bird", "timeStamp": "03/21/2020, 00:21:50"}, "type": "Feature"}, {"geometry": {"coordinates": [8.517505, 47.37542], "type": "Point"}, "properties": {"charge": 34, "id": "bird_ecce5f57-75ac-403c-a7e7-7271e5d05dce", "provider": "bird", "timeStamp": "03/21/2020, 00:21:50"}, "type": "Feature"}, {"geometry": {"coordinates": [8.51583333333333, 47.37983], "type": "Point"}, "properties": {"charge": 36, "id": "bird_bddfa0a0-baec-4d60-b8b7-3848b7481f17", "provider": "bird", "timeStamp": "03/21/2020, 00:21:50"}, "type": "Feature"}, {"geometry": {"coordinates": [8.51584166666667, 47.3797766666667], "type": "Point"}, "properties": {"charge": 52, "id": "bird_1b200f69-027b-4274-86cc-7cab1f15eb24", "provider": "bird", "timeStamp": "03/21/2020, 00:21:50"}, "type": "Feature"}, {"geometry": {"coordinates": [8.51592, 47.37949], "type": "Point"}, "properties": {"charge": 70, "id": "bird_96cc96ec-5d28-4b4c-9c52-27920447385a", "provider": "bird", "timeStamp": "03/21/2020, 00:21:50"}, "type": "Feature"}, {"geometry": {"coordinates": [8.520375, 47.37307], "type": "Point"}, "properties": {"charge": 33, "id": "bird_e45c5dee-51fa-41cd-9a15-943fc3b01f15", "provider": "bird", "timeStamp": "03/21/2020, 00:21:50"}, "type": "Feature"}, {"geometry": {"coordinates": [8.519875, 47.373455], "type": "Point"}, "properties": {"charge": 31, "id": "bird_46b8ce96-2b2a-4870-a892-082d89a18a39", "provider": "bird", "timeStamp": "03/21/2020, 00:21:50"}, "type": "Feature"}, {"geometry": {"coordinates": [8.51611, 47.3810466666667], "type": "Point"}, "properties": {"charge": 53, "id": "bird_e1578667-7e70-4cc0-a00e-0741d9f33358", "provider": "bird", "timeStamp": "03/21/2020, 00:21:50"}, "type": "Feature"}, {"geometry": {"coordinates": [8.54320333333333, 47.377095], "type": "Point"}, "properties": {"charge": 60, "id": "bird_5fefb705-b127-4a8c-8dd5-5b1c6e2cdfd3", "provider": "bird", "timeStamp": "03/21/2020, 00:21:50"}, "type": "Feature"}, {"geometry": {"coordinates": [8.52384, 47.3716166666667], "type": "Point"}, "properties": {"charge": 34, "id": "bird_f96094d8-092c-4f6e-8ac5-db558a0e384d", "provider": "bird", "timeStamp": "03/21/2020, 00:21:50"}, "type": "Feature"}, {"geometry": {"coordinates": [8.516215, 47.3796883333333], "type": "Point"}, "properties": {"charge": 57, "id": "bird_42c63b6c-6e97-4fe1-a364-0c8c3dfe9ede", "provider": "bird", "timeStamp": "03/21/2020, 00:21:50"}, "type": "Feature"}, {"geometry": {"coordinates": [8.53774833333333, 47.3722833333333], "type": "Point"}, "properties": {"charge": 71, "id": "bird_3d0ff65e-c0bc-4ee0-963d-f0c68b41642f", "provider": "bird", "timeStamp": "03/21/2020, 00:21:50"}, "type": "Feature"}, {"geometry": {"coordinates": [8.53771333333333, 47.3722833333333], "type": "Point"}, "properties": {"charge": 61, "id": "bird_37631798-5808-4f86-b5be-910f1a2d7fa3", "provider": "bird", "timeStamp": "03/21/2020, 00:21:50"}, "type": "Feature"}, {"geometry": {"coordinates": [8.53770833333333, 47.3723], "type": "Point"}, "properties": {"charge": 54, "id": "bird_0e8e53a7-f2b3-4293-b344-16257cb154d2", "provider": "bird", "timeStamp": "03/21/2020, 00:21:50"}, "type": "Feature"}, {"geometry": {"coordinates": [8.53713, 47.372055], "type": "Point"}, "properties": {"charge": 81, "id": "bird_66342629-ceb7-40b1-a157-8f1d18111926", "provider": "bird", "timeStamp": "03/21/2020, 00:21:50"}, "type": "Feature"}, {"geometry": {"coordinates": [8.52034166666667, 47.38657], "type": "Point"}, "properties": {"charge": 82, "id": "bird_1c3c6ddc-46f5-4c2b-a698-0a9c08420065", "provider": "bird", "timeStamp": "03/21/2020, 00:21:50"}, "type": "Feature"}, {"geometry": {"coordinates": [8.52008, 47.3863533333333], "type": "Point"}, "properties": {"charge": 53, "id": "bird_679151ea-102b-47b8-9a98-59f3c7d862c3", "provider": "bird", "timeStamp": "03/21/2020, 00:21:50"}, "type": "Feature"}, {"geometry": {"coordinates": [8.53761, 47.37233], "type": "Point"}, "properties": {"charge": 75, "id": "bird_c02543e3-e3a9-4a5d-808f-145bca775122", "provider": "bird", "timeStamp": "03/21/2020, 00:21:50"}, "type": "Feature"}, {"geometry": {"coordinates": [8.51722, 47.37685], "type": "Point"}, "properties": {"charge": 46, "id": "bird_f2a519f9-e255-49c7-92f4-c9f0dadad142", "provider": "bird", "timeStamp": "03/21/2020, 00:21:50"}, "type": "Feature"}, {"geometry": {"coordinates": [8.51957166666667, 47.3858683333333], "type": "Point"}, "properties": {"charge": 61, "id": "bird_9aed1c5e-3a97-4d1c-b211-15e40a6f899d", "provider": "bird", "timeStamp": "03/21/2020, 00:21:50"}, "type": "Feature"}, {"geometry": {"coordinates": [8.52019666666667, 47.386295], "type": "Point"}, "properties": {"charge": 81, "id": "bird_45f18b2b-061f-4e09-9d65-9c003a8a114f", "provider": "bird", "timeStamp": "03/21/2020, 00:21:50"}, "type": "Feature"}, {"geometry": {"coordinates": [8.53448333333333, 47.3885766666667], "type": "Point"}, "properties": {"charge": 66, "id": "bird_40c6c313-1527-493f-9fab-11b7c546a86d", "provider": "bird", "timeStamp": "03/21/2020, 00:21:50"}, "type": "Feature"}, {"geometry": {"coordinates": [8.51682, 47.3790633333333], "type": "Point"}, "properties": {"charge": 22, "id": "bird_75d51900-0f77-4f3b-a676-2b0e16d318a9", "provider": "bird", "timeStamp": "03/21/2020, 00:21:50"}, "type": "Feature"}, {"geometry": {"coordinates": [8.530325, 47.3889266666667], "type": "Point"}, "properties": {"charge": 52, "id": "bird_1d5fa85f-c62f-4af9-bcf0-8e592dedee8a", "provider": "bird", "timeStamp": "03/21/2020, 00:21:50"}, "type": "Feature"}, {"geometry": {"coordinates": [8.542705, 47.3779533333333], "type": "Point"}, "properties": {"charge": 52, "id": "bird_5f17c032-b98d-44d1-a471-5b432549134a", "provider": "bird", "timeStamp": "03/21/2020, 00:21:50"}, "type": "Feature"}, {"geometry": {"coordinates": [8.51725, 47.3813966666667], "type": "Point"}, "properties": {"charge": 27, "id": "bird_5fcc14fc-a5ca-424d-8830-1f91a3df46cc", "provider": "bird", "timeStamp": "03/21/2020, 00:21:50"}, "type": "Feature"}, {"geometry": {"coordinates": [8.52283833333333, 47.37276], "type": "Point"}, "properties": {"charge": 44, "id": "bird_167fce33-d030-4289-84a8-6744cea06857", "provider": "bird", "timeStamp": "03/21/2020, 00:21:50"}, "type": "Feature"}, {"geometry": {"coordinates": [8.53016666666667, 47.3713233333333], "type": "Point"}, "properties": {"charge": 34, "id": "bird_2d5bf3c2-cfc0-4592-9c8a-44a29f011125", "provider": "bird", "timeStamp": "03/21/2020, 00:21:50"}, "type": "Feature"}, {"geometry": {"coordinates": [8.54132, 47.376015], "type": "Point"}, "properties": {"charge": 51, "id": "bird_d1cf3b8c-e66e-4894-8b76-203ad58293f0", "provider": "bird", "timeStamp": "03/21/2020, 00:21:50"}, "type": "Feature"}, {"geometry": {"coordinates": [8.54171666666667, 47.3766666666667], "type": "Point"}, "properties": {"charge": 71, "id": "bird_5575ad45-e7bb-46b5-b184-8fb13223687d", "provider": "bird", "timeStamp": "03/21/2020, 00:21:50"}, "type": "Feature"}, {"geometry": {"coordinates": [8.537685, 47.373165], "type": "Point"}, "properties": {"charge": 74, "id": "bird_c698f590-b595-488e-8509-848a7a073729", "provider": "bird", "timeStamp": "03/21/2020, 00:21:50"}, "type": "Feature"}, {"geometry": {"coordinates": [8.54168166666667, 47.3766783333333], "type": "Point"}, "properties": {"charge": 52, "id": "bird_0c4583d1-3a9a-4aa4-b250-be2a756890f8", "provider": "bird", "timeStamp": "03/21/2020, 00:21:50"}, "type": "Feature"}, {"geometry": {"coordinates": [8.52754, 47.3716733333333], "type": "Point"}, "properties": {"charge": 67, "id": "bird_6627b3e1-04d4-4287-9ff5-689cee9f415e", "provider": "bird", "timeStamp": "03/21/2020, 00:21:50"}, "type": "Feature"}, {"geometry": {"coordinates": [8.527745, 47.371655], "type": "Point"}, "properties": {"charge": 40, "id": "bird_cfa48c24-104b-4f46-a6af-cfdef3a4a73a", "provider": "bird", "timeStamp": "03/21/2020, 00:21:50"}, "type": "Feature"}, {"geometry": {"coordinates": [8.51753166666667, 47.3807633333333], "type": "Point"}, "properties": {"charge": 30, "id": "bird_bbefa06f-1c6a-4222-a024-37c1d6235dc3", "provider": "bird", "timeStamp": "03/21/2020, 00:21:50"}, "type": "Feature"}, {"geometry": {"coordinates": [8.53684, 47.3729933333333], "type": "Point"}, "properties": {"charge": 75, "id": "bird_ce159bf5-f1d1-4717-aec0-be8c2050e24b", "provider": "bird", "timeStamp": "03/21/2020, 00:21:50"}, "type": "Feature"}, {"geometry": {"coordinates": [8.53932333333333, 47.374485], "type": "Point"}, "properties": {"charge": 42, "id": "bird_1fde72fc-f9df-40b3-b933-2a693e3688b0", "provider": "bird", "timeStamp": "03/21/2020, 00:21:50"}, "type": "Feature"}, {"geometry": {"coordinates": [8.52917833333333, 47.3716433333333], "type": "Point"}, "properties": {"charge": 33, "id": "bird_381eeb4d-e710-4e14-9bd4-84511772d2d7", "provider": "bird", "timeStamp": "03/21/2020, 00:21:50"}, "type": "Feature"}, {"geometry": {"coordinates": [8.53685333333333, 47.3730283333333], "type": "Point"}, "properties": {"charge": 75, "id": "bird_e415045f-c019-49ff-b21c-f3955e4eb956", "provider": "bird", "timeStamp": "03/21/2020, 00:21:50"}, "type": "Feature"}, {"geometry": {"coordinates": [8.52146, 47.3739616666667], "type": "Point"}, "properties": {"charge": 60, "id": "bird_0b36d440-bdc1-4487-a98e-dbb99cbcc876", "provider": "bird", "timeStamp": "03/21/2020, 00:21:50"}, "type": "Feature"}, {"geometry": {"coordinates": [8.53455333333333, 47.3877533333333], "type": "Point"}, "properties": {"charge": 62, "id": "bird_6cdfbb5c-2b64-49a2-9fd0-1cf4c84fa270", "provider": "bird", "timeStamp": "03/21/2020, 00:21:50"}, "type": "Feature"}, {"geometry": {"coordinates": [8.52673333333333, 47.3719566666667], "type": "Point"}, "properties": {"charge": 26, "id": "bird_7fff8d43-1b3a-4bf3-89d1-d654beae22c4", "provider": "bird", "timeStamp": "03/21/2020, 00:21:50"}, "type": "Feature"}, {"geometry": {"coordinates": [8.54143666666667, 47.3831016666667], "type": "Point"}, "properties": {"charge": 34, "id": "bird_4785d279-d60b-4c02-a291-4dadf1265526", "provider": "bird", "timeStamp": "03/21/2020, 00:21:50"}, "type": "Feature"}, {"geometry": {"coordinates": [8.54160166666667, 47.3772133333333], "type": "Point"}, "properties": {"charge": 25, "id": "bird_9c567794-abe5-40f5-b5e1-c2f85cf22b02", "provider": "bird", "timeStamp": "03/21/2020, 00:21:50"}, "type": "Feature"}, {"geometry": {"coordinates": [8.53685, 47.373085], "type": "Point"}, "properties": {"charge": 66, "id": "bird_12af1865-b298-4a25-a06a-3e6cabfe7dd4", "provider": "bird", "timeStamp": "03/21/2020, 00:21:50"}, "type": "Feature"}, {"geometry": {"coordinates": [8.53674333333333, 47.373055], "type": "Point"}, "properties": {"charge": 82, "id": "bird_8b7f5d56-6cae-402e-a7d3-8fc6614723b1", "provider": "bird", "timeStamp": "03/21/2020, 00:21:50"}, "type": "Feature"}, {"geometry": {"coordinates": [8.53451, 47.38773], "type": "Point"}, "properties": {"charge": 75, "id": "bird_fa2866eb-848f-4f05-8185-69deaaddde62", "provider": "bird", "timeStamp": "03/21/2020, 00:21:50"}, "type": "Feature"}, {"geometry": {"coordinates": [8.53464333333333, 47.3724783333333], "type": "Point"}, "properties": {"charge": 78, "id": "bird_8850329a-42f4-4e48-84ec-cb9b26ea61ab", "provider": "bird", "timeStamp": "03/21/2020, 00:21:50"}, "type": "Feature"}, {"geometry": {"coordinates": [8.540625, 47.3764766666667], "type": "Point"}, "properties": {"charge": 82, "id": "bird_34439b63-d925-42a0-b13f-77a2b106b86d", "provider": "bird", "timeStamp": "03/21/2020, 00:21:50"}, "type": "Feature"}, {"geometry": {"coordinates": [8.540645, 47.3765566666667], "type": "Point"}, "properties": {"charge": 80, "id": "bird_39267306-5547-42a5-84ec-c7f60bebbd0e", "provider": "bird", "timeStamp": "03/21/2020, 00:21:50"}, "type": "Feature"}, {"geometry": {"coordinates": [8.534515, 47.37267], "type": "Point"}, "properties": {"charge": 80, "id": "bird_f22f4a82-669e-4a06-b096-776ea4923904", "provider": "bird", "timeStamp": "03/21/2020, 00:21:50"}, "type": "Feature"}, {"geometry": {"coordinates": [8.53449833333333, 47.37268], "type": "Point"}, "properties": {"charge": 80, "id": "bird_fbac9a12-843f-45cb-96d6-7a65f3f740f8", "provider": "bird", "timeStamp": "03/21/2020, 00:21:50"}, "type": "Feature"}, {"geometry": {"coordinates": [8.53462333333333, 47.3727266666667], "type": "Point"}, "properties": {"charge": 80, "id": "bird_5b6c4e89-d09c-43f0-ab4e-5bfc174fce6f", "provider": "bird", "timeStamp": "03/21/2020, 00:21:50"}, "type": "Feature"}, {"geometry": {"coordinates": [8.53468, 47.3727566666667], "type": "Point"}, "properties": {"charge": 33, "id": "bird_9915db71-5eae-4b9c-b30b-b75a97a669a2", "provider": "bird", "timeStamp": "03/21/2020, 00:21:50"}, "type": "Feature"}, {"geometry": {"coordinates": [8.53451333333333, 47.3727266666667], "type": "Point"}, "properties": {"charge": 38, "id": "bird_5801a13f-f629-4c26-92ec-962c7d4363ac", "provider": "bird", "timeStamp": "03/21/2020, 00:21:50"}, "type": "Feature"}, {"geometry": {"coordinates": [8.537905, 47.3742783333333], "type": "Point"}, "properties": {"charge": 65, "id": "bird_aa4e2f40-16f6-4e92-b2ab-cda2bef752ff", "provider": "bird", "timeStamp": "03/21/2020, 00:21:50"}, "type": "Feature"}, {"geometry": {"coordinates": [8.53446333333333, 47.3727766666667], "type": "Point"}, "properties": {"charge": 80, "id": "bird_41035601-4bdb-4ae3-8a58-22d9aba57a60", "provider": "bird", "timeStamp": "03/21/2020, 00:21:50"}, "type": "Feature"},