{"features": [{"geometry": {"coordinates": [8.540062, 47.374392], "type": "Point"}, "properties": {"address": "Uraniastrasse 7", "electric": 8, "id": "pb_60", "manual": 8, "name": "Demo Station Werdm\u00fchleplatz", "provider": "publibike", "timeStamp": "01/27/2020, 16:39:09", "zip": 8001}, "type": "Feature"}, {"geometry": {"coordinates": [8.5452956, 47.4099615], "type": "Point"}, "properties": {"address": "Querstrasse 8", "electric": 0, "id": "pb_61", "manual": 2, "name": "Marktplatz", "provider": "publibike", "timeStamp": "01/27/2020, 16:39:09", "zip": 8050}, "type": "Feature"}, {"geometry": {"coordinates": [8.5156327, 47.3795837], "type": "Point"}, "properties": {"address": "Bullingerstrasse 5", "electric": 2, "id": "pb_80", "manual": 10, "name": "Bullingerplatz", "provider": "publibike", "timeStamp": "01/27/2020, 16:39:09", "zip": 8004}, "type": "Feature"}, {"geometry": {"coordinates": [8.5104051, 47.3899342], "type": "Point"}, "properties": {"address": "Pfingstweidstrasse 96e", "electric": 4, "id": "pb_81", "manual": 5, "name": "Herdern", "provider": "publibike", "timeStamp": "01/27/2020, 16:39:09", "zip": 8001}, "type": "Feature"}, {"geometry": {"coordinates": [8.535718, 47.359675], "type": "Point"}, "properties": {"address": "Mythenquai 50", "electric": 8, "id": "pb_82", "manual": 4, "name": "Hafen Enge", "provider": "publibike", "timeStamp": "01/27/2020, 16:39:09", "zip": 8002}, "type": "Feature"}, {"geometry": {"coordinates": [8.520370505, 47.358663827], "type": "Point"}, "properties": {"address": "Bubenbergstrasse 1", "electric": 1, "id": "pb_83", "manual": 0, "name": "Comerge", "provider": "publibike", "timeStamp": "01/27/2020, 16:39:09", "zip": 8045}, "type": "Feature"}, {"geometry": {"coordinates": [8.5412505, 47.3789825], "type": "Point"}, "properties": {"address": "Museumstrasse 2", "electric": 10, "id": "pb_84", "manual": 31, "name": "Landesmuseum", "provider": "publibike", "timeStamp": "01/27/2020, 16:39:09", "zip": 8001}, "type": "Feature"}, {"geometry": {"coordinates": [8.5235479, 47.3716661], "type": "Point"}, "properties": {"address": "Birmensdorferstrasse 80", "electric": 1, "id": "pb_85", "manual": 2, "name": "Bahnhof Wiedikon", "provider": "publibike", "timeStamp": "01/27/2020, 16:39:09", "zip": 8003}, "type": "Feature"}, {"geometry": {"coordinates": [8.506822854, 47.40781197], "type": "Point"}, "properties": {"address": "Stefano-Franscini-Platz 5", "electric": 1, "id": "pb_86", "manual": 0, "name": "ETH H\u00f6nggerberg", "provider": "publibike", "timeStamp": "01/27/2020, 16:39:09", "zip": 8093}, "type": "Feature"}, {"geometry": {"coordinates": [8.536101, 47.371083], "type": "Point"}, "properties": {"address": "Pelikanplatz 5", "electric": 3, "id": "pb_87", "manual": 1, "name": "Pelikanplatz", "provider": "publibike", "timeStamp": "01/27/2020, 16:39:09", "zip": 8001}, "type": "Feature"}, {"geometry": {"coordinates": [8.5257822, 47.3651936], "type": "Point"}, "properties": {"address": "H\u00fcrlimannplatz 90", "electric": 30, "id": "pb_88", "manual": 12, "name": "H\u00fcrlimannplatz", "provider": "publibike", "timeStamp": "01/27/2020, 16:39:09", "zip": 8002}, "type": "Feature"}, {"geometry": {"coordinates": [8.5313344, 47.3713591], "type": "Point"}, "properties": {"address": "Selnaustrasse 32", "electric": 5, "id": "pb_89", "manual": 4, "name": "Stauffacherbr\u00fccke", "provider": "publibike", "timeStamp": "01/27/2020, 16:39:09", "zip": 8001}, "type": "Feature"}, {"geometry": {"coordinates": [8.5056978, 47.3917964], "type": "Point"}, "properties": {"address": "Sportweg 25", "electric": 9, "id": "pb_90", "manual": 6, "name": "Sportweg", "provider": "publibike", "timeStamp": "01/27/2020, 16:39:09", "zip": 8005}, "type": "Feature"}, {"geometry": {"coordinates": [8.5181701, 47.3917837], "type": "Point"}, "properties": {"address": "Hardturmstrasse 11", "electric": 0, "id": "pb_91", "manual": 7, "name": "Puls 5", "provider": "publibike", "timeStamp": "01/27/2020, 16:39:09", "zip": 8005}, "type": "Feature"}, {"geometry": {"coordinates": [8.5286468, 47.3820827], "type": "Point"}, "properties": {"address": "R\u00f6ntgenstrasse 6", "electric": 3, "id": "pb_92", "manual": 2, "name": "R\u00f6ntgenstrasse", "provider": "publibike", "timeStamp": "01/27/2020, 16:39:09", "zip": 8005}, "type": "Feature"}, {"geometry": {"coordinates": [8.531935, 47.384918], "type": "Point"}, "properties": {"address": "Kornhausbr\u00fccke 1", "electric": 3, "id": "pb_93", "manual": 3, "name": "Limmatplatz", "provider": "publibike", "timeStamp": "01/27/2020, 16:39:09", "zip": 8005}, "type": "Feature"}, {"geometry": {"coordinates": [8.5354006, 47.3758639], "type": "Point"}, "properties": {"address": "Gessnerallee 15", "electric": 6, "id": "pb_94", "manual": 7, "name": "Gessnerallee", "provider": "publibike", "timeStamp": "01/27/2020, 16:39:09", "zip": 8001}, "type": "Feature"}, {"geometry": {"coordinates": [8.523818, 47.377148], "type": "Point"}, "properties": {"address": "Stauffacherstrasse 127", "electric": 6, "id": "pb_95", "manual": 1, "name": "B\u00e4ckeranlage", "provider": "publibike", "timeStamp": "01/27/2020, 16:39:09", "zip": 8004}, "type": "Feature"}, {"geometry": {"coordinates": [8.531836, 47.378548], "type": "Point"}, "properties": {"address": "Lagerstrasse 44", "electric": 14, "id": "pb_96", "manual": 18, "name": "Gustav-Gull-Platz", "provider": "publibike", "timeStamp": "01/27/2020, 16:39:09", "zip": 8004}, "type": "Feature"}, {"geometry": {"coordinates": [8.5104883, 47.3771535], "type": "Point"}, "properties": {"address": "Zurlindenstrasse 291", "electric": 5, "id": "pb_97", "manual": 2, "name": "Zurlindenstrasse", "provider": "publibike", "timeStamp": "01/27/2020, 16:39:09", "zip": 8003}, "type": "Feature"}, {"geometry": {"coordinates": [8.5333139, 47.3731102], "type": "Point"}, "properties": {"address": "Sihlstrasse 81", "electric": 1, "id": "pb_98", "manual": 0, "name": "Sihlstrasse", "provider": "publibike", "timeStamp": "01/27/2020, 16:39:09", "zip": 8001}, "type": "Feature"}, {"geometry": {"coordinates": [8.520532, 47.374951], "type": "Point"}, "properties": {"address": "Feldstrasse 24", "electric": 4, "id": "pb_99", "manual": 1, "name": "Kalkbreite", "provider": "publibike", "timeStamp": "01/27/2020, 16:39:09", "zip": 8004}, "type": "Feature"}, {"geometry": {"coordinates": [8.539046, 47.368064], "type": "Point"}, "properties": {"address": "Talstrasse 12", "electric": 3, "id": "pb_100", "manual": 2, "name": "Z\u00fcrcher Kantonalbank", "provider": "publibike", "timeStamp": "01/27/2020, 16:39:09", "zip": 8001}, "type": "Feature"}, {"geometry": {"coordinates": [8.5348427, 47.3625938], "type": "Point"}, "properties": {"address": "Breitingerstrasse 5", "electric": 6, "id": "pb_101", "manual": 2, "name": "Rentenanstalt", "provider": "publibike", "timeStamp": "01/27/2020, 16:39:09", "zip": 8002}, "type": "Feature"}, {"geometry": {"coordinates": [8.5166922, 47.3897772], "type": "Point"}, "properties": {"address": "Technoparkstrasse 4", "electric": 1, "id": "pb_102", "manual": 4, "name": "Turbinenplatz", "provider": "publibike", "timeStamp": "01/27/2020, 16:39:09", "zip": 8005}, "type": "Feature"}, {"geometry": {"coordinates": [8.539312, 47.3739964], "type": "Point"}, "properties": {"address": "Oetenbachgasse 14", "electric": 2, "id": "pb_104", "manual": 6, "name": "Rennweg", "provider": "publibike", "timeStamp": "01/27/2020, 16:39:09", "zip": 8001}, "type": "Feature"}, {"geometry": {"coordinates": [8.5360685, 47.3775022], "type": "Point"}, "properties": {"address": "Kasernenstrasse 101", "electric": 17, "id": "pb_105", "manual": 19, "name": "Sihlpost", "provider": "publibike", "timeStamp": "01/27/2020, 16:39:09", "zip": 8004}, "type": "Feature"}, {"geometry": {"coordinates": [8.53545, 47.382798], "type": "Point"}, "properties": {"address": "Ausstellungsstrasse 44", "electric": 2, "id": "pb_106", "manual": 9, "name": "Museum f\u00fcr Gestaltung", "provider": "publibike", "timeStamp": "01/27/2020, 16:39:09", "zip": 8005}, "type": "Feature"}, {"geometry": {"coordinates": [8.5306155, 47.3647902], "type": "Point"}, "properties": {"address": "Gutenbergstrasse 1", "electric": 12, "id": "pb_107", "manual": 8, "name": "Bederbr\u00fccke", "provider": "publibike", "timeStamp": "01/27/2020, 16:39:09", "zip": 8002}, "type": "Feature"}, {"geometry": {"coordinates": [8.518982, 47.386741], "type": "Point"}, "properties": {"address": "Geroldstrasse 4", "electric": 7, "id": "pb_108", "manual": 3, "name": "Bahnhof Hardbr\u00fccke", "provider": "publibike", "timeStamp": "01/27/2020, 16:39:09", "zip": 8005}, "type": "Feature"}, {"geometry": {"coordinates": [8.53001018, 47.37247535], "type": "Point"}, "properties": {"address": "Werdstrasse 21", "electric": 6, "id": "pb_109", "manual": 1, "name": "Tamedia", "provider": "publibike", "timeStamp": "01/27/2020, 16:39:09", "zip": 8004}, "type": "Feature"}, {"geometry": {"coordinates": [8.4860017, 47.396401], "type": "Point"}, "properties": {"address": "Gr\u00fcnauring 37", "electric": 4, "id": "pb_110", "manual": 7, "name": "Gr\u00fcnau", "provider": "publibike", "timeStamp": "01/27/2020, 16:39:09", "zip": 8064}, "type": "Feature"}, {"geometry": {"coordinates": [8.548519, 47.376756], "type": "Point"}, "properties": {"address": "R\u00e4mistrasse 101", "electric": 39, "id": "pb_111", "manual": 3, "name": "ETH Zentrum", "provider": "publibike", "timeStamp": "01/27/2020, 16:39:09", "zip": 8006}, "type": "Feature"}, {"geometry": {"coordinates": [8.520449, 47.388151], "type": "Point"}, "properties": {"address": "Josefstrasse 224", "electric": 2, "id": "pb_112", "manual": 4, "name": "Steinfelsareal", "provider": "publibike", "timeStamp": "01/27/2020, 16:39:09", "zip": 8005}, "type": "Feature"}, {"geometry": {"coordinates": [8.520482, 47.37209], "type": "Point"}, "properties": {"address": "Weststrasse 115", "electric": 0, "id": "pb_124", "manual": 4, "name": "Weststrasse", "provider": "publibike", "timeStamp": "01/27/2020, 16:39:09", "zip": 8003}, "type": "Feature"}, {"geometry": {"coordinates": [8.496727, 47.378521], "type": "Point"}, "properties": {"address": "Albisriederstrasse 200", "electric": 4, "id": "pb_125", "manual": 2, "name": "Utogrund", "provider": "publibike", "timeStamp": "01/27/2020, 16:39:09", "zip": 8047}, "type": "Feature"}, {"geometry": {"coordinates": [8.510418, 47.381356], "type": "Point"}, "properties": {"address": "Bullingerstrasse 73", "electric": 5, "id": "pb_126", "manual": 2, "name": "Hardau", "provider": "publibike", "timeStamp": "01/27/2020, 16:39:09", "zip": 8004}, "type": "Feature"}, {"geometry": {"coordinates": [8.525525, 47.361567], "type": "Point"}, "properties": {"address": "Klopstockstrasse 23", "electric": 6, "id": "pb_127", "manual": 2, "name": "Klopstockwiese", "provider": "publibike", "timeStamp": "01/27/2020, 16:39:09", "zip": 8002}, "type": "Feature"}, {"geometry": {"coordinates": [8.518143, 47.363148], "type": "Point"}, "properties": {"address": "Haldenstrasse 8", "electric": 3, "id": "pb_128", "manual": 1, "name": "Binz", "provider": "publibike", "timeStamp": "01/27/2020, 16:39:09", "zip": 8045}, "type": "Feature"}, {"geometry": {"coordinates": [8.542726, 47.379952], "type": "Point"}, "properties": {"address": "Walchestrasse 11", "electric": 7, "id": "pb_129", "manual": 0, "name": "Stampfenbachplatz", "provider": "publibike", "timeStamp": "01/27/2020, 16:39:09", "zip": 8006}, "type": "Feature"}, {"geometry": {"coordinates": [8.488108, 47.391366], "type": "Point"}, "properties": {"address": "Altstetterplatz 1", "electric": 8, "id": "pb_130", "manual": 10, "name": "Bahnhof Altstetten", "provider": "publibike", "timeStamp": "01/27/2020, 16:39:09", "zip": 8048}, "type": "Feature"}, {"geometry": {"coordinates": [8.554114, 47.365119], "type": "Point"}, "properties": {"address": "Kreuzplatz 2", "electric": 3, "id": "pb_131", "manual": 3, "name": "Kreuzplatz", "provider": "publibike", "timeStamp": "01/27/2020, 16:39:09", "zip": 8032}, "type": "Feature"}, {"geometry": {"coordinates": [8.549852, 47.35594], "type": "Point"}, "properties": {"address": "H\u00f6schgasse 3", "electric": 2, "id": "pb_132", "manual": 4, "name": "Blatterwiese", "provider": "publibike", "timeStamp": "01/27/2020, 16:39:09", "zip": 8008}, "type": "Feature"}, {"geometry": {"coordinates": [8.554501, 47.36162], "type": "Point"}, "properties": {"address": "Feldeggstrasse 80", "electric": 2, "id": "pb_133", "manual": 4, "name": "Villa Bleuler", "provider": "publibike", "timeStamp": "01/27/2020, 16:39:09", "zip": 8008}, "type": "Feature"}, {"geometry": {"coordinates": [8.557088, 47.358557], "type": "Point"}, "properties": {"address": "M\u00fchlebachstrasse 131", "electric": 5, "id": "pb_134", "manual": 0, "name": "M\u00fchlebachstrasse", "provider": "publibike", "timeStamp": "01/27/2020, 16:39:09", "zip": 8008}, "type": "Feature"}, {"geometry": {"coordinates": [8.547639, 47.361266], "type": "Point"}, "properties": {"address": "Utoquai 50", "electric": 0, "id": "pb_135", "manual": 7, "name": "Seebad Utoquai", "provider": "publibike", "timeStamp": "01/27/2020, 16:39:09", "zip": 8008}, "type": "Feature"}, {"geometry": {"coordinates": [8.548045, 47.370869], "type": "Point"}, "properties": {"address": "Heimplatz 1", "electric": 2, "id": "pb_137", "manual": 1, "name": "Kunsthaus", "provider": "publibike", "timeStamp": "01/27/2020, 16:39:09", "zip": 8001}, "type": "Feature"}, {"geometry": {"coordinates": [8.543447, 47.375933], "type": "Point"}, "properties": {"address": "Limmatquai 138", "electric": 2, "id": "pb_138", "manual": 20, "name": "Central", "provider": "publibike", "timeStamp": "01/27/2020, 16:39:09", "zip": 8001}, "type": "Feature"}, {"geometry": {"coordinates": [8.549356, 47.408827], "type": "Point"}, "properties": {"address": "Tramstrasse 35", "electric": 0, "id": "pb_139", "manual": 6, "name": "ewz Tramstrasse", "provider": "publibike", "timeStamp": "01/27/2020, 16:39:09", "zip": 8050}, "type": "Feature"}, {"geometry": {"coordinates": [8.533736, 47.366904], "type": "Point"}, "properties": {"address": "Bleicherweg 33", "electric": 3, "id": "pb_140", "manual": 7, "name": "Bleicherweg", "provider": "publibike", "timeStamp": "01/27/2020, 16:39:09", "zip": 8002}, "type": "Feature"}, {"geometry": {"coordinates": [8.544935, 47.366752], "type": "Point"}, "properties": {"address": "Bellevueplatz 2", "electric": 19, "id": "pb_141", "manual": 22, "name": "Bellevue", "provider": "publibike", "timeStamp": "01/27/2020, 16:39:09", "zip": 8001}, "type": "Feature"}, {"geometry": {"coordinates": [8.5285533, 47.3742296], "type": "Point"}, "properties": {"address": "Stauffacherstrasse 41", "electric": 3, "id": "pb_142", "manual": 1, "name": "Stauffacher", "provider": "publibike", "timeStamp": "01/27/2020, 16:39:09", "zip": 8004}, "type": "Feature"}, {"geometry": {"coordinates": [8.523722, 47.3899], "type": "Point"}, "properties": {"address": "Limmatstrasse 310", "electric": 5, "id": "pb_143", "manual": 1, "name": "Escher-Wyss-Platz", "provider": "publibike", "timeStamp": "01/27/2020, 16:39:09", "zip": 8005}, "type": "Feature"}, {"geometry": {"coordinates": [8.491061, 47.392336], "type": "Point"}, "properties": {"address": "Vulkanplatz 1", "electric": 6, "id": "pb_149", "manual": 9, "name": "Vulkanplatz", "provider": "publibike", "timeStamp": "01/27/2020, 16:39:09", "zip": 8048}, "type": "Feature"}, {"geometry": {"coordinates": [8.52306, 47.359872], "type": "Point"}, "properties": {"address": "Giessh\u00fcbelstrasse 15", "electric": 8, "id": "pb_150", "manual": 6, "name": "Utoplatz", "provider": "publibike", "timeStamp": "01/27/2020, 16:39:09", "zip": 8045}, "type": "Feature"}, {"geometry": {"coordinates": [8.486284, 47.387685], "type": "Point"}, "properties": {"address": "Lindenplatz 1", "electric": 14, "id": "pb_151", "manual": 12, "name": "Lindenplatz", "provider": "publibike", "timeStamp": "01/27/2020, 16:39:09", "zip": 8048}, "type": "Feature"}, {"geometry": {"coordinates": [8.49163, 47.389823], "type": "Point"}, "properties": {"address": "Hohlstrasse 563", "electric": 4, "id": "pb_152", "manual": 9, "name": "Luggweg", "provider": "publibike", "timeStamp": "01/27/2020, 16:39:09", "zip": 8048}, "type": "Feature"}, {"geometry": {"coordinates": [8.52174, 47.365272], "type": "Point"}, "properties": {"address": "Manessestrasse 87", "electric": 0, "id": "pb_153", "manual": 3, "name": "Manesseplatz", "provider": "publibike", "timeStamp": "01/27/2020, 16:39:09", "zip": 8045}, "type": "Feature"}, {"geometry": {"coordinates": [8.52714, 47.372329], "type": "Point"}, "properties": {"address": "Werdstrasse 75", "electric": 2, "id": "pb_154", "manual": 1, "name": "Werd", "provider": "publibike", "timeStamp": "01/27/2020, 16:39:09", "zip": 8004}, "type": "Feature"}, {"geometry": {"coordinates": [8.543042, 47.374711], "type": "Point"}, "properties": {"address": "Limmatquai 100", "electric": 0, "id": "pb_155", "manual": 0, "name": "Rudolf-Brun-Br\u00fccke", "provider": "publibike", "timeStamp": "01/27/2020, 16:39:09", "zip": 8001}, "type": "Feature"}, {"geometry": {"coordinates": [8.490837, 47.386596], "type": "Point"}, "properties": {"address": "Badenerstrasse 627", "electric": 4, "id": "pb_156", "manual": 1, "name": "Luggwegstrasse VBZ", "provider": "publibike", "timeStamp": "01/27/2020, 16:39:09", "zip": 8048}, "type": "Feature"}, {"geometry": {"coordinates": [8.535119, 47.355189], "type": "Point"}, "properties": {"address": "Mythenquai 95", "electric": 2, "id": "pb_157", "manual": 2, "name": "Strandbad Mythenquai", "provider": "publibike", "timeStamp": "01/27/2020, 16:39:09", "zip": 8002}, "type": "Feature"}, {"geometry": {"coordinates": [8.545505, 47.373675], "type": "Point"}, "properties": {"address": "Predigerpatz 21", "electric": 11, "id": "pb_158", "manual": 6, "name": "Predigerplatz", "provider": "publibike", "timeStamp": "01/27/2020, 16:39:09", "zip": 8001}, "type": "Feature"}, {"geometry": {"coordinates": [8.515558, 47.371868], "type": "Point"}, "properties": {"address": "Aemtlerstrasse 23", "electric": 0, "id": "pb_159", "manual": 1, "name": "Zwinglihaus", "provider": "publibike", "timeStamp": "01/27/2020, 16:39:09", "zip": 8003}, "type": "Feature"}, {"geometry": {"coordinates": [8.524629, 47.386072], "type": "Point"}, "properties": {"address": "Josefstrasse 188", "electric": 0, "id": "pb_160", "manual": 2, "name": "Josefwiese", "provider": "publibike", "timeStamp": "01/27/2020, 16:39:09", "zip": 8005}, "type": "Feature"}, {"geometry": {"coordinates": [8.527138, 47.387531], "type": "Point"}, "properties": {"address": "R\u00f6ntgenstrasse 87", "electric": 1, "id": "pb_164", "manual": 4, "name": "Markthalle", "provider": "publibike", "timeStamp": "01/27/2020, 16:39:09", "zip": 8005}, "type": "Feature"}, {"geometry": {"coordinates": [8.552717, 47.359978], "type": "Point"}, "properties": {"address": "Seefeldstrasse 96", "electric": 4, "id": "pb_263", "manual": 14, "name": "Feldeggstrasse", "provider": "publibike", "timeStamp": "01/27/2020, 16:39:09", "zip": 8008}, "type": "Feature"}, {"geometry": {"coordinates": [8.553189, 47.353198], "type": "Point"}, "properties": {"address": "Bellerivestrasse 170", "electric": 3, "id": "pb_264", "manual": 2, "name": "Lake Side", "provider": "publibike", "timeStamp": "01/27/2020, 16:39:09", "zip": 8008}, "type": "Feature"}, {"geometry": {"coordinates": [8.543437, 47.369256], "type": "Point"}, "properties": {"address": "Limmatquai 18", "electric": 0, "id": "pb_265", "manual": 0, "name": "Helmhaus", "provider": "publibike", "timeStamp": "01/27/2020, 16:39:09", "zip": 8032}, "type": "Feature"}, {"geometry": {"coordinates": [8.516676, 47.375819], "type": "Point"}, "properties": {"address": "Badenerstrasse 246", "electric": 6, "id": "pb_266", "manual": 3, "name": "Lochergut", "provider": "publibike", "timeStamp": "01/27/2020, 16:39:09", "zip": 8004}, "type": "Feature"}, {"geometry": {"coordinates": [8.514605, 47.389862], "type": "Point"}, "properties": {"address": "Pfingstweidstrasse 60", "electric": 3, "id": "pb_273", "manual": 6, "name": "Westpark", "provider": "publibike", "timeStamp": "01/27/2020, 16:39:09", "zip": 8005}, "type": "Feature"}, {"geometry": {"coordinates": [8.541239126, 47.375991201], "type": "Point"}, "properties": {"address": "Beatenplatz 1", "electric": 10, "id": "pb_274", "manual": 9, "name": "Beatenplatz", "provider": "publibike", "timeStamp": "01/27/2020, 16:39:09", "zip": 8001}, "type": "Feature"}, {"geometry": {"coordinates": [8.5417135, 47.3942197], "type": "Point"}, "properties": {"address": "Scheuchzerstrasse 181", "electric": 1, "id": "pb_275", "manual": 0, "name": "Pauluskirche", "provider": "publibike", "timeStamp": "01/27/2020, 16:39:09", "zip": 8057}, "type": "Feature"}, {"geometry": {"coordinates": [8.5528182, 47.414558], "type": "Point"}, "properties": {"address": "Hagenholzstrasse 51", "electric": 1, "id": "pb_276", "manual": 9, "name": "Airgate", "provider": "publibike", "timeStamp": "01/27/2020, 16:39:09", "zip": 8050}, "type": "Feature"}, {"geometry": {"coordinates": [8.537816, 47.413514], "type": "Point"}, "properties": {"address": "Birchstrasse 183", "electric": 5, "id": "pb_277", "manual": 4, "name": "Lamprechtweg", "provider": "publibike", "timeStamp": "01/27/2020, 16:39:09", "zip": 8050}, "type": "Feature"}, {"geometry": {"coordinates": [8.545602, 47.417701], "type": "Point"}, "properties": {"address": "Felsenrainstrasse 2", "electric": 6, "id": "pb_278", "manual": 9, "name": "Emil-Oberh\u00e4nsli", "provider": "publibike", "timeStamp": "01/27/2020, 16:39:09", "zip": 8050}, "type": "Feature"}, {"geometry": {"coordinates": [8.533647, 47.39808], "type": "Point"}, "properties": {"address": "Bucheggplatz 2", "electric": 4, "id": "pb_279", "manual": 2, "name": "Bucheggplatz", "provider": "publibike", "timeStamp": "01/27/2020, 16:39:09", "zip": 8057}, "type": "Feature"}, {"geometry": {"coordinates": [8.523549, 47.392347], "type": "Point"}, "properties": {"address": "Wipkingerplatz 4", "electric": 2, "id": "pb_280", "manual": 4, "name": "Wipkingerplatz", "provider": "publibike", "timeStamp": "01/27/2020, 16:39:09", "zip": 8037}, "type": "Feature"}, {"geometry": {"coordinates": [8.548562, 47.36691], "type": "Point"}, "properties": {"address": "Galerie \u00fcber Gleis 2/3", "electric": 7, "id": "pb_285", "manual": 0, "name": "Bahnhof Stadelhofen", "provider": "publibike", "timeStamp": "01/27/2020, 16:39:09", "zip": 8001}, "type": "Feature"}, {"geometry": {"coordinates": [8.493822, 47.3985553], "type": "Point"}, "properties": {"address": "Meierwiesenstrasse 12-4", "electric": 1, "id": "pb_286", "manual": 2, "name": "T\u00fcffenwies", "provider": "publibike", "timeStamp": "01/27/2020, 16:39:09", "zip": 8064}, "type": "Feature"}, {"geometry": {"coordinates": [8.552432, 47.3801757], "type": "Point"}, "properties": {"address": "Hochstrasse 34", "electric": 2, "id": "pb_356", "manual": 6, "name": "Siriuswiese", "provider": "publibike", "timeStamp": "01/27/2020, 16:39:09", "zip": 8044}, "type": "Feature"}, {"geometry": {"coordinates": [8.527298, 47.370141], "type": "Point"}, "properties": {"address": "Hallwylstrasse 71", "electric": 0, "id": "pb_357", "manual": 4, "name": "Hallwylstrasse", "provider": "publibike", "timeStamp": "01/27/2020, 16:39:09", "zip": 8004}, "type": "Feature"}, {"geometry": {"coordinates": [8.5414185, 47.3972455], "type": "Point"}, "properties": {"address": "Schaffhauserstrasse 137", "electric": 8, "id": "pb_358", "manual": 0, "name": "Milchbuck", "provider": "publibike", "timeStamp": "01/27/2020, 16:39:09", "zip": 8057}, "type": "Feature"}, {"geometry": {"coordinates": [8.512381, 47.393409], "type": "Point"}, "properties": {"address": "Hardturmstrasse 161", "electric": 5, "id": "pb_359", "manual": 7, "name": "Fischerweg", "provider": "publibike", "timeStamp": "01/27/2020, 16:39:09", "zip": 8005}, "type": "Feature"}, {"geometry": {"coordinates": [8.5421457, 47.3876979], "type": "Point"}, "properties": {"address": "Turnerstrasse 47", "electric": 0, "id": "pb_360", "manual": 0, "name": "Kirche Unterstrass", "provider": "publibike", "timeStamp": "01/27/2020, 16:39:09", "zip": 8006}, "type": "Feature"}, {"geometry": {"coordinates": [8.522117, 47.394554], "type": "Point"}, "properties": {"address": "Dorfstrasse 40", "electric": 0, "id": "pb_361", "manual": 1, "name": "Dorfstrasse", "provider": "publibike", "timeStamp": "01/27/2020, 16:39:09", "zip": 8037}, "type": "Feature"}, {"geometry": {"coordinates": [8.530437, 47.37271], "type": "Point"}, "properties": {"address": "Werdstrasse 25", "electric": 8, "id": "pb_362", "manual": 8, "name": "Stauffachertor", "provider": "publibike", "timeStamp": "01/27/2020, 16:39:09", "zip": 8004}, "type": "Feature"}, {"geometry": {"coordinates": [8.541712, 47.416155], "type": "Point"}, "properties": {"address": "Eggb\u00fchlstrasse 21", "electric": 0, "id": "pb_363", "manual": 4, "name": "Wahlenpark", "provider": "publibike", "timeStamp": "01/27/2020, 16:39:09", "zip": 8050}, "type": "Feature"}, {"geometry": {"coordinates": [8.5595335, 47.3708387], "type": "Point"}, "properties": {"address": "Dolderstrasse 32", "electric": 4, "id": "pb_364", "manual": 1, "name": "Kinderspital", "provider": "publibike", "timeStamp": "01/27/2020, 16:39:09", "zip": 8032}, "type": "Feature"}, {"geometry": {"coordinates": [8.536433, 47.388689], "type": "Point"}, "properties": {"address": "Kornhausstrasse 30", "electric": 3, "id": "pb_365", "manual": 2, "name": "Kornhausstrasse", "provider": "publibike", "timeStamp": "01/27/2020, 16:39:09", "zip": 8006}, "type": "Feature"}, {"geometry": {"coordinates": [8.55033, 47.407098], "type": "Point"}, "properties": {"address": "Schwamendingenstrasse 41", "electric": 1, "id": "pb_366", "manual": 3, "name": "Dorflinde", "provider": "publibike", "timeStamp": "01/27/2020, 16:39:09", "zip": 8050}, "type": "Feature"}, {"geometry": {"coordinates": [8.560476, 47.368199], "type": "Point"}, "properties": {"address": "R\u00f6merhofplatz 5", "electric": 0, "id": "pb_367", "manual": 0, "name": "R\u00f6merhof", "provider": "publibike", "timeStamp": "01/27/2020, 16:39:09", "zip": 8032}, "type": "Feature"}, {"geometry": {"coordinates": [8.5609218, 47.3619068], "type": "Point"}, "properties": {"address": "Forchstrasse 99", "electric": 1, "id": "pb_368", "manual": 2, "name": "Hegibachplatz", "provider": "publibike", "timeStamp": "01/27/2020, 16:39:09", "zip": 8032}, "type": "Feature"}, {"geometry": {"coordinates": [8.5721264, 47.4039985], "type": "Point"}, "properties": {"address": "Winterthurerstrasse 519", "electric": 1, "id": "pb_370", "manual": 6, "name": "Schwamendingerplatz", "provider": "publibike", "timeStamp": "01/27/2020, 16:39:09", "zip": 8051}, "type": "Feature"}, {"geometry": {"coordinates": [8.520168, 47.378556], "type": "Point"}, "properties": {"address": "Herman-Greulich-Strasse 56", "electric": 5, "id": "pb_384", "manual": 7, "name": "Hermann-Greulich-Weg", "provider": "publibike", "timeStamp": "01/27/2020, 16:39:09", "zip": 8004}, "type": "Feature"}, {"geometry": {"coordinates": [8.547912, 47.384923], "type": "Point"}, "properties": {"address": "Culmannstrasse", "electric": 1, "id": "pb_386", "manual": 3, "name": "Rigiplatz", "provider": "publibike", "timeStamp": "01/27/2020, 16:39:09", "zip": 8006}, "type": "Feature"}, {"geometry": {"coordinates": [8.543768, 47.411057], "type": "Point"}, "properties": {"address": "Hofwiesenstrasse 369", "electric": 2, "id": "pb_387", "manual": 3, "name": "Bahnhof Oerlikon S\u00fcd", "provider": "publibike", "timeStamp": "01/27/2020, 16:39:09", "zip": 8050}, "type": "Feature"}, {"geometry": {"coordinates": [8.544185, 47.412732], "type": "Point"}, "properties": {"address": "Jungholzstrasse 6", "electric": 1, "id": "pb_388", "manual": 5, "name": "Max-Frisch-Platz", "provider": "publibike", "timeStamp": "01/27/2020, 16:39:09", "zip": 8050}, "type": "Feature"}, {"geometry": {"coordinates": [8.558096, 47.413032], "type": "Point"}, "properties": {"address": "Andreasstrasse", "electric": 2, "id": "pb_389", "manual": 8, "name": "Hunziker-Areal", "provider": "publibike", "timeStamp": "01/27/2020, 16:39:09", "zip": 8050}, "type": "Feature"}, {"geometry": {"coordinates": [8.533265, 47.412873], "type": "Point"}, "properties": {"address": "Regina-K\u00e4gi-Strasse 1", "electric": 0, "id": "pb_390", "manual": 3, "name": "Luis-H\u00e4fliger-Park", "provider": "publibike", "timeStamp": "01/27/2020, 16:39:09", "zip": 8050}, "type": "Feature"}, {"geometry": {"coordinates": [8.499265, 47.401852], "type": "Point"}, "properties": {"address": "Limmattalstrasse 177", "electric": 7, "id": "pb_391", "manual": 0, "name": "Meierhofplatz", "provider": "publibike", "timeStamp": "01/27/2020, 16:39:09", "zip": 8049}, "type": "Feature"}, {"geometry": {"coordinates": [8.528356, 47.393255], "type": "Point"}, "properties": {"address": "R\u00f6schibachstrasse 73", "electric": 2, "id": "pb_392", "manual": 2, "name": "R\u00f6schibachplatz", "provider": "publibike", "timeStamp": "01/27/2020, 16:39:09", "zip": 8037}, "type": "Feature"}, {"geometry": {"coordinates": [8.538067, 47.415721], "type": "Point"}, "properties": {"address": "Birchstrasse 191", "electric": 8, "id": "pb_393", "manual": 2, "name": "Oerliker Park", "provider": "publibike", "timeStamp": "01/27/2020, 16:39:09", "zip": 8050}, "type": "Feature"}, {"geometry": {"coordinates": [8.5420304, 47.3669233], "type": "Point"}, "properties": {"address": "Stadthausquai 1", "electric": 1, "id": "pb_395", "manual": 14, "name": "B\u00fcrkliplatz", "provider": "publibike", "timeStamp": "01/27/2020, 16:39:09", "zip": 8001}, "type": "Feature"}, {"geometry": {"coordinates": [8.535767, 47.409881], "type": "Point"}, "properties": {"address": "Regensbergstrasse 195", "electric": 2, "id": "pb_396", "manual": 1, "name": "Holunderhof", "provider": "publibike", "timeStamp": "01/27/2020, 16:39:09", "zip": 8050}, "type": "Feature"}, {"geometry": {"coordinates": [8.5116245, 47.3616199], "type": "Point"}, "properties": {"address": "Grubenstrasse 42", "electric": 5, "id": "pb_431", "manual": 0, "name": "Binz Center", "provider": "publibike", "timeStamp": "01/27/2020, 16:39:09", "zip": 8045}, "type": "Feature"}, {"geometry": {"coordinates": [8.547195, 47.382089], "type": "Point"}, "properties": {"address": "Nelkenstrasse 24", "electric": 0, "id": "pb_430", "manual": 1, "name": "Stapferstube", "provider": "publibike", "timeStamp": "01/27/2020, 16:39:09", "zip": 8006}, "type": "Feature"}, {"geometry": {"coordinates": [8.5787183, 47.4039845], "type": "Point"}, "properties": {"address": "Kronwiesenstrasse 35", "electric": 0, "id": "pb_426", "manual": 3, "name": "Kronwiesen", "provider": "publibike", "timeStamp": "01/27/2020, 16:39:09", "zip": 8051}, "type": "Feature"}, {"geometry": {"coordinates": [8.508131, 47.420757], "type": "Point"}, "properties": {"address": "Riedenhaldenstrasse 20-18", "electric": 5, "id": "pb_425", "manual": 3, "name": "Bahnhof Affoltern", "provider": "publibike", "timeStamp": "01/27/2020, 16:39:09", "zip": 8046}, "type": "Feature"}, {"geometry": {"coordinates": [8.532464, 47.406988], "type": "Point"}, "properties": {"address": "K\u00fcnzlistrasse 41", "electric": 3, "id": "pb_424", "manual": 4, "name": "Birchd\u00f6rfli", "provider": "publibike", "timeStamp": "01/27/2020, 16:39:09", "zip": 8057}, "type": "Feature"}, {"geometry": {"coordinates": [8.5777038, 47.4080095], "type": "Point"}, "properties": {"address": "Luegislandstrasse 412", "electric": 3, "id": "pb_429", "manual": 4, "name": "Luegisland", "provider": "publibike", "timeStamp": "01/27/2020, 16:39:09", "zip": 8051}, "type": "Feature"}, {"geometry": {"coordinates": [8.58841, 47.40158], "type": "Point"}, "properties": {"address": "Hirzenbachstrasse 2-4", "electric": 1, "id": "pb_428", "manual": 2, "name": "Hirzenbachstrasse", "provider": "publibike", "timeStamp": "01/27/2020, 16:39:09", "zip": 8051}, "type": "Feature"}, {"geometry": {"coordinates": [8.5563463, 47.4095467], "type": "Point"}, "properties": {"address": "K\u00fchriedweg", "electric": 2, "id": "pb_445", "manual": 7, "name": "Hallenbad Oerlikon", "provider": "publibike", "timeStamp": "01/27/2020, 16:39:09", "zip": 8050}, "type": "Feature"}, {"geometry": {"coordinates": [8.537971, 47.364871], "type": "Point"}, "properties": {"address": "General-Guisan-Quai 17", "electric": 1, "id": "pb_454", "manual": 2, "name": "General-Guisan-Quai", "provider": "publibike", "timeStamp": "01/27/2020, 16:39:09", "zip": 8002}, "type": "Feature"}, {"geometry": {"coordinates": [8.560587, 47.350578], "type": "Point"}, "properties": {"address": "Bellerivestrasse 245", "electric": 5, "id": "pb_450", "manual": 6, "name": "Bahnhof Tiefenbrunnen", "provider": "publibike", "timeStamp": "01/27/2020, 16:39:09", "zip": 8008}, "type": "Feature"}, {"geometry": {"coordinates": [8.5269416, 47.3563719], "type": "Point"}, "properties": {"address": "Waffenplatzstrasse 89", "electric": 2, "id": "pb_452", "manual": 5, "name": "Rieterplatz", "provider": "publibike", "timeStamp": "01/27/2020, 16:39:09", "zip": 8002}, "type": "Feature"}, {"geometry": {"coordinates": [8.514176, 47.3663708], "type": "Point"}, "properties": {"address": "Talwiesenstrasse 92", "electric": 2, "id": "pb_446", "manual": 3, "name": "Binzallee", "provider": "publibike", "timeStamp": "01/27/2020, 16:39:09", "zip": 8055}, "type": "Feature"}, {"geometry": {"coordinates": [8.5070564, 47.371455], "type": "Point"}, "properties": {"address": "Gutstrasse 87", "electric": 0, "id": "pb_447", "manual": 9, "name": "Gutstrasse", "provider": "publibike", "timeStamp": "01/27/2020, 16:39:09", "zip": 8055}, "type": "Feature"}, {"geometry": {"coordinates": [8.4941268, 47.3836391], "type": "Point"}, "properties": {"address": "Flurstrasse 62", "electric": 3, "id": "pb_453", "manual": 7, "name": "Flurpark", "provider": "publibike", "timeStamp": "01/27/2020, 16:39:09", "zip": 8048}, "type": "Feature"}, {"geometry": {"coordinates": [8.500343, 47.380778], "type": "Point"}, "properties": {"address": "Edelweissstrasse 32", "electric": 1, "id": "pb_448", "manual": 0, "name": "Bl\u00fcemliquartier", "provider": "publibike", "timeStamp": "01/27/2020, 16:39:09", "zip": 8048}, "type": "Feature"}, {"geometry": {"coordinates": [8.528796, 47.383858], "type": "Point"}, "properties": {"address": "Gasometerstrasse 24", "electric": 0, "id": "pb_449", "manual": 7, "name": "Gasometerstrasse", "provider": "publibike", "timeStamp": "01/27/2020, 16:39:09", "zip": 8005}, "type": "Feature"}, {"geometry": {"coordinates": [8.4981964, 47.3859194], "type": "Point"}, "properties": {"address": "Baslerstrasse 57", "electric": 8, "id": "pb_455", "manual": 5, "name": "Letzipark", "provider": "publibike", "timeStamp": "01/27/2020, 16:39:09", "zip": 8048}, "type": "Feature"}, {"geometry": {"coordinates": [8.515252, 47.381915], "type": "Point"}, "properties": {"address": "Sihlfeldstrasse 175", "electric": 1, "id": "pb_451", "manual": 3, "name": "Hardplatz", "provider": "publibike", "timeStamp": "01/27/2020, 16:39:09", "zip": 8004}, "type": "Feature"}, {"geometry": {"coordinates": [8.5064743, 47.4188324], "type": "Point"}, "properties": {"address": "Wehntalerstrasse 541", "electric": 1, "id": "pb_427", "manual": 4, "name": "Zehntenhausplatz", "provider": "publibike", "timeStamp": "01/27/2020, 16:39:09", "zip": 8046}, "type": "Feature"}, {"geometry": {"coordinates": [8.537729, 47.379719], "type": "Point"}, "properties": {"address": "Sihlquai/HB", "electric": 9, "id": "pb_513", "manual": 8, "name": "Sihlquai", "provider": "publibike", "timeStamp": "01/27/2020, 16:39:09", "zip": 8005}, "type": "Feature"}, {"geometry": {"coordinates": [8.596202, 47.397885], "type": "Point"}, "properties": {"address": "Bahnhof Stettbach", "electric": 5, "id": "pb_514", "manual": 2, "name": "Bahnhof Stettbach", "provider": "publibike", "timeStamp": "01/27/2020, 16:39:09", "zip": 8051}, "type": "Feature"}, {"geometry": {"coordinates": [8.5543974, 47.3690153], "type": "Point"}, "properties": {"address": "Kasinostrasse 10", "electric": 2, "id": "pb_515", "manual": 0, "name": "Hottingerplatz", "provider": "publibike", "timeStamp": "01/27/2020, 16:39:09", "zip": 8032}, "type": "Feature"}, {"geometry": {"coordinates": [8.534444, 47.351525], "type": "Point"}, "properties": {"address": "Mobile Station Z\u00fcrich 1", "electric": 0, "id": "pb_282", "manual": 0, "name": "Theaterspektakel", "provider": "publibike", "timeStamp": "01/27/2020, 16:39:09", "zip": 8002}, "type": "Feature"}, {"geometry": {"coordinates": [8.516257, 47.367656], "type": "Point"}, "properties": {"address": "Goldbrunnenstrasse 54", "electric": 7, "id": "pb_538", "manual": 1, "name": "Kirche B\u00fchl", "provider": "publibike", "timeStamp": "01/27/2020, 16:39:09", "zip": 8055}, "type": "Feature"}, {"geometry": {"coordinates": [8.555639, 47.416873], "type": "Point"}, "properties": {"address": "Leutschenbachstrasse 50", "electric": 0, "id": "pb_537", "manual": 4, "name": "Leutschenpark", "provider": "publibike", "timeStamp": "01/27/2020, 16:39:09", "zip": 8050}, "type": "Feature"}, {"geometry": {"coordinates": [8.546464, 47.403822], "type": "Point"}, "properties": {"address": "Berninastrasse 45", "electric": 4, "id": "pb_540", "manual": 0, "name": "Berninaplatz", "provider": "publibike", "timeStamp": "01/27/2020, 16:39:09", "zip": 8057}, "type": "Feature"}, {"geometry": {"coordinates": [8.523134, 47.369004], "type": "Point"}, "properties": {"address": "Erlachstrasse 3", "electric": 5, "id": "pb_385", "manual": 0, "name": "Aegerten", "provider": "publibike", "timeStamp": "01/27/2020, 16:39:09", "zip": 8003}, "type": "Feature"}, {"geometry": {"coordinates": [8.49038, 47.381591], "type": "Point"}, "properties": {"address": "Rautistrasse 60", "electric": 3, "id": "pb_536", "manual": 6, "name": "Freilager", "provider": "publibike", "timeStamp": "01/27/2020, 16:39:09", "zip": 8048}, "type": "Feature"}, {"geometry": {"coordinates": [8.496511, 47.375247], "type": "Point"}, "properties": {"address": "Letzigraben 139", "electric": 0, "id": "pb_444", "manual": 2, "name": "Sackzelg", "provider": "publibike", "timeStamp": "01/27/2020, 16:39:09", "zip": 8047}, "type": "Feature"}, {"geometry": {"coordinates": [8.58131, 47.402801], "type": "Point"}, "properties": {"address": "Altwiesenstrasse 104", "electric": 0, "id": "pb_539", "manual": 5, "name": "Glattwiesen", "provider": "publibike", "timeStamp": "01/27/2020, 16:39:09", "zip": 8051}, "type": "Feature"}, {"geometry": {"coordinates": [8.52689, 47.3767], "type": "Point"}, "properties": {"address": "Molkenstrasse 5", "electric": 2, "id": "pb_560", "manual": 0, "name": "Helvetiaplatz", "provider": "publibike", "timeStamp": "01/27/2020, 16:39:09", "zip": 8004}, "type": "Feature"}, {"geometry": {"coordinates": [8.525602, 47.374241], "type": "Point"}, "properties": {"address": "Badenerstrasse 90", "electric": 1, "id": "pb_559", "manual": 1, "name": "Bezirksgeb\u00e4ude", "provider": "publibike", "timeStamp": "01/27/2020, 16:39:09", "zip": 8004}, "type": "Feature"}, {"geometry": {"coordinates": [8.535082, 47.345248], "type": "Point"}, "properties": {"address": "Bachstrasse 15", "electric": 5, "id": "pb_564", "manual": 2, "name": "GZ Wollishofen", "provider": "publibike", "timeStamp": "01/27/2020, 16:39:09", "zip": 8038}, "type": "Feature"}, {"geometry": {"coordinates": [8.514841, 47.370238], "type": "Point"}, "properties": {"address": "Schrennengasse 37", "electric": 2, "id": "pb_562", "manual": 2, "name": "Goldbrunnenplatz", "provider": "publibike", "timeStamp": "01/27/2020, 16:39:09", "zip": 8003}, "type": "Feature"}, {"geometry": {"coordinates": [8.514138, 47.374206], "type": "Point"}, "properties": {"address": "Idaplatz 4", "electric": 0, "id": "pb_557", "manual": 2, "name": "Idaplatz", "provider": "publibike", "timeStamp": "01/27/2020, 16:39:09", "zip": 8003}, "type": "Feature"}, {"geometry": {"coordinates": [8.518432, 47.369549], "type": "Point"}, "properties": {"address": "Brinerstrasse 2", "electric": 1, "id": "pb_558", "manual": 5, "name": "Schmiede Wiedikon", "provider": "publibike", "timeStamp": "01/27/2020, 16:39:09", "zip": 8003}, "type": "Feature"}, {"geometry": {"coordinates": [8.537546, 47.391289], "type": "Point"}, "properties": {"address": "Rotbuchstrasse 15", "electric": 2, "id": "pb_556", "manual": 3, "name": "Schaffhauserplatz", "provider": "publibike", "timeStamp": "01/27/2020, 16:39:09", "zip": 8006}, "type": "Feature"}, {"geometry": {"coordinates": [8.541541, 47.413733], "type": "Point"}, "properties": {"address": "Therese-Giehse-Strasse 11", "electric": 6, "id": "pb_561", "manual": 1, "name": "Center Eleven", "provider": "publibike", "timeStamp": "01/27/2020, 16:39:09", "zip": 8050}, "type": "Feature"}, {"geometry": {"coordinates": [8.534227, 47.360004], "type": "Point"}, "properties": {"address": "Alfred Escher-Strasse 76", "electric": 9, "id": "pb_563", "manual": 1, "name": "Mythenschloss", "provider": "publibike", "timeStamp": "01/27/2020, 16:39:09", "zip": 8002}, "type": "Feature"}, {"geometry": {"coordinates": [8.50373, 47.396172], "type": "Point"}, "properties": {"address": "Hardeggstrasse 6", "electric": 3, "id": "pb_566", "manual": 5, "name": "Am Wasser", "provider": "publibike", "timeStamp": "01/27/2020, 16:39:09", "zip": 8049}, "type": "Feature"}, {"geometry": {"coordinates": [8.532432, 47.381174], "type": "Point"}, "properties": {"address": "Klingenstrasse 9", "electric": 0, "id": "pb_565", "manual": 4, "name": "Zollstrasse", "provider": "publibike", "timeStamp": "01/27/2020, 16:39:09", "zip": 8005}, "type": "Feature"}, {"geometry": {"coordinates": [8.497982, 47.381447], "type": "Point"}, "properties": {"address": "Dennlerstrasse 23", "electric": 0, "id": "pb_567", "manual": 5, "name": "Dennlerstrasse", "provider": "publibike", "timeStamp": "01/27/2020, 16:39:09", "zip": 8047}, "type": "Feature"}, {"geometry": {"coordinates": [8.528049, 47.347701], "type": "Point"}, "properties": {"address": "Mutschellenstrasse 114", "electric": 4, "id": "pb_568", "manual": 2, "name": "Jugendherberge", "provider": "publibike", "timeStamp": "01/27/2020, 16:39:09", "zip": 8038}, "type": "Feature"}, {"geometry": {"coordinates": [8.539016, 47.405751], "type": "Point"}, "properties": {"address": "Ringstrasse 82", "electric": 5, "id": "pb_569", "manual": 2, "name": "Freibad Allenmoos", "provider": "publibike", "timeStamp": "01/27/2020, 16:39:09", "zip": 8057}, "type": "Feature"}, {"geometry": {"coordinates": [8.534974, 47.402164], "type": "Point"}, "properties": {"address": "Brache Guggach", "electric": 3, "id": "pb_572", "manual": 2, "name": "Radiostudio", "provider": "publibike", "timeStamp": "01/27/2020, 16:39:09", "zip": 8057}, "type": "Feature"}, {"geometry": {"coordinates": [8.547901, 47.375556], "type": "Point"}, "properties": {"address": "Karl-Schmid-Strasse 4", "electric": 7, "id": "pb_571", "manual": 0, "name": "ETH/Zoologisches Museum", "provider": "publibike", "timeStamp": "01/27/2020, 16:39:09", "zip": 8006}, "type": "Feature"}, {"geometry": {"coordinates": [8.545918, 47.366973], "type": "Point"}, "properties": {"charge": 51, "id": "smide_2901", "name": "ZH 267278", "provider": "smide", "range": 25.0, "size": 20, "time": "01/27/2020, 16:38:42"}, "type": "Feature"}, {"geometry": {"coordinates": [8.561485, 47.350258], "type": "Point"}, "properties": {"charge": 27, "id": "smide_2895", "name": "ZH 267279", "provider": "smide", "range": 13.0, "size": 20, "time": "01/27/2020, 16:38:42"}, "type": "Feature"}, {"geometry": {"coordinates": [8.506766, 47.360475], "type": "Point"}, "properties": {"charge": 61, "id": "smide_2883", "name": "ZH 267272", "provider": "smide", "range": 30.0, "size": 20, "time": "01/27/2020, 16:38:42"}, "type": "Feature"}, {"geometry": {"coordinates": [8.514375, 47.391035], "type": "Point"}, "properties": {"charge": 66, "id": "smide_2880", "name": "ZH267289", "provider": "smide", "range": 33.0, "size": 17, "time": "01/27/2020, 16:38:42"}, "type": "Feature"}, {"geometry": {"coordinates": [8.560501, 47.351653], "type": "Point"}, "properties": {"charge": 81, "id": "smide_2874", "name": "ZH 267288", "provider": "smide", "range": 40.0, "size": 17, "time": "01/27/2020, 16:38:42"}, "type": "Feature"}, {"geometry": {"coordinates": [8.494518, 47.3981], "type": "Point"}, "properties": {"charge": 77, "id": "smide_2871", "name": "ZH 267086", "provider": "smide", "range": 38.0, "size": 20, "time": "01/27/2020, 16:38:42"}, "type": "Feature"}, {"geometry": {"coordinates": [8.557445, 47.419073], "type": "Point"}, "properties": {"charge": 82, "id": "smide_2867", "name": "ZH 267090", "provider": "smide", "range": 41.0, "size": 20, "time": "01/27/2020, 16:38:42"}, "type": "Feature"}, {"geometry": {"coordinates": [8.553531, 47.387325], "type": "Point"}, "properties": {"charge": 100, "id": "smide_2861", "name": "ZH 267096", "provider": "smide", "range": 50.0, "size": 17, "time": "01/27/2020, 16:38:42"}, "type": "Feature"}, {"geometry": {"coordinates": [8.483936, 47.396811], "type": "Point"}, "properties": {"charge": 65, "id": "smide_2860", "name": "ZH 267097", "provider": "smide", "range": 32.0, "size": 17, "time": "01/27/2020, 16:38:42"}, "type": "Feature"}, {"geometry": {"coordinates": [8.524533, 47.372433], "type": "Point"}, "properties": {"charge": 41, "id": "smide_2859", "name": "ZH 267098", "provider": "smide", "range": 20.0, "size": 17, "time": "01/27/2020, 16:38:42"}, "type": "Feature"}, {"geometry": {"coordinates": [8.579745, 47.350751], "type": "Point"}, "properties": {"charge": 29, "id": "smide_2856", "name": "ZH 267101", "provider": "smide", "range": 14.0, "size": 17, "time": "01/27/2020, 16:38:42"}, "type": "Feature"}, {"geometry": {"coordinates": [8.510793, 47.407491], "type": "Point"}, "properties": {"charge": 100, "id": "smide_2855", "name": "ZH 267102", "provider": "smide", "range": 50.0, "size": 17, "time": "01/27/2020, 16:38:42"}, "type": "Feature"}, {"geometry": {"coordinates": [8.507258, 47.40773], "type": "Point"}, "properties": {"charge": 100, "id": "smide_2854", "name": "ZH 267103", "provider": "smide", "range": 50.0, "size": 17, "time": "01/27/2020, 16:38:42"}, "type": "Feature"}, {"geometry": {"coordinates": [8.550701, 47.377598], "type": "Point"}, "properties": {"charge": 83, "id": "smide_2833", "name": "ZH 267182", "provider": "smide", "range": 41.0, "size": 20, "time": "01/27/2020, 16:38:42"}, "type": "Feature"}, {"geometry": {"coordinates": [8.569925, 47.35251], "type": "Point"}, "properties": {"charge": 86, "id": "smide_2831", "name": "ZH 267180", "provider": "smide", "range": 43.0, "size": 20, "time": "01/27/2020, 16:38:42"}, "type": "Feature"}, {"geometry": {"coordinates": [8.542718, 47.370661], "type": "Point"}, "properties": {"charge": 20, "id": "smide_2829", "name": "ZH 267049", "provider": "smide", "range": 10.0, "size": 20, "time": "01/27/2020, 16:38:42"}, "type": "Feature"}, {"geometry": {"coordinates": [8.552833, 47.398368], "type": "Point"}, "properties": {"charge": 98, "id": "smide_2798", "name": "ZH266888", "provider": "smide", "range": 49.0, "size": 17, "time": "01/27/2020, 16:38:42"}, "type": "Feature"}, {"geometry": {"coordinates": [8.51695, 47.428475], "type": "Point"}, "properties": {"charge": 93, "id": "smide_2790", "name": "ZH266880", "provider": "smide", "range": 46.0, "size": 17, "time": "01/27/2020, 16:38:42"}, "type": "Feature"}, {"geometry": {"coordinates": [8.560298, 47.372315], "type": "Point"}, "properties": {"charge": 100, "id": "smide_2781", "name": "ZH 266871", "provider": "smide", "range": 50.0, "size": 17, "time": "01/27/2020, 16:38:42"}, "type": "Feature"}, {"geometry": {"coordinates": [8.547215, 47.423184], "type": "Point"}, "properties": {"charge": 38, "id": "smide_2773", "name": "ZH266561", "provider": "smide", "range": 19.0, "size": 17, "time": "01/27/2020, 16:38:42"}, "type": "Feature"}, {"geometry": {"coordinates": [8.505848, 47.407084], "type": "Point"}, "properties": {"charge": 70, "id": "smide_2763", "name": "ZH266641", "provider": "smide", "range": 35.0, "size": 17, "time": "01/27/2020, 16:38:42"}, "type": "Feature"}, {"geometry": {"coordinates": [8.514251, 47.36533], "type": "Point"}, "properties": {"charge": 93, "id": "smide_2761", "name": "ZH266642", "provider": "smide", "range": 46.0, "size": 20, "time": "01/27/2020, 16:38:42"}, "type": "Feature"}, {"geometry": {"coordinates": [8.514727, 47.390864], "type": "Point"}, "properties": {"charge": 81, "id": "smide_2758", "name": "ZH266638 M", "provider": "smide", "range": 40.0, "size": 17, "time": "01/27/2020, 16:38:42"}, "type": "Feature"}, {"geometry": {"coordinates": [8.552686, 47.388688], "type": "Point"}, "properties": {"charge": 31, "id": "smide_2751", "name": "BE343857", "provider": "smide", "range": 15.0, "size": 17, "time": "01/27/2020, 16:38:42"}, "type": "Feature"}, {"geometry": {"coordinates": [8.55244, 47.356032], "type": "Point"}, "properties": {"charge": 85, "id": "smide_2749", "name": "BE343867", "provider": "smide", "range": 42.0, "size": 17, "time": "01/27/2020, 16:38:42"}, "type": "Feature"}, {"geometry": {"coordinates": [8.50718, 47.40692], "type": "Point"}, "properties": {"charge": 100, "id": "smide_2748", "name": "BE335758", "provider": "smide", "range": 50.0, "size": 17, "time": "01/27/2020, 16:38:42"}, "type": "Feature"}, {"geometry": {"coordinates": [8.549882, 47.421068], "type": "Point"}, "properties": {"charge": 70, "id": "smide_2747", "name": "BE335820", "provider": "smide", "range": 35.0, "size": 17, "time": "01/27/2020, 16:38:42"}, "type": "Feature"}, {"geometry": {"coordinates": [8.490811, 47.376424], "type": "Point"}, "properties": {"charge": 62, "id": "smide_2745", "name": "BE335818", "provider": "smide", "range": 31.0, "size": 17, "time": "01/27/2020, 16:38:42"}, "type": "Feature"}, {"geometry": {"coordinates": [8.574619, 47.352524], "type": "Point"}, "properties": {"charge": 72, "id": "smide_2742", "name": "BE343866", "provider": "smide", "range": 36.0, "size": 17, "time": "01/27/2020, 16:38:42"}, "type": "Feature"}, {"geometry": {"coordinates": [8.553053, 47.377016], "type": "Point"}, "properties": {"charge": 52, "id": "smide_2740", "name": "BE343875", "provider": "smide", "range": 26.0, "size": 17, "time": "01/27/2020, 16:38:42"}, "type": "Feature"}, {"geometry": {"coordinates": [8.55908, 47.414853], "type": "Point"}, "properties": {"charge": 100, "id": "smide_2738", "name": "BE343865", "provider": "smide", "range": 50.0, "size": 17, "time": "01/27/2020, 16:38:42"}, "type": "Feature"}, {"geometry": {"coordinates": [8.565453, 47.376936], "type": "Point"}, "properties": {"charge": 100, "id": "smide_2737", "name": "BE336149", "provider": "smide", "range": 50.0, "size": 17, "time": "01/27/2020, 16:38:42"}, "type": "Feature"}, {"geometry": {"coordinates": [8.572734, 47.380536], "type": "Point"}, "properties": {"charge": 23, "id": "smide_2734", "name": "BE343876", "provider": "smide", "range": 11.0, "size": 17, "time": "01/27/2020, 16:38:42"}, "type": "Feature"}, {"geometry": {"coordinates": [8.529289, 47.373544], "type": "Point"}, "properties": {"charge": 97, "id": "smide_2733", "name": "BE343873", "provider": "smide", "range": 48.0, "size": 17, "time": "01/27/2020, 16:38:42"}, "type": "Feature"}, {"geometry": {"coordinates": [8.550833, 47.414896], "type": "Point"}, "properties": {"charge": 73, "id": "smide_2732", "name": "BE343870", "provider": "smide", "range": 36.0, "size": 17, "time": "01/27/2020, 16:38:42"}, "type": "Feature"}, {"geometry": {"coordinates": [8.561239, 47.416172], "type": "Point"}, "properties": {"charge": 100, "id": "smide_2729", "name": "BE343878", "provider": "smide", "range": 50.0, "size": 17, "time": "01/27/2020, 16:38:42"}, "type": "Feature"}, {"geometry": {"coordinates": [8.520285, 47.37216], "type": "Point"}, "properties": {"charge": 95, "id": "smide_2725", "name": "ZH261545", "provider": "smide", "range": 47.0, "size": 0, "time": "01/27/2020, 16:38:42"}, "type": "Feature"}, {"geometry": {"coordinates": [8.52525, 47.378731], "type": "Point"}, "properties": {"charge": 43, "id": "smide_2718", "name": "ZH259019", "provider": "smide", "range": 21.0, "size": 20, "time": "01/27/2020, 16:38:42"}, "type": "Feature"}, {"geometry": {"coordinates": [8.508447, 47.384496], "type": "Point"}, "properties": {"charge": 93, "id": "smide_2717", "name": "ZH263287", "provider": "smide", "range": 46.0, "size": 17, "time": "01/27/2020, 16:38:42"}, "type": "Feature"}, {"geometry": {"coordinates": [8.529881, 47.390178], "type": "Point"}, "properties": {"charge": 69, "id": "smide_2716", "name": "ZH254606", "provider": "smide", "range": 34.0, "size": 17, "time": "01/27/2020, 16:38:42"}, "type": "Feature"}, {"geometry": {"coordinates": [8.537436, 47.340576], "type": "Point"}, "properties": {"charge": 88, "id": "smide_2715", "name": "ZH254605", "provider": "smide", "range": 44.0, "size": 17, "time": "01/27/2020, 16:38:42"}, "type": "Feature"}, {"geometry": {"coordinates": [8.516591, 47.389548], "type": "Point"}, "properties": {"charge": 63, "id": "smide_2714", "name": "ZH256461", "provider": "smide", "range": 31.0, "size": 17, "time": "01/27/2020, 16:38:42"}, "type": "Feature"}, {"geometry": {"coordinates": [8.553492, 47.402156], "type": "Point"}, "properties": {"charge": 60, "id": "smide_2710", "name": "ZH256460", "provider": "smide", "range": 30.0, "size": 17, "time": "01/27/2020, 16:38:42"}, "type": "Feature"}, {"geometry": {"coordinates": [8.555713, 47.38434], "type": "Point"}, "properties": {"charge": 61, "id": "smide_2712", "name": "ZH256462", "provider": "smide", "range": 30.0, "size": 17, "time": "01/27/2020, 16:38:42"}, "type": "Feature"}, {"geometry": {"coordinates": [8.531023, 47.369376], "type": "Point"}, "properties": {"charge": 44, "id": "smide_2711", "name": "ZH256463", "provider": "smide", "range": 22.0, "size": 17, "time": "01/27/2020, 16:38:42"}, "type": "Feature"}, {"geometry": {"coordinates": [8.574591, 47.352575], "type": "Point"}, "properties": {"charge": 27, "id": "smide_2709", "name": "ZH256466", "provider": "smide", "range": 13.0, "size": 20, "time": "01/27/2020, 16:38:42"}, "type": "Feature"}, {"geometry": {"coordinates": [8.545254, 47.386468], "type": "Point"}, "properties": {"charge": 85, "id": "smide_2707", "name": "ZH256467", "provider": "smide", "range": 42.0, "size": 20, "time": "01/27/2020, 16:38:42"}, "type": "Feature"}, {"geometry": {"coordinates": [8.513692, 47.362084], "type": "Point"}, "properties": {"charge": 22, "id": "smide_2706", "name": "ZH256322", "provider": "smide", "range": 11.0, "size": 20, "time": "01/27/2020, 16:38:42"}, "type": "Feature"}, {"geometry": {"coordinates": [8.554395, 47.403068], "type": "Point"}, "properties": {"charge": 100, "id": "smide_2705", "name": "ZH256471", "provider": "smide", "range": 50.0, "size": 20, "time": "01/27/2020, 16:38:42"}, "type": "Feature"}, {"geometry": {"coordinates": [8.525486, 47.37694], "type": "Point"}, "properties": {"charge": 100, "id": "smide_2699", "name": "ZH254611", "provider": "smide", "range": 50.0, "size": 20, "time": "01/27/2020, 16:38:42"}, "type": "Feature"}, {"geometry": {"coordinates": [8.50762, 47.382528], "type": "Point"}, "properties": {"charge": 80, "id": "smide_2697", "name": "ZH254629", "provider": "smide", "range": 40.0, "size": 20, "time": "01/27/2020, 16:38:42"}, "type": "Feature"}, {"geometry": {"coordinates": [8.559096, 47.418333], "type": "Point"}, "properties": {"charge": 66, "id": "smide_2691", "name": "ZH254622", "provider": "smide", "range": 33.0, "size": 20, "time": "01/27/2020, 16:38:42"}, "type": "Feature"}, {"geometry": {"coordinates": [8.495259, 47.4237], "type": "Point"}, "properties": {"charge": 100, "id": "smide_2689", "name": "ZH254623", "provider": "smide", "range": 50.0, "size": 20, "time": "01/27/2020, 16:38:42"}, "type": "Feature"}, {"geometry": {"coordinates": [8.559247, 47.414912], "type": "Point"}, "properties": {"charge": 100, "id": "smide_2687", "name": "ZH263529", "provider": "smide", "range": 50.0, "size": 20, "time": "01/27/2020, 16:38:42"}, "type": "Feature"}, {"geometry": {"coordinates": [8.572619, 47.352572], "type": "Point"}, "properties": {"charge": 100, "id": "smide_2684", "name": "ZH254626", "provider": "smide", "range": 50.0, "size": 20, "time": "01/27/2020, 16:38:42"}, "type": "Feature"}, {"geometry": {"coordinates": [8.569085, 47.373338], "type": "Point"}, "properties": {"charge": 22, "id": "smide_2683", "name": "ZH254620", "provider": "smide", "range": 11.0, "size": 20, "time": "01/27/2020, 16:38:42"}, "type": "Feature"}, {"geometry": {"coordinates": [8.572305, 47.404252], "type": "Point"}, "properties": {"charge": 89, "id": "smide_2680", "name": "ZH254619", "provider": "smide", "range": 44.0, "size": 20, "time": "01/27/2020, 16:38:42"}, "type": "Feature"}, {"geometry": {"coordinates": [8.576527, 47.351248], "type": "Point"}, "properties": {"charge": 89, "id": "smide_2679", "name": "ZH258489", "provider": "smide", "range": 44.0, "size": 17, "time": "01/27/2020, 16:38:42"}, "type": "Feature"}, {"geometry": {"coordinates": [8.476677, 47.387392], "type": "Point"}, "properties": {"charge": 83, "id": "smide_2669", "name": "ZH263294", "provider": "smide", "range": 41.0, "size": 17, "time": "01/27/2020, 16:38:42"}, "type": "Feature"}, {"geometry": {"coordinates": [8.532353, 47.3973], "type": "Point"}, "properties": {"charge": 75, "id": "smide_2668", "name": "ZH258640", "provider": "smide", "range": 37.0, "size": 17, "time": "01/27/2020, 16:38:42"}, "type": "Feature"}, {"geometry": {"coordinates": [8.518117, 47.38842], "type": "Point"}, "properties": {"charge": 94, "id": "smide_2666", "name": "ZH258653", "provider": "smide", "range": 47.0, "size": 17, "time": "01/27/2020, 16:38:42"}, "type": "Feature"}, {"geometry": {"coordinates": [8.521682, 47.361588], "type": "Point"}, "properties": {"charge": 100, "id": "smide_2665", "name": "ZH258644", "provider": "smide", "range": 50.0, "size": 17, "time": "01/27/2020, 16:38:42"}, "type": "Feature"}, {"geometry": {"coordinates": [8.531524, 47.395688], "type": "Point"}, "properties": {"charge": 78, "id": "smide_2664", "name": "ZH258652", "provider": "smide", "range": 39.0, "size": 17, "time": "01/27/2020, 16:38:42"}, "type": "Feature"}, {"geometry": {"coordinates": [8.483112, 47.37812], "type": "Point"}, "properties": {"charge": 63, "id": "smide_2662", "name": "ZH258643", "provider": "smide", "range": 31.0, "size": 17, "time": "01/27/2020, 16:38:42"}, "type": "Feature"}, {"geometry": {"coordinates": [8.571783, 47.358244], "type": "Point"}, "properties": {"charge": 50, "id": "smide_2648", "name": "ZH257930", "provider": "smide", "range": 25.0, "size": 20, "time": "01/27/2020, 16:38:42"}, "type": "Feature"}, {"geometry": {"coordinates": [8.575911, 47.353098], "type": "Point"}, "properties": {"charge": 95, "id": "smide_2657", "name": "ZH257936", "provider": "smide", "range": 47.0, "size": 17, "time": "01/27/2020, 16:38:42"}, "type": "Feature"}, {"geometry": {"coordinates": [8.523515, 47.369524], "type": "Point"}, "properties": {"charge": 90, "id": "smide_2647", "name": "ZH257932", "provider": "smide", "range": 45.0, "size": 20, "time": "01/27/2020, 16:38:42"}, "type": "Feature"}, {"geometry": {"coordinates": [8.53587, 47.356244], "type": "Point"}, "properties": {"charge": 99, "id": "smide_2645", "name": "ZH257933", "provider": "smide", "range": 49.0, "size": 20, "time": "01/27/2020, 16:38:42"}, "type": "Feature"}, {"geometry": {"coordinates": [8.486286, 47.391378], "type": "Point"}, "properties": {"charge": 76, "id": "smide_105", "name": "ZH253804", "provider": "smide", "range": 38.0, "size": 17, "time": "01/27/2020, 16:38:42"}, "type": "Feature"}, {"geometry": {"coordinates": [8.483578, 47.381564], "type": "Point"}, "properties": {"charge": 63, "id": "smide_186", "name": "ZH253751", "provider": "smide", "range": 31.0, "size": 20, "time": "01/27/2020, 16:38:42"}, "type": "Feature"}, {"geometry": {"coordinates": [8.571816, 47.358276], "type": "Point"}, "properties": {"charge": 100, "id": "smide_173", "name": "ZH258501", "provider": "smide", "range": 50.0, "size": 17, "time": "01/27/2020, 16:38:42"}, "type": "Feature"}, {"geometry": {"coordinates": [8.55928, 47.406004], "type": "Point"}, "properties": {"charge": 84, "id": "smide_77", "name": "ZH261548", "provider": "smide", "range": 42.0, "size": 20, "time": "01/27/2020, 16:38:42"}, "type": "Feature"}, {"geometry": {"coordinates": [8.52501, 47.366356], "type": "Point"}, "properties": {"charge": 45, "id": "smide_200", "name": "ZH253801", "provider": "smide", "range": 22.0, "size": 20, "time": "01/27/2020, 16:38:42"}, "type": "Feature"}, {"geometry": {"coordinates": [8.538693, 47.33794], "type": "Point"}, "properties": {"charge": 100, "id": "smide_197", "name": "ZH253864", "provider": "smide", "range": 50.0, "size": 20, "time": "01/27/2020, 16:38:42"}, "type": "Feature"}, {"geometry": {"coordinates": [8.524454, 47.376504], "type": "Point"}, "properties": {"charge": 100, "id": "smide_199", "name": "ZH253766", "provider": "smide", "range": 50.0, "size": 20, "time": "01/27/2020, 16:38:42"}, "type": "Feature"}, {"geometry": {"coordinates": [8.547864, 47.40222], "type": "Point"}, "properties": {"charge": 100, "id": "smide_8", "name": "ZH253861", "provider": "smide", "range": 50.0, "size": 17, "time": "01/27/2020, 16:38:42"}, "type": "Feature"}, {"geometry": {"coordinates": [8.558636, 47.418125], "type": "Point"}, "properties": {"charge": 48, "id": "smide_45", "name": "ZH253716", "provider": "smide", "range": 24.0, "size": 17, "time": "01/27/2020, 16:38:42"}, "type": "Feature"}, {"geometry": {"coordinates": [8.510947, 47.40748], "type": "Point"}, "properties": {"charge": 35, "id": "smide_188", "name": "ZH261543", "provider": "smide", "range": 17.0, "size": 20, "time": "01/27/2020, 16:38:42"}, "type": "Feature"}, {"geometry": {"coordinates": [8.574973, 47.372104], "type": "Point"}, "properties": {"charge": 100, "id": "smide_71", "name": "ZH253742", "provider": "smide", "range": 50.0, "size": 20, "time": "01/27/2020, 16:38:42"}, "type": "Feature"}, {"geometry": {"coordinates": [8.509145, 47.3848], "type": "Point"}, "properties": {"charge": 59, "id": "smide_101", "name": "ZH253814", "provider": "smide", "range": 29.0, "size": 17, "time": "01/27/2020, 16:38:42"}, "type": "Feature"}, {"geometry": {"coordinates": [8.50596, 47.381384], "type": "Point"}, "properties": {"charge": 65, "id": "smide_143", "name": "ZH253778", "provider": "smide", "range": 32.0, "size": 17, "time": "01/27/2020, 16:38:42"}, "type": "Feature"}, {"geometry": {"coordinates": [8.572131, 47.357996], "type": "Point"}, "properties": {"charge": 73, "id": "smide_180", "name": "ZH253824", "provider": "smide", "range": 36.0, "size": 20, "time": "01/27/2020, 16:38:42"}, "type": "Feature"}, {"geometry": {"coordinates": [8.550036, 47.39816], "type": "Point"}, "properties": {"charge": 58, "id": "smide_20", "name": "ZH253770", "provider": "smide", "range": 28.0, "size": 20, "time": "01/27/2020, 16:38:42"}, "type": "Feature"}, {"geometry": {"coordinates": [8.512848, 47.370376], "type": "Point"}, "properties": {"charge": 100, "id": "smide_50", "name": "ZH253853", "provider": "smide", "range": 50.0, "size": 17, "time": "01/27/2020, 16:38:42"}, "type": "Feature"}, {"geometry": {"coordinates": [8.496668, 47.365871], "type": "Point"}, "properties": {"charge": 85, "id": "smide_30", "name": "ZH253813", "provider": "smide", "range": 42.0, "size": 20, "time": "01/27/2020, 16:38:42"}, "type": "Feature"}, {"geometry": {"coordinates": [8.523505, 47.386465], "type": "Point"}, "properties": {"charge": 95, "id": "smide_10", "name": "ZH253855", "provider": "smide", "range": 47.0, "size": 17, "time": "01/27/2020, 16:38:42"}, "type": "Feature"}, {"geometry": {"coordinates": [8.542459, 47.412128], "type": "Point"}, "properties": {"charge": 100, "id": "smide_165", "name": "ZH253752", "provider": "smide", "range": 50.0, "size": 17, "time": "01/27/2020, 16:38:42"}, "type": "Feature"}, {"geometry": {"coordinates": [8.552366, 47.414304], "type": "Point"}, "properties": {"charge": 77, "id": "smide_119", "name": "ZH253686", "provider": "smide", "range": 38.0, "size": 20, "time": "01/27/2020, 16:38:42"}, "type": "Feature"}, {"geometry": {"coordinates": [8.550532, 47.377608], "type": "Point"}, "properties": {"charge": 88, "id": "smide_76", "name": "ZH253764", "provider": "smide", "range": 44.0, "size": 17, "time": "01/27/2020, 16:38:42"}, "type": "Feature"}, {"geometry": {"coordinates": [8.536221, 47.377628], "type": "Point"}, "properties": {"charge": 73, "id": "smide_129", "name": "ZH261378", "provider": "smide", "range": 36.0, "size": 17, "time": "01/27/2020, 16:38:42"}, "type": "Feature"}, {"geometry": {"coordinates": [8.52969, 47.37609], "type": "Point"}, "properties": {"charge": 76, "id": "smide_49", "name": "ZH253873", "provider": "smide", "range": 38.0, "size": 17, "time": "01/27/2020, 16:38:42"}, "type": "Feature"}, {"geometry": {"coordinates": [8.549893, 47.398076], "type": "Point"}, "properties": {"charge": 83, "id": "smide_94", "name": "ZH253754", "provider": "smide", "range": 41.0, "size": 17, "time": "01/27/2020, 16:38:42"}, "type": "Feature"}, {"geometry": {"coordinates": [8.519436, 47.388768], "type": "Point"}, "properties": {"charge": 77, "id": "smide_37", "name": "ZH261377", "provider": "smide", "range": 38.0, "size": 20, "time": "01/27/2020, 16:38:42"}, "type": "Feature"}, {"geometry": {"coordinates": [8.478685, 47.38964], "type": "Point"}, "properties": {"charge": 70, "id": "smide_191", "name": "ZH253762", "provider": "smide", "range": 35.0, "size": 17, "time": "01/27/2020, 16:38:42"}, "type": "Feature"}, {"geometry": {"coordinates": [8.490925, 47.37695], "type": "Point"}, "properties": {"charge": 99, "id": "smide_202", "name": "ZH253830", "provider": "smide", "range": 49.0, "size": 17, "time": "01/27/2020, 16:38:42"}, "type": "Feature"}, {"geometry": {"coordinates": [8.574896, 47.37324], "type": "Point"}, "properties": {"charge": 85, "id": "smide_56", "name": "ZH261442", "provider": "smide", "range": 42.0, "size": 20, "time": "01/27/2020, 16:38:42"}, "type": "Feature"}, {"geometry": {"coordinates": [8.517028, 47.385473], "type": "Point"}, "properties": {"charge": 74, "id": "smide_47", "name": "ZH253858", "provider": "smide", "range": 37.0, "size": 17, "time": "01/27/2020, 16:38:42"}, "type": "Feature"}, {"geometry": {"coordinates": [8.550869, 47.39184], "type": "Point"}, "properties": {"charge": 100, "id": "smide_150", "name": "ZH253703", "provider": "smide", "range": 50.0, "size": 20, "time": "01/27/2020, 16:38:42"}, "type": "Feature"}, {"geometry": {"coordinates": [8.506859, 47.367024], "type": "Point"}, "properties": {"charge": 95, "id": "smide_181", "name": "ZH253815", "provider": "smide", "range": 47.0, "size": 17, "time": "01/27/2020, 16:38:42"}, "type": "Feature"}, {"geometry": {"coordinates": [8.498146, 47.366385], "type": "Point"}, "properties": {"charge": 77, "id": "smide_17", "name": "ZH253793", "provider": "smide", "range": 38.0, "size": 17, "time": "01/27/2020, 16:38:42"}, "type": "Feature"}, {"geometry": {"coordinates": [8.548279, 47.377712], "type": "Point"}, "properties": {"charge": 99, "id": "smide_114", "name": "ZH253878", "provider": "smide", "range": 49.0, "size": 20, "time": "01/27/2020, 16:38:42"}, "type": "Feature"}, {"geometry": {"coordinates": [8.516233, 47.385588], "type": "Point"}, "properties": {"charge": 61, "id": "smide_203", "name": "ZH261547", "provider": "smide", "range": 30.0, "size": 17, "time": "01/27/2020, 16:38:42"}, "type": "Feature"}, {"geometry": {"coordinates": [8.519524, 47.371704], "type": "Point"}, "properties": {"charge": 91, "id": "smide_189", "name": "ZH253845", "provider": "smide", "range": 45.0, "size": 20, "time": "01/27/2020, 16:38:42"}, "type": "Feature"}, {"geometry": {"coordinates": [8.489299, 47.395632], "type": "Point"}, "properties": {"charge": 21, "id": "smide_148", "name": "ZH253844", "provider": "smide", "range": 10.0, "size": 20, "time": "01/27/2020, 16:38:42"}, "type": "Feature"}, {"geometry": {"coordinates": [8.513571, 47.362028], "type": "Point"}, "properties": {"charge": 57, "id": "smide_171", "name": "ZH253689", "provider": "smide", "range": 28.0, "size": 20, "time": "01/27/2020, 16:38:42"}, "type": "Feature"}, {"geometry": {"coordinates": [8.536819, 47.372944], "type": "Point"}, "properties": {"charge": 41, "id": "smide_93", "name": "ZH253681", "provider": "smide", "range": 20.0, "size": 17, "time": "01/27/2020, 16:38:42"}, "type": "Feature"}, {"geometry": {"coordinates": [8.570097, 47.352376], "type": "Point"}, "properties": {"charge": 91, "id": "smide_67", "name": "ZH253779", "provider": "smide", "range": 45.0, "size": 17, "time": "01/27/2020, 16:38:42"}, "type": "Feature"}, {"geometry": {"coordinates": [8.509267, 47.390604], "type": "Point"}, "properties": {"charge": 100, "id": "smide_133", "name": "ZH253848", "provider": "smide", "range": 50.0, "size": 20, "time": "01/27/2020, 16:38:42"}, "type": "Feature"}, {"geometry": {"coordinates": [8.479876, 47.385591], "type": "Point"}, "properties": {"charge": 82, "id": "smide_118", "name": "ZH253759", "provider": "smide", "range": 41.0, "size": 20, "time": "01/27/2020, 16:38:42"}, "type": "Feature"}, {"geometry": {"coordinates": [8.524454, 47.378876], "type": "Point"}, "properties": {"charge": 90, "id": "smide_142", "name": "ZH258745", "provider": "smide", "range": 45.0, "size": 17, "time": "01/27/2020, 16:38:42"}, "type": "Feature"}, {"geometry": {"coordinates": [8.521513, 47.410445], "type": "Point"}, "properties": {"charge": 100, "id": "smide_166", "name": "ZH253728", "provider": "smide", "range": 50.0, "size": 17, "time": "01/27/2020, 16:38:42"}, "type": "Feature"}, {"geometry": {"coordinates": [8.489733, 47.391112], "type": "Point"}, "properties": {"charge": 49, "id": "smide_126", "name": "ZH268400", "provider": "smide", "range": 24.0, "size": 17, "time": "01/27/2020, 16:38:42"}, "type": "Feature"}, {"geometry": {"coordinates": [8.51501, 47.395933], "type": "Point"}, "properties": {"charge": 62, "id": "smide_98", "name": "ZH256321", "provider": "smide", "range": 31.0, "size": 17, "time": "01/27/2020, 16:38:42"}, "type": "Feature"}, {"geometry": {"coordinates": [8.524094, 47.353412], "type": "Point"}, "properties": {"charge": 100, "id": "smide_154", "name": "ZH253744", "provider": "smide", "range": 50.0, "size": 20, "time": "01/27/2020, 16:38:42"}, "type": "Feature"}, {"geometry": {"coordinates": [8.516173, 47.39694], "type": "Point"}, "properties": {"charge": 49, "id": "smide_92", "name": "ZH253798", "provider": "smide", "range": 24.0, "size": 17, "time": "01/27/2020, 16:38:42"}, "type": "Feature"}, {"geometry": {"coordinates": [8.487358, 47.384348], "type": "Point"}, "properties": {"charge": 43, "id": "smide_167", "name": "ZH253854", "provider": "smide", "range": 21.0, "size": 17, "time": "01/27/2020, 16:38:42"}, "type": "Feature"}, {"geometry": {"coordinates": [8.560557, 47.37238], "type": "Point"}, "properties": {"charge": 73, "id": "smide_65", "name": "ZH253810", "provider": "smide", "range": 36.0, "size": 17, "time": "01/27/2020, 16:38:42"}, "type": "Feature"}, {"geometry": {"coordinates": [8.521564, 47.410716], "type": "Point"}, "properties": {"charge": 99, "id": "smide_111", "name": "ZH253763", "provider": "smide", "range": 49.0, "size": 17, "time": "01/27/2020, 16:38:42"}, "type": "Feature"}, {"geometry": {"coordinates": [8.510027, 47.425612], "type": "Point"}, "properties": {"charge": 83, "id": "smide_40", "name": "ZH253690", "provider": "smide", "range": 41.0, "size": 20, "time": "01/27/2020, 16:38:42"}, "type": "Feature"}, {"geometry": {"coordinates": [8.558898, 47.352472], "type": "Point"}, "properties": {"charge": 57, "id": "smide_1", "name": "ZH253776", "provider": "smide", "range": 28.0, "size": 17, "time": "01/27/2020, 16:38:42"}, "type": "Feature"}, {"geometry": {"coordinates": [8.55665, 47.353596], "type": "Point"}, "properties": {"charge": 74, "id": "smide_28", "name": "ZH253831", "provider": "smide", "range": 37.0, "size": 17, "time": "01/27/2020, 16:38:42"}, "type": "Feature"}, {"geometry": {"coordinates": [8.567268, 47.376348], "type": "Point"}, "properties": {"charge": 100, "id": "smide_14", "name": "ZH253749", "provider": "smide", "range": 50.0, "size": 20, "time": "01/27/2020, 16:38:42"}, "type": "Feature"}, {"geometry": {"coordinates": [8.556939, 47.405256], "type": "Point"}, "properties": {"charge": 70, "id": "smide_130", "name": "ZH253847", "provider": "smide", "range": 35.0, "size": 20, "time": "01/27/2020, 16:38:42"}, "type": "Feature"}, {"geometry": {"coordinates": [8.535424, 47.398184], "type": "Point"}, "properties": {"charge": 100, "id": "smide_24", "name": "ZH253696", "provider": "smide", "range": 50.0, "size": 20, "time": "01/27/2020, 16:38:42"}, "type": "Feature"}, {"geometry": {"coordinates": [8.574555, 47.355116], "type": "Point"}, "properties": {"charge": 57, "id": "smide_193", "name": "ZH253738", "provider": "smide", "range": 28.0, "size": 20, "time": "01/27/2020, 16:38:42"}, "type": "Feature"}, {"geometry": {"coordinates": [8.563643, 47.407725], "type": "Point"}, "properties": {"charge": 100, "id": "smide_73", "name": "ZH261379", "provider": "smide", "range": 50.0, "size": 20, "time": "01/27/2020, 16:38:42"}, "type": "Feature"}, {"geometry": {"coordinates": [8.549105, 47.421885], "type": "Point"}, "properties": {"charge": 100, "id": "smide_158", "name": "ZH253870", "provider": "smide", "range": 50.0, "size": 20, "time": "01/27/2020, 16:38:42"}, "type": "Feature"}, {"geometry": {"coordinates": [8.551835, 47.389156], "type": "Point"}, "properties": {"charge": 91, "id": "smide_134", "name": "ZH253741", "provider": "smide", "range": 45.0, "size": 20, "time": "01/27/2020, 16:38:42"}, "type": "Feature"}, {"geometry": {"coordinates": [8.514785, 47.355715], "type": "Point"}, "properties": {"charge": 38, "id": "smide_141", "name": "ZH253800", "provider": "smide", "range": 19.0, "size": 20, "time": "01/27/2020, 16:38:42"}, "type": "Feature"}, {"geometry": {"coordinates": [8.54361, 47.407881], "type": "Point"}, "properties": {"charge": 93, "id": "smide_149", "name": "ZH253743", "provider": "smide", "range": 46.0, "size": 20, "time": "01/27/2020, 16:38:42"}, "type": "Feature"}, {"geometry": {"coordinates": [8.501642, 47.4046], "type": "Point"}, "properties": {"charge": 87, "id": "smide_16", "name": "ZH253713", "provider": "smide", "range": 43.0, "size": 20, "time": "01/27/2020, 16:38:42"}, "type": "Feature"}, {"geometry": {"coordinates": [8.508631, 47.37906], "type": "Point"}, "properties": {"charge": 52, "id": "smide_74", "name": "ZH253693", "provider": "smide", "range": 26.0, "size": 20, "time": "01/27/2020, 16:38:42"}, "type": "Feature"}, {"geometry": {"coordinates": [8.495903, 47.392433], "type": "Point"}, "properties": {"charge": 100, "id": "smide_33", "name": "ZH253782", "provider": "smide", "range": 50.0, "size": 20, "time": "01/27/2020, 16:38:42"}, "type": "Feature"}, {"geometry": {"coordinates": [8.562015, 47.350504], "type": "Point"}, "properties": {"charge": 30, "id": "smide_161", "name": "ZH253691", "provider": "smide", "range": 15.0, "size": 20, "time": "01/27/2020, 16:38:42"}, "type": "Feature"}, {"geometry": {"coordinates": [8.515666, 47.382438], "type": "Point"}, "properties": {"charge": 100, "id": "smide_183", "name": "ZH253868", "provider": "smide", "range": 50.0, "size": 17, "time": "01/27/2020, 16:38:42"}, "type": "Feature"}, {"geometry": {"coordinates": [8.483372, 47.374628], "type": "Point"}, "properties": {"charge": 100, "id": "smide_42", "name": "ZH253846", "provider": "smide", "range": 50.0, "size": 20, "time": "01/27/2020, 16:38:42"}, "type": "Feature"}, {"geometry": {"coordinates": [8.510032, 47.42556], "type": "Point"}, "properties": {"charge": 100, "id": "smide_4", "name": "ZH253740", "provider": "smide", "range": 50.0, "size": 20, "time": "01/27/2020, 16:38:42"}, "type": "Feature"}, {"geometry": {"coordinates": [8.541866, 47.369224], "type": "Point"}, "properties": {"charge": 38, "id": "smide_160", "name": "ZH253722", "provider": "smide", "range": 19.0, "size": 17, "time": "01/27/2020, 16:38:42"}, "type": "Feature"}, {"geometry": {"coordinates": [8.52349, 47.37563], "type": "Point"}, "properties": {"charge": 86, "id": "smide_137", "name": "ZH258502", "provider": "smide", "range": 43.0, "size": 17, "time": "01/27/2020, 16:38:42"}, "type": "Feature"}, {"geometry": {"coordinates": [8.525517, 47.375832], "type": "Point"}, "properties": {"charge": 65, "id": "smide_178", "name": "ZH253803", "provider": "smide", "range": 32.0, "size": 17, "time": "01/27/2020, 16:38:42"}, "type": "Feature"}, {"geometry": {"coordinates": [8.530096, 47.364448], "type": "Point"}, "properties": {"charge": 88, "id": "smide_55", "name": "ZH253875", "provider": "smide", "range": 44.0, "size": 17, "time": "01/27/2020, 16:38:42"}, "type": "Feature"}, {"geometry": {"coordinates": [8.564588, 47.369312], "type": "Point"}, "properties": {"charge": 89, "id": "smide_96", "name": "ZH256146", "provider": "smide", "range": 44.0, "size": 20, "time": "01/27/2020, 16:38:42"}, "type": "Feature"}, {"geometry": {"coordinates": [8.535865, 47.356236], "type": "Point"}, "properties": {"charge": 67, "id": "smide_58", "name": "ZH259246", "provider": "smide", "range": 33.0, "size": 20, "time": "01/27/2020, 16:38:42"}, "type": "Feature"}, {"geometry": {"coordinates": [8.53103, 47.369428], "type": "Point"}, "properties": {"charge": 48, "id": "smide_54", "name": "ZH253874", "provider": "smide", "range": 24.0, "size": 20, "time": "01/27/2020, 16:38:42"}, "type": "Feature"}, {"geometry": {"coordinates": [8.493118, 47.394372], "type": "Point"}, "properties": {"charge": 86, "id": "smide_175", "name": "ZH253730", "provider": "smide", "range": 43.0, "size": 17, "time": "01/27/2020, 16:38:42"}, "type": "Feature"}, {"geometry": {"coordinates": [8.574859, 47.372136], "type": "Point"}, "properties": {"charge": 29, "id": "smide_163", "name": "ZH256147", "provider": "smide", "range": 14.0, "size": 20, "time": "01/27/2020, 16:38:42"}, "type": "Feature"}, {"geometry": {"coordinates": [8.553596, 47.367604], "type": "Point"}, "properties": {"charge": 44, "id": "smide_122", "name": "ZH253850", "provider": "smide", "range": 22.0, "size": 20, "time": "01/27/2020, 16:38:42"}, "type": "Feature"}, {"geometry": {"coordinates": [8.56163, 47.350136], "type": "Point"}, "properties": {"charge": 51, "id": "smide_38", "name": "ZH253851", "provider": "smide", "range": 25.0, "size": 20, "time": "01/27/2020, 16:38:42"}, "type": "Feature"}, {"geometry": {"coordinates": [8.559241, 47.40596], "type": "Point"}, "properties": {"charge": 90, "id": "smide_18", "name": "ZH253859", "provider": "smide", "range": 45.0, "size": 17, "time": "01/27/2020, 16:38:42"}, "type": "Feature"}, {"geometry": {"coordinates": [8.549772, 47.401964], "type": "Point"}, "properties": {"charge": 84, "id": "smide_12", "name": "ZH253685", "provider": "smide", "range": 42.0, "size": 17, "time": "01/27/2020, 16:38:42"}, "type": "Feature"}, {"geometry": {"coordinates": [8.55856, 47.353652], "type": "Point"}, "properties": {"charge": 63, "id": "smide_192", "name": "ZH253706", "provider": "smide", "range": 31.0, "size": 20, "time": "01/27/2020, 16:38:42"}, "type": "Feature"}, {"geometry": {"coordinates": [8.554399, 47.41792], "type": "Point"}, "properties": {"charge": 100, "id": "smide_39", "name": "ZH253714", "provider": "smide", "range": 50.0, "size": 20, "time": "01/27/2020, 16:38:42"}, "type": "Feature"}, {"geometry": {"coordinates": [8.55786, 47.3526], "type": "Point"}, "properties": {"charge": 100, "id": "smide_5", "name": "ZH261443", "provider": "smide", "range": 50.0, "size": 20, "time": "01/27/2020, 16:38:42"}, "type": "Feature"}, {"geometry": {"coordinates": [8.562095, 47.37773], "type": "Point"}, "properties": {"charge": 38, "id": "smide_85", "name": "ZH253729", "provider": "smide", "range": 19.0, "size": 17, "time": "01/27/2020, 16:38:42"}, "type": "Feature"}, {"geometry": {"coordinates": [8.558228, 47.40444], "type": "Point"}, "properties": {"charge": 100, "id": "smide_29", "name": "ZH253723", "provider": "smide", "range": 50.0, "size": 17, "time": "01/27/2020, 16:38:42"}, "type": "Feature"}, {"geometry": {"coordinates": [8.553596, 47.369188], "type": "Point"}, "properties": {"charge": 100, "id": "smide_48", "name": "ZH253849", "provider": "smide", "range": 50.0, "size": 20, "time": "01/27/2020, 16:38:42"}, "type": "Feature"}, {"geometry": {"coordinates": [8.532053, 47.352212], "type": "Point"}, "properties": {"charge": 100, "id": "smide_46", "name": "ZH253843", "provider": "smide", "range": 50.0, "size": 20, "time": "01/27/2020, 16:38:42"}, "type": "Feature"}, {"geometry": {"coordinates": [8.547845, 47.3664016666667], "type": "Point"}, "properties": {"charge": 98, "id": "bird_55a13891-ebf6-4dd9-a351-dcc07a6a658a", "provider": "bird", "timeStamp": "01/27/2020, 16:38:42"}, "type": "Feature"}, {"geometry": {"coordinates": [8.54778666666667, 47.3663716666667], "type": "Point"}, "properties": {"charge": 93, "id": "bird_e1a6cc30-e01c-43b8-a9cb-190afef10468", "provider": "bird", "timeStamp": "01/27/2020, 16:38:42"}, "type": "Feature"}, {"geometry": {"coordinates": [8.54060666666667, 47.3966716666667], "type": "Point"}, "properties": {"charge": 29, "id": "bird_5d485547-0643-4fe9-a526-caf9fb52bfbf", "provider": "bird", "timeStamp": "01/27/2020, 16:38:42"}, "type": "Feature"}, {"geometry": {"coordinates": [8.50477166666667, 47.3858716666667], "type": "Point"}, "properties": {"charge": 67, "id": "bird_e972ae19-0bfa-4f1c-88f3-000d184f3da0", "provider": "bird", "timeStamp": "01/27/2020, 16:38:42"}, "type": "Feature"}, {"geometry": {"coordinates": [8.547415, 47.3667183333333], "type": "Point"}, "properties": {"charge": 80, "id": "bird_3b0b8ae1-6a7f-4df0-8c1c-aba5350dd03b", "provider": "bird", "timeStamp": "01/27/2020, 16:38:42"}, "type": "Feature"}, {"geometry": {"coordinates": [8.54499666666667, 47.36573], "type": "Point"}, "properties": {"charge": 64, "id": "bird_9c782d1b-b66c-4bf0-8aa6-dd260690967e", "provider": "bird", "timeStamp": "01/27/2020, 16:38:42"}, "type": "Feature"}, {"geometry": {"coordinates": [8.51137, 47.3921133333333], "type": "Point"}, "properties": {"charge": 28, "id": "bird_e4f349fe-cf80-47f6-ba5d-e8952fa2e4ec", "provider": "bird", "timeStamp": "01/27/2020, 16:38:42"}, "type": "Feature"}, {"geometry": {"coordinates": [8.51411166666667, 47.3935466666667], "type": "Point"}, "properties": {"charge": 43, "id": "bird_aa47cbd4-dcf4-4ad1-b361-bd9a78e0d102", "provider": "bird", "timeStamp": "01/27/2020, 16:38:42"}, "type": "Feature"}, {"geometry": {"coordinates": [8.545415, 47.3663516666667], "type": "Point"}, "properties": {"charge": 98, "id": "bird_6d550503-da36-42d1-9b89-995315082b02", "provider": "bird", "timeStamp": "01/27/2020, 16:38:42"}, "type": "Feature"}, {"geometry": {"coordinates": [8.54488833333333, 47.366275], "type": "Point"}, "properties": {"charge": 98, "id": "bird_1f8ace7d-bb99-4b61-b4c4-f994d6df9c9a", "provider": "bird", "timeStamp": "01/27/2020, 16:38:42"}, "type": "Feature"}, {"geometry": {"coordinates": [8.54489666666667, 47.366295], "type": "Point"}, "properties": {"charge": 98, "id": "bird_88773f9e-2b27-43c5-a4fe-4438d30236fe", "provider": "bird", "timeStamp": "01/27/2020, 16:38:42"}, "type": "Feature"}, {"geometry": {"coordinates": [8.51061666666667, 47.36927], "type": "Point"}, "properties": {"charge": 35, "id": "bird_13c09e56-4a41-46b4-acd9-f413c9f5deb8", "provider": "bird", "timeStamp": "01/27/2020, 16:38:42"}, "type": "Feature"}, {"geometry": {"coordinates": [8.553375, 47.3741383333333], "type": "Point"}, "properties": {"charge": 31, "id": "bird_e2d694bf-a04d-4257-a6f5-d13b1c767c07", "provider": "bird", "timeStamp": "01/27/2020, 16:38:42"}, "type": "Feature"}, {"geometry": {"coordinates": [8.52003, 47.36457], "type": "Point"}, "properties": {"charge": 65, "id": "bird_89f7279a-0f92-41ea-889e-fe1bc2635084", "provider": "bird", "timeStamp": "01/27/2020, 16:38:42"}, "type": "Feature"}, {"geometry": {"coordinates": [8.51968166666667, 47.3650966666667], "type": "Point"}, "properties": {"charge": 48, "id": "bird_6355010a-520d-40c6-925c-fb526e21decd", "provider": "bird", "timeStamp": "01/27/2020, 16:38:42"}, "type": "Feature"}, {"geometry": {"coordinates": [8.54428666666667, 47.3668283333333], "type": "Point"}, "properties": {"charge": 36, "id": "bird_3c8d7d87-87f2-4417-84d7-8551f72a989f", "provider": "bird", "timeStamp": "01/27/2020, 16:38:42"}, "type": "Feature"}, {"geometry": {"coordinates": [8.52450333333333, 47.395905], "type": "Point"}, "properties": {"charge": 60, "id": "bird_d1a55704-1c08-4c2e-a075-329c6c1f2bf9", "provider": "bird", "timeStamp": "01/27/2020, 16:38:42"}, "type": "Feature"}, {"geometry": {"coordinates": [8.54850166666667, 47.3904], "type": "Point"}, "properties": {"charge": 38, "id": "bird_4cd7d7c5-8084-4399-b911-eb320af13c36", "provider": "bird", "timeStamp": "01/27/2020, 16:38:42"}, "type": "Feature"}, {"geometry": {"coordinates": [8.52621, 47.3641883333333], "type": "Point"}, "properties": {"charge": 54, "id": "bird_e1785d57-208b-4148-ad67-8982e40a1854", "provider": "bird", "timeStamp": "01/27/2020, 16:38:42"}, "type": "Feature"}, {"geometry": {"coordinates": [8.531625, 47.36404], "type": "Point"}, "properties": {"charge": 98, "id": "bird_3ca1c68d-734e-4659-a692-26a1136c0cd7", "provider": "bird", "timeStamp": "01/27/2020, 16:38:42"}, "type": "Feature"}, {"geometry": {"coordinates": [8.531605, 47.3640516666667], "type": "Point"}, "properties": {"charge": 98, "id": "bird_c61862f4-6a99-4eed-9de3-3b969c6ed684", "provider": "bird", "timeStamp": "01/27/2020, 16:38:42"}, "type": "Feature"}, {"geometry": {"coordinates": [8.54499166666667, 47.3677133333333], "type": "Point"}, "properties": {"charge": 76, "id": "bird_1df065f6-93c6-4267-99c1-317f2a1c9ac5", "provider": "bird", "timeStamp": "01/27/2020, 16:38:42"}, "type": "Feature"}, {"geometry": {"coordinates": [8.54498666666667, 47.36774], "type": "Point"}, "properties": {"charge": 83, "id": "bird_a56801ec-207d-4bbe-9daa-36679cc482a8", "provider": "bird", "timeStamp": "01/27/2020, 16:38:42"}, "type": "Feature"}, {"geometry": {"coordinates": [8.53163, 47.364125], "type": "Point"}, "properties": {"charge": 96, "id": "bird_8034e203-521e-4ffa-865a-f3b7bb69d8b5", "provider": "bird", "timeStamp": "01/27/2020, 16:38:42"}, "type": "Feature"}, {"geometry": {"coordinates": [8.53155166666667, 47.36414], "type": "Point"}, "properties": {"charge": 96, "id": "bird_94545041-8c09-473b-b033-476b877965f2", "provider": "bird", "timeStamp": "01/27/2020, 16:38:42"}, "type": "Feature"}, {"geometry": {"coordinates": [8.54496166666667, 47.3679016666667], "type": "Point"}, "properties": {"charge": 85, "id": "bird_a51aaeb8-cfc8-4176-85e4-734cfa68801d", "provider": "bird", "timeStamp": "01/27/2020, 16:38:42"}, "type": "Feature"}, {"geometry": {"coordinates": [8.53326, 47.3643883333333], "type": "Point"}, "properties": {"charge": 55, "id": "bird_2d993c0d-9aed-4ee4-b5bf-a5f20814dfc9", "provider": "bird", "timeStamp": "01/27/2020, 16:38:42"}, "type": "Feature"}, {"geometry": {"coordinates": [8.53925338449296, 47.3655716228605], "type": "Point"}, "properties": {"charge": 100, "id": "bird_cd3a3286-afc8-420f-85e5-034086d01fff", "provider": "bird", "timeStamp": "01/27/2020, 16:38:42"}, "type": "Feature"}, {"geometry": {"coordinates": [8.53162666666667, 47.3643983333333], "type": "Point"}, "properties": {"charge": 98, "id": "bird_36b3f47c-3eb5-42ff-904a-c664850cdffc", "provider": "bird", "timeStamp": "01/27/2020, 16:38:42"}, "type": "Feature"}, {"geometry": {"coordinates": [8.53892, 47.3655783333333], "type": "Point"}, "properties": {"charge": 80, "id": "bird_0dae2de2-566b-4727-9550-7a07d94b4694", "provider": "bird", "timeStamp": "01/27/2020, 16:38:42"}, "type": "Feature"}, {"geometry": {"coordinates": [8.54102666666667, 47.3662833333333], "type": "Point"}, "properties": {"charge": 97, "id": "bird_5a09278a-7833-4e06-aab3-c014cfc2bfc9", "provider": "bird", "timeStamp": "01/27/2020, 16:38:42"}, "type": "Feature"}, {"geometry": {"coordinates": [8.54084666666667, 47.3662333333333], "type": "Point"}, "properties": {"charge": 100, "id": "bird_8debb2d5-a9be-461c-a601-fc13d240eaa7", "provider": "bird", "timeStamp": "01/27/2020, 16:38:42"}, "type": "Feature"}, {"geometry": {"coordinates": [8.54085815869903, 47.3662964620229], "type": "Point"}, "properties": {"charge": 100, "id": "bird_a1e3cdcb-e228-45b7-95bf-25e326bd1966", "provider": "bird", "timeStamp": "01/27/2020, 16:38:42"}, "type": "Feature"}, {"geometry": {"coordinates": [8.53175, 47.364525], "type": "Point"}, "properties": {"charge": 98, "id": "bird_4d8444c8-5e5f-4f3e-8ea8-26d58fc91b21", "provider": "bird", "timeStamp": "01/27/2020, 16:38:42"}, "type": "Feature"}, {"geometry": {"coordinates": [8.53172166666667, 47.3645666666667], "type": "Point"}, "properties": {"charge": 97, "id": "bird_d89deffc-72d2-4e5b-9dc9-98c534984a93", "provider": "bird", "timeStamp": "01/27/2020, 16:38:42"}, "type": "Feature"}, {"geometry": {"coordinates": [8.51805, 47.3668333333333], "type": "Point"}, "properties": {"charge": 20, "id": "bird_623cbcb4-460c-405a-90de-7969e161fef3", "provider": "bird", "timeStamp": "01/27/2020, 16:38:42"}, "type": "Feature"}, {"geometry": {"coordinates": [8.50728666666667, 47.38004], "type": "Point"}, "properties": {"charge": 27, "id": "bird_c9b12892-7171-4cf1-bb5b-87d51892ee6f", "provider": "bird", "timeStamp": "01/27/2020, 16:38:42"}, "type": "Feature"}, {"geometry": {"coordinates": [8.53180666666667, 47.3647033333333], "type": "Point"}, "properties": {"charge": 64, "id": "bird_c846868b-e886-41e6-b535-c427292aa41e", "provider": "bird", "timeStamp": "01/27/2020, 16:38:42"}, "type": "Feature"}, {"geometry": {"coordinates": [8.53058166666667, 47.3647916666667], "type": "Point"}, "properties": {"charge": 74, "id": "bird_a71278ea-cccb-4115-9068-f377e9dc4d8a", "provider": "bird", "timeStamp": "01/27/2020, 16:38:42"}, "type": "Feature"}, {"geometry": {"coordinates": [8.53048166666667, 47.364815], "type": "Point"}, "properties": {"charge": 30, "id": "bird_37350909-5a54-4635-a042-26b5c65c9b2e", "provider": "bird", "timeStamp": "01/27/2020, 16:38:42"}, "type": "Feature"}, {"geometry": {"coordinates": [8.51455166666667, 47.390815], "type": "Point"}, "properties": {"charge": 94, "id": "bird_1fc27374-d48e-4ba6-a482-5498b71ec0bf", "provider": "bird", "timeStamp": "01/27/2020, 16:38:42"}, "type": "Feature"}, {"geometry": {"coordinates": [8.51488666666667, 47.390885], "type": "Point"}, "properties": {"charge": 70, "id": "bird_99a22c4f-9fc3-4dec-969d-59ce753c751d", "provider": "bird", "timeStamp": "01/27/2020, 16:38:42"}, "type": "Feature"}, {"geometry": {"coordinates": [8.52549833333333, 47.3945233333333], "type": "Point"}, "properties": {"charge": 37, "id": "bird_19aa676e-cd95-4b53-8573-b7468b522dfe", "provider": "bird", "timeStamp": "01/27/2020, 16:38:42"}, "type": "Feature"}, {"geometry": {"coordinates": [8.52051833333333, 47.36678], "type": "Point"}, "properties": {"charge": 61, "id": "bird_e7b6e01a-2497-47a8-b03e-9a8f25be4b93", "provider": "bird", "timeStamp": "01/27/2020, 16:38:42"}, "type": "Feature"}, {"geometry": {"coordinates": [8.53177833333333, 47.36544], "type": "Point"}, "properties": {"charge": 67, "id": "bird_cd81ac6d-2356-4065-b0f2-9a51b3756f8f", "provider": "bird", "timeStamp": "01/27/2020, 16:38:42"}, "type": "Feature"}, {"geometry": {"coordinates": [8.51309, 47.3710166666667], "type": "Point"}, "properties": {"charge": 21, "id": "bird_f29f1ea7-0d65-4e96-be62-67c320c924e7", "provider": "bird", "timeStamp": "01/27/2020, 16:38:42"}, "type": "Feature"}, {"geometry": {"coordinates": [8.50879666666667, 47.3797766666667], "type": "Point"}, "properties": {"charge": 54, "id": "bird_fd270c76-ac22-4e10-9ba8-14c79b6532ca", "provider": "bird", "timeStamp": "01/27/2020, 16:38:42"}, "type": "Feature"}, {"geometry": {"coordinates": [8.51399166666667, 47.389335], "type": "Point"}, "properties": {"charge": 62, "id": "bird_9684160c-6356-416d-8812-d86785d7aa33", "provider": "bird", "timeStamp": "01/27/2020, 16:38:42"}, "type": "Feature"}, {"geometry": {"coordinates": [8.53649, 47.36639], "type": "Point"}, "properties": {"charge": 52, "id": "bird_1f672f49-5ae4-4a8f-ac80-87eb608dcdb4", "provider": "bird", "timeStamp": "01/27/2020, 16:38:42"}, "type": "Feature"}, {"geometry": {"coordinates": [8.53645833333333, 47.3664283333333], "type": "Point"}, "properties": {"charge": 37, "id": "bird_aa4256a7-fe42-4dc5-9450-f04ef9071624", "provider": "bird", "timeStamp": "01/27/2020, 16:38:42"}, "type": "Feature"}, {"geometry": {"coordinates": [8.51517, 47.3699383333333], "type": "Point"}, "properties": {"charge": 34, "id": "bird_d9dbd0eb-63b6-4992-8000-86c8c0f50090", "provider": "bird", "timeStamp": "01/27/2020, 16:38:42"}, "type": "Feature"}, {"geometry": {"coordinates": [8.51182666666667, 47.372925], "type": "Point"}, "properties": {"charge": 54, "id": "bird_bf9ac7dd-7428-4592-8cca-144aebc918ec", "provider": "bird", "timeStamp": "01/27/2020, 16:38:42"}, "type": "Feature"}, {"geometry": {"coordinates": [8.54982, 47.3845516666667], "type": "Point"}, "properties": {"charge": 29, "id": "bird_ad6e1878-7ff8-459e-8fdc-cad35de15f9d", "provider": "bird", "timeStamp": "01/27/2020, 16:38:42"}, "type": "Feature"}, {"geometry": {"coordinates": [8.51183, 47.372975], "type": "Point"}, "properties": {"charge": 29, "id": "bird_a8e17aff-57c8-4393-b6c3-4a387398179b", "provider": "bird", "timeStamp": "01/27/2020, 16:38:42"}, "type": "Feature"}, {"geometry": {"coordinates": [8.51702333333333, 47.39111], "type": "Point"}, "properties": {"charge": 54, "id": "bird_b25cc874-0bbb-40e3-ac10-70f1de5a8152", "provider": "bird", "timeStamp": "01/27/2020, 16:38:42"}, "type": "Feature"}, {"geometry": {"coordinates": [8.5353, 47.3665166666667], "type": "Point"}, "properties": {"charge": 48, "id": "bird_2e4f1b9c-336a-4415-a5e5-321d5a70b7ec", "provider": "bird", "timeStamp": "01/27/2020, 16:38:42"}, "type": "Feature"}, {"geometry": {"coordinates": [8.53508333333333, 47.3665916666667], "type": "Point"}, "properties": {"charge": 83, "id": "bird_f1b6c684-89ce-4774-909d-a65315d665e1", "provider": "bird", "timeStamp": "01/27/2020, 16:38:42"}, "type": "Feature"}, {"geometry": {"coordinates": [8.54005, 47.3679616666667], "type": "Point"}, "properties": {"charge": 69, "id": "bird_8b4a904a-0bc4-425e-8ef3-9beaf8ad6347", "provider": "bird", "timeStamp": "01/27/2020, 16:38:42"}, "type": "Feature"}, {"geometry": {"coordinates": [8.53968166666667, 47.3679466666667], "type": "Point"}, "properties": {"charge": 92, "id": "bird_263b2bd6-4f16-4e57-a257-b4097e05acd4", "provider": "bird", "timeStamp": "01/27/2020, 16:38:42"}, "type": "Feature"}, {"geometry": {"coordinates": [8.53945666666667, 47.36795], "type": "Point"}, "properties": {"charge": 78, "id": "bird_fc4761b7-f1c7-4a4c-8500-a42e205fc4f5", "provider": "bird", "timeStamp": "01/27/2020, 16:38:42"}, "type": "Feature"}, {"geometry": {"coordinates": [8.53347833333333, 47.36657], "type": "Point"}, "properties": {"charge": 61, "id": "bird_12493297-3984-4fd0-811b-c32db7d86535", "provider": "bird", "timeStamp": "01/27/2020, 16:38:42"}, "type": "Feature"}, {"geometry": {"coordinates": [8.53632, 47.3670766666667], "type": "Point"}, "properties": {"charge": 76, "id": "bird_c79537cd-17c3-4cf8-9344-30d0b1deda6a", "provider": "bird", "timeStamp": "01/27/2020, 16:38:42"}, "type": "Feature"}, {"geometry": {"coordinates": [8.536345, 47.3671033333333], "type": "Point"}, "properties": {"charge": 72, "id": "bird_c2a8228c-f440-449d-8301-1ff23be9f43c", "provider": "bird", "timeStamp": "01/27/2020, 16:38:42"}, "type": "Feature"}, {"geometry": {"coordinates": [8.52668333333333, 47.3934016666667], "type": "Point"}, "properties": {"charge": 33, "id": "bird_51e8ba30-d0d3-43d5-9180-3009c19338ba", "provider": "bird", "timeStamp": "01/27/2020, 16:38:42"}, "type": "Feature"}, {"geometry": {"coordinates": [8.51082833333333, 47.3760266666667], "type": "Point"}, "properties": {"charge": 48, "id": "bird_20d63ca3-54c4-4a25-878d-946d1782cb46", "provider": "bird", "timeStamp": "01/27/2020, 16:38:42"}, "type": "Feature"}, {"geometry": {"coordinates": [8.51836666666667, 47.3910333333333], "type": "Point"}, "properties": {"charge": 88, "id": "bird_461725d4-e1ff-43a8-9226-44a6f34ddd14", "provider": "bird", "timeStamp": "01/27/2020, 16:38:42"}, "type": "Feature"}, {"geometry": {"coordinates": [8.54711666666667, 47.3730133333333], "type": "Point"}, "properties": {"charge": 72, "id": "bird_3d8ee1e7-c095-4b1f-99b0-fbb83fcb5aa7", "provider": "bird", "timeStamp": "01/27/2020, 16:38:42"}, "type": "Feature"}, {"geometry": {"coordinates": [8.515285, 47.3891033333333], "type": "Point"}, "properties": {"charge": 29, "id": "bird_da68d056-aedf-42f9-b6ad-2cb6316a3d5f", "provider": "bird", "timeStamp": "01/27/2020, 16:38:42"}, "type": "Feature"}, {"geometry": {"coordinates": [8.51012833333333, 47.3802333333333], "type": "Point"}, "properties": {"charge": 35, "id": "bird_e68a08e0-95b7-4966-a838-043e7df1aeb1", "provider": "bird", "timeStamp": "01/27/2020, 16:38:42"}, "type": "Feature"}, {"geometry": {"coordinates": [8.51054833333333, 47.3804933333333], "type": "Point"}, "properties": {"charge": 15, "id": "bird_0d943775-ee79-4af4-9507-0c186d31f2be", "provider": "bird", "timeStamp": "01/27/2020, 16:38:42"}, "type": "Feature"}, {"geometry": {"coordinates": [8.51125166666667, 47.3768916666667], "type": "Point"}, "properties": {"charge": 54, "id": "bird_ffda98d2-bef9-4e83-a035-1180638234fc", "provider": "bird", "timeStamp": "01/27/2020, 16:38:42"}, "type": "Feature"}, {"geometry": {"coordinates": [8.51109166666667, 47.379185], "type": "Point"}, "properties": {"charge": 24, "id": "bird_122dfaf6-554c-424b-931c-fb210a057d0e", "provider": "bird", "timeStamp": "01/27/2020, 16:38:42"}, "type": "Feature"}, {"geometry": {"coordinates": [8.528415, 47.3927233333333], "type": "Point"}, "properties": {"charge": 49, "id": "bird_60f47440-929d-4c9c-ab71-ec3fb0ae38e6", "provider": "bird", "timeStamp": "01/27/2020, 16:38:42"}, "type": "Feature"}, {"geometry": {"coordinates": [8.521465, 47.3686183333333], "type": "Point"}, "properties": {"charge": 69, "id": "bird_1acab446-3733-495e-92ce-a2bc3b3805df", "provider": "bird", "timeStamp": "01/27/2020, 16:38:42"}, "type": "Feature"}, {"geometry": {"coordinates": [8.535585, 47.3678733333333], "type": "Point"}, "properties": {"charge": 56, "id": "bird_f870566b-961c-456d-af93-199e55220cd8", "provider": "bird", "timeStamp": "01/27/2020, 16:38:42"}, "type": "Feature"}, {"geometry": {"coordinates": [8.52562833333333, 47.3923266666667], "type": "Point"}, "properties": {"charge": 62, "id": "bird_cea49f64-ebc9-47e5-a385-729d2ed3b776", "provider": "bird", "timeStamp": "01/27/2020, 16:38:42"}, "type": "Feature"}, {"geometry": {"coordinates": [8.51844166666667, 47.3700566666667], "type": "Point"}, "properties": {"charge": 53, "id": "bird_b5ceea92-a624-4bae-9c36-1bdbeeee22ba", "provider": "bird", "timeStamp": "01/27/2020, 16:38:42"}, "type": "Feature"}, {"geometry": {"coordinates": [8.539035, 47.3910683333333], "type": "Point"}, "properties": {"charge": 37, "id": "bird_d631f69c-3067-4ae9-9e7a-5692bf9aba85", "provider": "bird", "timeStamp": "01/27/2020, 16:38:42"}, "type": "Feature"}, {"geometry": {"coordinates": [8.53635166666667, 47.368115], "type": "Point"}, "properties": {"charge": 98, "id": "bird_2a3a6883-5ad4-4e4f-aeb5-a75729a94e40", "provider": "bird", "timeStamp": "01/27/2020, 16:38:42"}, "type": "Feature"}, {"geometry": {"coordinates": [8.53636833333333, 47.36813], "type": "Point"}, "properties": {"charge": 100, "id": "bird_8f2e600e-a22d-4a30-a578-270da09b483f", "provider": "bird", "timeStamp": "01/27/2020, 16:38:42"}, "type": "Feature"}, {"geometry": {"coordinates": [8.54051333333333, 47.3696516666667], "type": "Point"}, "properties": {"charge": 17, "id": "bird_64366ba5-1b4c-4dd0-8ba0-833abf0382a1", "provider": "bird", "timeStamp": "01/27/2020, 16:38:42"}, "type": "Feature"}, {"geometry": {"coordinates": [8.53641833333333, 47.3682216666667], "type": "Point"}, "properties": {"charge": 100, "id": "bird_ec57b456-963a-4e42-a7f7-c813bf1cb75e", "provider": "bird", "timeStamp": "01/27/2020, 16:38:42"}, "type": "Feature"}, {"geometry": {"coordinates": [8.540465, 47.3696483333333], "type": "Point"},