{"features": [{"geometry": {"coordinates": [8.540062, 47.374392], "type": "Point"}, "properties": {"address": "Uraniastrasse 7", "electric": 8, "id": "pb_60", "manual": 8, "name": "Demo Station Werdm\u00fchleplatz", "provider": "publibike", "timeStamp": "01/28/2020, 11:28:39", "zip": 8001}, "type": "Feature"}, {"geometry": {"coordinates": [8.5452956, 47.4099615], "type": "Point"}, "properties": {"address": "Querstrasse 8", "electric": 0, "id": "pb_61", "manual": 1, "name": "Marktplatz", "provider": "publibike", "timeStamp": "01/28/2020, 11:28:39", "zip": 8050}, "type": "Feature"}, {"geometry": {"coordinates": [8.5156327, 47.3795837], "type": "Point"}, "properties": {"address": "Bullingerstrasse 5", "electric": 1, "id": "pb_80", "manual": 8, "name": "Bullingerplatz", "provider": "publibike", "timeStamp": "01/28/2020, 11:28:39", "zip": 8004}, "type": "Feature"}, {"geometry": {"coordinates": [8.5104051, 47.3899342], "type": "Point"}, "properties": {"address": "Pfingstweidstrasse 96e", "electric": 1, "id": "pb_81", "manual": 4, "name": "Herdern", "provider": "publibike", "timeStamp": "01/28/2020, 11:28:39", "zip": 8001}, "type": "Feature"}, {"geometry": {"coordinates": [8.535718, 47.359675], "type": "Point"}, "properties": {"address": "Mythenquai 50", "electric": 13, "id": "pb_82", "manual": 4, "name": "Hafen Enge", "provider": "publibike", "timeStamp": "01/28/2020, 11:28:39", "zip": 8002}, "type": "Feature"}, {"geometry": {"coordinates": [8.520370505, 47.358663827], "type": "Point"}, "properties": {"address": "Bubenbergstrasse 1", "electric": 4, "id": "pb_83", "manual": 1, "name": "Comerge", "provider": "publibike", "timeStamp": "01/28/2020, 11:28:39", "zip": 8045}, "type": "Feature"}, {"geometry": {"coordinates": [8.5412505, 47.3789825], "type": "Point"}, "properties": {"address": "Museumstrasse 2", "electric": 7, "id": "pb_84", "manual": 28, "name": "Landesmuseum", "provider": "publibike", "timeStamp": "01/28/2020, 11:28:39", "zip": 8001}, "type": "Feature"}, {"geometry": {"coordinates": [8.5235479, 47.3716661], "type": "Point"}, "properties": {"address": "Birmensdorferstrasse 80", "electric": 0, "id": "pb_85", "manual": 1, "name": "Bahnhof Wiedikon", "provider": "publibike", "timeStamp": "01/28/2020, 11:28:39", "zip": 8003}, "type": "Feature"}, {"geometry": {"coordinates": [8.506822854, 47.40781197], "type": "Point"}, "properties": {"address": "Stefano-Franscini-Platz 5", "electric": 7, "id": "pb_86", "manual": 0, "name": "ETH H\u00f6nggerberg", "provider": "publibike", "timeStamp": "01/28/2020, 11:28:39", "zip": 8093}, "type": "Feature"}, {"geometry": {"coordinates": [8.536101, 47.371083], "type": "Point"}, "properties": {"address": "Pelikanplatz 5", "electric": 5, "id": "pb_87", "manual": 1, "name": "Pelikanplatz", "provider": "publibike", "timeStamp": "01/28/2020, 11:28:39", "zip": 8001}, "type": "Feature"}, {"geometry": {"coordinates": [8.5257822, 47.3651936], "type": "Point"}, "properties": {"address": "H\u00fcrlimannplatz 90", "electric": 21, "id": "pb_88", "manual": 4, "name": "H\u00fcrlimannplatz", "provider": "publibike", "timeStamp": "01/28/2020, 11:28:39", "zip": 8002}, "type": "Feature"}, {"geometry": {"coordinates": [8.5313344, 47.3713591], "type": "Point"}, "properties": {"address": "Selnaustrasse 32", "electric": 5, "id": "pb_89", "manual": 2, "name": "Stauffacherbr\u00fccke", "provider": "publibike", "timeStamp": "01/28/2020, 11:28:39", "zip": 8001}, "type": "Feature"}, {"geometry": {"coordinates": [8.5056978, 47.3917964], "type": "Point"}, "properties": {"address": "Sportweg 25", "electric": 10, "id": "pb_90", "manual": 6, "name": "Sportweg", "provider": "publibike", "timeStamp": "01/28/2020, 11:28:39", "zip": 8005}, "type": "Feature"}, {"geometry": {"coordinates": [8.5181701, 47.3917837], "type": "Point"}, "properties": {"address": "Hardturmstrasse 11", "electric": 2, "id": "pb_91", "manual": 8, "name": "Puls 5", "provider": "publibike", "timeStamp": "01/28/2020, 11:28:39", "zip": 8005}, "type": "Feature"}, {"geometry": {"coordinates": [8.5286468, 47.3820827], "type": "Point"}, "properties": {"address": "R\u00f6ntgenstrasse 6", "electric": 5, "id": "pb_92", "manual": 3, "name": "R\u00f6ntgenstrasse", "provider": "publibike", "timeStamp": "01/28/2020, 11:28:39", "zip": 8005}, "type": "Feature"}, {"geometry": {"coordinates": [8.531935, 47.384918], "type": "Point"}, "properties": {"address": "Kornhausbr\u00fccke 1", "electric": 2, "id": "pb_93", "manual": 2, "name": "Limmatplatz", "provider": "publibike", "timeStamp": "01/28/2020, 11:28:39", "zip": 8005}, "type": "Feature"}, {"geometry": {"coordinates": [8.5354006, 47.3758639], "type": "Point"}, "properties": {"address": "Gessnerallee 15", "electric": 3, "id": "pb_94", "manual": 7, "name": "Gessnerallee", "provider": "publibike", "timeStamp": "01/28/2020, 11:28:39", "zip": 8001}, "type": "Feature"}, {"geometry": {"coordinates": [8.523818, 47.377148], "type": "Point"}, "properties": {"address": "Stauffacherstrasse 127", "electric": 4, "id": "pb_95", "manual": 5, "name": "B\u00e4ckeranlage", "provider": "publibike", "timeStamp": "01/28/2020, 11:28:39", "zip": 8004}, "type": "Feature"}, {"geometry": {"coordinates": [8.531836, 47.378548], "type": "Point"}, "properties": {"address": "Lagerstrasse 44", "electric": 13, "id": "pb_96", "manual": 18, "name": "Gustav-Gull-Platz", "provider": "publibike", "timeStamp": "01/28/2020, 11:28:39", "zip": 8004}, "type": "Feature"}, {"geometry": {"coordinates": [8.5104883, 47.3771535], "type": "Point"}, "properties": {"address": "Zurlindenstrasse 291", "electric": 2, "id": "pb_97", "manual": 4, "name": "Zurlindenstrasse", "provider": "publibike", "timeStamp": "01/28/2020, 11:28:39", "zip": 8003}, "type": "Feature"}, {"geometry": {"coordinates": [8.5333139, 47.3731102], "type": "Point"}, "properties": {"address": "Sihlstrasse 81", "electric": 4, "id": "pb_98", "manual": 0, "name": "Sihlstrasse", "provider": "publibike", "timeStamp": "01/28/2020, 11:28:39", "zip": 8001}, "type": "Feature"}, {"geometry": {"coordinates": [8.520532, 47.374951], "type": "Point"}, "properties": {"address": "Feldstrasse 24", "electric": 3, "id": "pb_99", "manual": 3, "name": "Kalkbreite", "provider": "publibike", "timeStamp": "01/28/2020, 11:28:39", "zip": 8004}, "type": "Feature"}, {"geometry": {"coordinates": [8.539046, 47.368064], "type": "Point"}, "properties": {"address": "Talstrasse 12", "electric": 2, "id": "pb_100", "manual": 3, "name": "Z\u00fcrcher Kantonalbank", "provider": "publibike", "timeStamp": "01/28/2020, 11:28:39", "zip": 8001}, "type": "Feature"}, {"geometry": {"coordinates": [8.5348427, 47.3625938], "type": "Point"}, "properties": {"address": "Breitingerstrasse 5", "electric": 2, "id": "pb_101", "manual": 1, "name": "Rentenanstalt", "provider": "publibike", "timeStamp": "01/28/2020, 11:28:39", "zip": 8002}, "type": "Feature"}, {"geometry": {"coordinates": [8.5166922, 47.3897772], "type": "Point"}, "properties": {"address": "Technoparkstrasse 4", "electric": 6, "id": "pb_102", "manual": 1, "name": "Turbinenplatz", "provider": "publibike", "timeStamp": "01/28/2020, 11:28:39", "zip": 8005}, "type": "Feature"}, {"geometry": {"coordinates": [8.539312, 47.3739964], "type": "Point"}, "properties": {"address": "Oetenbachgasse 14", "electric": 5, "id": "pb_104", "manual": 9, "name": "Rennweg", "provider": "publibike", "timeStamp": "01/28/2020, 11:28:39", "zip": 8001}, "type": "Feature"}, {"geometry": {"coordinates": [8.5360685, 47.3775022], "type": "Point"}, "properties": {"address": "Kasernenstrasse 101", "electric": 4, "id": "pb_105", "manual": 23, "name": "Sihlpost", "provider": "publibike", "timeStamp": "01/28/2020, 11:28:39", "zip": 8004}, "type": "Feature"}, {"geometry": {"coordinates": [8.53545, 47.382798], "type": "Point"}, "properties": {"address": "Ausstellungsstrasse 44", "electric": 4, "id": "pb_106", "manual": 8, "name": "Museum f\u00fcr Gestaltung", "provider": "publibike", "timeStamp": "01/28/2020, 11:28:39", "zip": 8005}, "type": "Feature"}, {"geometry": {"coordinates": [8.5306155, 47.3647902], "type": "Point"}, "properties": {"address": "Gutenbergstrasse 1", "electric": 8, "id": "pb_107", "manual": 10, "name": "Bederbr\u00fccke", "provider": "publibike", "timeStamp": "01/28/2020, 11:28:39", "zip": 8002}, "type": "Feature"}, {"geometry": {"coordinates": [8.518982, 47.386741], "type": "Point"}, "properties": {"address": "Geroldstrasse 4", "electric": 1, "id": "pb_108", "manual": 4, "name": "Bahnhof Hardbr\u00fccke", "provider": "publibike", "timeStamp": "01/28/2020, 11:28:39", "zip": 8005}, "type": "Feature"}, {"geometry": {"coordinates": [8.53001018, 47.37247535], "type": "Point"}, "properties": {"address": "Werdstrasse 21", "electric": 9, "id": "pb_109", "manual": 1, "name": "Tamedia", "provider": "publibike", "timeStamp": "01/28/2020, 11:28:39", "zip": 8004}, "type": "Feature"}, {"geometry": {"coordinates": [8.4860017, 47.396401], "type": "Point"}, "properties": {"address": "Gr\u00fcnauring 37", "electric": 5, "id": "pb_110", "manual": 6, "name": "Gr\u00fcnau", "provider": "publibike", "timeStamp": "01/28/2020, 11:28:39", "zip": 8064}, "type": "Feature"}, {"geometry": {"coordinates": [8.548519, 47.376756], "type": "Point"}, "properties": {"address": "R\u00e4mistrasse 101", "electric": 24, "id": "pb_111", "manual": 0, "name": "ETH Zentrum", "provider": "publibike", "timeStamp": "01/28/2020, 11:28:39", "zip": 8006}, "type": "Feature"}, {"geometry": {"coordinates": [8.520449, 47.388151], "type": "Point"}, "properties": {"address": "Josefstrasse 224", "electric": 0, "id": "pb_112", "manual": 0, "name": "Steinfelsareal", "provider": "publibike", "timeStamp": "01/28/2020, 11:28:39", "zip": 8005}, "type": "Feature"}, {"geometry": {"coordinates": [8.520482, 47.37209], "type": "Point"}, "properties": {"address": "Weststrasse 115", "electric": 7, "id": "pb_124", "manual": 6, "name": "Weststrasse", "provider": "publibike", "timeStamp": "01/28/2020, 11:28:39", "zip": 8003}, "type": "Feature"}, {"geometry": {"coordinates": [8.496727, 47.378521], "type": "Point"}, "properties": {"address": "Albisriederstrasse 200", "electric": 4, "id": "pb_125", "manual": 1, "name": "Utogrund", "provider": "publibike", "timeStamp": "01/28/2020, 11:28:39", "zip": 8047}, "type": "Feature"}, {"geometry": {"coordinates": [8.510418, 47.381356], "type": "Point"}, "properties": {"address": "Bullingerstrasse 73", "electric": 6, "id": "pb_126", "manual": 1, "name": "Hardau", "provider": "publibike", "timeStamp": "01/28/2020, 11:28:39", "zip": 8004}, "type": "Feature"}, {"geometry": {"coordinates": [8.525525, 47.361567], "type": "Point"}, "properties": {"address": "Klopstockstrasse 23", "electric": 3, "id": "pb_127", "manual": 2, "name": "Klopstockwiese", "provider": "publibike", "timeStamp": "01/28/2020, 11:28:39", "zip": 8002}, "type": "Feature"}, {"geometry": {"coordinates": [8.518143, 47.363148], "type": "Point"}, "properties": {"address": "Haldenstrasse 8", "electric": 7, "id": "pb_128", "manual": 2, "name": "Binz", "provider": "publibike", "timeStamp": "01/28/2020, 11:28:39", "zip": 8045}, "type": "Feature"}, {"geometry": {"coordinates": [8.542726, 47.379952], "type": "Point"}, "properties": {"address": "Walchestrasse 11", "electric": 3, "id": "pb_129", "manual": 2, "name": "Stampfenbachplatz", "provider": "publibike", "timeStamp": "01/28/2020, 11:28:39", "zip": 8006}, "type": "Feature"}, {"geometry": {"coordinates": [8.488108, 47.391366], "type": "Point"}, "properties": {"address": "Altstetterplatz 1", "electric": 7, "id": "pb_130", "manual": 8, "name": "Bahnhof Altstetten", "provider": "publibike", "timeStamp": "01/28/2020, 11:28:39", "zip": 8048}, "type": "Feature"}, {"geometry": {"coordinates": [8.554114, 47.365119], "type": "Point"}, "properties": {"address": "Kreuzplatz 2", "electric": 4, "id": "pb_131", "manual": 4, "name": "Kreuzplatz", "provider": "publibike", "timeStamp": "01/28/2020, 11:28:39", "zip": 8032}, "type": "Feature"}, {"geometry": {"coordinates": [8.549852, 47.35594], "type": "Point"}, "properties": {"address": "H\u00f6schgasse 3", "electric": 1, "id": "pb_132", "manual": 5, "name": "Blatterwiese", "provider": "publibike", "timeStamp": "01/28/2020, 11:28:39", "zip": 8008}, "type": "Feature"}, {"geometry": {"coordinates": [8.554501, 47.36162], "type": "Point"}, "properties": {"address": "Feldeggstrasse 80", "electric": 2, "id": "pb_133", "manual": 3, "name": "Villa Bleuler", "provider": "publibike", "timeStamp": "01/28/2020, 11:28:39", "zip": 8008}, "type": "Feature"}, {"geometry": {"coordinates": [8.557088, 47.358557], "type": "Point"}, "properties": {"address": "M\u00fchlebachstrasse 131", "electric": 5, "id": "pb_134", "manual": 2, "name": "M\u00fchlebachstrasse", "provider": "publibike", "timeStamp": "01/28/2020, 11:28:39", "zip": 8008}, "type": "Feature"}, {"geometry": {"coordinates": [8.547639, 47.361266], "type": "Point"}, "properties": {"address": "Utoquai 50", "electric": 3, "id": "pb_135", "manual": 7, "name": "Seebad Utoquai", "provider": "publibike", "timeStamp": "01/28/2020, 11:28:39", "zip": 8008}, "type": "Feature"}, {"geometry": {"coordinates": [8.548045, 47.370869], "type": "Point"}, "properties": {"address": "Heimplatz 1", "electric": 2, "id": "pb_137", "manual": 0, "name": "Kunsthaus", "provider": "publibike", "timeStamp": "01/28/2020, 11:28:39", "zip": 8001}, "type": "Feature"}, {"geometry": {"coordinates": [8.543447, 47.375933], "type": "Point"}, "properties": {"address": "Limmatquai 138", "electric": 4, "id": "pb_138", "manual": 20, "name": "Central", "provider": "publibike", "timeStamp": "01/28/2020, 11:28:39", "zip": 8001}, "type": "Feature"}, {"geometry": {"coordinates": [8.549356, 47.408827], "type": "Point"}, "properties": {"address": "Tramstrasse 35", "electric": 3, "id": "pb_139", "manual": 4, "name": "ewz Tramstrasse", "provider": "publibike", "timeStamp": "01/28/2020, 11:28:39", "zip": 8050}, "type": "Feature"}, {"geometry": {"coordinates": [8.533736, 47.366904], "type": "Point"}, "properties": {"address": "Bleicherweg 33", "electric": 2, "id": "pb_140", "manual": 3, "name": "Bleicherweg", "provider": "publibike", "timeStamp": "01/28/2020, 11:28:39", "zip": 8002}, "type": "Feature"}, {"geometry": {"coordinates": [8.544935, 47.366752], "type": "Point"}, "properties": {"address": "Bellevueplatz 2", "electric": 22, "id": "pb_141", "manual": 25, "name": "Bellevue", "provider": "publibike", "timeStamp": "01/28/2020, 11:28:39", "zip": 8001}, "type": "Feature"}, {"geometry": {"coordinates": [8.5285533, 47.3742296], "type": "Point"}, "properties": {"address": "Stauffacherstrasse 41", "electric": 0, "id": "pb_142", "manual": 4, "name": "Stauffacher", "provider": "publibike", "timeStamp": "01/28/2020, 11:28:39", "zip": 8004}, "type": "Feature"}, {"geometry": {"coordinates": [8.523722, 47.3899], "type": "Point"}, "properties": {"address": "Limmatstrasse 310", "electric": 3, "id": "pb_143", "manual": 1, "name": "Escher-Wyss-Platz", "provider": "publibike", "timeStamp": "01/28/2020, 11:28:39", "zip": 8005}, "type": "Feature"}, {"geometry": {"coordinates": [8.491061, 47.392336], "type": "Point"}, "properties": {"address": "Vulkanplatz 1", "electric": 8, "id": "pb_149", "manual": 12, "name": "Vulkanplatz", "provider": "publibike", "timeStamp": "01/28/2020, 11:28:39", "zip": 8048}, "type": "Feature"}, {"geometry": {"coordinates": [8.52306, 47.359872], "type": "Point"}, "properties": {"address": "Giessh\u00fcbelstrasse 15", "electric": 14, "id": "pb_150", "manual": 7, "name": "Utoplatz", "provider": "publibike", "timeStamp": "01/28/2020, 11:28:39", "zip": 8045}, "type": "Feature"}, {"geometry": {"coordinates": [8.486284, 47.387685], "type": "Point"}, "properties": {"address": "Lindenplatz 1", "electric": 10, "id": "pb_151", "manual": 8, "name": "Lindenplatz", "provider": "publibike", "timeStamp": "01/28/2020, 11:28:39", "zip": 8048}, "type": "Feature"}, {"geometry": {"coordinates": [8.49163, 47.389823], "type": "Point"}, "properties": {"address": "Hohlstrasse 563", "electric": 5, "id": "pb_152", "manual": 11, "name": "Luggweg", "provider": "publibike", "timeStamp": "01/28/2020, 11:28:39", "zip": 8048}, "type": "Feature"}, {"geometry": {"coordinates": [8.52174, 47.365272], "type": "Point"}, "properties": {"address": "Manessestrasse 87", "electric": 0, "id": "pb_153", "manual": 1, "name": "Manesseplatz", "provider": "publibike", "timeStamp": "01/28/2020, 11:28:39", "zip": 8045}, "type": "Feature"}, {"geometry": {"coordinates": [8.52714, 47.372329], "type": "Point"}, "properties": {"address": "Werdstrasse 75", "electric": 6, "id": "pb_154", "manual": 2, "name": "Werd", "provider": "publibike", "timeStamp": "01/28/2020, 11:28:39", "zip": 8004}, "type": "Feature"}, {"geometry": {"coordinates": [8.543042, 47.374711], "type": "Point"}, "properties": {"address": "Limmatquai 100", "electric": 0, "id": "pb_155", "manual": 0, "name": "Rudolf-Brun-Br\u00fccke", "provider": "publibike", "timeStamp": "01/28/2020, 11:28:39", "zip": 8001}, "type": "Feature"}, {"geometry": {"coordinates": [8.490837, 47.386596], "type": "Point"}, "properties": {"address": "Badenerstrasse 627", "electric": 3, "id": "pb_156", "manual": 4, "name": "Luggwegstrasse VBZ", "provider": "publibike", "timeStamp": "01/28/2020, 11:28:39", "zip": 8048}, "type": "Feature"}, {"geometry": {"coordinates": [8.535119, 47.355189], "type": "Point"}, "properties": {"address": "Mythenquai 95", "electric": 0, "id": "pb_157", "manual": 0, "name": "Strandbad Mythenquai", "provider": "publibike", "timeStamp": "01/28/2020, 11:28:39", "zip": 8002}, "type": "Feature"}, {"geometry": {"coordinates": [8.545505, 47.373675], "type": "Point"}, "properties": {"address": "Predigerpatz 21", "electric": 13, "id": "pb_158", "manual": 9, "name": "Predigerplatz", "provider": "publibike", "timeStamp": "01/28/2020, 11:28:39", "zip": 8001}, "type": "Feature"}, {"geometry": {"coordinates": [8.515558, 47.371868], "type": "Point"}, "properties": {"address": "Aemtlerstrasse 23", "electric": 0, "id": "pb_159", "manual": 0, "name": "Zwinglihaus", "provider": "publibike", "timeStamp": "01/28/2020, 11:28:39", "zip": 8003}, "type": "Feature"}, {"geometry": {"coordinates": [8.524629, 47.386072], "type": "Point"}, "properties": {"address": "Josefstrasse 188", "electric": 0, "id": "pb_160", "manual": 3, "name": "Josefwiese", "provider": "publibike", "timeStamp": "01/28/2020, 11:28:39", "zip": 8005}, "type": "Feature"}, {"geometry": {"coordinates": [8.527138, 47.387531], "type": "Point"}, "properties": {"address": "R\u00f6ntgenstrasse 87", "electric": 3, "id": "pb_164", "manual": 5, "name": "Markthalle", "provider": "publibike", "timeStamp": "01/28/2020, 11:28:39", "zip": 8005}, "type": "Feature"}, {"geometry": {"coordinates": [8.552717, 47.359978], "type": "Point"}, "properties": {"address": "Seefeldstrasse 96", "electric": 5, "id": "pb_263", "manual": 14, "name": "Feldeggstrasse", "provider": "publibike", "timeStamp": "01/28/2020, 11:28:39", "zip": 8008}, "type": "Feature"}, {"geometry": {"coordinates": [8.553189, 47.353198], "type": "Point"}, "properties": {"address": "Bellerivestrasse 170", "electric": 4, "id": "pb_264", "manual": 2, "name": "Lake Side", "provider": "publibike", "timeStamp": "01/28/2020, 11:28:39", "zip": 8008}, "type": "Feature"}, {"geometry": {"coordinates": [8.543437, 47.369256], "type": "Point"}, "properties": {"address": "Limmatquai 18", "electric": 0, "id": "pb_265", "manual": 0, "name": "Helmhaus", "provider": "publibike", "timeStamp": "01/28/2020, 11:28:39", "zip": 8032}, "type": "Feature"}, {"geometry": {"coordinates": [8.516676, 47.375819], "type": "Point"}, "properties": {"address": "Badenerstrasse 246", "electric": 6, "id": "pb_266", "manual": 7, "name": "Lochergut", "provider": "publibike", "timeStamp": "01/28/2020, 11:28:39", "zip": 8004}, "type": "Feature"}, {"geometry": {"coordinates": [8.514605, 47.389862], "type": "Point"}, "properties": {"address": "Pfingstweidstrasse 60", "electric": 1, "id": "pb_273", "manual": 2, "name": "Westpark", "provider": "publibike", "timeStamp": "01/28/2020, 11:28:39", "zip": 8005}, "type": "Feature"}, {"geometry": {"coordinates": [8.541239126, 47.375991201], "type": "Point"}, "properties": {"address": "Beatenplatz 1", "electric": 6, "id": "pb_274", "manual": 10, "name": "Beatenplatz", "provider": "publibike", "timeStamp": "01/28/2020, 11:28:39", "zip": 8001}, "type": "Feature"}, {"geometry": {"coordinates": [8.5417135, 47.3942197], "type": "Point"}, "properties": {"address": "Scheuchzerstrasse 181", "electric": 4, "id": "pb_275", "manual": 0, "name": "Pauluskirche", "provider": "publibike", "timeStamp": "01/28/2020, 11:28:39", "zip": 8057}, "type": "Feature"}, {"geometry": {"coordinates": [8.5528182, 47.414558], "type": "Point"}, "properties": {"address": "Hagenholzstrasse 51", "electric": 0, "id": "pb_276", "manual": 11, "name": "Airgate", "provider": "publibike", "timeStamp": "01/28/2020, 11:28:39", "zip": 8050}, "type": "Feature"}, {"geometry": {"coordinates": [8.537816, 47.413514], "type": "Point"}, "properties": {"address": "Birchstrasse 183", "electric": 2, "id": "pb_277", "manual": 4, "name": "Lamprechtweg", "provider": "publibike", "timeStamp": "01/28/2020, 11:28:39", "zip": 8050}, "type": "Feature"}, {"geometry": {"coordinates": [8.545602, 47.417701], "type": "Point"}, "properties": {"address": "Felsenrainstrasse 2", "electric": 7, "id": "pb_278", "manual": 9, "name": "Emil-Oberh\u00e4nsli", "provider": "publibike", "timeStamp": "01/28/2020, 11:28:39", "zip": 8050}, "type": "Feature"}, {"geometry": {"coordinates": [8.533647, 47.39808], "type": "Point"}, "properties": {"address": "Bucheggplatz 2", "electric": 2, "id": "pb_279", "manual": 0, "name": "Bucheggplatz", "provider": "publibike", "timeStamp": "01/28/2020, 11:28:39", "zip": 8057}, "type": "Feature"}, {"geometry": {"coordinates": [8.523549, 47.392347], "type": "Point"}, "properties": {"address": "Wipkingerplatz 4", "electric": 3, "id": "pb_280", "manual": 5, "name": "Wipkingerplatz", "provider": "publibike", "timeStamp": "01/28/2020, 11:28:39", "zip": 8037}, "type": "Feature"}, {"geometry": {"coordinates": [8.548562, 47.36691], "type": "Point"}, "properties": {"address": "Galerie \u00fcber Gleis 2/3", "electric": 11, "id": "pb_285", "manual": 1, "name": "Bahnhof Stadelhofen", "provider": "publibike", "timeStamp": "01/28/2020, 11:28:39", "zip": 8001}, "type": "Feature"}, {"geometry": {"coordinates": [8.493822, 47.3985553], "type": "Point"}, "properties": {"address": "Meierwiesenstrasse 12-4", "electric": 2, "id": "pb_286", "manual": 2, "name": "T\u00fcffenwies", "provider": "publibike", "timeStamp": "01/28/2020, 11:28:39", "zip": 8064}, "type": "Feature"}, {"geometry": {"coordinates": [8.552432, 47.3801757], "type": "Point"}, "properties": {"address": "Hochstrasse 34", "electric": 1, "id": "pb_356", "manual": 5, "name": "Siriuswiese", "provider": "publibike", "timeStamp": "01/28/2020, 11:28:39", "zip": 8044}, "type": "Feature"}, {"geometry": {"coordinates": [8.527298, 47.370141], "type": "Point"}, "properties": {"address": "Hallwylstrasse 71", "electric": 0, "id": "pb_357", "manual": 0, "name": "Hallwylstrasse", "provider": "publibike", "timeStamp": "01/28/2020, 11:28:39", "zip": 8004}, "type": "Feature"}, {"geometry": {"coordinates": [8.5414185, 47.3972455], "type": "Point"}, "properties": {"address": "Schaffhauserstrasse 137", "electric": 2, "id": "pb_358", "manual": 3, "name": "Milchbuck", "provider": "publibike", "timeStamp": "01/28/2020, 11:28:39", "zip": 8057}, "type": "Feature"}, {"geometry": {"coordinates": [8.512381, 47.393409], "type": "Point"}, "properties": {"address": "Hardturmstrasse 161", "electric": 5, "id": "pb_359", "manual": 8, "name": "Fischerweg", "provider": "publibike", "timeStamp": "01/28/2020, 11:28:39", "zip": 8005}, "type": "Feature"}, {"geometry": {"coordinates": [8.5421457, 47.3876979], "type": "Point"}, "properties": {"address": "Turnerstrasse 47", "electric": 0, "id": "pb_360", "manual": 7, "name": "Kirche Unterstrass", "provider": "publibike", "timeStamp": "01/28/2020, 11:28:39", "zip": 8006}, "type": "Feature"}, {"geometry": {"coordinates": [8.522117, 47.394554], "type": "Point"}, "properties": {"address": "Dorfstrasse 40", "electric": 2, "id": "pb_361", "manual": 2, "name": "Dorfstrasse", "provider": "publibike", "timeStamp": "01/28/2020, 11:28:39", "zip": 8037}, "type": "Feature"}, {"geometry": {"coordinates": [8.530437, 47.37271], "type": "Point"}, "properties": {"address": "Werdstrasse 25", "electric": 6, "id": "pb_362", "manual": 0, "name": "Stauffachertor", "provider": "publibike", "timeStamp": "01/28/2020, 11:28:39", "zip": 8004}, "type": "Feature"}, {"geometry": {"coordinates": [8.541712, 47.416155], "type": "Point"}, "properties": {"address": "Eggb\u00fchlstrasse 21", "electric": 2, "id": "pb_363", "manual": 4, "name": "Wahlenpark", "provider": "publibike", "timeStamp": "01/28/2020, 11:28:39", "zip": 8050}, "type": "Feature"}, {"geometry": {"coordinates": [8.5595335, 47.3708387], "type": "Point"}, "properties": {"address": "Dolderstrasse 32", "electric": 7, "id": "pb_364", "manual": 1, "name": "Kinderspital", "provider": "publibike", "timeStamp": "01/28/2020, 11:28:39", "zip": 8032}, "type": "Feature"}, {"geometry": {"coordinates": [8.536433, 47.388689], "type": "Point"}, "properties": {"address": "Kornhausstrasse 30", "electric": 2, "id": "pb_365", "manual": 1, "name": "Kornhausstrasse", "provider": "publibike", "timeStamp": "01/28/2020, 11:28:39", "zip": 8006}, "type": "Feature"}, {"geometry": {"coordinates": [8.55033, 47.407098], "type": "Point"}, "properties": {"address": "Schwamendingenstrasse 41", "electric": 1, "id": "pb_366", "manual": 3, "name": "Dorflinde", "provider": "publibike", "timeStamp": "01/28/2020, 11:28:39", "zip": 8050}, "type": "Feature"}, {"geometry": {"coordinates": [8.560476, 47.368199], "type": "Point"}, "properties": {"address": "R\u00f6merhofplatz 5", "electric": 0, "id": "pb_367", "manual": 1, "name": "R\u00f6merhof", "provider": "publibike", "timeStamp": "01/28/2020, 11:28:39", "zip": 8032}, "type": "Feature"}, {"geometry": {"coordinates": [8.5609218, 47.3619068], "type": "Point"}, "properties": {"address": "Forchstrasse 99", "electric": 3, "id": "pb_368", "manual": 1, "name": "Hegibachplatz", "provider": "publibike", "timeStamp": "01/28/2020, 11:28:39", "zip": 8032}, "type": "Feature"}, {"geometry": {"coordinates": [8.5721264, 47.4039985], "type": "Point"}, "properties": {"address": "Winterthurerstrasse 519", "electric": 2, "id": "pb_370", "manual": 6, "name": "Schwamendingerplatz", "provider": "publibike", "timeStamp": "01/28/2020, 11:28:39", "zip": 8051}, "type": "Feature"}, {"geometry": {"coordinates": [8.520168, 47.378556], "type": "Point"}, "properties": {"address": "Herman-Greulich-Strasse 56", "electric": 3, "id": "pb_384", "manual": 9, "name": "Hermann-Greulich-Weg", "provider": "publibike", "timeStamp": "01/28/2020, 11:28:39", "zip": 8004}, "type": "Feature"}, {"geometry": {"coordinates": [8.547912, 47.384923], "type": "Point"}, "properties": {"address": "Culmannstrasse", "electric": 0, "id": "pb_386", "manual": 3, "name": "Rigiplatz", "provider": "publibike", "timeStamp": "01/28/2020, 11:28:39", "zip": 8006}, "type": "Feature"}, {"geometry": {"coordinates": [8.543768, 47.411057], "type": "Point"}, "properties": {"address": "Hofwiesenstrasse 369", "electric": 4, "id": "pb_387", "manual": 3, "name": "Bahnhof Oerlikon S\u00fcd", "provider": "publibike", "timeStamp": "01/28/2020, 11:28:39", "zip": 8050}, "type": "Feature"}, {"geometry": {"coordinates": [8.544185, 47.412732], "type": "Point"}, "properties": {"address": "Jungholzstrasse 6", "electric": 4, "id": "pb_388", "manual": 0, "name": "Max-Frisch-Platz", "provider": "publibike", "timeStamp": "01/28/2020, 11:28:39", "zip": 8050}, "type": "Feature"}, {"geometry": {"coordinates": [8.558096, 47.413032], "type": "Point"}, "properties": {"address": "Andreasstrasse", "electric": 0, "id": "pb_389", "manual": 11, "name": "Hunziker-Areal", "provider": "publibike", "timeStamp": "01/28/2020, 11:28:39", "zip": 8050}, "type": "Feature"}, {"geometry": {"coordinates": [8.533265, 47.412873], "type": "Point"}, "properties": {"address": "Regina-K\u00e4gi-Strasse 1", "electric": 1, "id": "pb_390", "manual": 2, "name": "Luis-H\u00e4fliger-Park", "provider": "publibike", "timeStamp": "01/28/2020, 11:28:39", "zip": 8050}, "type": "Feature"}, {"geometry": {"coordinates": [8.499265, 47.401852], "type": "Point"}, "properties": {"address": "Limmattalstrasse 177", "electric": 2, "id": "pb_391", "manual": 0, "name": "Meierhofplatz", "provider": "publibike", "timeStamp": "01/28/2020, 11:28:39", "zip": 8049}, "type": "Feature"}, {"geometry": {"coordinates": [8.528356, 47.393255], "type": "Point"}, "properties": {"address": "R\u00f6schibachstrasse 73", "electric": 12, "id": "pb_392", "manual": 3, "name": "R\u00f6schibachplatz", "provider": "publibike", "timeStamp": "01/28/2020, 11:28:39", "zip": 8037}, "type": "Feature"}, {"geometry": {"coordinates": [8.538067, 47.415721], "type": "Point"}, "properties": {"address": "Birchstrasse 191", "electric": 4, "id": "pb_393", "manual": 1, "name": "Oerliker Park", "provider": "publibike", "timeStamp": "01/28/2020, 11:28:39", "zip": 8050}, "type": "Feature"}, {"geometry": {"coordinates": [8.5420304, 47.3669233], "type": "Point"}, "properties": {"address": "Stadthausquai 1", "electric": 2, "id": "pb_395", "manual": 14, "name": "B\u00fcrkliplatz", "provider": "publibike", "timeStamp": "01/28/2020, 11:28:39", "zip": 8001}, "type": "Feature"}, {"geometry": {"coordinates": [8.535767, 47.409881], "type": "Point"}, "properties": {"address": "Regensbergstrasse 195", "electric": 2, "id": "pb_396", "manual": 2, "name": "Holunderhof", "provider": "publibike", "timeStamp": "01/28/2020, 11:28:39", "zip": 8050}, "type": "Feature"}, {"geometry": {"coordinates": [8.5116245, 47.3616199], "type": "Point"}, "properties": {"address": "Grubenstrasse 42", "electric": 5, "id": "pb_431", "manual": 0, "name": "Binz Center", "provider": "publibike", "timeStamp": "01/28/2020, 11:28:39", "zip": 8045}, "type": "Feature"}, {"geometry": {"coordinates": [8.547195, 47.382089], "type": "Point"}, "properties": {"address": "Nelkenstrasse 24", "electric": 1, "id": "pb_430", "manual": 2, "name": "Stapferstube", "provider": "publibike", "timeStamp": "01/28/2020, 11:28:39", "zip": 8006}, "type": "Feature"}, {"geometry": {"coordinates": [8.5787183, 47.4039845], "type": "Point"}, "properties": {"address": "Kronwiesenstrasse 35", "electric": 1, "id": "pb_426", "manual": 3, "name": "Kronwiesen", "provider": "publibike", "timeStamp": "01/28/2020, 11:28:39", "zip": 8051}, "type": "Feature"}, {"geometry": {"coordinates": [8.508131, 47.420757], "type": "Point"}, "properties": {"address": "Riedenhaldenstrasse 20-18", "electric": 9, "id": "pb_425", "manual": 4, "name": "Bahnhof Affoltern", "provider": "publibike", "timeStamp": "01/28/2020, 11:28:39", "zip": 8046}, "type": "Feature"}, {"geometry": {"coordinates": [8.532464, 47.406988], "type": "Point"}, "properties": {"address": "K\u00fcnzlistrasse 41", "electric": 3, "id": "pb_424", "manual": 4, "name": "Birchd\u00f6rfli", "provider": "publibike", "timeStamp": "01/28/2020, 11:28:39", "zip": 8057}, "type": "Feature"}, {"geometry": {"coordinates": [8.5777038, 47.4080095], "type": "Point"}, "properties": {"address": "Luegislandstrasse 412", "electric": 3, "id": "pb_429", "manual": 4, "name": "Luegisland", "provider": "publibike", "timeStamp": "01/28/2020, 11:28:39", "zip": 8051}, "type": "Feature"}, {"geometry": {"coordinates": [8.58841, 47.40158], "type": "Point"}, "properties": {"address": "Hirzenbachstrasse 2-4", "electric": 3, "id": "pb_428", "manual": 2, "name": "Hirzenbachstrasse", "provider": "publibike", "timeStamp": "01/28/2020, 11:28:39", "zip": 8051}, "type": "Feature"}, {"geometry": {"coordinates": [8.5563463, 47.4095467], "type": "Point"}, "properties": {"address": "K\u00fchriedweg", "electric": 2, "id": "pb_445", "manual": 4, "name": "Hallenbad Oerlikon", "provider": "publibike", "timeStamp": "01/28/2020, 11:28:39", "zip": 8050}, "type": "Feature"}, {"geometry": {"coordinates": [8.537971, 47.364871], "type": "Point"}, "properties": {"address": "General-Guisan-Quai 17", "electric": 0, "id": "pb_454", "manual": 3, "name": "General-Guisan-Quai", "provider": "publibike", "timeStamp": "01/28/2020, 11:28:39", "zip": 8002}, "type": "Feature"}, {"geometry": {"coordinates": [8.560587, 47.350578], "type": "Point"}, "properties": {"address": "Bellerivestrasse 245", "electric": 5, "id": "pb_450", "manual": 6, "name": "Bahnhof Tiefenbrunnen", "provider": "publibike", "timeStamp": "01/28/2020, 11:28:39", "zip": 8008}, "type": "Feature"}, {"geometry": {"coordinates": [8.5269416, 47.3563719], "type": "Point"}, "properties": {"address": "Waffenplatzstrasse 89", "electric": 4, "id": "pb_452", "manual": 7, "name": "Rieterplatz", "provider": "publibike", "timeStamp": "01/28/2020, 11:28:39", "zip": 8002}, "type": "Feature"}, {"geometry": {"coordinates": [8.514176, 47.3663708], "type": "Point"}, "properties": {"address": "Talwiesenstrasse 92", "electric": 2, "id": "pb_446", "manual": 1, "name": "Binzallee", "provider": "publibike", "timeStamp": "01/28/2020, 11:28:39", "zip": 8055}, "type": "Feature"}, {"geometry": {"coordinates": [8.5070564, 47.371455], "type": "Point"}, "properties": {"address": "Gutstrasse 87", "electric": 4, "id": "pb_447", "manual": 8, "name": "Gutstrasse", "provider": "publibike", "timeStamp": "01/28/2020, 11:28:39", "zip": 8055}, "type": "Feature"}, {"geometry": {"coordinates": [8.4941268, 47.3836391], "type": "Point"}, "properties": {"address": "Flurstrasse 62", "electric": 3, "id": "pb_453", "manual": 6, "name": "Flurpark", "provider": "publibike", "timeStamp": "01/28/2020, 11:28:39", "zip": 8048}, "type": "Feature"}, {"geometry": {"coordinates": [8.500343, 47.380778], "type": "Point"}, "properties": {"address": "Edelweissstrasse 32", "electric": 2, "id": "pb_448", "manual": 2, "name": "Bl\u00fcemliquartier", "provider": "publibike", "timeStamp": "01/28/2020, 11:28:39", "zip": 8048}, "type": "Feature"}, {"geometry": {"coordinates": [8.528796, 47.383858], "type": "Point"}, "properties": {"address": "Gasometerstrasse 24", "electric": 1, "id": "pb_449", "manual": 7, "name": "Gasometerstrasse", "provider": "publibike", "timeStamp": "01/28/2020, 11:28:39", "zip": 8005}, "type": "Feature"}, {"geometry": {"coordinates": [8.4981964, 47.3859194], "type": "Point"}, "properties": {"address": "Baslerstrasse 57", "electric": 12, "id": "pb_455", "manual": 3, "name": "Letzipark", "provider": "publibike", "timeStamp": "01/28/2020, 11:28:39", "zip": 8048}, "type": "Feature"}, {"geometry": {"coordinates": [8.515252, 47.381915], "type": "Point"}, "properties": {"address": "Sihlfeldstrasse 175", "electric": 0, "id": "pb_451", "manual": 2, "name": "Hardplatz", "provider": "publibike", "timeStamp": "01/28/2020, 11:28:39", "zip": 8004}, "type": "Feature"}, {"geometry": {"coordinates": [8.5064743, 47.4188324], "type": "Point"}, "properties": {"address": "Wehntalerstrasse 541", "electric": 0, "id": "pb_427", "manual": 4, "name": "Zehntenhausplatz", "provider": "publibike", "timeStamp": "01/28/2020, 11:28:39", "zip": 8046}, "type": "Feature"}, {"geometry": {"coordinates": [8.537729, 47.379719], "type": "Point"}, "properties": {"address": "Sihlquai/HB", "electric": 11, "id": "pb_513", "manual": 8, "name": "Sihlquai", "provider": "publibike", "timeStamp": "01/28/2020, 11:28:39", "zip": 8005}, "type": "Feature"}, {"geometry": {"coordinates": [8.596202, 47.397885], "type": "Point"}, "properties": {"address": "Bahnhof Stettbach", "electric": 2, "id": "pb_514", "manual": 0, "name": "Bahnhof Stettbach", "provider": "publibike", "timeStamp": "01/28/2020, 11:28:39", "zip": 8051}, "type": "Feature"}, {"geometry": {"coordinates": [8.5543974, 47.3690153], "type": "Point"}, "properties": {"address": "Kasinostrasse 10", "electric": 2, "id": "pb_515", "manual": 0, "name": "Hottingerplatz", "provider": "publibike", "timeStamp": "01/28/2020, 11:28:39", "zip": 8032}, "type": "Feature"}, {"geometry": {"coordinates": [8.534444, 47.351525], "type": "Point"}, "properties": {"address": "Mobile Station Z\u00fcrich 1", "electric": 0, "id": "pb_282", "manual": 0, "name": "Theaterspektakel", "provider": "publibike", "timeStamp": "01/28/2020, 11:28:39", "zip": 8002}, "type": "Feature"}, {"geometry": {"coordinates": [8.516257, 47.367656], "type": "Point"}, "properties": {"address": "Goldbrunnenstrasse 54", "electric": 5, "id": "pb_538", "manual": 0, "name": "Kirche B\u00fchl", "provider": "publibike", "timeStamp": "01/28/2020, 11:28:39", "zip": 8055}, "type": "Feature"}, {"geometry": {"coordinates": [8.555639, 47.416873], "type": "Point"}, "properties": {"address": "Leutschenbachstrasse 50", "electric": 1, "id": "pb_537", "manual": 4, "name": "Leutschenpark", "provider": "publibike", "timeStamp": "01/28/2020, 11:28:39", "zip": 8050}, "type": "Feature"}, {"geometry": {"coordinates": [8.546464, 47.403822], "type": "Point"}, "properties": {"address": "Berninastrasse 45", "electric": 6, "id": "pb_540", "manual": 0, "name": "Berninaplatz", "provider": "publibike", "timeStamp": "01/28/2020, 11:28:39", "zip": 8057}, "type": "Feature"}, {"geometry": {"coordinates": [8.523134, 47.369004], "type": "Point"}, "properties": {"address": "Erlachstrasse 3", "electric": 1, "id": "pb_385", "manual": 0, "name": "Aegerten", "provider": "publibike", "timeStamp": "01/28/2020, 11:28:39", "zip": 8003}, "type": "Feature"}, {"geometry": {"coordinates": [8.49038, 47.381591], "type": "Point"}, "properties": {"address": "Rautistrasse 60", "electric": 5, "id": "pb_536", "manual": 6, "name": "Freilager", "provider": "publibike", "timeStamp": "01/28/2020, 11:28:39", "zip": 8048}, "type": "Feature"}, {"geometry": {"coordinates": [8.496511, 47.375247], "type": "Point"}, "properties": {"address": "Letzigraben 139", "electric": 0, "id": "pb_444", "manual": 3, "name": "Sackzelg", "provider": "publibike", "timeStamp": "01/28/2020, 11:28:39", "zip": 8047}, "type": "Feature"}, {"geometry": {"coordinates": [8.58131, 47.402801], "type": "Point"}, "properties": {"address": "Altwiesenstrasse 104", "electric": 2, "id": "pb_539", "manual": 5, "name": "Glattwiesen", "provider": "publibike", "timeStamp": "01/28/2020, 11:28:39", "zip": 8051}, "type": "Feature"}, {"geometry": {"coordinates": [8.52689, 47.3767], "type": "Point"}, "properties": {"address": "Molkenstrasse 5", "electric": 0, "id": "pb_560", "manual": 0, "name": "Helvetiaplatz", "provider": "publibike", "timeStamp": "01/28/2020, 11:28:39", "zip": 8004}, "type": "Feature"}, {"geometry": {"coordinates": [8.525602, 47.374241], "type": "Point"}, "properties": {"address": "Badenerstrasse 90", "electric": 3, "id": "pb_559", "manual": 3, "name": "Bezirksgeb\u00e4ude", "provider": "publibike", "timeStamp": "01/28/2020, 11:28:39", "zip": 8004}, "type": "Feature"}, {"geometry": {"coordinates": [8.535082, 47.345248], "type": "Point"}, "properties": {"address": "Bachstrasse 15", "electric": 3, "id": "pb_564", "manual": 2, "name": "GZ Wollishofen", "provider": "publibike", "timeStamp": "01/28/2020, 11:28:39", "zip": 8038}, "type": "Feature"}, {"geometry": {"coordinates": [8.514841, 47.370238], "type": "Point"}, "properties": {"address": "Schrennengasse 37", "electric": 1, "id": "pb_562", "manual": 3, "name": "Goldbrunnenplatz", "provider": "publibike", "timeStamp": "01/28/2020, 11:28:39", "zip": 8003}, "type": "Feature"}, {"geometry": {"coordinates": [8.514138, 47.374206], "type": "Point"}, "properties": {"address": "Idaplatz 4", "electric": 6, "id": "pb_557", "manual": 2, "name": "Idaplatz", "provider": "publibike", "timeStamp": "01/28/2020, 11:28:39", "zip": 8003}, "type": "Feature"}, {"geometry": {"coordinates": [8.518432, 47.369549], "type": "Point"}, "properties": {"address": "Brinerstrasse 2", "electric": 1, "id": "pb_558", "manual": 8, "name": "Schmiede Wiedikon", "provider": "publibike", "timeStamp": "01/28/2020, 11:28:39", "zip": 8003}, "type": "Feature"}, {"geometry": {"coordinates": [8.537546, 47.391289], "type": "Point"}, "properties": {"address": "Rotbuchstrasse 15", "electric": 4, "id": "pb_556", "manual": 0, "name": "Schaffhauserplatz", "provider": "publibike", "timeStamp": "01/28/2020, 11:28:39", "zip": 8006}, "type": "Feature"}, {"geometry": {"coordinates": [8.541541, 47.413733], "type": "Point"}, "properties": {"address": "Therese-Giehse-Strasse 11", "electric": 5, "id": "pb_561", "manual": 2, "name": "Center Eleven", "provider": "publibike", "timeStamp": "01/28/2020, 11:28:39", "zip": 8050}, "type": "Feature"}, {"geometry": {"coordinates": [8.534227, 47.360004], "type": "Point"}, "properties": {"address": "Alfred Escher-Strasse 76", "electric": 11, "id": "pb_563", "manual": 2, "name": "Mythenschloss", "provider": "publibike", "timeStamp": "01/28/2020, 11:28:39", "zip": 8002}, "type": "Feature"}, {"geometry": {"coordinates": [8.50373, 47.396172], "type": "Point"}, "properties": {"address": "Hardeggstrasse 6", "electric": 1, "id": "pb_566", "manual": 3, "name": "Am Wasser", "provider": "publibike", "timeStamp": "01/28/2020, 11:28:39", "zip": 8049}, "type": "Feature"}, {"geometry": {"coordinates": [8.532432, 47.381174], "type": "Point"}, "properties": {"address": "Klingenstrasse 9", "electric": 2, "id": "pb_565", "manual": 3, "name": "Zollstrasse", "provider": "publibike", "timeStamp": "01/28/2020, 11:28:39", "zip": 8005}, "type": "Feature"}, {"geometry": {"coordinates": [8.497982, 47.381447], "type": "Point"}, "properties": {"address": "Dennlerstrasse 23", "electric": 2, "id": "pb_567", "manual": 5, "name": "Dennlerstrasse", "provider": "publibike", "timeStamp": "01/28/2020, 11:28:39", "zip": 8047}, "type": "Feature"}, {"geometry": {"coordinates": [8.528049, 47.347701], "type": "Point"}, "properties": {"address": "Mutschellenstrasse 114", "electric": 6, "id": "pb_568", "manual": 2, "name": "Jugendherberge", "provider": "publibike", "timeStamp": "01/28/2020, 11:28:39", "zip": 8038}, "type": "Feature"}, {"geometry": {"coordinates": [8.539016, 47.405751], "type": "Point"}, "properties": {"address": "Ringstrasse 82", "electric": 6, "id": "pb_569", "manual": 2, "name": "Freibad Allenmoos", "provider": "publibike", "timeStamp": "01/28/2020, 11:28:39", "zip": 8057}, "type": "Feature"}, {"geometry": {"coordinates": [8.534974, 47.402164], "type": "Point"}, "properties": {"address": "Brache Guggach", "electric": 3, "id": "pb_572", "manual": 2, "name": "Radiostudio", "provider": "publibike", "timeStamp": "01/28/2020, 11:28:39", "zip": 8057}, "type": "Feature"}, {"geometry": {"coordinates": [8.547901, 47.375556], "type": "Point"}, "properties": {"address": "Karl-Schmid-Strasse 4", "electric": 1, "id": "pb_571", "manual": 0, "name": "ETH/Zoologisches Museum", "provider": "publibike", "timeStamp": "01/28/2020, 11:28:39", "zip": 8006}, "type": "Feature"}, {"geometry": {"coordinates": [8.531783, 47.36414], "type": "Point"}, "properties": {"charge": 45, "id": "smide_2901", "name": "ZH 267278", "provider": "smide", "range": 22.0, "size": 20, "time": "01/28/2020, 11:28:12"}, "type": "Feature"}, {"geometry": {"coordinates": [8.561618, 47.350526], "type": "Point"}, "properties": {"charge": 22, "id": "smide_2895", "name": "ZH 267279", "provider": "smide", "range": 11.0, "size": 20, "time": "01/28/2020, 11:28:12"}, "type": "Feature"}, {"geometry": {"coordinates": [8.537313, 47.390838], "type": "Point"}, "properties": {"charge": 56, "id": "smide_2880", "name": "ZH267289", "provider": "smide", "range": 28.0, "size": 17, "time": "01/28/2020, 11:28:12"}, "type": "Feature"}, {"geometry": {"coordinates": [8.560461, 47.351528], "type": "Point"}, "properties": {"charge": 78, "id": "smide_2874", "name": "ZH 267288", "provider": "smide", "range": 39.0, "size": 17, "time": "01/28/2020, 11:28:12"}, "type": "Feature"}, {"geometry": {"coordinates": [8.495081, 47.398431], "type": "Point"}, "properties": {"charge": 74, "id": "smide_2871", "name": "ZH 267086", "provider": "smide", "range": 37.0, "size": 20, "time": "01/28/2020, 11:28:12"}, "type": "Feature"}, {"geometry": {"coordinates": [8.557445, 47.419073], "type": "Point"}, "properties": {"charge": 78, "id": "smide_2867", "name": "ZH 267090", "provider": "smide", "range": 39.0, "size": 20, "time": "01/28/2020, 11:28:12"}, "type": "Feature"}, {"geometry": {"coordinates": [8.553468, 47.387313], "type": "Point"}, "properties": {"charge": 89, "id": "smide_2861", "name": "ZH 267096", "provider": "smide", "range": 44.0, "size": 17, "time": "01/28/2020, 11:28:12"}, "type": "Feature"}, {"geometry": {"coordinates": [8.484201, 47.396885], "type": "Point"}, "properties": {"charge": 62, "id": "smide_2860", "name": "ZH 267097", "provider": "smide", "range": 31.0, "size": 17, "time": "01/28/2020, 11:28:12"}, "type": "Feature"}, {"geometry": {"coordinates": [8.492928, 47.388535], "type": "Point"}, "properties": {"charge": 24, "id": "smide_2859", "name": "ZH 267098", "provider": "smide", "range": 12.0, "size": 17, "time": "01/28/2020, 11:28:12"}, "type": "Feature"}, {"geometry": {"coordinates": [8.579823, 47.35092], "type": "Point"}, "properties": {"charge": 24, "id": "smide_2856", "name": "ZH 267101", "provider": "smide", "range": 12.0, "size": 17, "time": "01/28/2020, 11:28:12"}, "type": "Feature"}, {"geometry": {"coordinates": [8.510793, 47.407491], "type": "Point"}, "properties": {"charge": 100, "id": "smide_2855", "name": "ZH 267102", "provider": "smide", "range": 50.0, "size": 17, "time": "01/28/2020, 11:28:12"}, "type": "Feature"}, {"geometry": {"coordinates": [8.510496, 47.398463], "type": "Point"}, "properties": {"charge": 98, "id": "smide_2854", "name": "ZH 267103", "provider": "smide", "range": 49.0, "size": 17, "time": "01/28/2020, 11:28:12"}, "type": "Feature"}, {"geometry": {"coordinates": [8.547973, 47.368778], "type": "Point"}, "properties": {"charge": 70, "id": "smide_2833", "name": "ZH 267182", "provider": "smide", "range": 35.0, "size": 20, "time": "01/28/2020, 11:28:12"}, "type": "Feature"}, {"geometry": {"coordinates": [8.570141, 47.352411], "type": "Point"}, "properties": {"charge": 80, "id": "smide_2831", "name": "ZH 267180", "provider": "smide", "range": 40.0, "size": 20, "time": "01/28/2020, 11:28:12"}, "type": "Feature"}, {"geometry": {"coordinates": [8.541353, 47.376466], "type": "Point"}, "properties": {"charge": 14, "id": "smide_2829", "name": "ZH 267049", "provider": "smide", "range": 7.0, "size": 20, "time": "01/28/2020, 11:28:12"}, "type": "Feature"}, {"geometry": {"coordinates": [8.553341, 47.398353], "type": "Point"}, "properties": {"charge": 94, "id": "smide_2798", "name": "ZH266888", "provider": "smide", "range": 47.0, "size": 17, "time": "01/28/2020, 11:28:12"}, "type": "Feature"}, {"geometry": {"coordinates": [8.521948, 47.395206], "type": "Point"}, "properties": {"charge": 98, "id": "smide_2793", "name": "ZH266883", "provider": "smide", "range": 49.0, "size": 17, "time": "01/28/2020, 11:28:12"}, "type": "Feature"}, {"geometry": {"coordinates": [8.502651, 47.39694], "type": "Point"}, "properties": {"charge": 81, "id": "smide_2790", "name": "ZH266880", "provider": "smide", "range": 40.0, "size": 17, "time": "01/28/2020, 11:28:12"}, "type": "Feature"}, {"geometry": {"coordinates": [8.550403, 47.37763], "type": "Point"}, "properties": {"charge": 89, "id": "smide_2781", "name": "ZH 266871", "provider": "smide", "range": 44.0, "size": 17, "time": "01/28/2020, 11:28:12"}, "type": "Feature"}, {"geometry": {"coordinates": [8.49201, 47.391728], "type": "Point"}, "properties": {"charge": 83, "id": "smide_2780", "name": "ST1 X #1", "provider": "smide", "range": 41.0, "size": 17, "time": "01/28/2020, 11:28:12"}, "type": "Feature"}, {"geometry": {"coordinates": [8.547276, 47.423068], "type": "Point"}, "properties": {"charge": 38, "id": "smide_2773", "name": "ZH266561", "provider": "smide", "range": 19.0, "size": 17, "time": "01/28/2020, 11:28:12"}, "type": "Feature"}, {"geometry": {"coordinates": [8.505627, 47.407212], "type": "Point"}, "properties": {"charge": 58, "id": "smide_2763", "name": "ZH266641", "provider": "smide", "range": 28.0, "size": 17, "time": "01/28/2020, 11:28:12"}, "type": "Feature"}, {"geometry": {"coordinates": [8.513561, 47.365196], "type": "Point"}, "properties": {"charge": 80, "id": "smide_2761", "name": "ZH266642", "provider": "smide", "range": 40.0, "size": 20, "time": "01/28/2020, 11:28:12"}, "type": "Feature"}, {"geometry": {"coordinates": [8.528666, 47.38722], "type": "Point"}, "properties": {"charge": 52, "id": "smide_2758", "name": "ZH266638 M", "provider": "smide", "range": 26.0, "size": 17, "time": "01/28/2020, 11:28:12"}, "type": "Feature"}, {"geometry": {"coordinates": [8.552632, 47.38868], "type": "Point"}, "properties": {"charge": 100, "id": "smide_2751", "name": "BE343857", "provider": "smide", "range": 50.0, "size": 17, "time": "01/28/2020, 11:28:12"}, "type": "Feature"}, {"geometry": {"coordinates": [8.520255, 47.372076], "type": "Point"}, "properties": {"charge": 69, "id": "smide_2749", "name": "BE343867", "provider": "smide", "range": 34.0, "size": 17, "time": "01/28/2020, 11:28:12"}, "type": "Feature"}, {"geometry": {"coordinates": [8.536172, 47.389908], "type": "Point"}, "properties": {"charge": 87, "id": "smide_2748", "name": "BE335758", "provider": "smide", "range": 43.0, "size": 17, "time": "01/28/2020, 11:28:12"}, "type": "Feature"}, {"geometry": {"coordinates": [8.490772, 47.376408], "type": "Point"}, "properties": {"charge": 62, "id": "smide_2745", "name": "BE335818", "provider": "smide", "range": 31.0, "size": 17, "time": "01/28/2020, 11:28:12"}, "type": "Feature"}, {"geometry": {"coordinates": [8.553754, 47.38194], "type": "Point"}, "properties": {"charge": 63, "id": "smide_2743", "name": "BE343864", "provider": "smide", "range": 31.0, "size": 17, "time": "01/28/2020, 11:28:12"}, "type": "Feature"}, {"geometry": {"coordinates": [8.574543, 47.352584], "type": "Point"}, "properties": {"charge": 72, "id": "smide_2742", "name": "BE343866", "provider": "smide", "range": 36.0, "size": 17, "time": "01/28/2020, 11:28:12"}, "type": "Feature"}, {"geometry": {"coordinates": [8.553053, 47.377016], "type": "Point"}, "properties": {"charge": 43, "id": "smide_2740", "name": "BE343875", "provider": "smide", "range": 21.0, "size": 17, "time": "01/28/2020, 11:28:12"}, "type": "Feature"}, {"geometry": {"coordinates": [8.541973, 47.424513], "type": "Point"}, "properties": {"charge": 100, "id": "smide_2738", "name": "BE343865", "provider": "smide", "range": 50.0, "size": 17, "time": "01/28/2020, 11:28:12"}, "type": "Feature"}, {"geometry": {"coordinates": [8.565403, 47.376968], "type": "Point"}, "properties": {"charge": 97, "id": "smide_2737", "name": "BE336149", "provider": "smide", "range": 48.0, "size": 17, "time": "01/28/2020, 11:28:12"}, "type": "Feature"}, {"geometry": {"coordinates": [8.554607, 47.377788], "type": "Point"}, "properties": {"charge": 70, "id": "smide_2733", "name": "BE343873", "provider": "smide", "range": 35.0, "size": 17, "time": "01/28/2020, 11:28:12"}, "type": "Feature"}, {"geometry": {"coordinates": [8.487382, 47.36764], "type": "Point"}, "properties": {"charge": 98, "id": "smide_2732", "name": "BE343870", "provider": "smide", "range": 49.0, "size": 17, "time": "01/28/2020, 11:28:12"}, "type": "Feature"}, {"geometry": {"coordinates": [8.564706, 47.372848], "type": "Point"}, "properties": {"charge": 84, "id": "smide_2729", "name": "BE343878", "provider": "smide", "range": 42.0, "size": 17, "time": "01/28/2020, 11:28:12"}, "type": "Feature"}, {"geometry": {"coordinates": [8.50332, 47.377798], "type": "Point"}, "properties": {"charge": 73, "id": "smide_2725", "name": "ZH261545", "provider": "smide", "range": 36.0, "size": 0, "time": "01/28/2020, 11:28:12"}, "type": "Feature"}, {"geometry": {"coordinates": [8.569083, 47.372913], "type": "Point"}, "properties": {"charge": 100, "id": "smide_2718", "name": "ZH259019", "provider": "smide", "range": 50.0, "size": 20, "time": "01/28/2020, 11:28:12"}, "type": "Feature"}, {"geometry": {"coordinates": [8.508201, 47.3848], "type": "Point"}, "properties": {"charge": 81, "id": "smide_2717", "name": "ZH263287", "provider": "smide", "range": 40.0, "size": 17, "time": "01/28/2020, 11:28:12"}, "type": "Feature"}, {"geometry": {"coordinates": [8.530263, 47.390316], "type": "Point"}, "properties": {"charge": 65, "id": "smide_2716", "name": "ZH254606", "provider": "smide", "range": 32.0, "size": 17, "time": "01/28/2020, 11:28:12"}, "type": "Feature"}, {"geometry": {"coordinates": [8.537445, 47.340584], "type": "Point"}, "properties": {"charge": 88, "id": "smide_2715", "name": "ZH254605", "provider": "smide", "range": 44.0, "size": 17, "time": "01/28/2020, 11:28:12"}, "type": "Feature"}, {"geometry": {"coordinates": [8.563035, 47.365076], "type": "Point"}, "properties": {"charge": 20, "id": "smide_2714", "name": "ZH256461", "provider": "smide", "range": 10.0, "size": 17, "time": "01/28/2020, 11:28:12"}, "type": "Feature"}, {"geometry": {"coordinates": [8.553433, 47.402132], "type": "Point"}, "properties": {"charge": 60, "id": "smide_2710", "name": "ZH256460", "provider": "smide", "range": 30.0, "size": 17, "time": "01/28/2020, 11:28:12"}, "type": "Feature"}, {"geometry": {"coordinates": [8.555709, 47.384324], "type": "Point"}, "properties": {"charge": 61, "id": "smide_2712", "name": "ZH256462", "provider": "smide", "range": 30.0, "size": 17, "time": "01/28/2020, 11:28:12"}, "type": "Feature"}, {"geometry": {"coordinates": [8.561943, 47.361424], "type": "Point"}, "properties": {"charge": 33, "id": "smide_2711", "name": "ZH256463", "provider": "smide", "range": 16.0, "size": 17, "time": "01/28/2020, 11:28:12"}, "type": "Feature"}, {"geometry": {"coordinates": [8.562001, 47.350293], "type": "Point"}, "properties": {"charge": 27, "id": "smide_2709", "name": "ZH256466", "provider": "smide", "range": 13.0, "size": 20, "time": "01/28/2020, 11:28:12"}, "type": "Feature"}, {"geometry": {"coordinates": [8.516472, 47.39834], "type": "Point"}, "properties": {"charge": 76, "id": "smide_2707", "name": "ZH256467", "provider": "smide", "range": 38.0, "size": 20, "time": "01/28/2020, 11:28:12"}, "type": "Feature"}, {"geometry": {"coordinates": [8.552195, 47.414516], "type": "Point"}, "properties": {"charge": 76, "id": "smide_2708", "name": "ZH256464", "provider": "smide", "range": 38.0, "size": 17, "time": "01/28/2020, 11:28:12"}, "type": "Feature"}, {"geometry": {"coordinates": [8.536401, 47.377924], "type": "Point"}, "properties": {"charge": 99, "id": "smide_2706", "name": "ZH256322", "provider": "smide", "range": 49.0, "size": 20, "time": "01/28/2020, 11:28:12"}, "type": "Feature"}, {"geometry": {"coordinates": [8.554535, 47.403004], "type": "Point"}, "properties": {"charge": 100, "id": "smide_2705", "name": "ZH256471", "provider": "smide", "range": 50.0, "size": 20, "time": "01/28/2020, 11:28:12"}, "type": "Feature"}, {"geometry": {"coordinates": [8.563418, 47.40938], "type": "Point"}, "properties": {"charge": 80, "id": "smide_2701", "name": "ZH256468", "provider": "smide", "range": 40.0, "size": 20, "time": "01/28/2020, 11:28:12"}, "type": "Feature"}, {"geometry": {"coordinates": [8.517003, 47.398228], "type": "Point"}, "properties": {"charge": 27, "id": "smide_2700", "name": "ZH256470", "provider": "smide", "range": 13.0, "size": 20, "time": "01/28/2020, 11:28:12"}, "type": "Feature"}, {"geometry": {"coordinates": [8.513198, 47.391896], "type": "Point"}, "properties": {"charge": 80, "id": "smide_2699", "name": "ZH254611", "provider": "smide", "range": 40.0, "size": 20, "time": "01/28/2020, 11:28:12"}, "type": "Feature"}, {"geometry": {"coordinates": [8.507545, 47.38246], "type": "Point"}, "properties": {"charge": 59, "id": "smide_2697", "name": "ZH254629", "provider": "smide", "range": 29.0, "size": 20, "time": "01/28/2020, 11:28:12"}, "type": "Feature"}, {"geometry": {"coordinates": [8.523952, 47.358536], "type": "Point"}, "properties": {"charge": 60, "id": "smide_2696", "name": "ZH254616", "provider": "smide", "range": 30.0, "size": 20, "time": "01/28/2020, 11:28:12"}, "type": "Feature"}, {"geometry": {"coordinates": [8.54316, 47.420726], "type": "Point"}, "properties": {"charge": 55, "id": "smide_2691", "name": "ZH254622", "provider": "smide", "range": 27.0, "size": 20, "time": "01/28/2020, 11:28:12"}, "type": "Feature"}, {"geometry": {"coordinates": [8.565308, 47.358125], "type": "Point"}, "properties": {"charge": 73, "id": "smide_2690", "name": "ZH254625", "provider": "smide", "range": 36.0, "size": 20, "time": "01/28/2020, 11:28:12"}, "type": "Feature"}, {"geometry": {"coordinates": [8.495217, 47.42368], "type": "Point"}, "properties": {"charge": 89, "id": "smide_2689", "name": "ZH254623", "provider": "smide", "range": 44.0, "size": 20, "time": "01/28/2020, 11:28:12"}, "type": "Feature"}, {"geometry": {"coordinates": [8.572588, 47.352632], "type": "Point"}, "properties": {"charge": 100, "id": "smide_2684", "name": "ZH254626", "provider": "smide", "range": 50.0, "size": 20, "time": "01/28/2020, 11:28:12"}, "type": "Feature"}, {"geometry": {"coordinates": [8.549691, 47.420964], "type": "Point"}, "properties": {"charge": 84, "id": "smide_2680", "name": "ZH254619", "provider": "smide", "range": 42.0, "size": 20, "time": "01/28/2020, 11:28:12"}, "type": "Feature"}, {"geometry": {"coordinates": [8.576413, 47.351248], "type": "Point"}, "properties": {"charge": 89, "id": "smide_2679", "name": "ZH258489", "provider": "smide", "range": 44.0, "size": 17, "time": "01/28/2020, 11:28:12"}, "type": "Feature"}, {"geometry": {"coordinates": [8.512918, 47.366352], "type": "Point"}, "properties": {"charge": 99, "id": "smide_2671", "name": "ZH258645", "provider": "smide", "range": 49.0, "size": 17, "time": "01/28/2020, 11:28:12"}, "type": "Feature"}, {"geometry": {"coordinates": [8.476685, 47.3874], "type": "Point"}, "properties": {"charge": 76, "id": "smide_2669", "name": "ZH263294", "provider": "smide", "range": 38.0, "size": 17, "time": "01/28/2020, 11:28:12"}, "type": "Feature"}, {"geometry": {"coordinates": [8.510926, 47.37738], "type": "Point"}, "properties": {"charge": 10, "id": "smide_2668", "name": "ZH258640", "provider": "smide", "range": 5.0, "size": 17, "time": "01/28/2020, 11:28:12"}, "type": "Feature"}, {"geometry": {"coordinates": [8.563852, 47.372092], "type": "Point"}, "properties": {"charge": 56, "id": "smide_2666", "name": "ZH258653", "provider": "smide", "range": 28.0, "size": 17, "time": "01/28/2020, 11:28:12"}, "type": "Feature"}, {"geometry": {"coordinates": [8.521614, 47.361508], "type": "Point"}, "properties": {"charge": 100, "id": "smide_2665", "name": "ZH258644", "provider": "smide", "range": 50.0, "size": 17, "time": "01/28/2020, 11:28:12"}, "type": "Feature"}, {"geometry": {"coordinates": [8.546188, 47.408228], "type": "Point"}, "properties": {"charge": 71, "id": "smide_2664", "name": "ZH258652", "provider": "smide", "range": 35.0, "size": 17, "time": "01/28/2020, 11:28:12"}, "type": "Feature"}, {"geometry": {"coordinates": [8.514466, 47.35778], "type": "Point"}, "properties": {"charge": 94, "id": "smide_2663", "name": "ZH258649", "provider": "smide", "range": 47.0, "size": 17, "time": "01/28/2020, 11:28:12"}, "type": "Feature"}, {"geometry": {"coordinates": [8.483174, 47.378132], "type": "Point"}, "properties": {"charge": 61, "id": "smide_2662", "name": "ZH258643", "provider": "smide", "range": 30.0, "size": 17, "time": "01/28/2020, 11:28:12"}, "type": "Feature"}, {"geometry": {"coordinates": [8.571799, 47.358248], "type": "Point"}, "properties": {"charge": 50, "id": "smide_2648", "name": "ZH257930", "provider": "smide", "range": 25.0, "size": 20, "time": "01/28/2020, 11:28:12"}, "type": "Feature"}, {"geometry": {"coordinates": [8.576275, 47.353243], "type": "Point"}, "properties": {"charge": 90, "id": "smide_2657", "name": "ZH257936", "provider": "smide", "range": 45.0, "size": 17, "time": "01/28/2020, 11:28:12"}, "type": "Feature"}, {"geometry": {"coordinates": [8.493207, 47.382684], "type": "Point"}, "properties": {"charge": 76, "id": "smide_2647", "name": "ZH257932", "provider": "smide", "range": 38.0, "size": 20, "time": "01/28/2020, 11:28:12"}, "type": "Feature"}, {"geometry": {"coordinates": [8.53576, 47.357444], "type": "Point"}, "properties": {"charge": 94, "id": "smide_2645", "name": "ZH257933", "provider": "smide", "range": 47.0, "size": 20, "time": "01/28/2020, 11:28:12"}, "type": "Feature"}, {"geometry": {"coordinates": [8.512665, 47.359936], "type": "Point"}, "properties": {"charge": 85, "id": "smide_3", "name": "ZH253765", "provider": "smide", "range": 42.0, "size": 20, "time": "01/28/2020, 11:28:12"}, "type": "Feature"}, {"geometry": {"coordinates": [8.48654, 47.391553], "type": "Point"}, "properties": {"charge": 56, "id": "smide_105", "name": "ZH253804", "provider": "smide", "range": 28.0, "size": 17, "time": "01/28/2020, 11:28:12"}, "type": "Feature"}, {"geometry": {"coordinates": [8.483601, 47.381724], "type": "Point"}, "properties": {"charge": 58, "id": "smide_186", "name": "ZH253751", "provider": "smide", "range": 28.0, "size": 20, "time": "01/28/2020, 11:28:12"}, "type": "Feature"}, {"geometry": {"coordinates": [8.571782, 47.358268], "type": "Point"}, "properties": {"charge": 100, "id": "smide_173", "name": "ZH258501", "provider": "smide", "range": 50.0, "size": 17, "time": "01/28/2020, 11:28:12"}, "type": "Feature"}, {"geometry": {"coordinates": [8.559247, 47.40594], "type": "Point"}, "properties": {"charge": 84, "id": "smide_77", "name": "ZH261548", "provider": "smide", "range": 42.0, "size": 20, "time": "01/28/2020, 11:28:12"}, "type": "Feature"}, {"geometry": {"coordinates": [8.508323, 47.400496], "type": "Point"}, "properties": {"charge": 28, "id": "smide_200", "name": "ZH253801", "provider": "smide", "range": 14.0, "size": 20, "time": "01/28/2020, 11:28:12"}, "type": "Feature"}, {"geometry": {"coordinates": [8.538981, 47.338231], "type": "Point"}, "properties": {"charge": 100, "id": "smide_197", "name": "ZH253864", "provider": "smide", "range": 50.0, "size": 20, "time": "01/28/2020, 11:28:12"}, "type": "Feature"}, {"geometry": {"coordinates": [8.550439, 47.356216], "type": "Point"}, "properties": {"charge": 90, "id": "smide_199", "name": "ZH253766", "provider": "smide", "range": 45.0, "size": 20, "time": "01/28/2020, 11:28:12"}, "type": "Feature"}, {"geometry": {"coordinates": [8.544017, 47.41032], "type": "Point"}, "properties": {"charge": 100, "id": "smide_8", "name": "ZH253861", "provider": "smide", "range": 50.0, "size": 17, "time": "01/28/2020, 11:28:12"}, "type": "Feature"}, {"geometry": {"coordinates": [8.526523, 47.368673], "type": "Point"}, "properties": {"charge": 20, "id": "smide_45", "name": "ZH253716", "provider": "smide", "range": 10.0, "size": 17, "time": "01/28/2020, 11:28:12"}, "type": "Feature"}, {"geometry": {"coordinates": [8.504735, 47.399772], "type": "Point"}, "properties": {"charge": 97, "id": "smide_188", "name": "ZH261543", "provider": "smide", "range": 48.0, "size": 20, "time": "01/28/2020, 11:28:12"}, "type": "Feature"}, {"geometry": {"coordinates": [8.57497, 47.372084], "type": "Point"}, "properties": {"charge": 99, "id": "smide_71", "name": "ZH253742", "provider": "smide", "range": 49.0, "size": 20, "time": "01/28/2020, 11:28:12"}, "type": "Feature"}, {"geometry": {"coordinates": [8.509174, 47.38476], "type": "Point"}, "properties": {"charge": 49, "id": "smide_101", "name": "ZH253814", "provider": "smide", "range": 24.0, "size": 17, "time": "01/28/2020, 11:28:12"}, "type": "Feature"}, {"geometry": {"coordinates": [8.532082, 47.400036], "type": "Point"}, "properties": {"charge": 100, "id": "smide_9", "name": "ZH253796", "provider": "smide", "range": 50.0, "size": 17, "time": "01/28/2020, 11:28:12"}, "type": "Feature"}, {"geometry": {"coordinates": [8.50601, 47.381564], "type": "Point"}, "properties": {"charge": 60, "id": "smide_143", "name": "ZH253778", "provider": "smide", "range": 30.0, "size": 17, "time": "01/28/2020, 11:28:12"}, "type": "Feature"}, {"geometry": {"coordinates": [8.550089, 47.398432], "type": "Point"}, "properties": {"charge": 40, "id": "smide_20", "name": "ZH253770", "provider": "smide", "range": 20.0, "size": 20, "time": "01/28/2020, 11:28:12"}, "type": "Feature"}, {"geometry": {"coordinates": [8.509372, 47.354932], "type": "Point"}, "properties": {"charge": 90, "id": "smide_50", "name": "ZH253853", "provider": "smide", "range": 45.0, "size": 17, "time": "01/28/2020, 11:28:12"}, "type": "Feature"}, {"geometry": {"coordinates": [8.498396, 47.366611], "type": "Point"}, "properties": {"charge": 64, "id": "smide_30", "name": "ZH253813", "provider": "smide", "range": 32.0, "size": 20, "time": "01/28/2020, 11:28:12"}, "type": "Feature"}, {"geometry": {"coordinates": [8.528563, 47.382988], "type": "Point"}, "properties": {"charge": 80, "id": "smide_165", "name": "ZH253752", "provider": "smide", "range": 40.0, "size": 17, "time": "01/28/2020, 11:28:12"}, "type": "Feature"}, {"geometry": {"coordinates": [8.552084, 47.414544], "type": "Point"}, "properties": {"charge": 67, "id": "smide_119", "name": "ZH253686", "provider": "smide", "range": 33.0, "size": 20, "time": "01/28/2020, 11:28:12"}, "type": "Feature"}, {"geometry": {"coordinates": [8.546255, 47.412724], "type": "Point"}, "properties": {"charge": 63, "id": "smide_76", "name": "ZH253764", "provider": "smide", "range": 31.0, "size": 17, "time": "01/28/2020, 11:28:12"}, "type": "Feature"}, {"geometry": {"coordinates": [8.550938, 47.414572], "type": "Point"}, "properties": {"charge": 49, "id": "smide_129", "name": "ZH261378", "provider": "smide", "range": 24.0, "size": 17, "time": "01/28/2020, 11:28:12"}, "type": "Feature"}, {"geometry": {"coordinates": [8.524546, 47.36041], "type": "Point"}, "properties": {"charge": 52, "id": "smide_49", "name": "ZH253873", "provider": "smide", "range": 26.0, "size": 17, "time": "01/28/2020, 11:28:12"}, "type": "Feature"}, {"geometry": {"coordinates": [8.550232, 47.3981], "type": "Point"}, "properties": {"charge": 83, "id": "smide_94", "name": "ZH253754", "provider": "smide", "range": 41.0, "size": 17, "time": "01/28/2020, 11:28:12"}, "type": "Feature"}, {"geometry": {"coordinates": [8.560195, 47.381348], "type": "Point"}, "properties": {"charge": 59, "id": "smide_37", "name": "ZH261377", "provider": "smide", "range": 29.0, "size": 20, "time": "01/28/2020, 11:28:12"}, "type": "Feature"}, {"geometry": {"coordinates": [8.509778, 47.40031], "type": "Point"}, "properties": {"charge": 70, "id": "smide_191", "name": "ZH253762", "provider": "smide", "range": 35.0, "size": 17, "time": "01/28/2020, 11:28:12"}, "type": "Feature"}, {"geometry": {"coordinates": [8.512735, 47.359956], "type": "Point"}, "properties": {"charge": 89, "id": "smide_202", "name": "ZH253830", "provider": "smide", "range": 44.0, "size": 17, "time": "01/28/2020, 11:28:12"}, "type": "Feature"}, {"geometry": {"coordinates": [8.574908, 47.373248], "type": "Point"}, "properties": {"charge": 85, "id": "smide_56", "name": "ZH261442", "provider": "smide", "range": 42.0, "size": 20, "time": "01/28/2020, 11:28:12"}, "type": "Feature"}, {"geometry": {"coordinates": [8.567045, 47.361288], "type": "Point"}, "properties": {"charge": 58, "id": "smide_47", "name": "ZH253858", "provider": "smide", "range": 28.0, "size": 17, "time": "01/28/2020, 11:28:12"}, "type": "Feature"}, {"geometry": {"coordinates": [8.548036, 47.366452], "type": "Point"}, "properties": {"charge": 93, "id": "smide_150", "name": "ZH253703", "provider": "smide", "range": 46.0, "size": 20, "time": "01/28/2020, 11:28:12"}, "type": "Feature"}, {"geometry": {"coordinates": [8.52989, 47.376292], "type": "Point"}, "properties": {"charge": 65, "id": "smide_181", "name": "ZH253815", "provider": "smide", "range": 32.0, "size": 17, "time": "01/28/2020, 11:28:12"}, "type": "Feature"}, {"geometry": {"coordinates": [8.543799, 47.381936], "type": "Point"}, "properties": {"charge": 86, "id": "smide_66", "name": "ZH253818", "provider": "smide", "range": 43.0, "size": 20, "time": "01/28/2020, 11:28:12"}, "type": "Feature"}, {"geometry": {"coordinates": [8.49822, 47.366475], "type": "Point"}, "properties": {"charge": 74, "id": "smide_17", "name": "ZH253793", "provider": "smide", "range": 37.0, "size": 17, "time": "01/28/2020, 11:28:12"}, "type": "Feature"}, {"geometry": {"coordinates": [8.561458, 47.36281], "type": "Point"}, "properties": {"charge": 89, "id": "smide_145", "name": "ZH253780", "provider": "smide", "range": 44.0, "size": 20, "time": "01/28/2020, 11:28:12"}, "type": "Feature"}, {"geometry": {"coordinates": [8.563081, 47.382584], "type": "Point"}, "properties": {"charge": 74, "id": "smide_114", "name": "ZH253878", "provider": "smide", "range": 37.0, "size": 20, "time": "01/28/2020, 11:28:12"}, "type": "Feature"}, {"geometry": {"coordinates": [8.559382, 47.360056], "type": "Point"}, "properties": {"charge": 45, "id": "smide_203", "name": "ZH261547", "provider": "smide", "range": 22.0, "size": 17, "time": "01/28/2020, 11:28:12"}, "type": "Feature"}, {"geometry": {"coordinates": [8.543473, 47.41114], "type": "Point"}, "properties": {"charge": 29, "id": "smide_164", "name": "ZH253775", "provider": "smide", "range": 14.0, "size": 17, "time": "01/28/2020, 11:28:12"}, "type": "Feature"}, {"geometry": {"coordinates": [8.513515, 47.377904], "type": "Point"}, "properties": {"charge": 81, "id": "smide_189", "name": "ZH253845", "provider": "smide", "range": 40.0, "size": 20, "time": "01/28/2020, 11:28:12"}, "type": "Feature"}, {"geometry": {"coordinates": [8.55429, 47.379516], "type": "Point"}, "properties": {"charge": 62, "id": "smide_81", "name": "ZH253753", "provider": "smide", "range": 31.0, "size": 17, "time": "01/28/2020, 11:28:12"}, "type": "Feature"}, {"geometry": {"coordinates": [8.498697, 47.402156], "type": "Point"}, "properties": {"charge": 13, "id": "smide_148", "name": "ZH253844", "provider": "smide", "range": 6.0, "size": 20, "time": "01/28/2020, 11:28:12"}, "type": "Feature"}, {"geometry": {"coordinates": [8.552576, 47.381672], "type": "Point"}, "properties": {"charge": 31, "id": "smide_171", "name": "ZH253689", "provider": "smide", "range": 15.0, "size": 20, "time": "01/28/2020, 11:28:12"}, "type": "Feature"}, {"geometry": {"coordinates": [8.524335, 47.39584], "type": "Point"}, "properties": {"charge": 28, "id": "smide_93", "name": "ZH253681", "provider": "smide", "range": 14.0, "size": 17, "time": "01/28/2020, 11:28:12"}, "type": "Feature"}, {"geometry": {"coordinates": [8.570016, 47.352412], "type": "Point"}, "properties": {"charge": 89, "id": "smide_67", "name": "ZH253779", "provider": "smide", "range": 44.0, "size": 17, "time": "01/28/2020, 11:28:12"}, "type": "Feature"}, {"geometry": {"coordinates": [8.514787, 47.389544], "type": "Point"}, "properties": {"charge": 83, "id": "smide_133", "name": "ZH253848", "provider": "smide", "range": 41.0, "size": 20, "time": "01/28/2020, 11:28:12"}, "type": "Feature"}, {"geometry": {"coordinates": [8.480078, 47.385751], "type": "Point"}, "properties": {"charge": 78, "id": "smide_118", "name": "ZH253759", "provider": "smide", "range": 39.0, "size": 20, "time": "01/28/2020, 11:28:12"}, "type": "Feature"}, {"geometry": {"coordinates": [8.543876, 47.376548], "type": "Point"}, "properties": {"charge": 61, "id": "smide_142", "name": "ZH258745", "provider": "smide", "range": 30.0, "size": 17, "time": "01/28/2020, 11:28:12"}, "type": "Feature"}, {"geometry": {"coordinates": [8.539313, 47.38831], "type": "Point"}, "properties": {"charge": 90, "id": "smide_166", "name": "ZH253728", "provider": "smide", "range": 45.0, "size": 17, "time": "01/28/2020, 11:28:12"}, "type": "Feature"}, {"geometry": {"coordinates": [8.478401, 47.389588], "type": "Point"}, "properties": {"charge": 31, "id": "smide_126", "name": "ZH268400", "provider": "smide", "range": 15.0, "size": 17, "time": "01/28/2020, 11:28:12"}, "type": "Feature"}, {"geometry": {"coordinates": [8.540831, 47.390695], "type": "Point"}, "properties": {"charge": 38, "id": "smide_44", "name": "ZH253837", "provider": "smide", "range": 19.0, "size": 17, "time": "01/28/2020, 11:28:12"}, "type": "Feature"}, {"geometry": {"coordinates": [8.515565, 47.396051], "type": "Point"}, "properties": {"charge": 62, "id": "smide_98", "name": "ZH256321", "provider": "smide", "range": 31.0, "size": 17, "time": "01/28/2020, 11:28:12"}, "type": "Feature"}, {"geometry": {"coordinates": [8.582245, 47.351896], "type": "Point"}, "properties": {"charge": 20, "id": "smide_154", "name": "ZH253744", "provider": "smide", "range": 10.0, "size": 20, "time": "01/28/2020, 11:28:12"}, "type": "Feature"}, {"geometry": {"coordinates": [8.516145, 47.396932], "type": "Point"}, "properties": {"charge": 49, "id": "smide_92", "name": "ZH253798", "provider": "smide", "range": 24.0, "size": 17, "time": "01/28/2020, 11:28:12"}, "type": "Feature"}, {"geometry": {"coordinates": [8.547148, 47.422883], "type": "Point"}, "properties": {"charge": 22, "id": "smide_167", "name": "ZH253854", "provider": "smide", "range": 11.0, "size": 17, "time": "01/28/2020, 11:28:12"}, "type": "Feature"}, {"geometry": {"coordinates": [8.560816, 47.372136], "type": "Point"}, "properties": {"charge": 42, "id": "smide_65", "name": "ZH253810", "provider": "smide", "range": 21.0, "size": 17, "time": "01/28/2020, 11:28:12"}, "type": "Feature"}, {"geometry": {"coordinates": [8.521577, 47.410728], "type": "Point"}, "properties": {"charge": 97, "id": "smide_111", "name": "ZH253763", "provider": "smide", "range": 48.0, "size": 17, "time": "01/28/2020, 11:28:12"}, "type": "Feature"}, {"geometry": {"coordinates": [8.510061, 47.425512], "type": "Point"}, "properties": {"charge": 81, "id": "smide_40", "name": "ZH253690", "provider": "smide", "range": 40.0, "size": 20, "time": "01/28/2020, 11:28:12"}, "type": "Feature"}, {"geometry": {"coordinates": [8.558934, 47.352396], "type": "Point"}, "properties": {"charge": 48, "id": "smide_1", "name": "ZH253776", "provider": "smide", "range": 24.0, "size": 17, "time": "01/28/2020, 11:28:12"}, "type": "Feature"}, {"geometry": {"coordinates": [8.556579, 47.353556], "type": "Point"}, "properties": {"charge": 74, "id": "smide_28", "name": "ZH253831", "provider": "smide", "range": 37.0, "size": 17, "time": "01/28/2020, 11:28:12"}, "type": "Feature"}, {"geometry": {"coordinates": [8.556924, 47.405168], "type": "Point"}, "properties": {"charge": 62, "id": "smide_130", "name": "ZH253847", "provider": "smide", "range": 31.0, "size": 20, "time": "01/28/2020, 11:28:12"}, "type": "Feature"}, {"geometry": {"coordinates": [8.536774, 47.379816], "type": "Point"}, "properties": {"charge": 89, "id": "smide_24", "name": "ZH253696", "provider": "smide", "range": 44.0, "size": 20, "time": "01/28/2020, 11:28:12"}, "type": "Feature"}, {"geometry": {"coordinates": [8.514774, 47.355424], "type": "Point"}, "properties": {"charge": 100, "id": "smide_193", "name": "ZH253738", "provider": "smide", "range": 50.0, "size": 20, "time": "01/28/2020, 11:28:12"}, "type": "Feature"}, {"geometry": {"coordinates": [8.563661, 47.40775], "type": "Point"}, "properties": {"charge": 100, "id": "smide_73", "name": "ZH261379", "provider": "smide", "range": 50.0, "size": 20, "time": "01/28/2020, 11:28:12"}, "type": "Feature"}, {"geometry": {"coordinates": [8.54931, 47.422125], "type": "Point"}, "properties": {"charge": 100, "id": "smide_158", "name": "ZH253870", "provider": "smide", "range": 50.0, "size": 20, "time": "01/28/2020, 11:28:12"}, "type": "Feature"}, {"geometry": {"coordinates": [8.494201, 47.424244], "type": "Point"}, "properties": {"charge": 23, "id": "smide_100", "name": "ZH253862", "provider": "smide", "range": 11.0, "size": 20, "time": "01/28/2020, 11:28:12"}, "type": "Feature"}, {"geometry": {"coordinates": [8.551791, 47.389153], "type": "Point"}, "properties": {"charge": 87, "id": "smide_134", "name": "ZH253741", "provider": "smide", "range": 43.0, "size": 20, "time": "01/28/2020, 11:28:12"}, "type": "Feature"}, {"geometry": {"coordinates": [8.543973, 47.408505], "type": "Point"}, "properties": {"charge": 91, "id": "smide_149", "name": "ZH253743", "provider": "smide", "range": 45.0, "size": 20, "time": "01/28/2020, 11:28:12"}, "type": "Feature"}, {"geometry": {"coordinates": [8.550883, 47.414612], "type": "Point"}, "properties": {"charge": 59, "id": "smide_16", "name": "ZH253713", "provider": "smide", "range": 29.0, "size": 20, "time": "01/28/2020, 11:28:12"}, "type": "Feature"}, {"geometry": {"coordinates": [8.547263, 47.38742], "type": "Point"}, "properties": {"charge": 37, "id": "smide_74", "name": "ZH253693", "provider": "smide", "range": 18.0, "size": 20, "time": "01/28/2020, 11:28:12"}, "type": "Feature"}, {"geometry": {"coordinates": [8.496685, 47.392328], "type": "Point"}, "properties": {"charge": 100, "id": "smide_33", "name": "ZH253782", "provider": "smide", "range": 50.0, "size": 20, "time": "01/28/2020, 11:28:12"}, "type": "Feature"}, {"geometry": {"coordinates": [8.569479, 47.352052], "type": "Point"}, "properties": {"charge": 21, "id": "smide_161", "name": "ZH253691", "provider": "smide", "range": 10.0, "size": 20, "time": "01/28/2020, 11:28:12"}, "type": "Feature"}, {"geometry": {"coordinates": [8.517566, 47.367456], "type": "Point"}, "properties": {"charge": 99, "id": "smide_183", "name": "ZH253868", "provider": "smide", "range": 49.0, "size": 17, "time": "01/28/2020, 11:28:12"}, "type": "Feature"}, {"geometry": {"coordinates": [8.483373, 47.374632], "type": "Point"}, "properties": {"charge": 100, "id": "smide_42", "name": "ZH253846", "provider": "smide", "range": 50.0, "size": 20, "time": "01/28/2020, 11:28:12"}, "type": "Feature"}, {"geometry": {"coordinates": [8.510046, 47.42552], "type": "Point"}, "properties": {"charge": 95, "id": "smide_4", "name": "ZH253740", "provider": "smide", "range": 47.0, "size": 20, "time": "01/28/2020, 11:28:12"}, "type": "Feature"}, {"geometry": {"coordinates": [8.553787, 47.373412], "type": "Point"}, "properties": {"charge": 100, "id": "smide_160", "name": "ZH253722", "provider": "smide", "range": 50.0, "size": 17, "time": "01/28/2020, 11:28:12"}, "type": "Feature"}, {"geometry": {"coordinates": [8.521453, 47.367388], "type": "Point"}, "properties": {"charge": 73, "id": "smide_137", "name": "ZH258502", "provider": "smide", "range": 36.0, "size": 17, "time": "01/28/2020, 11:28:12"}, "type": "Feature"}, {"geometry": {"coordinates": [8.489218, 47.392596], "type": "Point"}, "properties": {"charge": 43, "id": "smide_178", "name": "ZH253803", "provider": "smide", "range": 21.0, "size": 17, "time": "01/28/2020, 11:28:12"}, "type": "Feature"}, {"geometry": {"coordinates": [8.476608, 47.38725], "type": "Point"}, "properties": {"charge": 88, "id": "smide_55", "name": "ZH253875", "provider": "smide", "range": 44.0, "size": 17, "time": "01/28/2020, 11:28:12"}, "type": "Feature"}, {"geometry": {"coordinates": [8.541489, 47.382404], "type": "Point"}, "properties": {"charge": 77, "id": "smide_96", "name": "ZH256146", "provider": "smide", "range": 38.0, "size": 20, "time": "01/28/2020, 11:28:12"}, "type": "Feature"}, {"geometry": {"coordinates": [8.535769, 47.357444], "type": "Point"}, "properties": {"charge": 95, "id": "smide_58", "name": "ZH259246", "provider": "smide", "range": 47.0, "size": 20, "time": "01/28/2020, 11:28:12"}, "type": "Feature"}, {"geometry": {"coordinates": [8.560257, 47.38208], "type": "Point"}, "properties": {"charge": 23, "id": "smide_54", "name": "ZH253874", "provider": "smide", "range": 11.0, "size": 20, "time": "01/28/2020, 11:28:12"}, "type": "Feature"}, {"geometry": {"coordinates": [8.493212, 47.3946], "type": "Point"}, "properties": {"charge": 86, "id": "smide_175", "name": "ZH253730", "provider": "smide", "range": 43.0, "size": 17, "time": "01/28/2020, 11:28:12"}, "type": "Feature"}, {"geometry": {"coordinates": [8.540536, 47.393876], "type": "Point"}, "properties": {"charge": 59, "id": "smide_112", "name": "ZH263530", "provider": "smide", "range": 29.0, "size": 20, "time": "01/28/2020, 11:28:12"}, "type": "Feature"}, {"geometry": {"coordinates": [8.531824, 47.369028], "type": "Point"}, "properties": {"charge": 38, "id": "smide_122", "name": "ZH253850", "provider": "smide", "range": 19.0, "size": 20, "time": "01/28/2020, 11:28:12"}, "type": "Feature"}, {"geometry": {"coordinates": [8.561615, 47.349748], "type": "Point"}, "properties": {"charge": 42, "id": "smide_38", "name": "ZH253851", "provider": "smide", "range": 21.0, "size": 20, "time": "01/28/2020, 11:28:12"}, "type": "Feature"}, {"geometry": {"coordinates": [8.531028, 47.369368], "type": "Point"}, "properties": {"charge": 65, "id": "smide_6", "name": "ZH253787", "provider": "smide", "range": 32.0, "size": 17, "time": "01/28/2020, 11:28:12"}, "type": "Feature"}, {"geometry": {"coordinates": [8.554622, 47.415936], "type": "Point"}, "properties": {"charge": 78, "id": "smide_18", "name": "ZH253859", "provider": "smide", "range": 39.0, "size": 17, "time": "01/28/2020, 11:28:12"}, "type": "Feature"}, {"geometry": {"coordinates": [8.548165, 47.377368], "type": "Point"}, "properties": {"charge": 58, "id": "smide_12", "name": "ZH253685", "provider": "smide", "range": 28.0, "size": 17, "time": "01/28/2020, 11:28:12"}, "type": "Feature"}, {"geometry": {"coordinates": [8.559361, 47.353152], "type": "Point"}, "properties": {"charge": 51, "id": "smide_192", "name": "ZH253706", "provider": "smide", "range": 25.0, "size": 20, "time": "01/28/2020, 11:28:12"}, "type": "Feature"}, {"geometry": {"coordinates": [8.554263, 47.417944], "type": "Point"}, "properties": {"charge": 100, "id": "smide_39", "name": "ZH253714", "provider": "smide", "range": 50.0, "size": 20, "time": "01/28/2020, 11:28:12"}, "type": "Feature"}, {"geometry": {"coordinates": [8.557925, 47.352578], "type": "Point"}, "properties": {"charge": 100, "id": "smide_5", "name": "ZH261443", "provider": "smide", "range": 50.0, "size": 20, "time": "01/28/2020, 11:28:12"}, "type": "Feature"}, {"geometry": {"coordinates": [8.56242, 47.377683], "type": "Point"}, "properties": {"charge": 33, "id": "smide_85", "name": "ZH253729", "provider": "smide", "range": 16.0, "size": 17, "time": "01/28/2020, 11:28:12"}, "type": "Feature"}, {"geometry": {"coordinates": [8.558212, 47.404556], "type": "Point"}, "properties": {"charge": 99, "id": "smide_29", "name": "ZH253723", "provider": "smide", "range": 49.0, "size": 17, "time": "01/28/2020, 11:28:12"}, "type": "Feature"}, {"geometry": {"coordinates": [8.553648, 47.369084], "type": "Point"}, "properties": {"charge": 99, "id": "smide_48", "name": "ZH253849", "provider": "smide", "range": 49.0, "size": 20, "time": "01/28/2020, 11:28:12"}, "type": "Feature"}, {"geometry": {"coordinates": [8.51451, 47.357668], "type": "Point"}, "properties": {"charge": 67, "id": "smide_46", "name": "ZH253843", "provider": "smide", "range": 33.0, "size": 20, "time": "01/28/2020, 11:28:12"}, "type": "Feature"}, {"geometry": {"coordinates": [8.54800166666667, 47.3665433333333], "type": "Point"}, "properties": {"charge": 73, "id": "bird_6b31a9d8-93dc-4a25-b69d-8e16b7362be7", "provider": "bird", "timeStamp": "01/28/2020, 11:28:11"}, "type": "Feature"}, {"geometry": {"coordinates": [8.54046, 47.3966133333333], "type": "Point"}, "properties": {"charge": 16, "id": "bird_5d485547-0643-4fe9-a526-caf9fb52bfbf", "provider": "bird", "timeStamp": "01/28/2020, 11:28:11"}, "type": "Feature"}, {"geometry": {"coordinates": [8.50481166666667, 47.3858483333333], "type": "Point"}, "properties": {"charge": 54, "id": "bird_e972ae19-0bfa-4f1c-88f3-000d184f3da0", "provider": "bird", "timeStamp": "01/28/2020, 11:28:11"}, "type": "Feature"}, {"geometry": {"coordinates": [8.51225333333333, 47.3932116666667], "type": "Point"}, "properties": {"charge": 10, "id": "bird_3873a2b3-f41b-48bb-8f89-659ed085cf30", "provider": "bird", "timeStamp": "01/28/2020, 11:28:11"}, "type": "Feature"}, {"geometry": {"coordinates": [8.50406333333333, 47.3792033333333], "type": "Point"}, "properties": {"charge": 70, "id": "bird_14c04621-ee94-464d-90fb-27c9101e0ed4", "provider": "bird", "timeStamp": "01/28/2020, 11:28:11"}, "type": "Feature"}, {"geometry": {"coordinates": [8.52340833333333, 47.3967583333333], "type": "Point"}, "properties": {"charge": 80, "id": "bird_fa44017e-5c99-429d-92d6-bab170ce2c9a", "provider": "bird", "timeStamp": "01/28/2020, 11:28:11"}, "type": "Feature"}, {"geometry": {"coordinates": [8.54722833333333, 47.3671716666667], "type": "Point"}, "properties": {"charge": 84, "id": "bird_f748a8b4-42c2-4ac5-b384-6d8b4f21fb90", "provider": "bird", "timeStamp": "01/28/2020, 11:28:11"}, "type": "Feature"}, {"geometry": {"coordinates": [8.53249833333333, 47.3628266666667], "type": "Point"}, "properties": {"charge": 80, "id": "bird_165ae50a-7d95-40f2-bba2-04005ced9cbd", "provider": "bird", "timeStamp": "01/28/2020, 11:28:11"}, "type": "Feature"}, {"geometry": {"coordinates": [8.514105, 47.393475], "type": "Point"}, "properties": {"charge": 31, "id": "bird_aa47cbd4-dcf4-4ad1-b361-bd9a78e0d102", "provider": "bird", "timeStamp": "01/28/2020, 11:28:11"}, "type": "Feature"}, {"geometry": {"coordinates": [8.54483333333333, 47.3662183333333], "type": "Point"}, "properties": {"charge": 87, "id": "bird_88773f9e-2b27-43c5-a4fe-4438d30236fe", "provider": "bird", "timeStamp": "01/28/2020, 11:28:11"}, "type": "Feature"}, {"geometry": {"coordinates": [8.51061, 47.36927], "type": "Point"}, "properties": {"charge": 19, "id": "bird_13c09e56-4a41-46b4-acd9-f413c9f5deb8", "provider": "bird", "timeStamp": "01/28/2020, 11:28:11"}, "type": "Feature"}, {"geometry": {"coordinates": [8.55300666666667, 47.3734933333333], "type": "Point"}, "properties": {"charge": 75, "id": "bird_c7c154c1-9e0d-47f4-a144-a649bc6c2de4", "provider": "bird", "timeStamp": "01/28/2020, 11:28:11"}, "type": "Feature"}, {"geometry": {"coordinates": [8.55329166666667, 47.3741], "type": "Point"}, "properties": {"charge": 20, "id": "bird_e2d694bf-a04d-4257-a6f5-d13b1c767c07", "provider": "bird", "timeStamp": "01/28/2020, 11:28:11"}, "type": "Feature"}, {"geometry": {"coordinates": [8.532345, 47.3632816666667], "type": "Point"}, "properties": {"charge": 76, "id": "bird_9e488f7d-9990-444e-ad34-f07cca4ba464", "provider": "bird", "timeStamp": "01/28/2020, 11:28:11"}, "type": "Feature"}, {"geometry": {"coordinates": [8.52107166666667, 47.3646433333333], "type": "Point"}, "properties": {"charge": 17, "id": "bird_9cf4995b-8bf6-461d-af36-ec3c2ae5ceb4", "provider": "bird", "timeStamp": "01/28/2020, 11:28:11"}, "type": "Feature"}, {"geometry": {"coordinates": [8.52454333333333, 47.3958633333333], "type": "Point"}, "properties": {"charge": 53, "id": "bird_d1a55704-1c08-4c2e-a075-329c6c1f2bf9", "provider": "bird", "timeStamp": "01/28/2020, 11:28:11"}, "type": "Feature"}, {"geometry": {"coordinates": [8.54850333333333, 47.39035], "type": "Point"}, "properties": {"charge": 27, "id": "bird_4cd7d7c5-8084-4399-b911-eb320af13c36", "provider": "bird", "timeStamp": "01/28/2020, 11:28:11"}, "type": "Feature"}, {"geometry": {"coordinates": [8.53164833333333, 47.3639633333333], "type": "Point"}, "properties": {"charge": 47, "id": "bird_c1eb8881-98e5-4d34-afdb-d49b206f7462", "provider": "bird", "timeStamp": "01/28/2020, 11:28:11"}, "type": "Feature"}, {"geometry": {"coordinates": [8.53161166666667, 47.3639716666667], "type": "Point"}, "properties": {"charge": 82, "id": "bird_3ca1c68d-734e-4659-a692-26a1136c0cd7", "provider": "bird", "timeStamp": "01/28/2020, 11:28:11"}, "type": "Feature"}, {"geometry": {"coordinates": [8.53159333333333, 47.3639866666667], "type": "Point"}, "properties": {"charge": 87, "id": "bird_c61862f4-6a99-4eed-9de3-3b969c6ed684", "provider": "bird", "timeStamp": "01/28/2020, 11:28:11"}, "type": "Feature"}, {"geometry": {"coordinates": [8.54504, 47.36768], "type": "Point"}, "properties": {"charge": 70, "id": "bird_a56801ec-207d-4bbe-9daa-36679cc482a8", "provider": "bird", "timeStamp": "01/28/2020, 11:28:11"}, "type": "Feature"}, {"geometry": {"coordinates": [8.53158666666667, 47.3640633333333], "type": "Point"}, "properties": {"charge": 82, "id": "bird_8034e203-521e-4ffa-865a-f3b7bb69d8b5", "provider": "bird", "timeStamp": "01/28/2020, 11:28:11"}, "type": "Feature"}, {"geometry": {"coordinates": [8.531645, 47.364075], "type": "Point"}, "properties": {"charge": 73, "id": "bird_94545041-8c09-473b-b033-476b877965f2", "provider": "bird", "timeStamp": "01/28/2020, 11:28:11"}, "type": "Feature"}, {"geometry": {"coordinates": [8.53323833333333, 47.3642316666667], "type": "Point"}, "properties": {"charge": 65, "id": "bird_44286087-3b07-49ab-8e72-c53681af0dac", "provider": "bird", "timeStamp": "01/28/2020, 11:28:11"}, "type": "Feature"}, {"geometry": {"coordinates": [8.51485166666667, 47.3679233333333], "type": "Point"}, "properties": {"charge": 31, "id": "bird_49fb1c6d-9a53-4492-a584-5f68759c123c", "provider": "bird", "timeStamp": "01/28/2020, 11:28:11"}, "type": "Feature"}, {"geometry": {"coordinates": [8.539475, 47.3655466666667], "type": "Point"}, "properties": {"charge": 93, "id": "bird_cd3a3286-afc8-420f-85e5-034086d01fff", "provider": "bird", "timeStamp": "01/28/2020, 11:28:11"}, "type": "Feature"}, {"geometry": {"coordinates": [8.53923833333333, 47.36549], "type": "Point"}, "properties": {"charge": 89, "id": "bird_5fd0556d-b16f-404b-b550-2b3cc14bd300", "provider": "bird", "timeStamp": "01/28/2020, 11:28:11"}, "type": "Feature"}, {"geometry": {"coordinates": [8.53961666666667, 47.3656583333333], "type": "Point"}, "properties": {"charge": 89, "id": "bird_7bf04543-ebcd-43f4-8a9f-d9068ce4a996", "provider": "bird", "timeStamp": "01/28/2020, 11:28:11"}, "type": "Feature"}, {"geometry": {"coordinates": [8.53890333333333, 47.365555], "type": "Point"}, "properties": {"charge": 69, "id": "bird_0dae2de2-566b-4727-9550-7a07d94b4694", "provider": "bird", "timeStamp": "01/28/2020, 11:28:11"}, "type": "Feature"}, {"geometry": {"coordinates": [8.54099833333333, 47.3662416666667], "type": "Point"}, "properties": {"charge": 83, "id": "bird_5a09278a-7833-4e06-aab3-c014cfc2bfc9", "provider": "bird", "timeStamp": "01/28/2020, 11:28:11"}, "type": "Feature"}, {"geometry": {"coordinates": [8.54084333333333, 47.3662266666667], "type": "Point"}, "properties": {"charge": 84, "id": "bird_a1e3cdcb-e228-45b7-95bf-25e326bd1966", "provider": "bird", "timeStamp": "01/28/2020, 11:28:11"}, "type": "Feature"}, {"geometry": {"coordinates": [8.54079833333333, 47.3662416666667], "type": "Point"}, "properties": {"charge": 91, "id": "bird_8debb2d5-a9be-461c-a601-fc13d240eaa7", "provider": "bird", "timeStamp": "01/28/2020, 11:28:11"}, "type": "Feature"}, {"geometry": {"coordinates": [8.53264666666667, 47.364555], "type": "Point"}, "properties": {"charge": 39, "id": "bird_2d993c0d-9aed-4ee4-b5bf-a5f20814dfc9", "provider": "bird", "timeStamp": "01/28/2020, 11:28:11"}, "type": "Feature"}, {"geometry": {"coordinates": [8.51031, 47.3721916666667], "type": "Point"}, "properties": {"charge": 18, "id": "bird_a3209747-527f-4b35-8163-aedf49f9585a", "provider": "bird", "timeStamp": "01/28/2020, 11:28:11"}, "type": "Feature"}, {"geometry": {"coordinates": [8.54421166666667, 47.3679233333333], "type": "Point"}, "properties": {"charge": 89, "id": "bird_100b7201-74c8-451d-a6a1-8f46bc1ce3f1", "provider": "bird", "timeStamp": "01/28/2020, 11:28:11"}, "type": "Feature"}, {"geometry": {"coordinates": [8.51968333333333, 47.3935966666667], "type": "Point"}, "properties": {"charge": 12, "id": "bird_0aa8aef2-62bc-4fff-a208-a05f3a0c7110", "provider": "bird", "timeStamp": "01/28/2020, 11:28:11"}, "type": "Feature"}, {"geometry": {"coordinates": [8.53044833333333, 47.364765], "type": "Point"}, "properties": {"charge": 19, "id": "bird_37350909-5a54-4635-a042-26b5c65c9b2e", "provider": "bird", "timeStamp": "01/28/2020, 11:28:11"}, "type": "Feature"}, {"geometry": {"coordinates": [8.53056333333333, 47.3647883333333], "type": "Point"}, "properties": {"charge": 67, "id": "bird_a71278ea-cccb-4115-9068-f377e9dc4d8a", "provider": "bird", "timeStamp": "01/28/2020, 11:28:11"}, "type": "Feature"}, {"geometry": {"coordinates": [8.53090666666667, 47.3648033333333], "type": "Point"}, "properties": {"charge": 47, "id": "bird_d50bd51c-2d7c-4761-9490-f71a0034c264", "provider": "bird", "timeStamp": "01/28/2020, 11:28:11"}, "type": "Feature"}, {"geometry": {"coordinates": [8.53332833333333, 47.36496], "type": "Point"}, "properties": {"charge": 91, "id": "bird_9e96fac3-f4c0-465a-b4e3-7c1350e41f12", "provider": "bird", "timeStamp": "01/28/2020, 11:28:11"}, "type": "Feature"}, {"geometry": {"coordinates": [8.533785, 47.3651083333333], "type": "Point"}, "properties": {"charge": 12, "id": "bird_6265dbf3-fd84-4b8b-a2d3-2e269fee9570", "provider": "bird", "timeStamp": "01/28/2020, 11:28:11"}, "type": "Feature"}, {"geometry": {"coordinates": [8.514625, 47.3909183333333], "type": "Point"}, "properties": {"charge": 79, "id": "bird_1fc27374-d48e-4ba6-a482-5498b71ec0bf", "provider": "bird", "timeStamp": "01/28/2020, 11:28:11"}, "type": "Feature"}, {"geometry": {"coordinates": [8.51297, 47.3703233333333], "type": "Point"}, "properties": {"charge": 33, "id": "bird_a4284f1b-0e2f-4b6d-8ca7-2160e1336398", "provider": "bird", "timeStamp": "01/28/2020, 11:28:11"}, "type": "Feature"}, {"geometry": {"coordinates": [8.51487666666667, 47.3908466666667], "type": "Point"}, "properties": {"charge": 58, "id": "bird_99a22c4f-9fc3-4dec-969d-59ce753c751d", "provider": "bird", "timeStamp": "01/28/2020, 11:28:11"}, "type": "Feature"}, {"geometry": {"coordinates": [8.52543, 47.3945533333333], "type": "Point"}, "properties": {"charge": 57, "id": "bird_34226415-f3c1-4e27-b28a-33d350bd433e", "provider": "bird", "timeStamp": "01/28/2020, 11:28:11"}, "type": "Feature"}, {"geometry": {"coordinates": [8.51828166666667, 47.3922616666667], "type": "Point"}, "properties": {"charge": 15, "id": "bird_84ed9f47-29b5-478c-8be4-0965c79f7fad", "provider": "bird", "timeStamp": "01/28/2020, 11:28:11"}, "type": "Feature"}, {"geometry": {"coordinates": [8.52117666666667, 47.3667633333333], "type": "Point"}, "properties": {"charge": 58, "id": "bird_6f783e5e-2bde-463e-8ada-c27c4bf3a2cc", "provider": "bird", "timeStamp": "01/28/2020, 11:28:11"}, "type": "Feature"}, {"geometry": {"coordinates": [8.51398333333333, 47.3895566666667], "type": "Point"}, "properties": {"charge": 48, "id": "bird_a8e1f205-3666-49a8-bc3a-42000a4ff874", "provider": "bird", "timeStamp": "01/28/2020, 11:28:11"}, "type": "Feature"}, {"geometry": {"coordinates": [8.53665666666667, 47.3663516666667], "type": "Point"}, "properties": {"charge": 26, "id": "bird_aa4256a7-fe42-4dc5-9450-f04ef9071624", "provider": "bird", "timeStamp": "01/28/2020, 11:28:11"}, "type": "Feature"}, {"geometry": {"coordinates": [8.51172333333333, 47.3727333333333], "type": "Point"}, "properties": {"charge": 13, "id": "bird_a8e17aff-57c8-4393-b6c3-4a387398179b", "provider": "bird", "timeStamp": "01/28/2020, 11:28:11"}, "type": "Feature"}, {"geometry": {"coordinates": [8.51169333333333, 47.37281], "type": "Point"}, "properties": {"charge": 38, "id": "bird_bf9ac7dd-7428-4592-8cca-144aebc918ec", "provider": "bird", "timeStamp": "01/28/2020, 11:28:11"}, "type": "Feature"}, {"geometry": {"coordinates": [8.51685833333333, 47.39119], "type": "Point"}, "properties": {"charge": 38, "id": "bird_b25cc874-0bbb-40e3-ac10-70f1de5a8152", "provider": "bird", "timeStamp": "01/28/2020, 11:28:11"}, "type": "Feature"}, {"geometry": {"coordinates": [8.54987666666667, 47.3845833333333], "type": "Point"}, "properties": {"charge": 16, "id": "bird_ad6e1878-7ff8-459e-8fdc-cad35de15f9d", "provider": "bird", "timeStamp": "01/28/2020, 11:28:11"}, "type": "Feature"}, {"geometry": {"coordinates": [8.51519333333333, 47.3699266666667], "type": "Point"}, "properties": {"charge": 20, "id": "bird_d9dbd0eb-63b6-4992-8000-86c8c0f50090", "provider": "bird", "timeStamp": "01/28/2020, 11:28:11"}, "type": "Feature"}, {"geometry": {"coordinates": [8.53536333333333, 47.36633], "type": "Point"}, "properties": {"charge": 36, "id": "bird_2e4f1b9c-336a-4415-a5e5-321d5a70b7ec", "provider": "bird", "timeStamp": "01/28/2020, 11:28:11"}, "type": "Feature"}, {"geometry": {"coordinates": [8.532425, 47.39394], "type": "Point"}, "properties": {"charge": 73, "id": "bird_43500f9b-7ec5-44d9-ba78-e2b9e8677dcf", "provider": "bird", "timeStamp": "01/28/2020, 11:28:11"}, "type": "Feature"}, {"geometry": {"coordinates": [8.53964333333333, 47.3677866666667], "type": "Point"}, "properties": {"charge": 57, "id": "bird_499220e0-fc45-456a-ae30-f837475a3f61", "provider": "bird", "timeStamp": "01/28/2020, 11:28:11"}, "type": "Feature"}, {"geometry": {"coordinates": [8.50977333333333, 47.378265], "type": "Point"}, "properties": {"charge": 100, "id": "bird_be154ec0-228b-4b98-bcb0-e930790fbd5e", "provider": "bird", "timeStamp": "01/28/2020, 11:28:11"}, "type": "Feature"}, {"geometry": {"coordinates": [8.539625, 47.3678783333333], "type": "Point"}, "properties": {"charge": 76, "id": "bird_263b2bd6-4f16-4e57-a257-b4097e05acd4", "provider": "bird", "timeStamp": "01/28/2020, 11:28:11"}, "type": "Feature"}, {"geometry": {"coordinates": [8.53279333333333, 47.3664166666667], "type": "Point"}, "properties": {"charge": 79, "id": "bird_cf4db76c-2903-4c3f-9bdf-370cbe0364b4", "provider": "bird", "timeStamp": "01/28/2020, 11:28:11"}, "type": "Feature"}, {"geometry": {"coordinates": [8.50994333333333, 47.378105], "type": "Point"}, "properties": {"charge": 100, "id": "bird_8c2a9867-6bbc-496a-a30f-14f521b9ee43", "provider": "bird", "timeStamp": "01/28/2020, 11:28:11"}, "type": "Feature"}, {"geometry": {"coordinates": [8.50996, 47.3781283333333], "type": "Point"}, "properties": {"charge": 97, "id": "bird_0337e1dd-6409-46f6-b704-fd2b7469b320", "provider": "bird", "timeStamp": "01/28/2020, 11:28:11"}, "type": "Feature"}, {"geometry": {"coordinates": [8.53947833333333, 47.3679283333333], "type": "Point"}, "properties": {"charge": 66, "id": "bird_fc4761b7-f1c7-4a4c-8500-a42e205fc4f5", "provider": "bird", "timeStamp": "01/28/2020, 11:28:11"}, "type": "Feature"}, {"geometry": {"coordinates": [8.53629666666667, 47.3670383333333], "type": "Point"}, "properties": {"charge": 58, "id": "bird_c79537cd-17c3-4cf8-9344-30d0b1deda6a", "provider": "bird", "timeStamp": "01/28/2020, 11:28:11"}, "type": "Feature"}, {"geometry": {"coordinates": [8.510795, 47.375965], "type": "Point"}, "properties": {"charge": 35, "id": "bird_20d63ca3-54c4-4a25-878d-946d1782cb46", "provider": "bird", "timeStamp": "01/28/2020, 11:28:11"}, "type": "Feature"}, {"geometry": {"coordinates": [8.53685166666667, 47.36721], "type": "Point"}, "properties": {"charge": 69, "id": "bird_789ac687-8207-4857-8b50-9405da77f198", "provider": "bird", "timeStamp": "01/28/2020, 11:28:11"}, "type": "Feature"}, {"geometry": {"coordinates": [8.53692166666667, 47.367275], "type": "Point"}, "properties": {"charge": 66, "id": "bird_d874d8d2-8a46-4500-8747-e1ceab906b7f", "provider": "bird", "timeStamp": "01/28/2020, 11:28:11"}, "type": "Feature"}, {"geometry": {"coordinates": [8.54712, 47.3729866666667], "type": "Point"}, "properties": {"charge": 16, "id": "bird_bb7287f6-edf4-40f3-af18-16798f0a3848", "provider": "bird", "timeStamp": "01/28/2020, 11:28:11"}, "type": "Feature"}, {"geometry": {"coordinates": [8.53635166666667, 47.3671566666667], "type": "Point"}, "properties": {"charge": 56, "id": "bird_c2a8228c-f440-449d-8301-1ff23be9f43c", "provider": "bird", "timeStamp": "01/28/2020, 11:28:11"}, "type": "Feature"}, {"geometry": {"coordinates": [8.54710666666667, 47.3730816666667], "type": "Point"}, "properties": {"charge": 61, "id": "bird_3d8ee1e7-c095-4b1f-99b0-fbb83fcb5aa7", "provider": "bird", "timeStamp": "01/28/2020, 11:28:11"}, "type": "Feature"}, {"geometry": {"coordinates": [8.51013166666667, 47.3801533333333], "type": "Point"}, "properties": {"charge": 24, "id": "bird_e68a08e0-95b7-4966-a838-043e7df1aeb1", "provider": "bird", "timeStamp": "01/28/2020, 11:28:11"}, "type": "Feature"}, {"geometry": {"coordinates": [8.53342166666667, 47.3668166666667], "type": "Point"}, "properties": {"charge": 96, "id": "bird_066b048a-72a0-417f-801c-16c0e1de2b5f", "provider": "bird", "timeStamp": "01/28/2020, 11:28:11"}, "type": "Feature"},