{"features": [{"geometry": {"coordinates": [8.540062, 47.374392], "type": "Point"}, "properties": {"address": "Uraniastrasse 7", "electric": 7, "id": "pb_60", "manual": 8, "name": "Demo Station Werdm\u00fchleplatz", "provider": "publibike", "timeStamp": "01/26/2020, 15:59:10", "zip": 8001}, "type": "Feature"}, {"geometry": {"coordinates": [8.5452956, 47.4099615], "type": "Point"}, "properties": {"address": "Querstrasse 8", "electric": 0, "id": "pb_61", "manual": 3, "name": "Marktplatz", "provider": "publibike", "timeStamp": "01/26/2020, 15:59:10", "zip": 8050}, "type": "Feature"}, {"geometry": {"coordinates": [8.5156327, 47.3795837], "type": "Point"}, "properties": {"address": "Bullingerstrasse 5", "electric": 5, "id": "pb_80", "manual": 13, "name": "Bullingerplatz", "provider": "publibike", "timeStamp": "01/26/2020, 15:59:10", "zip": 8004}, "type": "Feature"}, {"geometry": {"coordinates": [8.5104051, 47.3899342], "type": "Point"}, "properties": {"address": "Pfingstweidstrasse 96e", "electric": 2, "id": "pb_81", "manual": 5, "name": "Herdern", "provider": "publibike", "timeStamp": "01/26/2020, 15:59:10", "zip": 8001}, "type": "Feature"}, {"geometry": {"coordinates": [8.535718, 47.359675], "type": "Point"}, "properties": {"address": "Mythenquai 50", "electric": 3, "id": "pb_82", "manual": 1, "name": "Hafen Enge", "provider": "publibike", "timeStamp": "01/26/2020, 15:59:10", "zip": 8002}, "type": "Feature"}, {"geometry": {"coordinates": [8.520370505, 47.358663827], "type": "Point"}, "properties": {"address": "Bubenbergstrasse 1", "electric": 3, "id": "pb_83", "manual": 2, "name": "Comerge", "provider": "publibike", "timeStamp": "01/26/2020, 15:59:10", "zip": 8045}, "type": "Feature"}, {"geometry": {"coordinates": [8.5412505, 47.3789825], "type": "Point"}, "properties": {"address": "Museumstrasse 2", "electric": 0, "id": "pb_84", "manual": 31, "name": "Landesmuseum", "provider": "publibike", "timeStamp": "01/26/2020, 15:59:10", "zip": 8001}, "type": "Feature"}, {"geometry": {"coordinates": [8.5235479, 47.3716661], "type": "Point"}, "properties": {"address": "Birmensdorferstrasse 80", "electric": 1, "id": "pb_85", "manual": 7, "name": "Bahnhof Wiedikon", "provider": "publibike", "timeStamp": "01/26/2020, 15:59:10", "zip": 8003}, "type": "Feature"}, {"geometry": {"coordinates": [8.506822854, 47.40781197], "type": "Point"}, "properties": {"address": "Stefano-Franscini-Platz 5", "electric": 1, "id": "pb_86", "manual": 0, "name": "ETH H\u00f6nggerberg", "provider": "publibike", "timeStamp": "01/26/2020, 15:59:10", "zip": 8093}, "type": "Feature"}, {"geometry": {"coordinates": [8.536101, 47.371083], "type": "Point"}, "properties": {"address": "Pelikanplatz 5", "electric": 1, "id": "pb_87", "manual": 3, "name": "Pelikanplatz", "provider": "publibike", "timeStamp": "01/26/2020, 15:59:10", "zip": 8001}, "type": "Feature"}, {"geometry": {"coordinates": [8.5257822, 47.3651936], "type": "Point"}, "properties": {"address": "H\u00fcrlimannplatz 90", "electric": 2, "id": "pb_88", "manual": 0, "name": "H\u00fcrlimannplatz", "provider": "publibike", "timeStamp": "01/26/2020, 15:59:10", "zip": 8002}, "type": "Feature"}, {"geometry": {"coordinates": [8.5313344, 47.3713591], "type": "Point"}, "properties": {"address": "Selnaustrasse 32", "electric": 4, "id": "pb_89", "manual": 3, "name": "Stauffacherbr\u00fccke", "provider": "publibike", "timeStamp": "01/26/2020, 15:59:10", "zip": 8001}, "type": "Feature"}, {"geometry": {"coordinates": [8.5056978, 47.3917964], "type": "Point"}, "properties": {"address": "Sportweg 25", "electric": 6, "id": "pb_90", "manual": 2, "name": "Sportweg", "provider": "publibike", "timeStamp": "01/26/2020, 15:59:10", "zip": 8005}, "type": "Feature"}, {"geometry": {"coordinates": [8.5181701, 47.3917837], "type": "Point"}, "properties": {"address": "Hardturmstrasse 11", "electric": 0, "id": "pb_91", "manual": 7, "name": "Puls 5", "provider": "publibike", "timeStamp": "01/26/2020, 15:59:10", "zip": 8005}, "type": "Feature"}, {"geometry": {"coordinates": [8.5286468, 47.3820827], "type": "Point"}, "properties": {"address": "R\u00f6ntgenstrasse 6", "electric": 3, "id": "pb_92", "manual": 4, "name": "R\u00f6ntgenstrasse", "provider": "publibike", "timeStamp": "01/26/2020, 15:59:10", "zip": 8005}, "type": "Feature"}, {"geometry": {"coordinates": [8.531935, 47.384918], "type": "Point"}, "properties": {"address": "Kornhausbr\u00fccke 1", "electric": 1, "id": "pb_93", "manual": 2, "name": "Limmatplatz", "provider": "publibike", "timeStamp": "01/26/2020, 15:59:10", "zip": 8005}, "type": "Feature"}, {"geometry": {"coordinates": [8.5354006, 47.3758639], "type": "Point"}, "properties": {"address": "Gessnerallee 15", "electric": 9, "id": "pb_94", "manual": 6, "name": "Gessnerallee", "provider": "publibike", "timeStamp": "01/26/2020, 15:59:10", "zip": 8001}, "type": "Feature"}, {"geometry": {"coordinates": [8.523818, 47.377148], "type": "Point"}, "properties": {"address": "Stauffacherstrasse 127", "electric": 3, "id": "pb_95", "manual": 0, "name": "B\u00e4ckeranlage", "provider": "publibike", "timeStamp": "01/26/2020, 15:59:10", "zip": 8004}, "type": "Feature"}, {"geometry": {"coordinates": [8.531836, 47.378548], "type": "Point"}, "properties": {"address": "Lagerstrasse 44", "electric": 0, "id": "pb_96", "manual": 6, "name": "Gustav-Gull-Platz", "provider": "publibike", "timeStamp": "01/26/2020, 15:59:10", "zip": 8004}, "type": "Feature"}, {"geometry": {"coordinates": [8.5104883, 47.3771535], "type": "Point"}, "properties": {"address": "Zurlindenstrasse 291", "electric": 8, "id": "pb_97", "manual": 3, "name": "Zurlindenstrasse", "provider": "publibike", "timeStamp": "01/26/2020, 15:59:10", "zip": 8003}, "type": "Feature"}, {"geometry": {"coordinates": [8.5333139, 47.3731102], "type": "Point"}, "properties": {"address": "Sihlstrasse 81", "electric": 4, "id": "pb_98", "manual": 4, "name": "Sihlstrasse", "provider": "publibike", "timeStamp": "01/26/2020, 15:59:10", "zip": 8001}, "type": "Feature"}, {"geometry": {"coordinates": [8.520532, 47.374951], "type": "Point"}, "properties": {"address": "Feldstrasse 24", "electric": 0, "id": "pb_99", "manual": 0, "name": "Kalkbreite", "provider": "publibike", "timeStamp": "01/26/2020, 15:59:10", "zip": 8004}, "type": "Feature"}, {"geometry": {"coordinates": [8.539046, 47.368064], "type": "Point"}, "properties": {"address": "Talstrasse 12", "electric": 2, "id": "pb_100", "manual": 0, "name": "Z\u00fcrcher Kantonalbank", "provider": "publibike", "timeStamp": "01/26/2020, 15:59:10", "zip": 8001}, "type": "Feature"}, {"geometry": {"coordinates": [8.5348427, 47.3625938], "type": "Point"}, "properties": {"address": "Breitingerstrasse 5", "electric": 4, "id": "pb_101", "manual": 2, "name": "Rentenanstalt", "provider": "publibike", "timeStamp": "01/26/2020, 15:59:10", "zip": 8002}, "type": "Feature"}, {"geometry": {"coordinates": [8.5166922, 47.3897772], "type": "Point"}, "properties": {"address": "Technoparkstrasse 4", "electric": 1, "id": "pb_102", "manual": 3, "name": "Turbinenplatz", "provider": "publibike", "timeStamp": "01/26/2020, 15:59:10", "zip": 8005}, "type": "Feature"}, {"geometry": {"coordinates": [8.539312, 47.3739964], "type": "Point"}, "properties": {"address": "Oetenbachgasse 14", "electric": 3, "id": "pb_104", "manual": 10, "name": "Rennweg", "provider": "publibike", "timeStamp": "01/26/2020, 15:59:10", "zip": 8001}, "type": "Feature"}, {"geometry": {"coordinates": [8.5360685, 47.3775022], "type": "Point"}, "properties": {"address": "Kasernenstrasse 101", "electric": 27, "id": "pb_105", "manual": 35, "name": "Sihlpost", "provider": "publibike", "timeStamp": "01/26/2020, 15:59:10", "zip": 8004}, "type": "Feature"}, {"geometry": {"coordinates": [8.53545, 47.382798], "type": "Point"}, "properties": {"address": "Ausstellungsstrasse 44", "electric": 2, "id": "pb_106", "manual": 7, "name": "Museum f\u00fcr Gestaltung", "provider": "publibike", "timeStamp": "01/26/2020, 15:59:10", "zip": 8005}, "type": "Feature"}, {"geometry": {"coordinates": [8.5306155, 47.3647902], "type": "Point"}, "properties": {"address": "Gutenbergstrasse 1", "electric": 12, "id": "pb_107", "manual": 8, "name": "Bederbr\u00fccke", "provider": "publibike", "timeStamp": "01/26/2020, 15:59:10", "zip": 8002}, "type": "Feature"}, {"geometry": {"coordinates": [8.518982, 47.386741], "type": "Point"}, "properties": {"address": "Geroldstrasse 4", "electric": 3, "id": "pb_108", "manual": 5, "name": "Bahnhof Hardbr\u00fccke", "provider": "publibike", "timeStamp": "01/26/2020, 15:59:10", "zip": 8005}, "type": "Feature"}, {"geometry": {"coordinates": [8.53001018, 47.37247535], "type": "Point"}, "properties": {"address": "Werdstrasse 21", "electric": 2, "id": "pb_109", "manual": 1, "name": "Tamedia", "provider": "publibike", "timeStamp": "01/26/2020, 15:59:10", "zip": 8004}, "type": "Feature"}, {"geometry": {"coordinates": [8.4860017, 47.396401], "type": "Point"}, "properties": {"address": "Gr\u00fcnauring 37", "electric": 8, "id": "pb_110", "manual": 7, "name": "Gr\u00fcnau", "provider": "publibike", "timeStamp": "01/26/2020, 15:59:10", "zip": 8064}, "type": "Feature"}, {"geometry": {"coordinates": [8.548519, 47.376756], "type": "Point"}, "properties": {"address": "R\u00e4mistrasse 101", "electric": 39, "id": "pb_111", "manual": 0, "name": "ETH Zentrum", "provider": "publibike", "timeStamp": "01/26/2020, 15:59:10", "zip": 8006}, "type": "Feature"}, {"geometry": {"coordinates": [8.520449, 47.388151], "type": "Point"}, "properties": {"address": "Josefstrasse 224", "electric": 0, "id": "pb_112", "manual": 7, "name": "Steinfelsareal", "provider": "publibike", "timeStamp": "01/26/2020, 15:59:10", "zip": 8005}, "type": "Feature"}, {"geometry": {"coordinates": [8.520482, 47.37209], "type": "Point"}, "properties": {"address": "Weststrasse 115", "electric": 1, "id": "pb_124", "manual": 1, "name": "Weststrasse", "provider": "publibike", "timeStamp": "01/26/2020, 15:59:10", "zip": 8003}, "type": "Feature"}, {"geometry": {"coordinates": [8.496727, 47.378521], "type": "Point"}, "properties": {"address": "Albisriederstrasse 200", "electric": 5, "id": "pb_125", "manual": 0, "name": "Utogrund", "provider": "publibike", "timeStamp": "01/26/2020, 15:59:10", "zip": 8047}, "type": "Feature"}, {"geometry": {"coordinates": [8.510418, 47.381356], "type": "Point"}, "properties": {"address": "Bullingerstrasse 73", "electric": 3, "id": "pb_126", "manual": 3, "name": "Hardau", "provider": "publibike", "timeStamp": "01/26/2020, 15:59:10", "zip": 8004}, "type": "Feature"}, {"geometry": {"coordinates": [8.525525, 47.361567], "type": "Point"}, "properties": {"address": "Klopstockstrasse 23", "electric": 3, "id": "pb_127", "manual": 0, "name": "Klopstockwiese", "provider": "publibike", "timeStamp": "01/26/2020, 15:59:10", "zip": 8002}, "type": "Feature"}, {"geometry": {"coordinates": [8.518143, 47.363148], "type": "Point"}, "properties": {"address": "Haldenstrasse 8", "electric": 3, "id": "pb_128", "manual": 4, "name": "Binz", "provider": "publibike", "timeStamp": "01/26/2020, 15:59:10", "zip": 8045}, "type": "Feature"}, {"geometry": {"coordinates": [8.542726, 47.379952], "type": "Point"}, "properties": {"address": "Walchestrasse 11", "electric": 3, "id": "pb_129", "manual": 1, "name": "Stampfenbachplatz", "provider": "publibike", "timeStamp": "01/26/2020, 15:59:10", "zip": 8006}, "type": "Feature"}, {"geometry": {"coordinates": [8.488108, 47.391366], "type": "Point"}, "properties": {"address": "Altstetterplatz 1", "electric": 4, "id": "pb_130", "manual": 10, "name": "Bahnhof Altstetten", "provider": "publibike", "timeStamp": "01/26/2020, 15:59:10", "zip": 8048}, "type": "Feature"}, {"geometry": {"coordinates": [8.554114, 47.365119], "type": "Point"}, "properties": {"address": "Kreuzplatz 2", "electric": 1, "id": "pb_131", "manual": 1, "name": "Kreuzplatz", "provider": "publibike", "timeStamp": "01/26/2020, 15:59:10", "zip": 8032}, "type": "Feature"}, {"geometry": {"coordinates": [8.549852, 47.35594], "type": "Point"}, "properties": {"address": "H\u00f6schgasse 3", "electric": 4, "id": "pb_132", "manual": 4, "name": "Blatterwiese", "provider": "publibike", "timeStamp": "01/26/2020, 15:59:10", "zip": 8008}, "type": "Feature"}, {"geometry": {"coordinates": [8.554501, 47.36162], "type": "Point"}, "properties": {"address": "Feldeggstrasse 80", "electric": 2, "id": "pb_133", "manual": 5, "name": "Villa Bleuler", "provider": "publibike", "timeStamp": "01/26/2020, 15:59:10", "zip": 8008}, "type": "Feature"}, {"geometry": {"coordinates": [8.557088, 47.358557], "type": "Point"}, "properties": {"address": "M\u00fchlebachstrasse 131", "electric": 4, "id": "pb_134", "manual": 3, "name": "M\u00fchlebachstrasse", "provider": "publibike", "timeStamp": "01/26/2020, 15:59:10", "zip": 8008}, "type": "Feature"}, {"geometry": {"coordinates": [8.547639, 47.361266], "type": "Point"}, "properties": {"address": "Utoquai 50", "electric": 0, "id": "pb_135", "manual": 6, "name": "Seebad Utoquai", "provider": "publibike", "timeStamp": "01/26/2020, 15:59:10", "zip": 8008}, "type": "Feature"}, {"geometry": {"coordinates": [8.548045, 47.370869], "type": "Point"}, "properties": {"address": "Heimplatz 1", "electric": 5, "id": "pb_137", "manual": 1, "name": "Kunsthaus", "provider": "publibike", "timeStamp": "01/26/2020, 15:59:10", "zip": 8001}, "type": "Feature"}, {"geometry": {"coordinates": [8.543447, 47.375933], "type": "Point"}, "properties": {"address": "Limmatquai 138", "electric": 4, "id": "pb_138", "manual": 23, "name": "Central", "provider": "publibike", "timeStamp": "01/26/2020, 15:59:10", "zip": 8001}, "type": "Feature"}, {"geometry": {"coordinates": [8.549356, 47.408827], "type": "Point"}, "properties": {"address": "Tramstrasse 35", "electric": 1, "id": "pb_139", "manual": 3, "name": "ewz Tramstrasse", "provider": "publibike", "timeStamp": "01/26/2020, 15:59:10", "zip": 8050}, "type": "Feature"}, {"geometry": {"coordinates": [8.533736, 47.366904], "type": "Point"}, "properties": {"address": "Bleicherweg 33", "electric": 2, "id": "pb_140", "manual": 2, "name": "Bleicherweg", "provider": "publibike", "timeStamp": "01/26/2020, 15:59:10", "zip": 8002}, "type": "Feature"}, {"geometry": {"coordinates": [8.544935, 47.366752], "type": "Point"}, "properties": {"address": "Bellevueplatz 2", "electric": 32, "id": "pb_141", "manual": 31, "name": "Bellevue", "provider": "publibike", "timeStamp": "01/26/2020, 15:59:10", "zip": 8001}, "type": "Feature"}, {"geometry": {"coordinates": [8.5285533, 47.3742296], "type": "Point"}, "properties": {"address": "Stauffacherstrasse 41", "electric": 3, "id": "pb_142", "manual": 2, "name": "Stauffacher", "provider": "publibike", "timeStamp": "01/26/2020, 15:59:10", "zip": 8004}, "type": "Feature"}, {"geometry": {"coordinates": [8.523722, 47.3899], "type": "Point"}, "properties": {"address": "Limmatstrasse 310", "electric": 3, "id": "pb_143", "manual": 3, "name": "Escher-Wyss-Platz", "provider": "publibike", "timeStamp": "01/26/2020, 15:59:10", "zip": 8005}, "type": "Feature"}, {"geometry": {"coordinates": [8.491061, 47.392336], "type": "Point"}, "properties": {"address": "Vulkanplatz 1", "electric": 3, "id": "pb_149", "manual": 9, "name": "Vulkanplatz", "provider": "publibike", "timeStamp": "01/26/2020, 15:59:10", "zip": 8048}, "type": "Feature"}, {"geometry": {"coordinates": [8.52306, 47.359872], "type": "Point"}, "properties": {"address": "Giessh\u00fcbelstrasse 15", "electric": 10, "id": "pb_150", "manual": 4, "name": "Utoplatz", "provider": "publibike", "timeStamp": "01/26/2020, 15:59:10", "zip": 8045}, "type": "Feature"}, {"geometry": {"coordinates": [8.486284, 47.387685], "type": "Point"}, "properties": {"address": "Lindenplatz 1", "electric": 14, "id": "pb_151", "manual": 9, "name": "Lindenplatz", "provider": "publibike", "timeStamp": "01/26/2020, 15:59:10", "zip": 8048}, "type": "Feature"}, {"geometry": {"coordinates": [8.49163, 47.389823], "type": "Point"}, "properties": {"address": "Hohlstrasse 563", "electric": 3, "id": "pb_152", "manual": 8, "name": "Luggweg", "provider": "publibike", "timeStamp": "01/26/2020, 15:59:10", "zip": 8048}, "type": "Feature"}, {"geometry": {"coordinates": [8.52174, 47.365272], "type": "Point"}, "properties": {"address": "Manessestrasse 87", "electric": 0, "id": "pb_153", "manual": 1, "name": "Manesseplatz", "provider": "publibike", "timeStamp": "01/26/2020, 15:59:10", "zip": 8045}, "type": "Feature"}, {"geometry": {"coordinates": [8.52714, 47.372329], "type": "Point"}, "properties": {"address": "Werdstrasse 75", "electric": 3, "id": "pb_154", "manual": 0, "name": "Werd", "provider": "publibike", "timeStamp": "01/26/2020, 15:59:10", "zip": 8004}, "type": "Feature"}, {"geometry": {"coordinates": [8.543042, 47.374711], "type": "Point"}, "properties": {"address": "Limmatquai 100", "electric": 0, "id": "pb_155", "manual": 0, "name": "Rudolf-Brun-Br\u00fccke", "provider": "publibike", "timeStamp": "01/26/2020, 15:59:10", "zip": 8001}, "type": "Feature"}, {"geometry": {"coordinates": [8.490837, 47.386596], "type": "Point"}, "properties": {"address": "Badenerstrasse 627", "electric": 4, "id": "pb_156", "manual": 4, "name": "Luggwegstrasse VBZ", "provider": "publibike", "timeStamp": "01/26/2020, 15:59:10", "zip": 8048}, "type": "Feature"}, {"geometry": {"coordinates": [8.535119, 47.355189], "type": "Point"}, "properties": {"address": "Mythenquai 95", "electric": 0, "id": "pb_157", "manual": 1, "name": "Strandbad Mythenquai", "provider": "publibike", "timeStamp": "01/26/2020, 15:59:10", "zip": 8002}, "type": "Feature"}, {"geometry": {"coordinates": [8.545505, 47.373675], "type": "Point"}, "properties": {"address": "Predigerpatz 21", "electric": 8, "id": "pb_158", "manual": 7, "name": "Predigerplatz", "provider": "publibike", "timeStamp": "01/26/2020, 15:59:10", "zip": 8001}, "type": "Feature"}, {"geometry": {"coordinates": [8.515558, 47.371868], "type": "Point"}, "properties": {"address": "Aemtlerstrasse 23", "electric": 5, "id": "pb_159", "manual": 2, "name": "Zwinglihaus", "provider": "publibike", "timeStamp": "01/26/2020, 15:59:10", "zip": 8003}, "type": "Feature"}, {"geometry": {"coordinates": [8.524629, 47.386072], "type": "Point"}, "properties": {"address": "Josefstrasse 188", "electric": 2, "id": "pb_160", "manual": 2, "name": "Josefwiese", "provider": "publibike", "timeStamp": "01/26/2020, 15:59:10", "zip": 8005}, "type": "Feature"}, {"geometry": {"coordinates": [8.527138, 47.387531], "type": "Point"}, "properties": {"address": "R\u00f6ntgenstrasse 87", "electric": 4, "id": "pb_164", "manual": 1, "name": "Markthalle", "provider": "publibike", "timeStamp": "01/26/2020, 15:59:10", "zip": 8005}, "type": "Feature"}, {"geometry": {"coordinates": [8.552717, 47.359978], "type": "Point"}, "properties": {"address": "Seefeldstrasse 96", "electric": 4, "id": "pb_263", "manual": 14, "name": "Feldeggstrasse", "provider": "publibike", "timeStamp": "01/26/2020, 15:59:10", "zip": 8008}, "type": "Feature"}, {"geometry": {"coordinates": [8.553189, 47.353198], "type": "Point"}, "properties": {"address": "Bellerivestrasse 170", "electric": 3, "id": "pb_264", "manual": 2, "name": "Lake Side", "provider": "publibike", "timeStamp": "01/26/2020, 15:59:10", "zip": 8008}, "type": "Feature"}, {"geometry": {"coordinates": [8.543437, 47.369256], "type": "Point"}, "properties": {"address": "Limmatquai 18", "electric": 0, "id": "pb_265", "manual": 0, "name": "Helmhaus", "provider": "publibike", "timeStamp": "01/26/2020, 15:59:10", "zip": 8032}, "type": "Feature"}, {"geometry": {"coordinates": [8.516676, 47.375819], "type": "Point"}, "properties": {"address": "Badenerstrasse 246", "electric": 1, "id": "pb_266", "manual": 4, "name": "Lochergut", "provider": "publibike", "timeStamp": "01/26/2020, 15:59:10", "zip": 8004}, "type": "Feature"}, {"geometry": {"coordinates": [8.514605, 47.389862], "type": "Point"}, "properties": {"address": "Pfingstweidstrasse 60", "electric": 1, "id": "pb_273", "manual": 3, "name": "Westpark", "provider": "publibike", "timeStamp": "01/26/2020, 15:59:10", "zip": 8005}, "type": "Feature"}, {"geometry": {"coordinates": [8.541239126, 47.375991201], "type": "Point"}, "properties": {"address": "Beatenplatz 1", "electric": 11, "id": "pb_274", "manual": 10, "name": "Beatenplatz", "provider": "publibike", "timeStamp": "01/26/2020, 15:59:10", "zip": 8001}, "type": "Feature"}, {"geometry": {"coordinates": [8.5417135, 47.3942197], "type": "Point"}, "properties": {"address": "Scheuchzerstrasse 181", "electric": 5, "id": "pb_275", "manual": 0, "name": "Pauluskirche", "provider": "publibike", "timeStamp": "01/26/2020, 15:59:10", "zip": 8057}, "type": "Feature"}, {"geometry": {"coordinates": [8.5528182, 47.414558], "type": "Point"}, "properties": {"address": "Hagenholzstrasse 51", "electric": 1, "id": "pb_276", "manual": 10, "name": "Airgate", "provider": "publibike", "timeStamp": "01/26/2020, 15:59:10", "zip": 8050}, "type": "Feature"}, {"geometry": {"coordinates": [8.537816, 47.413514], "type": "Point"}, "properties": {"address": "Birchstrasse 183", "electric": 4, "id": "pb_277", "manual": 4, "name": "Lamprechtweg", "provider": "publibike", "timeStamp": "01/26/2020, 15:59:10", "zip": 8050}, "type": "Feature"}, {"geometry": {"coordinates": [8.545602, 47.417701], "type": "Point"}, "properties": {"address": "Felsenrainstrasse 2", "electric": 6, "id": "pb_278", "manual": 9, "name": "Emil-Oberh\u00e4nsli", "provider": "publibike", "timeStamp": "01/26/2020, 15:59:10", "zip": 8050}, "type": "Feature"}, {"geometry": {"coordinates": [8.533647, 47.39808], "type": "Point"}, "properties": {"address": "Bucheggplatz 2", "electric": 0, "id": "pb_279", "manual": 0, "name": "Bucheggplatz", "provider": "publibike", "timeStamp": "01/26/2020, 15:59:10", "zip": 8057}, "type": "Feature"}, {"geometry": {"coordinates": [8.523549, 47.392347], "type": "Point"}, "properties": {"address": "Wipkingerplatz 4", "electric": 3, "id": "pb_280", "manual": 4, "name": "Wipkingerplatz", "provider": "publibike", "timeStamp": "01/26/2020, 15:59:10", "zip": 8037}, "type": "Feature"}, {"geometry": {"coordinates": [8.548562, 47.36691], "type": "Point"}, "properties": {"address": "Galerie \u00fcber Gleis 2/3", "electric": 16, "id": "pb_285", "manual": 1, "name": "Bahnhof Stadelhofen", "provider": "publibike", "timeStamp": "01/26/2020, 15:59:10", "zip": 8001}, "type": "Feature"}, {"geometry": {"coordinates": [8.493822, 47.3985553], "type": "Point"}, "properties": {"address": "Meierwiesenstrasse 12-4", "electric": 3, "id": "pb_286", "manual": 3, "name": "T\u00fcffenwies", "provider": "publibike", "timeStamp": "01/26/2020, 15:59:10", "zip": 8064}, "type": "Feature"}, {"geometry": {"coordinates": [8.552432, 47.3801757], "type": "Point"}, "properties": {"address": "Hochstrasse 34", "electric": 7, "id": "pb_356", "manual": 1, "name": "Siriuswiese", "provider": "publibike", "timeStamp": "01/26/2020, 15:59:10", "zip": 8044}, "type": "Feature"}, {"geometry": {"coordinates": [8.527298, 47.370141], "type": "Point"}, "properties": {"address": "Hallwylstrasse 71", "electric": 2, "id": "pb_357", "manual": 4, "name": "Hallwylstrasse", "provider": "publibike", "timeStamp": "01/26/2020, 15:59:10", "zip": 8004}, "type": "Feature"}, {"geometry": {"coordinates": [8.5414185, 47.3972455], "type": "Point"}, "properties": {"address": "Schaffhauserstrasse 137", "electric": 4, "id": "pb_358", "manual": 2, "name": "Milchbuck", "provider": "publibike", "timeStamp": "01/26/2020, 15:59:10", "zip": 8057}, "type": "Feature"}, {"geometry": {"coordinates": [8.512381, 47.393409], "type": "Point"}, "properties": {"address": "Hardturmstrasse 161", "electric": 4, "id": "pb_359", "manual": 1, "name": "Fischerweg", "provider": "publibike", "timeStamp": "01/26/2020, 15:59:10", "zip": 8005}, "type": "Feature"}, {"geometry": {"coordinates": [8.5421457, 47.3876979], "type": "Point"}, "properties": {"address": "Turnerstrasse 47", "electric": 2, "id": "pb_360", "manual": 0, "name": "Kirche Unterstrass", "provider": "publibike", "timeStamp": "01/26/2020, 15:59:10", "zip": 8006}, "type": "Feature"}, {"geometry": {"coordinates": [8.522117, 47.394554], "type": "Point"}, "properties": {"address": "Dorfstrasse 40", "electric": 2, "id": "pb_361", "manual": 3, "name": "Dorfstrasse", "provider": "publibike", "timeStamp": "01/26/2020, 15:59:10", "zip": 8037}, "type": "Feature"}, {"geometry": {"coordinates": [8.530437, 47.37271], "type": "Point"}, "properties": {"address": "Werdstrasse 25", "electric": 0, "id": "pb_362", "manual": 3, "name": "Stauffachertor", "provider": "publibike", "timeStamp": "01/26/2020, 15:59:10", "zip": 8004}, "type": "Feature"}, {"geometry": {"coordinates": [8.541712, 47.416155], "type": "Point"}, "properties": {"address": "Eggb\u00fchlstrasse 21", "electric": 1, "id": "pb_363", "manual": 1, "name": "Wahlenpark", "provider": "publibike", "timeStamp": "01/26/2020, 15:59:10", "zip": 8050}, "type": "Feature"}, {"geometry": {"coordinates": [8.5595335, 47.3708387], "type": "Point"}, "properties": {"address": "Dolderstrasse 32", "electric": 6, "id": "pb_364", "manual": 1, "name": "Kinderspital", "provider": "publibike", "timeStamp": "01/26/2020, 15:59:10", "zip": 8032}, "type": "Feature"}, {"geometry": {"coordinates": [8.536433, 47.388689], "type": "Point"}, "properties": {"address": "Kornhausstrasse 30", "electric": 0, "id": "pb_365", "manual": 0, "name": "Kornhausstrasse", "provider": "publibike", "timeStamp": "01/26/2020, 15:59:10", "zip": 8006}, "type": "Feature"}, {"geometry": {"coordinates": [8.55033, 47.407098], "type": "Point"}, "properties": {"address": "Schwamendingenstrasse 41", "electric": 1, "id": "pb_366", "manual": 3, "name": "Dorflinde", "provider": "publibike", "timeStamp": "01/26/2020, 15:59:10", "zip": 8050}, "type": "Feature"}, {"geometry": {"coordinates": [8.560476, 47.368199], "type": "Point"}, "properties": {"address": "R\u00f6merhofplatz 5", "electric": 6, "id": "pb_367", "manual": 2, "name": "R\u00f6merhof", "provider": "publibike", "timeStamp": "01/26/2020, 15:59:10", "zip": 8032}, "type": "Feature"}, {"geometry": {"coordinates": [8.5609218, 47.3619068], "type": "Point"}, "properties": {"address": "Forchstrasse 99", "electric": 6, "id": "pb_368", "manual": 4, "name": "Hegibachplatz", "provider": "publibike", "timeStamp": "01/26/2020, 15:59:10", "zip": 8032}, "type": "Feature"}, {"geometry": {"coordinates": [8.5721264, 47.4039985], "type": "Point"}, "properties": {"address": "Winterthurerstrasse 519", "electric": 5, "id": "pb_370", "manual": 4, "name": "Schwamendingerplatz", "provider": "publibike", "timeStamp": "01/26/2020, 15:59:10", "zip": 8051}, "type": "Feature"}, {"geometry": {"coordinates": [8.520168, 47.378556], "type": "Point"}, "properties": {"address": "Herman-Greulich-Strasse 56", "electric": 5, "id": "pb_384", "manual": 8, "name": "Hermann-Greulich-Weg", "provider": "publibike", "timeStamp": "01/26/2020, 15:59:10", "zip": 8004}, "type": "Feature"}, {"geometry": {"coordinates": [8.547912, 47.384923], "type": "Point"}, "properties": {"address": "Culmannstrasse", "electric": 3, "id": "pb_386", "manual": 2, "name": "Rigiplatz", "provider": "publibike", "timeStamp": "01/26/2020, 15:59:10", "zip": 8006}, "type": "Feature"}, {"geometry": {"coordinates": [8.543768, 47.411057], "type": "Point"}, "properties": {"address": "Hofwiesenstrasse 369", "electric": 1, "id": "pb_387", "manual": 4, "name": "Bahnhof Oerlikon S\u00fcd", "provider": "publibike", "timeStamp": "01/26/2020, 15:59:10", "zip": 8050}, "type": "Feature"}, {"geometry": {"coordinates": [8.544185, 47.412732], "type": "Point"}, "properties": {"address": "Jungholzstrasse 6", "electric": 0, "id": "pb_388", "manual": 7, "name": "Max-Frisch-Platz", "provider": "publibike", "timeStamp": "01/26/2020, 15:59:10", "zip": 8050}, "type": "Feature"}, {"geometry": {"coordinates": [8.558096, 47.413032], "type": "Point"}, "properties": {"address": "Andreasstrasse", "electric": 2, "id": "pb_389", "manual": 9, "name": "Hunziker-Areal", "provider": "publibike", "timeStamp": "01/26/2020, 15:59:10", "zip": 8050}, "type": "Feature"}, {"geometry": {"coordinates": [8.533265, 47.412873], "type": "Point"}, "properties": {"address": "Regina-K\u00e4gi-Strasse 1", "electric": 1, "id": "pb_390", "manual": 2, "name": "Luis-H\u00e4fliger-Park", "provider": "publibike", "timeStamp": "01/26/2020, 15:59:10", "zip": 8050}, "type": "Feature"}, {"geometry": {"coordinates": [8.499265, 47.401852], "type": "Point"}, "properties": {"address": "Limmattalstrasse 177", "electric": 1, "id": "pb_391", "manual": 0, "name": "Meierhofplatz", "provider": "publibike", "timeStamp": "01/26/2020, 15:59:10", "zip": 8049}, "type": "Feature"}, {"geometry": {"coordinates": [8.528356, 47.393255], "type": "Point"}, "properties": {"address": "R\u00f6schibachstrasse 73", "electric": 4, "id": "pb_392", "manual": 0, "name": "R\u00f6schibachplatz", "provider": "publibike", "timeStamp": "01/26/2020, 15:59:10", "zip": 8037}, "type": "Feature"}, {"geometry": {"coordinates": [8.538067, 47.415721], "type": "Point"}, "properties": {"address": "Birchstrasse 191", "electric": 10, "id": "pb_393", "manual": 2, "name": "Oerliker Park", "provider": "publibike", "timeStamp": "01/26/2020, 15:59:10", "zip": 8050}, "type": "Feature"}, {"geometry": {"coordinates": [8.5420304, 47.3669233], "type": "Point"}, "properties": {"address": "Stadthausquai 1", "electric": 3, "id": "pb_395", "manual": 11, "name": "B\u00fcrkliplatz", "provider": "publibike", "timeStamp": "01/26/2020, 15:59:10", "zip": 8001}, "type": "Feature"}, {"geometry": {"coordinates": [8.535767, 47.409881], "type": "Point"}, "properties": {"address": "Regensbergstrasse 195", "electric": 1, "id": "pb_396", "manual": 1, "name": "Holunderhof", "provider": "publibike", "timeStamp": "01/26/2020, 15:59:10", "zip": 8050}, "type": "Feature"}, {"geometry": {"coordinates": [8.5116245, 47.3616199], "type": "Point"}, "properties": {"address": "Grubenstrasse 42", "electric": 4, "id": "pb_431", "manual": 1, "name": "Binz Center", "provider": "publibike", "timeStamp": "01/26/2020, 15:59:10", "zip": 8045}, "type": "Feature"}, {"geometry": {"coordinates": [8.547195, 47.382089], "type": "Point"}, "properties": {"address": "Nelkenstrasse 24", "electric": 2, "id": "pb_430", "manual": 0, "name": "Stapferstube", "provider": "publibike", "timeStamp": "01/26/2020, 15:59:10", "zip": 8006}, "type": "Feature"}, {"geometry": {"coordinates": [8.5787183, 47.4039845], "type": "Point"}, "properties": {"address": "Kronwiesenstrasse 35", "electric": 1, "id": "pb_426", "manual": 3, "name": "Kronwiesen", "provider": "publibike", "timeStamp": "01/26/2020, 15:59:10", "zip": 8051}, "type": "Feature"}, {"geometry": {"coordinates": [8.508131, 47.420757], "type": "Point"}, "properties": {"address": "Riedenhaldenstrasse 20-18", "electric": 6, "id": "pb_425", "manual": 3, "name": "Bahnhof Affoltern", "provider": "publibike", "timeStamp": "01/26/2020, 15:59:10", "zip": 8046}, "type": "Feature"}, {"geometry": {"coordinates": [8.532464, 47.406988], "type": "Point"}, "properties": {"address": "K\u00fcnzlistrasse 41", "electric": 3, "id": "pb_424", "manual": 4, "name": "Birchd\u00f6rfli", "provider": "publibike", "timeStamp": "01/26/2020, 15:59:10", "zip": 8057}, "type": "Feature"}, {"geometry": {"coordinates": [8.5777038, 47.4080095], "type": "Point"}, "properties": {"address": "Luegislandstrasse 412", "electric": 1, "id": "pb_429", "manual": 4, "name": "Luegisland", "provider": "publibike", "timeStamp": "01/26/2020, 15:59:10", "zip": 8051}, "type": "Feature"}, {"geometry": {"coordinates": [8.58841, 47.40158], "type": "Point"}, "properties": {"address": "Hirzenbachstrasse 2-4", "electric": 0, "id": "pb_428", "manual": 0, "name": "Hirzenbachstrasse", "provider": "publibike", "timeStamp": "01/26/2020, 15:59:10", "zip": 8051}, "type": "Feature"}, {"geometry": {"coordinates": [8.5563463, 47.4095467], "type": "Point"}, "properties": {"address": "K\u00fchriedweg", "electric": 2, "id": "pb_445", "manual": 7, "name": "Hallenbad Oerlikon", "provider": "publibike", "timeStamp": "01/26/2020, 15:59:10", "zip": 8050}, "type": "Feature"}, {"geometry": {"coordinates": [8.537971, 47.364871], "type": "Point"}, "properties": {"address": "General-Guisan-Quai 17", "electric": 4, "id": "pb_454", "manual": 2, "name": "General-Guisan-Quai", "provider": "publibike", "timeStamp": "01/26/2020, 15:59:10", "zip": 8002}, "type": "Feature"}, {"geometry": {"coordinates": [8.560587, 47.350578], "type": "Point"}, "properties": {"address": "Bellerivestrasse 245", "electric": 7, "id": "pb_450", "manual": 5, "name": "Bahnhof Tiefenbrunnen", "provider": "publibike", "timeStamp": "01/26/2020, 15:59:10", "zip": 8008}, "type": "Feature"}, {"geometry": {"coordinates": [8.5269416, 47.3563719], "type": "Point"}, "properties": {"address": "Waffenplatzstrasse 89", "electric": 0, "id": "pb_452", "manual": 5, "name": "Rieterplatz", "provider": "publibike", "timeStamp": "01/26/2020, 15:59:10", "zip": 8002}, "type": "Feature"}, {"geometry": {"coordinates": [8.514176, 47.3663708], "type": "Point"}, "properties": {"address": "Talwiesenstrasse 92", "electric": 6, "id": "pb_446", "manual": 4, "name": "Binzallee", "provider": "publibike", "timeStamp": "01/26/2020, 15:59:10", "zip": 8055}, "type": "Feature"}, {"geometry": {"coordinates": [8.5070564, 47.371455], "type": "Point"}, "properties": {"address": "Gutstrasse 87", "electric": 4, "id": "pb_447", "manual": 7, "name": "Gutstrasse", "provider": "publibike", "timeStamp": "01/26/2020, 15:59:10", "zip": 8055}, "type": "Feature"}, {"geometry": {"coordinates": [8.4941268, 47.3836391], "type": "Point"}, "properties": {"address": "Flurstrasse 62", "electric": 5, "id": "pb_453", "manual": 2, "name": "Flurpark", "provider": "publibike", "timeStamp": "01/26/2020, 15:59:10", "zip": 8048}, "type": "Feature"}, {"geometry": {"coordinates": [8.500343, 47.380778], "type": "Point"}, "properties": {"address": "Edelweissstrasse 32", "electric": 1, "id": "pb_448", "manual": 1, "name": "Bl\u00fcemliquartier", "provider": "publibike", "timeStamp": "01/26/2020, 15:59:10", "zip": 8048}, "type": "Feature"}, {"geometry": {"coordinates": [8.528796, 47.383858], "type": "Point"}, "properties": {"address": "Gasometerstrasse 24", "electric": 2, "id": "pb_449", "manual": 6, "name": "Gasometerstrasse", "provider": "publibike", "timeStamp": "01/26/2020, 15:59:10", "zip": 8005}, "type": "Feature"}, {"geometry": {"coordinates": [8.4981964, 47.3859194], "type": "Point"}, "properties": {"address": "Baslerstrasse 57", "electric": 8, "id": "pb_455", "manual": 7, "name": "Letzipark", "provider": "publibike", "timeStamp": "01/26/2020, 15:59:10", "zip": 8048}, "type": "Feature"}, {"geometry": {"coordinates": [8.515252, 47.381915], "type": "Point"}, "properties": {"address": "Sihlfeldstrasse 175", "electric": 4, "id": "pb_451", "manual": 3, "name": "Hardplatz", "provider": "publibike", "timeStamp": "01/26/2020, 15:59:10", "zip": 8004}, "type": "Feature"}, {"geometry": {"coordinates": [8.5064743, 47.4188324], "type": "Point"}, "properties": {"address": "Wehntalerstrasse 541", "electric": 5, "id": "pb_427", "manual": 5, "name": "Zehntenhausplatz", "provider": "publibike", "timeStamp": "01/26/2020, 15:59:10", "zip": 8046}, "type": "Feature"}, {"geometry": {"coordinates": [8.537729, 47.379719], "type": "Point"}, "properties": {"address": "Sihlquai/HB", "electric": 11, "id": "pb_513", "manual": 9, "name": "Sihlquai", "provider": "publibike", "timeStamp": "01/26/2020, 15:59:10", "zip": 8005}, "type": "Feature"}, {"geometry": {"coordinates": [8.596202, 47.397885], "type": "Point"}, "properties": {"address": "Bahnhof Stettbach", "electric": 8, "id": "pb_514", "manual": 5, "name": "Bahnhof Stettbach", "provider": "publibike", "timeStamp": "01/26/2020, 15:59:10", "zip": 8051}, "type": "Feature"}, {"geometry": {"coordinates": [8.5543974, 47.3690153], "type": "Point"}, "properties": {"address": "Kasinostrasse 10", "electric": 3, "id": "pb_515", "manual": 0, "name": "Hottingerplatz", "provider": "publibike", "timeStamp": "01/26/2020, 15:59:10", "zip": 8032}, "type": "Feature"}, {"geometry": {"coordinates": [8.534444, 47.351525], "type": "Point"}, "properties": {"address": "Mobile Station Z\u00fcrich 1", "electric": 0, "id": "pb_282", "manual": 0, "name": "Theaterspektakel", "provider": "publibike", "timeStamp": "01/26/2020, 15:59:10", "zip": 8002}, "type": "Feature"}, {"geometry": {"coordinates": [8.516257, 47.367656], "type": "Point"}, "properties": {"address": "Goldbrunnenstrasse 54", "electric": 10, "id": "pb_538", "manual": 3, "name": "Kirche B\u00fchl", "provider": "publibike", "timeStamp": "01/26/2020, 15:59:10", "zip": 8055}, "type": "Feature"}, {"geometry": {"coordinates": [8.555639, 47.416873], "type": "Point"}, "properties": {"address": "Leutschenbachstrasse 50", "electric": 0, "id": "pb_537", "manual": 4, "name": "Leutschenpark", "provider": "publibike", "timeStamp": "01/26/2020, 15:59:10", "zip": 8050}, "type": "Feature"}, {"geometry": {"coordinates": [8.546464, 47.403822], "type": "Point"}, "properties": {"address": "Berninastrasse 45", "electric": 3, "id": "pb_540", "manual": 0, "name": "Berninaplatz", "provider": "publibike", "timeStamp": "01/26/2020, 15:59:10", "zip": 8057}, "type": "Feature"}, {"geometry": {"coordinates": [8.523134, 47.369004], "type": "Point"}, "properties": {"address": "Erlachstrasse 3", "electric": 0, "id": "pb_385", "manual": 3, "name": "Aegerten", "provider": "publibike", "timeStamp": "01/26/2020, 15:59:10", "zip": 8003}, "type": "Feature"}, {"geometry": {"coordinates": [8.49038, 47.381591], "type": "Point"}, "properties": {"address": "Rautistrasse 60", "electric": 6, "id": "pb_536", "manual": 7, "name": "Freilager", "provider": "publibike", "timeStamp": "01/26/2020, 15:59:10", "zip": 8048}, "type": "Feature"}, {"geometry": {"coordinates": [8.496511, 47.375247], "type": "Point"}, "properties": {"address": "Letzigraben 139", "electric": 3, "id": "pb_444", "manual": 3, "name": "Sackzelg", "provider": "publibike", "timeStamp": "01/26/2020, 15:59:10", "zip": 8047}, "type": "Feature"}, {"geometry": {"coordinates": [8.58131, 47.402801], "type": "Point"}, "properties": {"address": "Altwiesenstrasse 104", "electric": 2, "id": "pb_539", "manual": 5, "name": "Glattwiesen", "provider": "publibike", "timeStamp": "01/26/2020, 15:59:10", "zip": 8051}, "type": "Feature"}, {"geometry": {"coordinates": [8.52689, 47.3767], "type": "Point"}, "properties": {"address": "Molkenstrasse 5", "electric": 1, "id": "pb_560", "manual": 4, "name": "Helvetiaplatz", "provider": "publibike", "timeStamp": "01/26/2020, 15:59:10", "zip": 8004}, "type": "Feature"}, {"geometry": {"coordinates": [8.525602, 47.374241], "type": "Point"}, "properties": {"address": "Badenerstrasse 90", "electric": 2, "id": "pb_559", "manual": 1, "name": "Bezirksgeb\u00e4ude", "provider": "publibike", "timeStamp": "01/26/2020, 15:59:10", "zip": 8004}, "type": "Feature"}, {"geometry": {"coordinates": [8.535082, 47.345248], "type": "Point"}, "properties": {"address": "Bachstrasse 15", "electric": 10, "id": "pb_564", "manual": 0, "name": "GZ Wollishofen", "provider": "publibike", "timeStamp": "01/26/2020, 15:59:10", "zip": 8038}, "type": "Feature"}, {"geometry": {"coordinates": [8.514841, 47.370238], "type": "Point"}, "properties": {"address": "Schrennengasse 37", "electric": 6, "id": "pb_562", "manual": 4, "name": "Goldbrunnenplatz", "provider": "publibike", "timeStamp": "01/26/2020, 15:59:10", "zip": 8003}, "type": "Feature"}, {"geometry": {"coordinates": [8.514138, 47.374206], "type": "Point"}, "properties": {"address": "Idaplatz 4", "electric": 2, "id": "pb_557", "manual": 5, "name": "Idaplatz", "provider": "publibike", "timeStamp": "01/26/2020, 15:59:10", "zip": 8003}, "type": "Feature"}, {"geometry": {"coordinates": [8.518432, 47.369549], "type": "Point"}, "properties": {"address": "Brinerstrasse 2", "electric": 3, "id": "pb_558", "manual": 3, "name": "Schmiede Wiedikon", "provider": "publibike", "timeStamp": "01/26/2020, 15:59:10", "zip": 8003}, "type": "Feature"}, {"geometry": {"coordinates": [8.537546, 47.391289], "type": "Point"}, "properties": {"address": "Rotbuchstrasse 15", "electric": 8, "id": "pb_556", "manual": 0, "name": "Schaffhauserplatz", "provider": "publibike", "timeStamp": "01/26/2020, 15:59:10", "zip": 8006}, "type": "Feature"}, {"geometry": {"coordinates": [8.541541, 47.413733], "type": "Point"}, "properties": {"address": "Therese-Giehse-Strasse 11", "electric": 2, "id": "pb_561", "manual": 1, "name": "Center Eleven", "provider": "publibike", "timeStamp": "01/26/2020, 15:59:10", "zip": 8050}, "type": "Feature"}, {"geometry": {"coordinates": [8.534227, 47.360004], "type": "Point"}, "properties": {"address": "Alfred Escher-Strasse 76", "electric": 2, "id": "pb_563", "manual": 1, "name": "Mythenschloss", "provider": "publibike", "timeStamp": "01/26/2020, 15:59:10", "zip": 8002}, "type": "Feature"}, {"geometry": {"coordinates": [8.50373, 47.396172], "type": "Point"}, "properties": {"address": "Hardeggstrasse 6", "electric": 3, "id": "pb_566", "manual": 7, "name": "Am Wasser", "provider": "publibike", "timeStamp": "01/26/2020, 15:59:10", "zip": 8049}, "type": "Feature"}, {"geometry": {"coordinates": [8.532432, 47.381174], "type": "Point"}, "properties": {"address": "Klingenstrasse 9", "electric": 2, "id": "pb_565", "manual": 7, "name": "Zollstrasse", "provider": "publibike", "timeStamp": "01/26/2020, 15:59:10", "zip": 8005}, "type": "Feature"}, {"geometry": {"coordinates": [8.497982, 47.381447], "type": "Point"}, "properties": {"address": "Dennlerstrasse 23", "electric": 1, "id": "pb_567", "manual": 5, "name": "Dennlerstrasse", "provider": "publibike", "timeStamp": "01/26/2020, 15:59:10", "zip": 8047}, "type": "Feature"}, {"geometry": {"coordinates": [8.528049, 47.347701], "type": "Point"}, "properties": {"address": "Mutschellenstrasse 114", "electric": 3, "id": "pb_568", "manual": 5, "name": "Jugendherberge", "provider": "publibike", "timeStamp": "01/26/2020, 15:59:10", "zip": 8038}, "type": "Feature"}, {"geometry": {"coordinates": [8.539016, 47.405751], "type": "Point"}, "properties": {"address": "Ringstrasse 82", "electric": 5, "id": "pb_569", "manual": 3, "name": "Freibad Allenmoos", "provider": "publibike", "timeStamp": "01/26/2020, 15:59:10", "zip": 8057}, "type": "Feature"}, {"geometry": {"coordinates": [8.534974, 47.402164], "type": "Point"}, "properties": {"address": "Brache Guggach", "electric": 3, "id": "pb_572", "manual": 1, "name": "Radiostudio", "provider": "publibike", "timeStamp": "01/26/2020, 15:59:10", "zip": 8057}, "type": "Feature"}, {"geometry": {"coordinates": [8.547901, 47.375556], "type": "Point"}, "properties": {"address": "Karl-Schmid-Strasse 4", "electric": 1, "id": "pb_571", "manual": 0, "name": "ETH/Zoologisches Museum", "provider": "publibike", "timeStamp": "01/26/2020, 15:59:10", "zip": 8006}, "type": "Feature"}, {"geometry": {"coordinates": [8.582183, 47.351911], "type": "Point"}, "properties": {"charge": 69, "id": "smide_2901", "name": "ZH 267278", "provider": "smide", "range": 34.0, "size": 20, "time": "01/26/2020, 15:58:45"}, "type": "Feature"}, {"geometry": {"coordinates": [8.561885, 47.350421], "type": "Point"}, "properties": {"charge": 32, "id": "smide_2895", "name": "ZH 267279", "provider": "smide", "range": 16.0, "size": 20, "time": "01/26/2020, 15:58:45"}, "type": "Feature"}, {"geometry": {"coordinates": [8.539196, 47.375745], "type": "Point"}, "properties": {"charge": 76, "id": "smide_2883", "name": "ZH 267272", "provider": "smide", "range": 38.0, "size": 20, "time": "01/26/2020, 15:58:45"}, "type": "Feature"}, {"geometry": {"coordinates": [8.51435, 47.390625], "type": "Point"}, "properties": {"charge": 71, "id": "smide_2880", "name": "ZH267289", "provider": "smide", "range": 35.0, "size": 17, "time": "01/26/2020, 15:58:45"}, "type": "Feature"}, {"geometry": {"coordinates": [8.560466, 47.351546], "type": "Point"}, "properties": {"charge": 86, "id": "smide_2874", "name": "ZH 267288", "provider": "smide", "range": 43.0, "size": 17, "time": "01/26/2020, 15:58:45"}, "type": "Feature"}, {"geometry": {"coordinates": [8.495116, 47.398201], "type": "Point"}, "properties": {"charge": 82, "id": "smide_2871", "name": "ZH 267086", "provider": "smide", "range": 41.0, "size": 20, "time": "01/26/2020, 15:58:45"}, "type": "Feature"}, {"geometry": {"coordinates": [8.557445, 47.419073], "type": "Point"}, "properties": {"charge": 87, "id": "smide_2867", "name": "ZH 267090", "provider": "smide", "range": 43.0, "size": 20, "time": "01/26/2020, 15:58:45"}, "type": "Feature"}, {"geometry": {"coordinates": [8.56012, 47.375555], "type": "Point"}, "properties": {"charge": 45, "id": "smide_2861", "name": "ZH 267096", "provider": "smide", "range": 22.0, "size": 17, "time": "01/26/2020, 15:58:45"}, "type": "Feature"}, {"geometry": {"coordinates": [8.483911, 47.397061], "type": "Point"}, "properties": {"charge": 72, "id": "smide_2860", "name": "ZH 267097", "provider": "smide", "range": 36.0, "size": 17, "time": "01/26/2020, 15:58:45"}, "type": "Feature"}, {"geometry": {"coordinates": [8.525018, 47.372801], "type": "Point"}, "properties": {"charge": 45, "id": "smide_2859", "name": "ZH 267098", "provider": "smide", "range": 22.0, "size": 17, "time": "01/26/2020, 15:58:45"}, "type": "Feature"}, {"geometry": {"coordinates": [8.57988, 47.350801], "type": "Point"}, "properties": {"charge": 33, "id": "smide_2856", "name": "ZH 267101", "provider": "smide", "range": 16.0, "size": 17, "time": "01/26/2020, 15:58:45"}, "type": "Feature"}, {"geometry": {"coordinates": [8.552343, 47.411073], "type": "Point"}, "properties": {"charge": 53, "id": "smide_2855", "name": "ZH 267102", "provider": "smide", "range": 26.0, "size": 17, "time": "01/26/2020, 15:58:45"}, "type": "Feature"}, {"geometry": {"coordinates": [8.553573, 47.397716], "type": "Point"}, "properties": {"charge": 34, "id": "smide_2854", "name": "ZH 267103", "provider": "smide", "range": 17.0, "size": 17, "time": "01/26/2020, 15:58:45"}, "type": "Feature"}, {"geometry": {"coordinates": [8.518816, 47.413513], "type": "Point"}, "properties": {"charge": 100, "id": "smide_2833", "name": "ZH 267182", "provider": "smide", "range": 50.0, "size": 20, "time": "01/26/2020, 15:58:45"}, "type": "Feature"}, {"geometry": {"coordinates": [8.570175, 47.352315], "type": "Point"}, "properties": {"charge": 91, "id": "smide_2831", "name": "ZH 267180", "provider": "smide", "range": 45.0, "size": 20, "time": "01/26/2020, 15:58:45"}, "type": "Feature"}, {"geometry": {"coordinates": [8.55395, 47.381728], "type": "Point"}, "properties": {"charge": 61, "id": "smide_2829", "name": "ZH 267049", "provider": "smide", "range": 30.0, "size": 20, "time": "01/26/2020, 15:58:45"}, "type": "Feature"}, {"geometry": {"coordinates": [8.511846, 47.420376], "type": "Point"}, "properties": {"charge": 84, "id": "smide_2804", "name": "ZH266903", "provider": "smide", "range": 42.0, "size": 20, "time": "01/26/2020, 15:58:45"}, "type": "Feature"}, {"geometry": {"coordinates": [8.553005, 47.39827], "type": "Point"}, "properties": {"charge": 100, "id": "smide_2798", "name": "ZH266888", "provider": "smide", "range": 50.0, "size": 17, "time": "01/26/2020, 15:58:45"}, "type": "Feature"}, {"geometry": {"coordinates": [8.552998, 47.413986], "type": "Point"}, "properties": {"charge": 40, "id": "smide_2792", "name": "ZH266882", "provider": "smide", "range": 20.0, "size": 17, "time": "01/26/2020, 15:58:45"}, "type": "Feature"}, {"geometry": {"coordinates": [8.51298, 47.415261], "type": "Point"}, "properties": {"charge": 100, "id": "smide_2790", "name": "ZH266880", "provider": "smide", "range": 50.0, "size": 17, "time": "01/26/2020, 15:58:45"}, "type": "Feature"}, {"geometry": {"coordinates": [8.560361, 47.372281], "type": "Point"}, "properties": {"charge": 21, "id": "smide_2781", "name": "ZH 266871", "provider": "smide", "range": 10.0, "size": 17, "time": "01/26/2020, 15:58:45"}, "type": "Feature"}, {"geometry": {"coordinates": [8.521536, 47.374033], "type": "Point"}, "properties": {"charge": 28, "id": "smide_2780", "name": "ST1 X #1", "provider": "smide", "range": 14.0, "size": 17, "time": "01/26/2020, 15:58:45"}, "type": "Feature"}, {"geometry": {"coordinates": [8.487291, 47.384292], "type": "Point"}, "properties": {"charge": 44, "id": "smide_2775", "name": "ZH267283", "provider": "smide", "range": 22.0, "size": 20, "time": "01/26/2020, 15:58:45"}, "type": "Feature"}, {"geometry": {"coordinates": [8.487307, 47.384368], "type": "Point"}, "properties": {"charge": 61, "id": "smide_2773", "name": "ZH266561", "provider": "smide", "range": 30.0, "size": 17, "time": "01/26/2020, 15:58:45"}, "type": "Feature"}, {"geometry": {"coordinates": [8.506537, 47.40682], "type": "Point"}, "properties": {"charge": 89, "id": "smide_2763", "name": "ZH266641", "provider": "smide", "range": 44.0, "size": 17, "time": "01/26/2020, 15:58:45"}, "type": "Feature"}, {"geometry": {"coordinates": [8.513915, 47.365223], "type": "Point"}, "properties": {"charge": 28, "id": "smide_2761", "name": "ZH266642", "provider": "smide", "range": 14.0, "size": 20, "time": "01/26/2020, 15:58:45"}, "type": "Feature"}, {"geometry": {"coordinates": [8.515483, 47.364696], "type": "Point"}, "properties": {"charge": 88, "id": "smide_2758", "name": "ZH266638 M", "provider": "smide", "range": 44.0, "size": 17, "time": "01/26/2020, 15:58:45"}, "type": "Feature"}, {"geometry": {"coordinates": [8.552637, 47.3887], "type": "Point"}, "properties": {"charge": 31, "id": "smide_2751", "name": "BE343857", "provider": "smide", "range": 15.0, "size": 17, "time": "01/26/2020, 15:58:45"}, "type": "Feature"}, {"geometry": {"coordinates": [8.558133, 47.371444], "type": "Point"}, "properties": {"charge": 97, "id": "smide_2749", "name": "BE343867", "provider": "smide", "range": 48.0, "size": 17, "time": "01/26/2020, 15:58:45"}, "type": "Feature"}, {"geometry": {"coordinates": [8.543711, 47.410968], "type": "Point"}, "properties": {"charge": 100, "id": "smide_2748", "name": "BE335758", "provider": "smide", "range": 50.0, "size": 17, "time": "01/26/2020, 15:58:45"}, "type": "Feature"}, {"geometry": {"coordinates": [8.529561, 47.373564], "type": "Point"}, "properties": {"charge": 89, "id": "smide_2746", "name": "BE335817", "provider": "smide", "range": 44.0, "size": 17, "time": "01/26/2020, 15:58:45"}, "type": "Feature"}, {"geometry": {"coordinates": [8.572338, 47.404148], "type": "Point"}, "properties": {"charge": 80, "id": "smide_2747", "name": "BE335820", "provider": "smide", "range": 40.0, "size": 17, "time": "01/26/2020, 15:58:45"}, "type": "Feature"}, {"geometry": {"coordinates": [8.49082, 47.376416], "type": "Point"}, "properties": {"charge": 62, "id": "smide_2745", "name": "BE335818", "provider": "smide", "range": 31.0, "size": 17, "time": "01/26/2020, 15:58:45"}, "type": "Feature"}, {"geometry": {"coordinates": [8.574694, 47.352384], "type": "Point"}, "properties": {"charge": 80, "id": "smide_2742", "name": "BE343866", "provider": "smide", "range": 40.0, "size": 17, "time": "01/26/2020, 15:58:45"}, "type": "Feature"}, {"geometry": {"coordinates": [8.55752, 47.370328], "type": "Point"}, "properties": {"charge": 65, "id": "smide_2738", "name": "BE343865", "provider": "smide", "range": 32.0, "size": 17, "time": "01/26/2020, 15:58:45"}, "type": "Feature"}, {"geometry": {"coordinates": [8.565517, 47.376904], "type": "Point"}, "properties": {"charge": 18, "id": "smide_2737", "name": "BE336149", "provider": "smide", "range": 9.0, "size": 17, "time": "01/26/2020, 15:58:45"}, "type": "Feature"}, {"geometry": {"coordinates": [8.571893, 47.38194], "type": "Point"}, "properties": {"charge": 89, "id": "smide_2734", "name": "BE343876", "provider": "smide", "range": 44.0, "size": 17, "time": "01/26/2020, 15:58:45"}, "type": "Feature"}, {"geometry": {"coordinates": [8.549827, 47.397176], "type": "Point"}, "properties": {"charge": 50, "id": "smide_2733", "name": "BE343873", "provider": "smide", "range": 25.0, "size": 17, "time": "01/26/2020, 15:58:45"}, "type": "Feature"}, {"geometry": {"coordinates": [8.509413, 47.39522], "type": "Point"}, "properties": {"charge": 85, "id": "smide_2732", "name": "BE343870", "provider": "smide", "range": 42.0, "size": 17, "time": "01/26/2020, 15:58:45"}, "type": "Feature"}, {"geometry": {"coordinates": [8.561431, 47.415948], "type": "Point"}, "properties": {"charge": 32, "id": "smide_2729", "name": "BE343878", "provider": "smide", "range": 16.0, "size": 17, "time": "01/26/2020, 15:58:45"}, "type": "Feature"}, {"geometry": {"coordinates": [8.491083, 47.380536], "type": "Point"}, "properties": {"charge": 100, "id": "smide_2725", "name": "ZH261545", "provider": "smide", "range": 50.0, "size": 0, "time": "01/26/2020, 15:58:45"}, "type": "Feature"}, {"geometry": {"coordinates": [8.525526, 47.378756], "type": "Point"}, "properties": {"charge": 43, "id": "smide_2718", "name": "ZH259019", "provider": "smide", "range": 21.0, "size": 20, "time": "01/26/2020, 15:58:45"}, "type": "Feature"}, {"geometry": {"coordinates": [8.510807, 47.390828], "type": "Point"}, "properties": {"charge": 12, "id": "smide_2717", "name": "ZH263287", "provider": "smide", "range": 6.0, "size": 17, "time": "01/26/2020, 15:58:45"}, "type": "Feature"}, {"geometry": {"coordinates": [8.516031, 47.39625], "type": "Point"}, "properties": {"charge": 88, "id": "smide_2716", "name": "ZH254606", "provider": "smide", "range": 44.0, "size": 17, "time": "01/26/2020, 15:58:45"}, "type": "Feature"}, {"geometry": {"coordinates": [8.537484, 47.340144], "type": "Point"}, "properties": {"charge": 89, "id": "smide_2715", "name": "ZH254605", "provider": "smide", "range": 44.0, "size": 17, "time": "01/26/2020, 15:58:45"}, "type": "Feature"}, {"geometry": {"coordinates": [8.544436, 47.392812], "type": "Point"}, "properties": {"charge": 67, "id": "smide_2714", "name": "ZH256461", "provider": "smide", "range": 33.0, "size": 17, "time": "01/26/2020, 15:58:45"}, "type": "Feature"}, {"geometry": {"coordinates": [8.55341, 47.402192], "type": "Point"}, "properties": {"charge": 60, "id": "smide_2710", "name": "ZH256460", "provider": "smide", "range": 30.0, "size": 17, "time": "01/26/2020, 15:58:45"}, "type": "Feature"}, {"geometry": {"coordinates": [8.541089, 47.377216], "type": "Point"}, "properties": {"charge": 78, "id": "smide_2712", "name": "ZH256462", "provider": "smide", "range": 39.0, "size": 17, "time": "01/26/2020, 15:58:45"}, "type": "Feature"}, {"geometry": {"coordinates": [8.526111, 47.369272], "type": "Point"}, "properties": {"charge": 70, "id": "smide_2711", "name": "ZH256463", "provider": "smide", "range": 35.0, "size": 17, "time": "01/26/2020, 15:58:45"}, "type": "Feature"}, {"geometry": {"coordinates": [8.574456, 47.352451], "type": "Point"}, "properties": {"charge": 27, "id": "smide_2709", "name": "ZH256466", "provider": "smide", "range": 13.0, "size": 20, "time": "01/26/2020, 15:58:45"}, "type": "Feature"}, {"geometry": {"coordinates": [8.554395, 47.368444], "type": "Point"}, "properties": {"charge": 59, "id": "smide_2707", "name": "ZH256467", "provider": "smide", "range": 29.0, "size": 20, "time": "01/26/2020, 15:58:45"}, "type": "Feature"}, {"geometry": {"coordinates": [8.543116, 47.410036], "type": "Point"}, "properties": {"charge": 100, "id": "smide_2708", "name": "ZH256464", "provider": "smide", "range": 50.0, "size": 17, "time": "01/26/2020, 15:58:45"}, "type": "Feature"}, {"geometry": {"coordinates": [8.498233, 47.358296], "type": "Point"}, "properties": {"charge": 26, "id": "smide_2706", "name": "ZH256322", "provider": "smide", "range": 13.0, "size": 20, "time": "01/26/2020, 15:58:45"}, "type": "Feature"}, {"geometry": {"coordinates": [8.554645, 47.40304], "type": "Point"}, "properties": {"charge": 37, "id": "smide_2705", "name": "ZH256471", "provider": "smide", "range": 18.0, "size": 20, "time": "01/26/2020, 15:58:45"}, "type": "Feature"}, {"geometry": {"coordinates": [8.541532, 47.397356], "type": "Point"}, "properties": {"charge": 100, "id": "smide_2701", "name": "ZH256468", "provider": "smide", "range": 50.0, "size": 20, "time": "01/26/2020, 15:58:45"}, "type": "Feature"}, {"geometry": {"coordinates": [8.502338, 47.368672], "type": "Point"}, "properties": {"charge": 66, "id": "smide_2700", "name": "ZH256470", "provider": "smide", "range": 33.0, "size": 20, "time": "01/26/2020, 15:58:45"}, "type": "Feature"}, {"geometry": {"coordinates": [8.525813, 47.376732], "type": "Point"}, "properties": {"charge": 100, "id": "smide_2699", "name": "ZH254611", "provider": "smide", "range": 50.0, "size": 20, "time": "01/26/2020, 15:58:45"}, "type": "Feature"}, {"geometry": {"coordinates": [8.518408, 47.413564], "type": "Point"}, "properties": {"charge": 99, "id": "smide_2697", "name": "ZH254629", "provider": "smide", "range": 49.0, "size": 20, "time": "01/26/2020, 15:58:45"}, "type": "Feature"}, {"geometry": {"coordinates": [8.533401, 47.373556], "type": "Point"}, "properties": {"charge": 55, "id": "smide_2696", "name": "ZH254616", "provider": "smide", "range": 27.0, "size": 20, "time": "01/26/2020, 15:58:45"}, "type": "Feature"}, {"geometry": {"coordinates": [8.543625, 47.418895], "type": "Point"}, "properties": {"charge": 71, "id": "smide_2691", "name": "ZH254622", "provider": "smide", "range": 35.0, "size": 20, "time": "01/26/2020, 15:58:45"}, "type": "Feature"}, {"geometry": {"coordinates": [8.493841, 47.400264], "type": "Point"}, "properties": {"charge": 27, "id": "smide_2690", "name": "ZH254625", "provider": "smide", "range": 13.0, "size": 20, "time": "01/26/2020, 15:58:45"}, "type": "Feature"}, {"geometry": {"coordinates": [8.542099, 47.424632], "type": "Point"}, "properties": {"charge": 14, "id": "smide_2687", "name": "ZH263529", "provider": "smide", "range": 7.0, "size": 20, "time": "01/26/2020, 15:58:45"}, "type": "Feature"}, {"geometry": {"coordinates": [8.572845, 47.349016], "type": "Point"}, "properties": {"charge": 24, "id": "smide_2684", "name": "ZH254626", "provider": "smide", "range": 12.0, "size": 20, "time": "01/26/2020, 15:58:45"}, "type": "Feature"}, {"geometry": {"coordinates": [8.56933, 47.3735], "type": "Point"}, "properties": {"charge": 29, "id": "smide_2683", "name": "ZH254620", "provider": "smide", "range": 14.0, "size": 20, "time": "01/26/2020, 15:58:45"}, "type": "Feature"}, {"geometry": {"coordinates": [8.558577, 47.404512], "type": "Point"}, "properties": {"charge": 100, "id": "smide_2680", "name": "ZH254619", "provider": "smide", "range": 50.0, "size": 20, "time": "01/26/2020, 15:58:45"}, "type": "Feature"}, {"geometry": {"coordinates": [8.576436, 47.351188], "type": "Point"}, "properties": {"charge": 92, "id": "smide_2679", "name": "ZH258489", "provider": "smide", "range": 46.0, "size": 17, "time": "01/26/2020, 15:58:45"}, "type": "Feature"}, {"geometry": {"coordinates": [8.476672, 47.387316], "type": "Point"}, "properties": {"charge": 83, "id": "smide_2669", "name": "ZH263294", "provider": "smide", "range": 41.0, "size": 17, "time": "01/26/2020, 15:58:45"}, "type": "Feature"}, {"geometry": {"coordinates": [8.560719, 47.355776], "type": "Point"}, "properties": {"charge": 100, "id": "smide_2668", "name": "ZH258640", "provider": "smide", "range": 50.0, "size": 17, "time": "01/26/2020, 15:58:45"}, "type": "Feature"}, {"geometry": {"coordinates": [8.560291, 47.382108], "type": "Point"}, "properties": {"charge": 31, "id": "smide_2666", "name": "ZH258653", "provider": "smide", "range": 15.0, "size": 17, "time": "01/26/2020, 15:58:45"}, "type": "Feature"}, {"geometry": {"coordinates": [8.52181, 47.361492], "type": "Point"}, "properties": {"charge": 100, "id": "smide_2665", "name": "ZH258644", "provider": "smide", "range": 50.0, "size": 17, "time": "01/26/2020, 15:58:45"}, "type": "Feature"}, {"geometry": {"coordinates": [8.483114, 47.378132], "type": "Point"}, "properties": {"charge": 69, "id": "smide_2662", "name": "ZH258643", "provider": "smide", "range": 34.0, "size": 17, "time": "01/26/2020, 15:58:45"}, "type": "Feature"}, {"geometry": {"coordinates": [8.572064, 47.357732], "type": "Point"}, "properties": {"charge": 50, "id": "smide_2648", "name": "ZH257930", "provider": "smide", "range": 25.0, "size": 20, "time": "01/26/2020, 15:58:45"}, "type": "Feature"}, {"geometry": {"coordinates": [8.576016, 47.353056], "type": "Point"}, "properties": {"charge": 99, "id": "smide_2657", "name": "ZH257936", "provider": "smide", "range": 49.0, "size": 17, "time": "01/26/2020, 15:58:45"}, "type": "Feature"}, {"geometry": {"coordinates": [8.523651, 47.369444], "type": "Point"}, "properties": {"charge": 90, "id": "smide_2647", "name": "ZH257932", "provider": "smide", "range": 45.0, "size": 20, "time": "01/26/2020, 15:58:45"}, "type": "Feature"}, {"geometry": {"coordinates": [8.535891, 47.35628], "type": "Point"}, "properties": {"charge": 100, "id": "smide_2645", "name": "ZH257933", "provider": "smide", "range": 50.0, "size": 20, "time": "01/26/2020, 15:58:45"}, "type": "Feature"}, {"geometry": {"coordinates": [8.51141, 47.370898], "type": "Point"}, "properties": {"charge": 87, "id": "smide_105", "name": "ZH253804", "provider": "smide", "range": 43.0, "size": 17, "time": "01/26/2020, 15:58:45"}, "type": "Feature"}, {"geometry": {"coordinates": [8.483613, 47.381584], "type": "Point"}, "properties": {"charge": 63, "id": "smide_186", "name": "ZH253751", "provider": "smide", "range": 31.0, "size": 20, "time": "01/26/2020, 15:58:45"}, "type": "Feature"}, {"geometry": {"coordinates": [8.572104, 47.357932], "type": "Point"}, "properties": {"charge": 63, "id": "smide_173", "name": "ZH258501", "provider": "smide", "range": 31.0, "size": 17, "time": "01/26/2020, 15:58:45"}, "type": "Feature"}, {"geometry": {"coordinates": [8.559292, 47.405968], "type": "Point"}, "properties": {"charge": 84, "id": "smide_77", "name": "ZH261548", "provider": "smide", "range": 42.0, "size": 20, "time": "01/26/2020, 15:58:45"}, "type": "Feature"}, {"geometry": {"coordinates": [8.49928, 47.401872], "type": "Point"}, "properties": {"charge": 38, "id": "smide_200", "name": "ZH253801", "provider": "smide", "range": 19.0, "size": 20, "time": "01/26/2020, 15:58:45"}, "type": "Feature"}, {"geometry": {"coordinates": [8.538905, 47.33789], "type": "Point"}, "properties": {"charge": 71, "id": "smide_197", "name": "ZH253864", "provider": "smide", "range": 35.0, "size": 20, "time": "01/26/2020, 15:58:45"}, "type": "Feature"}, {"geometry": {"coordinates": [8.544421, 47.383996], "type": "Point"}, "properties": {"charge": 59, "id": "smide_199", "name": "ZH253766", "provider": "smide", "range": 29.0, "size": 20, "time": "01/26/2020, 15:58:45"}, "type": "Feature"}, {"geometry": {"coordinates": [8.547895, 47.40336], "type": "Point"}, "properties": {"charge": 56, "id": "smide_8", "name": "ZH253861", "provider": "smide", "range": 28.0, "size": 17, "time": "01/26/2020, 15:58:45"}, "type": "Feature"}, {"geometry": {"coordinates": [8.537733, 47.379868], "type": "Point"}, "properties": {"charge": 100, "id": "smide_201", "name": "ZH253698", "provider": "smide", "range": 50.0, "size": 17, "time": "01/26/2020, 15:58:45"}, "type": "Feature"}, {"geometry": {"coordinates": [8.531553, 47.381156], "type": "Point"}, "properties": {"charge": 75, "id": "smide_45", "name": "ZH253716", "provider": "smide", "range": 37.0, "size": 17, "time": "01/26/2020, 15:58:45"}, "type": "Feature"}, {"geometry": {"coordinates": [8.510982, 47.407552], "type": "Point"}, "properties": {"charge": 38, "id": "smide_188", "name": "ZH261543", "provider": "smide", "range": 19.0, "size": 20, "time": "01/26/2020, 15:58:45"}, "type": "Feature"}, {"geometry": {"coordinates": [8.530605, 47.379208], "type": "Point"}, "properties": {"charge": 87, "id": "smide_101", "name": "ZH253814", "provider": "smide", "range": 43.0, "size": 17, "time": "01/26/2020, 15:58:45"}, "type": "Feature"}, {"geometry": {"coordinates": [8.506013, 47.381464], "type": "Point"}, "properties": {"charge": 65, "id": "smide_143", "name": "ZH253778", "provider": "smide", "range": 32.0, "size": 17, "time": "01/26/2020, 15:58:45"}, "type": "Feature"}, {"geometry": {"coordinates": [8.572156, 47.357993], "type": "Point"}, "properties": {"charge": 73, "id": "smide_180", "name": "ZH253824", "provider": "smide", "range": 36.0, "size": 20, "time": "01/26/2020, 15:58:45"}, "type": "Feature"}, {"geometry": {"coordinates": [8.550127, 47.398152], "type": "Point"}, "properties": {"charge": 58, "id": "smide_20", "name": "ZH253770", "provider": "smide", "range": 28.0, "size": 20, "time": "01/26/2020, 15:58:45"}, "type": "Feature"}, {"geometry": {"coordinates": [8.513037, 47.366236], "type": "Point"}, "properties": {"charge": 38, "id": "smide_50", "name": "ZH253853", "provider": "smide", "range": 19.0, "size": 17, "time": "01/26/2020, 15:58:45"}, "type": "Feature"}, {"geometry": {"coordinates": [8.520238, 47.370081], "type": "Point"}, "properties": {"charge": 98, "id": "smide_30", "name": "ZH253813", "provider": "smide", "range": 49.0, "size": 20, "time": "01/26/2020, 15:58:45"}, "type": "Feature"}, {"geometry": {"coordinates": [8.558035, 47.370205], "type": "Point"}, "properties": {"charge": 34, "id": "smide_10", "name": "ZH253855", "provider": "smide", "range": 17.0, "size": 17, "time": "01/26/2020, 15:58:45"}, "type": "Feature"}, {"geometry": {"coordinates": [8.543616, 47.402196], "type": "Point"}, "properties": {"charge": 21, "id": "smide_165", "name": "ZH253752", "provider": "smide", "range": 10.0, "size": 17, "time": "01/26/2020, 15:58:45"}, "type": "Feature"}, {"geometry": {"coordinates": [8.55346, 47.405844], "type": "Point"}, "properties": {"charge": 84, "id": "smide_119", "name": "ZH253686", "provider": "smide", "range": 42.0, "size": 20, "time": "01/26/2020, 15:58:45"}, "type": "Feature"}, {"geometry": {"coordinates": [8.548515, 47.377904], "type": "Point"}, "properties": {"charge": 52, "id": "smide_76", "name": "ZH253764", "provider": "smide", "range": 26.0, "size": 17, "time": "01/26/2020, 15:58:45"}, "type": "Feature"}, {"geometry": {"coordinates": [8.561048, 47.383443], "type": "Point"}, "properties": {"charge": 83, "id": "smide_49", "name": "ZH253873", "provider": "smide", "range": 41.0, "size": 17, "time": "01/26/2020, 15:58:45"}, "type": "Feature"}, {"geometry": {"coordinates": [8.551445, 47.398348], "type": "Point"}, "properties": {"charge": 83, "id": "smide_94", "name": "ZH253754", "provider": "smide", "range": 41.0, "size": 17, "time": "01/26/2020, 15:58:45"}, "type": "Feature"}, {"geometry": {"coordinates": [8.478418, 47.389715], "type": "Point"}, "properties": {"charge": 70, "id": "smide_191", "name": "ZH253762", "provider": "smide", "range": 35.0, "size": 17, "time": "01/26/2020, 15:58:45"}, "type": "Feature"}, {"geometry": {"coordinates": [8.491203, 47.377011], "type": "Point"}, "properties": {"charge": 100, "id": "smide_202", "name": "ZH253830", "provider": "smide", "range": 50.0, "size": 17, "time": "01/26/2020, 15:58:45"}, "type": "Feature"}, {"geometry": {"coordinates": [8.574901, 47.373256], "type": "Point"}, "properties": {"charge": 85, "id": "smide_56", "name": "ZH261442", "provider": "smide", "range": 42.0, "size": 20, "time": "01/26/2020, 15:58:45"}, "type": "Feature"}, {"geometry": {"coordinates": [8.51334, 47.375365], "type": "Point"}, "properties": {"charge": 85, "id": "smide_47", "name": "ZH253858", "provider": "smide", "range": 42.0, "size": 17, "time": "01/26/2020, 15:58:45"}, "type": "Feature"}, {"geometry": {"coordinates": [8.550911, 47.391816], "type": "Point"}, "properties": {"charge": 100, "id": "smide_150", "name": "ZH253703", "provider": "smide", "range": 50.0, "size": 20, "time": "01/26/2020, 15:58:45"}, "type": "Feature"}, {"geometry": {"coordinates": [8.545161, 47.423724], "type": "Point"}, "properties": {"charge": 74, "id": "smide_181", "name": "ZH253815", "provider": "smide", "range": 37.0, "size": 17, "time": "01/26/2020, 15:58:45"}, "type": "Feature"}, {"geometry": {"coordinates": [8.533177, 47.372324], "type": "Point"}, "properties": {"charge": 94, "id": "smide_23", "name": "ZH253704", "provider": "smide", "range": 47.0, "size": 17, "time": "01/26/2020, 15:58:45"}, "type": "Feature"}, {"geometry": {"coordinates": [8.561555, 47.363286], "type": "Point"}, "properties": {"charge": 58, "id": "smide_145", "name": "ZH253780", "provider": "smide", "range": 28.0, "size": 20, "time": "01/26/2020, 15:58:45"}, "type": "Feature"}, {"geometry": {"coordinates": [8.557733, 47.371736], "type": "Point"}, "properties": {"charge": 18, "id": "smide_114", "name": "ZH253878", "provider": "smide", "range": 9.0, "size": 20, "time": "01/26/2020, 15:58:45"}, "type": "Feature"}, {"geometry": {"coordinates": [8.55222, 47.382048], "type": "Point"}, "properties": {"charge": 100, "id": "smide_203", "name": "ZH261547", "provider": "smide", "range": 50.0, "size": 17, "time": "01/26/2020, 15:58:45"}, "type": "Feature"}, {"geometry": {"coordinates": [8.546651, 47.40826], "type": "Point"}, "properties": {"charge": 99, "id": "smide_21", "name": "ZH253841", "provider": "smide", "range": 49.0, "size": 17, "time": "01/26/2020, 15:58:45"}, "type": "Feature"}, {"geometry": {"coordinates": [8.512462, 47.368836], "type": "Point"}, "properties": {"charge": 63, "id": "smide_189", "name": "ZH253845", "provider": "smide", "range": 31.0, "size": 20, "time": "01/26/2020, 15:58:45"}, "type": "Feature"}, {"geometry": {"coordinates": [8.550449, 47.37058], "type": "Point"}, "properties": {"charge": 98, "id": "smide_81", "name": "ZH253753", "provider": "smide", "range": 49.0, "size": 17, "time": "01/26/2020, 15:58:45"}, "type": "Feature"}, {"geometry": {"coordinates": [8.489246, 47.3958], "type": "Point"}, "properties": {"charge": 46, "id": "smide_148", "name": "ZH253844", "provider": "smide", "range": 23.0, "size": 20, "time": "01/26/2020, 15:58:45"}, "type": "Feature"}, {"geometry": {"coordinates": [8.544893, 47.401116], "type": "Point"}, "properties": {"charge": 88, "id": "smide_171", "name": "ZH253689", "provider": "smide", "range": 44.0, "size": 20, "time": "01/26/2020, 15:58:45"}, "type": "Feature"}, {"geometry": {"coordinates": [8.53587, 47.3563], "type": "Point"}, "properties": {"charge": 58, "id": "smide_22", "name": "ZH253852", "provider": "smide", "range": 28.0, "size": 17, "time": "01/26/2020, 15:58:45"}, "type": "Feature"}, {"geometry": {"coordinates": [8.555198, 47.383884], "type": "Point"}, "properties": {"charge": 81, "id": "smide_93", "name": "ZH253681", "provider": "smide", "range": 40.0, "size": 17, "time": "01/26/2020, 15:58:45"}, "type": "Feature"}, {"geometry": {"coordinates": [8.570102, 47.352324], "type": "Point"}, "properties": {"charge": 100, "id": "smide_67", "name": "ZH253779", "provider": "smide", "range": 50.0, "size": 17, "time": "01/26/2020, 15:58:45"}, "type": "Feature"}, {"geometry": {"coordinates": [8.509588, 47.390272], "type": "Point"}, "properties": {"charge": 17, "id": "smide_133", "name": "ZH253848", "provider": "smide", "range": 8.0, "size": 20, "time": "01/26/2020, 15:58:45"}, "type": "Feature"}, {"geometry": {"coordinates": [8.480421, 47.385063], "type": "Point"}, "properties": {"charge": 86, "id": "smide_118", "name": "ZH253759", "provider": "smide", "range": 43.0, "size": 20, "time": "01/26/2020, 15:58:45"}, "type": "Feature"}, {"geometry": {"coordinates": [8.546511, 47.412676], "type": "Point"}, "properties": {"charge": 92, "id": "smide_198", "name": "ZH253836", "provider": "smide", "range": 46.0, "size": 17, "time": "01/26/2020, 15:58:45"}, "type": "Feature"}, {"geometry": {"coordinates": [8.503238, 47.37386], "type": "Point"}, "properties": {"charge": 100, "id": "smide_142", "name": "ZH258745", "provider": "smide", "range": 50.0, "size": 17, "time": "01/26/2020, 15:58:45"}, "type": "Feature"}, {"geometry": {"coordinates": [8.539656, 47.369681], "type": "Point"}, "properties": {"charge": 37, "id": "smide_166", "name": "ZH253728", "provider": "smide", "range": 18.0, "size": 17, "time": "01/26/2020, 15:58:45"}, "type": "Feature"}, {"geometry": {"coordinates": [8.488377, 47.3913], "type": "Point"}, "properties": {"charge": 38, "id": "smide_72", "name": "ZH253726", "provider": "smide", "range": 19.0, "size": 17, "time": "01/26/2020, 15:58:45"}, "type": "Feature"}, {"geometry": {"coordinates": [8.490043, 47.390924], "type": "Point"}, "properties": {"charge": 49, "id": "smide_126", "name": "ZH268400", "provider": "smide", "range": 24.0, "size": 17, "time": "01/26/2020, 15:58:45"}, "type": "Feature"}, {"geometry": {"coordinates": [8.527556, 47.375008], "type": "Point"}, "properties": {"charge": 100, "id": "smide_44", "name": "ZH253837", "provider": "smide", "range": 50.0, "size": 17, "time": "01/26/2020, 15:58:45"}, "type": "Feature"}, {"geometry": {"coordinates": [8.512858, 47.390351], "type": "Point"}, "properties": {"charge": 74, "id": "smide_98", "name": "ZH256321", "provider": "smide", "range": 37.0, "size": 17, "time": "01/26/2020, 15:58:45"}, "type": "Feature"}, {"geometry": {"coordinates": [8.524079, 47.353384], "type": "Point"}, "properties": {"charge": 100, "id": "smide_154", "name": "ZH253744", "provider": "smide", "range": 50.0, "size": 20, "time": "01/26/2020, 15:58:45"}, "type": "Feature"}, {"geometry": {"coordinates": [8.516186, 47.396932], "type": "Point"}, "properties": {"charge": 55, "id": "smide_92", "name": "ZH253798", "provider": "smide", "range": 27.0, "size": 17, "time": "01/26/2020, 15:58:45"}, "type": "Feature"}, {"geometry": {"coordinates": [8.522175, 47.410708], "type": "Point"}, "properties": {"charge": 100, "id": "smide_111", "name": "ZH253763", "provider": "smide", "range": 50.0, "size": 17, "time": "01/26/2020, 15:58:45"}, "type": "Feature"}, {"geometry": {"coordinates": [8.503695, 47.377492], "type": "Point"}, "properties": {"charge": 100, "id": "smide_40", "name": "ZH253690", "provider": "smide", "range": 50.0, "size": 20, "time": "01/26/2020, 15:58:45"}, "type": "Feature"}, {"geometry": {"coordinates": [8.529639, 47.41028], "type": "Point"}, "properties": {"charge": 79, "id": "smide_1", "name": "ZH253776", "provider": "smide", "range": 39.0, "size": 17, "time": "01/26/2020, 15:58:45"}, "type": "Feature"}, {"geometry": {"coordinates": [8.556636, 47.353592], "type": "Point"}, "properties": {"charge": 79, "id": "smide_28", "name": "ZH253831", "provider": "smide", "range": 39.0, "size": 17, "time": "01/26/2020, 15:58:45"}, "type": "Feature"}, {"geometry": {"coordinates": [8.567451, 47.376298], "type": "Point"}, "properties": {"charge": 100, "id": "smide_14", "name": "ZH253749", "provider": "smide", "range": 50.0, "size": 20, "time": "01/26/2020, 15:58:45"}, "type": "Feature"}, {"geometry": {"coordinates": [8.557029, 47.405304], "type": "Point"}, "properties": {"charge": 70, "id": "smide_130", "name": "ZH253847", "provider": "smide", "range": 35.0, "size": 20, "time": "01/26/2020, 15:58:45"}, "type": "Feature"}, {"geometry": {"coordinates": [8.55814, 47.413064], "type": "Point"}, "properties": {"charge": 16, "id": "smide_107", "name": "ZH253819", "provider": "smide", "range": 8.0, "size": 17, "time": "01/26/2020, 15:58:45"}, "type": "Feature"}, {"geometry": {"coordinates": [8.554543, 47.403032], "type": "Point"}, "properties": {"charge": 70, "id": "smide_193", "name": "ZH253738", "provider": "smide", "range": 35.0, "size": 20, "time": "01/26/2020, 15:58:45"}, "type": "Feature"}, {"geometry": {"coordinates": [8.563833, 47.407846], "type": "Point"}, "properties": {"charge": 100, "id": "smide_73", "name": "ZH261379", "provider": "smide", "range": 50.0, "size": 20, "time": "01/26/2020, 15:58:45"}, "type": "Feature"}, {"geometry": {"coordinates": [8.549291, 47.422206], "type": "Point"}, "properties": {"charge": 33, "id": "smide_158", "name": "ZH253870", "provider": "smide", "range": 16.0, "size": 20, "time": "01/26/2020, 15:58:45"}, "type": "Feature"}, {"geometry": {"coordinates": [8.528798, 47.379896], "type": "Point"}, "properties": {"charge": 47, "id": "smide_100", "name": "ZH253862", "provider": "smide", "range": 23.0, "size": 20, "time": "01/26/2020, 15:58:45"}, "type": "Feature"}, {"geometry": {"coordinates": [8.56452, 47.369865], "type": "Point"}, "properties": {"charge": 15, "id": "smide_134", "name": "ZH253741", "provider": "smide", "range": 7.0, "size": 20, "time": "01/26/2020, 15:58:45"}, "type": "Feature"}, {"geometry": {"coordinates": [8.537045, 47.419218], "type": "Point"}, "properties": {"charge": 62, "id": "smide_141", "name": "ZH253800", "provider": "smide", "range": 31.0, "size": 20, "time": "01/26/2020, 15:58:45"}, "type": "Feature"}, {"geometry": {"coordinates": [8.54331, 47.409103], "type": "Point"}, "properties": {"charge": 100, "id": "smide_149", "name": "ZH253743", "provider": "smide", "range": 50.0, "size": 20, "time": "01/26/2020, 15:58:45"}, "type": "Feature"}, {"geometry": {"coordinates": [8.537469, 47.375684], "type": "Point"}, "properties": {"charge": 60, "id": "smide_74", "name": "ZH253693", "provider": "smide", "range": 30.0, "size": 20, "time": "01/26/2020, 15:58:45"}, "type": "Feature"}, {"geometry": {"coordinates": [8.496896, 47.392433], "type": "Point"}, "properties": {"charge": 100, "id": "smide_33", "name": "ZH253782", "provider": "smide", "range": 50.0, "size": 20, "time": "01/26/2020, 15:58:45"}, "type": "Feature"}, {"geometry": {"coordinates": [8.561811, 47.350372], "type": "Point"}, "properties": {"charge": 38, "id": "smide_161", "name": "ZH253691", "provider": "smide", "range": 19.0, "size": 20, "time": "01/26/2020, 15:58:45"}, "type": "Feature"}, {"geometry": {"coordinates": [8.536481, 47.419531], "type": "Point"}, "properties": {"charge": 58, "id": "smide_183", "name": "ZH253868", "provider": "smide", "range": 28.0, "size": 17, "time": "01/26/2020, 15:58:45"}, "type": "Feature"}, {"geometry": {"coordinates": [8.483406, 47.37464], "type": "Point"}, "properties": {"charge": 20, "id": "smide_42", "name": "ZH253846", "provider": "smide", "range": 10.0, "size": 20, "time": "01/26/2020, 15:58:45"}, "type": "Feature"}, {"geometry": {"coordinates": [8.510018, 47.425528], "type": "Point"}, "properties": {"charge": 13, "id": "smide_4", "name": "ZH253740", "provider": "smide", "range": 6.0, "size": 20, "time": "01/26/2020, 15:58:45"}, "type": "Feature"}, {"geometry": {"coordinates": [8.539618, 47.399748], "type": "Point"}, "properties": {"charge": 69, "id": "smide_160", "name": "ZH253722", "provider": "smide", "range": 34.0, "size": 17, "time": "01/26/2020, 15:58:45"}, "type": "Feature"}, {"geometry": {"coordinates": [8.560956, 47.364608], "type": "Point"}, "properties": {"charge": 100, "id": "smide_137", "name": "ZH258502", "provider": "smide", "range": 50.0, "size": 17, "time": "01/26/2020, 15:58:45"}, "type": "Feature"}, {"geometry": {"coordinates": [8.532994, 47.377644], "type": "Point"}, "properties": {"charge": 77, "id": "smide_178", "name": "ZH253803", "provider": "smide", "range": 38.0, "size": 17, "time": "01/26/2020, 15:58:45"}, "type": "Feature"}, {"geometry": {"coordinates": [8.55815, 47.376556], "type": "Point"}, "properties": {"charge": 88, "id": "smide_55", "name": "ZH253875", "provider": "smide", "range": 44.0, "size": 17, "time": "01/26/2020, 15:58:45"}, "type": "Feature"}, {"geometry": {"coordinates": [8.561134, 47.383408], "type": "Point"}, "properties": {"charge": 52, "id": "smide_96", "name": "ZH256146", "provider": "smide", "range": 26.0, "size": 20, "time": "01/26/2020, 15:58:45"}, "type": "Feature"}, {"geometry": {"coordinates": [8.519614, 47.3372], "type": "Point"}, "properties": {"charge": 76, "id": "smide_58", "name": "ZH259246", "provider": "smide", "range": 38.0, "size": 20, "time": "01/26/2020, 15:58:45"}, "type": "Feature"}, {"geometry": {"coordinates": [8.555919, 47.356588], "type": "Point"}, "properties": {"charge": 49, "id": "smide_54", "name": "ZH253874", "provider": "smide", "range": 24.0, "size": 20, "time": "01/26/2020, 15:58:45"}, "type": "Feature"}, {"geometry": {"coordinates": [8.493129, 47.394432], "type": "Point"}, "properties": {"charge": 86, "id": "smide_175", "name": "ZH253730", "provider": "smide", "range": 43.0, "size": 17, "time": "01/26/2020, 15:58:45"}, "type": "Feature"}, {"geometry": {"coordinates": [8.574851, 47.372172], "type": "Point"}, "properties": {"charge": 30, "id": "smide_163", "name": "ZH256147", "provider": "smide", "range": 15.0, "size": 20, "time": "01/26/2020, 15:58:45"}, "type": "Feature"}, {"geometry": {"coordinates": [8.55607, 47.41062], "type": "Point"}, "properties": {"charge": 90, "id": "smide_112", "name": "ZH263530", "provider": "smide", "range": 45.0, "size": 20, "time": "01/26/2020, 15:58:45"}, "type": "Feature"}, {"geometry": {"coordinates": [8.559955, 47.406672], "type": "Point"}, "properties": {"charge": 61, "id": "smide_122", "name": "ZH253850", "provider": "smide", "range": 30.0, "size": 20, "time": "01/26/2020, 15:58:45"}, "type": "Feature"}, {"geometry": {"coordinates": [8.551126, 47.389495], "type": "Point"}, "properties": {"charge": 76, "id": "smide_38", "name": "ZH253851", "provider": "smide", "range": 38.0, "size": 20, "time": "01/26/2020, 15:58:45"}, "type": "Feature"}, {"geometry": {"coordinates": [8.559273, 47.405968], "type": "Point"}, "properties": {"charge": 90, "id": "smide_18", "name": "ZH253859", "provider": "smide", "range": 45.0, "size": 17, "time": "01/26/2020, 15:58:45"}, "type": "Feature"}, {"geometry": {"coordinates": [8.549755, 47.401888], "type": "Point"}, "properties": {"charge": 88, "id": "smide_12", "name": "ZH253685", "provider": "smide", "range": 44.0, "size": 17, "time": "01/26/2020, 15:58:45"}, "type": "Feature"}, {"geometry": {"coordinates": [8.558529, 47.353724], "type": "Point"}, "properties": {"charge": 63, "id": "smide_192", "name": "ZH253706", "provider": "smide", "range": 31.0, "size": 20, "time": "01/26/2020, 15:58:45"}, "type": "Feature"}, {"geometry": {"coordinates": [8.554194, 47.417948], "type": "Point"}, "properties": {"charge": 46, "id": "smide_39", "name": "ZH253714", "provider": "smide", "range": 23.0, "size": 20, "time": "01/26/2020, 15:58:45"}, "type": "Feature"}, {"geometry": {"coordinates": [8.558085, 47.352591], "type": "Point"}, "properties": {"charge": 71, "id": "smide_5", "name": "ZH261443", "provider": "smide", "range": 35.0, "size": 20, "time": "01/26/2020, 15:58:45"}, "type": "Feature"}, {"geometry": {"coordinates": [8.522308, 47.366096], "type": "Point"}, "properties": {"charge": 63, "id": "smide_85", "name": "ZH253729", "provider": "smide", "range": 31.0, "size": 17, "time": "01/26/2020, 15:58:45"}, "type": "Feature"}, {"geometry": {"coordinates": [8.558221, 47.404556], "type": "Point"}, "properties": {"charge": 100, "id": "smide_29", "name": "ZH253723", "provider": "smide", "range": 50.0, "size": 17, "time": "01/26/2020, 15:58:45"}, "type": "Feature"}, {"geometry": {"coordinates": [8.544092, 47.366904], "type": "Point"}, "properties": {"charge": 10, "id": "smide_48", "name": "ZH253849", "provider": "smide", "range": 5.0, "size": 20, "time": "01/26/2020, 15:58:45"}, "type": "Feature"}, {"geometry": {"coordinates": [8.553629, 47.387228], "type": "Point"}, "properties": {"charge": 31, "id": "smide_46", "name": "ZH253843", "provider": "smide", "range": 15.0, "size": 20, "time": "01/26/2020, 15:58:45"}, "type": "Feature"}, {"geometry": {"coordinates": [8.51990833333333, 47.36464], "type": "Point"}, "properties": {"charge": 78, "id": "bird_b76a2b52-f775-465c-b19e-9bd137972f09", "provider": "bird", "timeStamp": "01/26/2020, 15:58:45"}, "type": "Feature"}, {"geometry": {"coordinates": [8.54898166666667, 47.369205], "type": "Point"}, "properties": {"charge": 43, "id": "bird_0f3ec6bd-c106-49f2-89aa-3865ae3c8c9f", "provider": "bird", "timeStamp": "01/26/2020, 15:58:45"}, "type": "Feature"}, {"geometry": {"coordinates": [8.51058833333333, 47.3903616666667], "type": "Point"}, "properties": {"charge": 47, "id": "bird_838d2894-c711-4399-bf14-f4709f97998b", "provider": "bird", "timeStamp": "01/26/2020, 15:58:45"}, "type": "Feature"}, {"geometry": {"coordinates": [8.51752333333333, 47.3944283333333], "type": "Point"}, "properties": {"charge": 35, "id": "bird_3ef02e80-633f-4ad3-9887-96a9ea90e908", "provider": "bird", "timeStamp": "01/26/2020, 15:58:45"}, "type": "Feature"}, {"geometry": {"coordinates": [8.50580166666667, 47.3814883333333], "type": "Point"}, "properties": {"charge": 12, "id": "bird_a06c5d3e-0f88-4f25-8821-bc99f1fd1a5b", "provider": "bird", "timeStamp": "01/26/2020, 15:58:45"}, "type": "Feature"}, {"geometry": {"coordinates": [8.55327, 47.3755533333333], "type": "Point"}, "properties": {"charge": 43, "id": "bird_5534a99a-3ca1-463f-abdb-db7d2e6b6b9f", "provider": "bird", "timeStamp": "01/26/2020, 15:58:45"}, "type": "Feature"}, {"geometry": {"coordinates": [8.54419833333333, 47.36686], "type": "Point"}, "properties": {"charge": 54, "id": "bird_229e8593-0075-406d-8350-494a645e8551", "provider": "bird", "timeStamp": "01/26/2020, 15:58:45"}, "type": "Feature"}, {"geometry": {"coordinates": [8.544205, 47.3668633333333], "type": "Point"}, "properties": {"charge": 47, "id": "bird_3c8d7d87-87f2-4417-84d7-8551f72a989f", "provider": "bird", "timeStamp": "01/26/2020, 15:58:45"}, "type": "Feature"}, {"geometry": {"coordinates": [8.54848333333333, 47.3903883333333], "type": "Point"}, "properties": {"charge": 54, "id": "bird_4cd7d7c5-8084-4399-b911-eb320af13c36", "provider": "bird", "timeStamp": "01/26/2020, 15:58:45"}, "type": "Feature"}, {"geometry": {"coordinates": [8.54412, 47.3669083333333], "type": "Point"}, "properties": {"charge": 28, "id": "bird_2e5c91ba-104a-44d5-936f-7c4f033a4134", "provider": "bird", "timeStamp": "01/26/2020, 15:58:45"}, "type": "Feature"}, {"geometry": {"coordinates": [8.53934833333333, 47.3946916666667], "type": "Point"}, "properties": {"charge": 30, "id": "bird_08977b99-37ab-4de9-9f61-0631ec92912f", "provider": "bird", "timeStamp": "01/26/2020, 15:58:45"}, "type": "Feature"}, {"geometry": {"coordinates": [8.54503333333333, 47.3676916666667], "type": "Point"}, "properties": {"charge": 99, "id": "bird_1df065f6-93c6-4267-99c1-317f2a1c9ac5", "provider": "bird", "timeStamp": "01/26/2020, 15:58:45"}, "type": "Feature"}, {"geometry": {"coordinates": [8.53036, 47.3640483333333], "type": "Point"}, "properties": {"charge": 72, "id": "bird_13cdd310-e0f6-45ae-b9da-e9c639c41de9", "provider": "bird", "timeStamp": "01/26/2020, 15:58:45"}, "type": "Feature"}, {"geometry": {"coordinates": [8.54506666666667, 47.3677483333333], "type": "Point"}, "properties": {"charge": 99, "id": "bird_a56801ec-207d-4bbe-9daa-36679cc482a8", "provider": "bird", "timeStamp": "01/26/2020, 15:58:45"}, "type": "Feature"}, {"geometry": {"coordinates": [8.51221, 47.36977], "type": "Point"}, "properties": {"charge": 84, "id": "bird_b4b23565-891b-4864-8f66-ac84b699d20b", "provider": "bird", "timeStamp": "01/26/2020, 15:58:45"}, "type": "Feature"}, {"geometry": {"coordinates": [8.54486833333333, 47.3678816666667], "type": "Point"}, "properties": {"charge": 99, "id": "bird_a51aaeb8-cfc8-4176-85e4-734cfa68801d", "provider": "bird", "timeStamp": "01/26/2020, 15:58:45"}, "type": "Feature"}, {"geometry": {"coordinates": [8.538885, 47.365555], "type": "Point"}, "properties": {"charge": 88, "id": "bird_dba36891-89a6-4d02-803f-173492e586b7", "provider": "bird", "timeStamp": "01/26/2020, 15:58:45"}, "type": "Feature"}, {"geometry": {"coordinates": [8.53888, 47.3655666666667], "type": "Point"}, "properties": {"charge": 89, "id": "bird_0dae2de2-566b-4727-9550-7a07d94b4694", "provider": "bird", "timeStamp": "01/26/2020, 15:58:45"}, "type": "Feature"}, {"geometry": {"coordinates": [8.52453833333333, 47.36483], "type": "Point"}, "properties": {"charge": 20, "id": "bird_5ed2204d-ebb2-44ff-a319-e06f33df181a", "provider": "bird", "timeStamp": "01/26/2020, 15:58:45"}, "type": "Feature"}, {"geometry": {"coordinates": [8.52036333333333, 47.3941566666667], "type": "Point"}, "properties": {"charge": 38, "id": "bird_79bcbdd1-5309-4510-b901-8606bc9008d2", "provider": "bird", "timeStamp": "01/26/2020, 15:58:45"}, "type": "Feature"}, {"geometry": {"coordinates": [8.51045833333333, 47.37201], "type": "Point"}, "properties": {"charge": 54, "id": "bird_76f60696-f2dd-4e62-a7f6-6a82808ddc42", "provider": "bird", "timeStamp": "01/26/2020, 15:58:45"}, "type": "Feature"}, {"geometry": {"coordinates": [8.51805166666667, 47.3668366666667], "type": "Point"}, "properties": {"charge": 36, "id": "bird_623cbcb4-460c-405a-90de-7969e161fef3", "provider": "bird", "timeStamp": "01/26/2020, 15:58:45"}, "type": "Feature"}, {"geometry": {"coordinates": [8.507355, 47.3800966666667], "type": "Point"}, "properties": {"charge": 52, "id": "bird_c9b12892-7171-4cf1-bb5b-87d51892ee6f", "provider": "bird", "timeStamp": "01/26/2020, 15:58:45"}, "type": "Feature"}, {"geometry": {"coordinates": [8.53044166666667, 47.3648266666667], "type": "Point"}, "properties": {"charge": 46, "id": "bird_37350909-5a54-4635-a042-26b5c65c9b2e", "provider": "bird", "timeStamp": "01/26/2020, 15:58:45"}, "type": "Feature"}, {"geometry": {"coordinates": [8.54445666666667, 47.3684316666667], "type": "Point"}, "properties": {"charge": 100, "id": "bird_e3333cfb-e545-4ad1-8ea2-fc7df691cbe0", "provider": "bird", "timeStamp": "01/26/2020, 15:58:45"}, "type": "Feature"}, {"geometry": {"coordinates": [8.51269, 47.3706016666667], "type": "Point"}, "properties": {"charge": 25, "id": "bird_f93afcf3-9668-4a67-8c84-95357df45a38", "provider": "bird", "timeStamp": "01/26/2020, 15:58:45"}, "type": "Feature"}, {"geometry": {"coordinates": [8.541275, 47.36721], "type": "Point"}, "properties": {"charge": 53, "id": "bird_009299ac-ef95-49f5-a18e-d6d8966bfec0", "provider": "bird", "timeStamp": "01/26/2020, 15:58:45"}, "type": "Feature"}, {"geometry": {"coordinates": [8.51490333333333, 47.3908], "type": "Point"}, "properties": {"charge": 85, "id": "bird_99a22c4f-9fc3-4dec-969d-59ce753c751d", "provider": "bird", "timeStamp": "01/26/2020, 15:58:45"}, "type": "Feature"}, {"geometry": {"coordinates": [8.52557, 47.3944733333333], "type": "Point"}, "properties": {"charge": 55, "id": "bird_19aa676e-cd95-4b53-8573-b7468b522dfe", "provider": "bird", "timeStamp": "01/26/2020, 15:58:45"}, "type": "Feature"}, {"geometry": {"coordinates": [8.53687166666667, 47.3660233333333], "type": "Point"}, "properties": {"charge": 39, "id": "bird_67cb4e79-6f48-454e-87e8-17cad707671d", "provider": "bird", "timeStamp": "01/26/2020, 15:58:45"}, "type": "Feature"}, {"geometry": {"coordinates": [8.50829666666667, 47.37928], "type": "Point"}, "properties": {"charge": 89, "id": "bird_dedc3580-1389-40ee-ba4b-a289eb81f21f", "provider": "bird", "timeStamp": "01/26/2020, 15:58:45"}, "type": "Feature"}, {"geometry": {"coordinates": [8.50836833333333, 47.3792616666667], "type": "Point"}, "properties": {"charge": 76, "id": "bird_64d2be1f-c290-4bc2-8ed9-457fa97e15b5", "provider": "bird", "timeStamp": "01/26/2020, 15:58:45"}, "type": "Feature"}, {"geometry": {"coordinates": [8.54398666666667, 47.3688316666667], "type": "Point"}, "properties": {"charge": 99, "id": "bird_8509c788-9692-4e3c-863b-a0b6afff2211", "provider": "bird", "timeStamp": "01/26/2020, 15:58:45"}, "type": "Feature"}, {"geometry": {"coordinates": [8.51310666666667, 47.3710433333333], "type": "Point"}, "properties": {"charge": 37, "id": "bird_f29f1ea7-0d65-4e96-be62-67c320c924e7", "provider": "bird", "timeStamp": "01/26/2020, 15:58:45"}, "type": "Feature"}, {"geometry": {"coordinates": [8.54105833333333, 47.3676483333333], "type": "Point"}, "properties": {"charge": 15, "id": "bird_ed3619b1-eac8-4b60-93ba-870480b15f87", "provider": "bird", "timeStamp": "01/26/2020, 15:58:45"}, "type": "Feature"}, {"geometry": {"coordinates": [8.53663166666667, 47.3662866666667], "type": "Point"}, "properties": {"charge": 74, "id": "bird_1f672f49-5ae4-4a8f-ac80-87eb608dcdb4", "provider": "bird", "timeStamp": "01/26/2020, 15:58:45"}, "type": "Feature"}, {"geometry": {"coordinates": [8.50875166666667, 47.3795466666667], "type": "Point"}, "properties": {"charge": 73, "id": "bird_7e202489-9f57-459d-9357-ddeeb24e7e6b", "provider": "bird", "timeStamp": "01/26/2020, 15:58:45"}, "type": "Feature"}, {"geometry": {"coordinates": [8.53662, 47.3663333333333], "type": "Point"}, "properties": {"charge": 53, "id": "bird_aa4256a7-fe42-4dc5-9450-f04ef9071624", "provider": "bird", "timeStamp": "01/26/2020, 15:58:45"}, "type": "Feature"}, {"geometry": {"coordinates": [8.515145, 47.369915], "type": "Point"}, "properties": {"charge": 52, "id": "bird_d9dbd0eb-63b6-4992-8000-86c8c0f50090", "provider": "bird", "timeStamp": "01/26/2020, 15:58:45"}, "type": "Feature"}, {"geometry": {"coordinates": [8.51180666666667, 47.3728983333333], "type": "Point"}, "properties": {"charge": 70, "id": "bird_bf9ac7dd-7428-4592-8cca-144aebc918ec", "provider": "bird", "timeStamp": "01/26/2020, 15:58:45"}, "type": "Feature"}, {"geometry": {"coordinates": [8.549905, 47.3845016666667], "type": "Point"}, "properties": {"charge": 40, "id": "bird_ad6e1878-7ff8-459e-8fdc-cad35de15f9d", "provider": "bird", "timeStamp": "01/26/2020, 15:58:45"}, "type": "Feature"}, {"geometry": {"coordinates": [8.51183, 47.3729933333333], "type": "Point"}, "properties": {"charge": 52, "id": "bird_a8e17aff-57c8-4393-b6c3-4a387398179b", "provider": "bird", "timeStamp": "01/26/2020, 15:58:45"}, "type": "Feature"}, {"geometry": {"coordinates": [8.53533333333333, 47.3664133333333], "type": "Point"}, "properties": {"charge": 65, "id": "bird_2e4f1b9c-336a-4415-a5e5-321d5a70b7ec", "provider": "bird", "timeStamp": "01/26/2020, 15:58:45"}, "type": "Feature"}, {"geometry": {"coordinates": [8.51023833333333, 47.3760183333333], "type": "Point"}, "properties": {"charge": 44, "id": "bird_122dfaf6-554c-424b-931c-fb210a057d0e", "provider": "bird", "timeStamp": "01/26/2020, 15:58:45"}, "type": "Feature"}, {"geometry": {"coordinates": [8.53518166666667, 47.366645], "type": "Point"}, "properties": {"charge": 99, "id": "bird_cd57e3b8-1d3d-4296-b2d0-0a44e3217c1e", "provider": "bird", "timeStamp": "01/26/2020, 15:58:45"}, "type": "Feature"}, {"geometry": {"coordinates": [8.53513333333333, 47.3666616666667], "type": "Point"}, "properties": {"charge": 97, "id": "bird_dfaf3ebb-3693-499e-8761-60bbebe26f10", "provider": "bird", "timeStamp": "01/26/2020, 15:58:45"}, "type": "Feature"}, {"geometry": {"coordinates": [8.52660166666667, 47.3935583333333], "type": "Point"}, "properties": {"charge": 51, "id": "bird_51e8ba30-d0d3-43d5-9180-3009c19338ba", "provider": "bird", "timeStamp": "01/26/2020, 15:58:45"}, "type": "Feature"}, {"geometry": {"coordinates": [8.51634666666667, 47.3698316666667], "type": "Point"}, "properties": {"charge": 26, "id": "bird_8d085237-8bdb-4f83-a8ea-afb3916f28e3", "provider": "bird", "timeStamp": "01/26/2020, 15:58:45"}, "type": "Feature"}, {"geometry": {"coordinates": [8.53625166666667, 47.366955], "type": "Point"}, "properties": {"charge": 99, "id": "bird_c79537cd-17c3-4cf8-9344-30d0b1deda6a", "provider": "bird", "timeStamp": "01/26/2020, 15:58:45"}, "type": "Feature"}, {"geometry": {"coordinates": [8.52175833333333, 47.3674816666667], "type": "Point"}, "properties": {"charge": 10, "id": "bird_592c5878-9fe0-45ee-9367-faa88d4e6ba8", "provider": "bird", "timeStamp": "01/26/2020, 15:58:45"}, "type": "Feature"}, {"geometry": {"coordinates": [8.53944166666667, 47.3678966666667], "type": "Point"}, "properties": {"charge": 98, "id": "bird_fc4761b7-f1c7-4a4c-8500-a42e205fc4f5", "provider": "bird", "timeStamp": "01/26/2020, 15:58:45"}, "type": "Feature"}, {"geometry": {"coordinates": [8.51333666666667, 47.387635], "type": "Point"}, "properties": {"charge": 63, "id": "bird_095d80d4-5bc9-40c4-a682-441e7bd0db8c", "provider": "bird", "timeStamp": "01/26/2020, 15:58:45"}, "type": "Feature"}, {"geometry": {"coordinates": [8.53938333333334, 47.3680083333333], "type": "Point"}, "properties": {"charge": 99, "id": "bird_9ec4fa27-04fb-41c3-bddf-569253d2eaac", "provider": "bird", "timeStamp": "01/26/2020, 15:58:45"}, "type": "Feature"}, {"geometry": {"coordinates": [8.54077, 47.3685983333333], "type": "Point"}, "properties": {"charge": 72, "id": "bird_e08c8f70-868e-4822-8ddc-8fc7502b1039", "provider": "bird", "timeStamp": "01/26/2020, 15:58:45"}, "type": "Feature"}, {"geometry": {"coordinates": [8.53628166666667, 47.3671716666667], "type": "Point"}, "properties": {"charge": 88, "id": "bird_c2a8228c-f440-449d-8301-1ff23be9f43c", "provider": "bird", "timeStamp": "01/26/2020, 15:58:45"}, "type": "Feature"}, {"geometry": {"coordinates": [8.51010333333333, 47.3803133333333], "type": "Point"}, "properties": {"charge": 37, "id": "bird_379d9e96-b03c-4511-8799-3bce6f504a5d", "provider": "bird", "timeStamp": "01/26/2020, 15:58:45"}, "type": "Feature"}, {"geometry": {"coordinates": [8.510145, 47.3802866666667], "type": "Point"}, "properties": {"charge": 46, "id": "bird_e68a08e0-95b7-4966-a838-043e7df1aeb1", "provider": "bird", "timeStamp": "01/26/2020, 15:58:45"}, "type": "Feature"}, {"geometry": {"coordinates": [8.51110166666667, 47.3761716666667], "type": "Point"}, "properties": {"charge": 66, "id": "bird_20d63ca3-54c4-4a25-878d-946d1782cb46", "provider": "bird", "timeStamp": "01/26/2020, 15:58:45"}, "type": "Feature"}, {"geometry": {"coordinates": [8.51311, 47.3868366666667], "type": "Point"}, "properties": {"charge": 24, "id": "bird_f59465e4-e24e-4a2f-865a-bbed57de7f37", "provider": "bird", "timeStamp": "01/26/2020, 15:58:45"}, "type": "Feature"}, {"geometry": {"coordinates": [8.51528333333333, 47.37125], "type": "Point"}, "properties": {"charge": 12, "id": "bird_9a091c59-af0e-42de-94a5-2e2959d6bd25", "provider": "bird", "timeStamp": "01/26/2020, 15:58:45"}, "type": "Feature"}, {"geometry": {"coordinates": [8.53845833333333, 47.3919216666667], "type": "Point"}, "properties": {"charge": 72, "id": "bird_17146b6e-0468-4ecc-8e3e-a38f6162851e", "provider": "bird", "timeStamp": "01/26/2020, 15:58:45"}, "type": "Feature"}, {"geometry": {"coordinates": [8.538835, 47.3682633333333], "type": "Point"}, "properties": {"charge": 11, "id": "bird_12716bb0-e49b-44b6-af3c-34593d18f8e7", "provider": "bird", "timeStamp": "01/26/2020, 15:58:45"}, "type": "Feature"}, {"geometry": {"coordinates": [8.52566666666667, 47.3928383333333], "type": "Point"}, "properties": {"charge": 73, "id": "bird_fb7fdfe0-7888-4c58-bcd6-f1d8838383da", "provider": "bird", "timeStamp": "01/26/2020, 15:58:45"}, "type": "Feature"}, {"geometry": {"coordinates": [8.51118833333333, 47.3767616666667], "type": "Point"}, "properties": {"charge": 70, "id": "bird_ffda98d2-bef9-4e83-a035-1180638234fc", "provider": "bird", "timeStamp": "01/26/2020, 15:58:45"}, "type": "Feature"}, {"geometry": {"coordinates": [8.511115, 47.3771216666667], "type": "Point"}, "properties": {"charge": 43, "id": "bird_7426483b-8221-4a7a-879e-b05050069caa", "provider": "bird", "timeStamp": "01/26/2020, 15:58:45"}, "type": "Feature"}, {"geometry": {"coordinates": [8.54205, 47.3697666666667], "type": "Point"}, "properties": {"charge": 10, "id": "bird_b88778a3-a45e-43dd-a611-1b56ec455b06", "provider": "bird", "timeStamp": "01/26/2020, 15:58:45"}, "type": "Feature"}, {"geometry": {"coordinates": [8.54175333333333, 47.3698383333333], "type": "Point"}, "properties": {"charge": 40, "id": "bird_168be48e-e70a-45a3-a91c-c2aa1079b182", "provider": "bird", "timeStamp": "01/26/2020, 15:58:45"}, "type": "Feature"}, {"geometry": {"coordinates": [8.52452833333333, 47.3923383333333], "type": "Point"}, "properties": {"charge": 36, "id": "bird_97439f27-b28f-4fa2-ad1e-26d1c9f2e0c2", "provider": "bird", "timeStamp": "01/26/2020, 15:58:45"}, "type": "Feature"}, {"geometry": {"coordinates": [8.51134166666667, 47.3780133333333], "type": "Point"}, "properties": {"charge": 67, "id": "bird_204b365c-fb87-48db-87f1-0250258a3889", "provider": "bird", "timeStamp": "01/26/2020, 15:58:45"}, "type": "Feature"}, {"geometry": {"coordinates": [8.52840166666667, 47.3926883333333], "type": "Point"}, "properties": {"charge": 73, "id": "bird_60f47440-929d-4c9c-ab71-ec3fb0ae38e6", "provider": "bird", "timeStamp": "01/26/2020, 15:58:45"}, "type": "Feature"}, {"geometry": {"coordinates": [8.51461833333333, 47.3872416666667], "type": "Point"}, "properties": {"charge": 60, "id": "bird_42afe442-708e-4dc3-8ece-d36e4b6a5268", "provider": "bird", "timeStamp": "01/26/2020, 15:58:45"}, "type": "Feature"},