{"features": [{"geometry": {"coordinates": [8.540062, 47.374392], "type": "Point"}, "properties": {"address": "Uraniastrasse 7", "electric": 5, "id": "pb_60", "manual": 6, "name": "Demo Station Werdm\u00fchleplatz", "provider": "publibike", "timeStamp": "02/05/2020, 17:08:15", "zip": 8001}, "type": "Feature"}, {"geometry": {"coordinates": [8.5452956, 47.4099615], "type": "Point"}, "properties": {"address": "Querstrasse 8", "electric": 0, "id": "pb_61", "manual": 4, "name": "Marktplatz", "provider": "publibike", "timeStamp": "02/05/2020, 17:08:15", "zip": 8050}, "type": "Feature"}, {"geometry": {"coordinates": [8.5156327, 47.3795837], "type": "Point"}, "properties": {"address": "Bullingerstrasse 5", "electric": 3, "id": "pb_80", "manual": 5, "name": "Bullingerplatz", "provider": "publibike", "timeStamp": "02/05/2020, 17:08:15", "zip": 8004}, "type": "Feature"}, {"geometry": {"coordinates": [8.5104051, 47.3899342], "type": "Point"}, "properties": {"address": "Pfingstweidstrasse 96e", "electric": 0, "id": "pb_81", "manual": 6, "name": "Herdern", "provider": "publibike", "timeStamp": "02/05/2020, 17:08:15", "zip": 8001}, "type": "Feature"}, {"geometry": {"coordinates": [8.535718, 47.359675], "type": "Point"}, "properties": {"address": "Mythenquai 50", "electric": 12, "id": "pb_82", "manual": 2, "name": "Hafen Enge", "provider": "publibike", "timeStamp": "02/05/2020, 17:08:15", "zip": 8002}, "type": "Feature"}, {"geometry": {"coordinates": [8.520370505, 47.358663827], "type": "Point"}, "properties": {"address": "Bubenbergstrasse 1", "electric": 2, "id": "pb_83", "manual": 7, "name": "Comerge", "provider": "publibike", "timeStamp": "02/05/2020, 17:08:15", "zip": 8045}, "type": "Feature"}, {"geometry": {"coordinates": [8.5412505, 47.3789825], "type": "Point"}, "properties": {"address": "Museumstrasse 2", "electric": 5, "id": "pb_84", "manual": 17, "name": "Landesmuseum", "provider": "publibike", "timeStamp": "02/05/2020, 17:08:15", "zip": 8001}, "type": "Feature"}, {"geometry": {"coordinates": [8.5235479, 47.3716661], "type": "Point"}, "properties": {"address": "Birmensdorferstrasse 80", "electric": 2, "id": "pb_85", "manual": 0, "name": "Bahnhof Wiedikon", "provider": "publibike", "timeStamp": "02/05/2020, 17:08:15", "zip": 8003}, "type": "Feature"}, {"geometry": {"coordinates": [8.506822854, 47.40781197], "type": "Point"}, "properties": {"address": "Stefano-Franscini-Platz 5", "electric": 0, "id": "pb_86", "manual": 0, "name": "ETH H\u00f6nggerberg", "provider": "publibike", "timeStamp": "02/05/2020, 17:08:15", "zip": 8093}, "type": "Feature"}, {"geometry": {"coordinates": [8.536101, 47.371083], "type": "Point"}, "properties": {"address": "Pelikanplatz 5", "electric": 6, "id": "pb_87", "manual": 11, "name": "Pelikanplatz", "provider": "publibike", "timeStamp": "02/05/2020, 17:08:15", "zip": 8001}, "type": "Feature"}, {"geometry": {"coordinates": [8.5257822, 47.3651936], "type": "Point"}, "properties": {"address": "H\u00fcrlimannplatz 90", "electric": 27, "id": "pb_88", "manual": 9, "name": "H\u00fcrlimannplatz", "provider": "publibike", "timeStamp": "02/05/2020, 17:08:15", "zip": 8002}, "type": "Feature"}, {"geometry": {"coordinates": [8.5313344, 47.3713591], "type": "Point"}, "properties": {"address": "Selnaustrasse 32", "electric": 1, "id": "pb_89", "manual": 9, "name": "Stauffacherbr\u00fccke", "provider": "publibike", "timeStamp": "02/05/2020, 17:08:15", "zip": 8001}, "type": "Feature"}, {"geometry": {"coordinates": [8.5056978, 47.3917964], "type": "Point"}, "properties": {"address": "Sportweg 25", "electric": 1, "id": "pb_90", "manual": 8, "name": "Sportweg", "provider": "publibike", "timeStamp": "02/05/2020, 17:08:15", "zip": 8005}, "type": "Feature"}, {"geometry": {"coordinates": [8.5181701, 47.3917837], "type": "Point"}, "properties": {"address": "Hardturmstrasse 11", "electric": 1, "id": "pb_91", "manual": 4, "name": "Puls 5", "provider": "publibike", "timeStamp": "02/05/2020, 17:08:15", "zip": 8005}, "type": "Feature"}, {"geometry": {"coordinates": [8.5286468, 47.3820827], "type": "Point"}, "properties": {"address": "R\u00f6ntgenstrasse 6", "electric": 1, "id": "pb_92", "manual": 2, "name": "R\u00f6ntgenstrasse", "provider": "publibike", "timeStamp": "02/05/2020, 17:08:15", "zip": 8005}, "type": "Feature"}, {"geometry": {"coordinates": [8.531935, 47.384918], "type": "Point"}, "properties": {"address": "Kornhausbr\u00fccke 1", "electric": 1, "id": "pb_93", "manual": 2, "name": "Limmatplatz", "provider": "publibike", "timeStamp": "02/05/2020, 17:08:15", "zip": 8005}, "type": "Feature"}, {"geometry": {"coordinates": [8.5354006, 47.3758639], "type": "Point"}, "properties": {"address": "Gessnerallee 15", "electric": 5, "id": "pb_94", "manual": 2, "name": "Gessnerallee", "provider": "publibike", "timeStamp": "02/05/2020, 17:08:15", "zip": 8001}, "type": "Feature"}, {"geometry": {"coordinates": [8.523818, 47.377148], "type": "Point"}, "properties": {"address": "Stauffacherstrasse 127", "electric": 2, "id": "pb_95", "manual": 3, "name": "B\u00e4ckeranlage", "provider": "publibike", "timeStamp": "02/05/2020, 17:08:15", "zip": 8004}, "type": "Feature"}, {"geometry": {"coordinates": [8.531836, 47.378548], "type": "Point"}, "properties": {"address": "Lagerstrasse 44", "electric": 5, "id": "pb_96", "manual": 3, "name": "Gustav-Gull-Platz", "provider": "publibike", "timeStamp": "02/05/2020, 17:08:15", "zip": 8004}, "type": "Feature"}, {"geometry": {"coordinates": [8.5104883, 47.3771535], "type": "Point"}, "properties": {"address": "Zurlindenstrasse 291", "electric": 2, "id": "pb_97", "manual": 2, "name": "Zurlindenstrasse", "provider": "publibike", "timeStamp": "02/05/2020, 17:08:15", "zip": 8003}, "type": "Feature"}, {"geometry": {"coordinates": [8.5333139, 47.3731102], "type": "Point"}, "properties": {"address": "Sihlstrasse 81", "electric": 4, "id": "pb_98", "manual": 0, "name": "Sihlstrasse", "provider": "publibike", "timeStamp": "02/05/2020, 17:08:15", "zip": 8001}, "type": "Feature"}, {"geometry": {"coordinates": [8.520532, 47.374951], "type": "Point"}, "properties": {"address": "Feldstrasse 24", "electric": 0, "id": "pb_99", "manual": 7, "name": "Kalkbreite", "provider": "publibike", "timeStamp": "02/05/2020, 17:08:15", "zip": 8004}, "type": "Feature"}, {"geometry": {"coordinates": [8.539046, 47.368064], "type": "Point"}, "properties": {"address": "Talstrasse 12", "electric": 3, "id": "pb_100", "manual": 8, "name": "Z\u00fcrcher Kantonalbank", "provider": "publibike", "timeStamp": "02/05/2020, 17:08:15", "zip": 8001}, "type": "Feature"}, {"geometry": {"coordinates": [8.5348427, 47.3625938], "type": "Point"}, "properties": {"address": "Breitingerstrasse 5", "electric": 2, "id": "pb_101", "manual": 3, "name": "Rentenanstalt", "provider": "publibike", "timeStamp": "02/05/2020, 17:08:15", "zip": 8002}, "type": "Feature"}, {"geometry": {"coordinates": [8.5166922, 47.3897772], "type": "Point"}, "properties": {"address": "Technoparkstrasse 4", "electric": 2, "id": "pb_102", "manual": 6, "name": "Turbinenplatz", "provider": "publibike", "timeStamp": "02/05/2020, 17:08:15", "zip": 8005}, "type": "Feature"}, {"geometry": {"coordinates": [8.539312, 47.3739964], "type": "Point"}, "properties": {"address": "Oetenbachgasse 14", "electric": 3, "id": "pb_104", "manual": 4, "name": "Rennweg", "provider": "publibike", "timeStamp": "02/05/2020, 17:08:15", "zip": 8001}, "type": "Feature"}, {"geometry": {"coordinates": [8.5360685, 47.3775022], "type": "Point"}, "properties": {"address": "Kasernenstrasse 101", "electric": 18, "id": "pb_105", "manual": 17, "name": "Sihlpost", "provider": "publibike", "timeStamp": "02/05/2020, 17:08:15", "zip": 8004}, "type": "Feature"}, {"geometry": {"coordinates": [8.53545, 47.382798], "type": "Point"}, "properties": {"address": "Ausstellungsstrasse 44", "electric": 6, "id": "pb_106", "manual": 4, "name": "Museum f\u00fcr Gestaltung", "provider": "publibike", "timeStamp": "02/05/2020, 17:08:15", "zip": 8005}, "type": "Feature"}, {"geometry": {"coordinates": [8.5306155, 47.3647902], "type": "Point"}, "properties": {"address": "Gutenbergstrasse 1", "electric": 4, "id": "pb_107", "manual": 0, "name": "Bederbr\u00fccke", "provider": "publibike", "timeStamp": "02/05/2020, 17:08:15", "zip": 8002}, "type": "Feature"}, {"geometry": {"coordinates": [8.518982, 47.386741], "type": "Point"}, "properties": {"address": "Geroldstrasse 4", "electric": 2, "id": "pb_108", "manual": 9, "name": "Bahnhof Hardbr\u00fccke", "provider": "publibike", "timeStamp": "02/05/2020, 17:08:15", "zip": 8005}, "type": "Feature"}, {"geometry": {"coordinates": [8.53001018, 47.37247535], "type": "Point"}, "properties": {"address": "Werdstrasse 21", "electric": 7, "id": "pb_109", "manual": 5, "name": "Tamedia", "provider": "publibike", "timeStamp": "02/05/2020, 17:08:15", "zip": 8004}, "type": "Feature"}, {"geometry": {"coordinates": [8.4860017, 47.396401], "type": "Point"}, "properties": {"address": "Gr\u00fcnauring 37", "electric": 6, "id": "pb_110", "manual": 3, "name": "Gr\u00fcnau", "provider": "publibike", "timeStamp": "02/05/2020, 17:08:15", "zip": 8064}, "type": "Feature"}, {"geometry": {"coordinates": [8.548519, 47.376756], "type": "Point"}, "properties": {"address": "R\u00e4mistrasse 101", "electric": 24, "id": "pb_111", "manual": 2, "name": "ETH Zentrum", "provider": "publibike", "timeStamp": "02/05/2020, 17:08:15", "zip": 8006}, "type": "Feature"}, {"geometry": {"coordinates": [8.520449, 47.388151], "type": "Point"}, "properties": {"address": "Josefstrasse 224", "electric": 0, "id": "pb_112", "manual": 6, "name": "Steinfelsareal", "provider": "publibike", "timeStamp": "02/05/2020, 17:08:15", "zip": 8005}, "type": "Feature"}, {"geometry": {"coordinates": [8.520482, 47.37209], "type": "Point"}, "properties": {"address": "Weststrasse 115", "electric": 2, "id": "pb_124", "manual": 0, "name": "Weststrasse", "provider": "publibike", "timeStamp": "02/05/2020, 17:08:15", "zip": 8003}, "type": "Feature"}, {"geometry": {"coordinates": [8.496727, 47.378521], "type": "Point"}, "properties": {"address": "Albisriederstrasse 200", "electric": 5, "id": "pb_125", "manual": 3, "name": "Utogrund", "provider": "publibike", "timeStamp": "02/05/2020, 17:08:15", "zip": 8047}, "type": "Feature"}, {"geometry": {"coordinates": [8.510418, 47.381356], "type": "Point"}, "properties": {"address": "Bullingerstrasse 73", "electric": 0, "id": "pb_126", "manual": 6, "name": "Hardau", "provider": "publibike", "timeStamp": "02/05/2020, 17:08:15", "zip": 8004}, "type": "Feature"}, {"geometry": {"coordinates": [8.525525, 47.361567], "type": "Point"}, "properties": {"address": "Klopstockstrasse 23", "electric": 0, "id": "pb_127", "manual": 3, "name": "Klopstockwiese", "provider": "publibike", "timeStamp": "02/05/2020, 17:08:15", "zip": 8002}, "type": "Feature"}, {"geometry": {"coordinates": [8.518143, 47.363148], "type": "Point"}, "properties": {"address": "Haldenstrasse 8", "electric": 2, "id": "pb_128", "manual": 6, "name": "Binz", "provider": "publibike", "timeStamp": "02/05/2020, 17:08:15", "zip": 8045}, "type": "Feature"}, {"geometry": {"coordinates": [8.542726, 47.379952], "type": "Point"}, "properties": {"address": "Walchestrasse 11", "electric": 0, "id": "pb_129", "manual": 4, "name": "Stampfenbachplatz", "provider": "publibike", "timeStamp": "02/05/2020, 17:08:15", "zip": 8006}, "type": "Feature"}, {"geometry": {"coordinates": [8.488108, 47.391366], "type": "Point"}, "properties": {"address": "Altstetterplatz 1", "electric": 1, "id": "pb_130", "manual": 3, "name": "Bahnhof Altstetten", "provider": "publibike", "timeStamp": "02/05/2020, 17:08:15", "zip": 8048}, "type": "Feature"}, {"geometry": {"coordinates": [8.554114, 47.365119], "type": "Point"}, "properties": {"address": "Kreuzplatz 2", "electric": 3, "id": "pb_131", "manual": 3, "name": "Kreuzplatz", "provider": "publibike", "timeStamp": "02/05/2020, 17:08:15", "zip": 8032}, "type": "Feature"}, {"geometry": {"coordinates": [8.549852, 47.35594], "type": "Point"}, "properties": {"address": "H\u00f6schgasse 3", "electric": 3, "id": "pb_132", "manual": 8, "name": "Blatterwiese", "provider": "publibike", "timeStamp": "02/05/2020, 17:08:15", "zip": 8008}, "type": "Feature"}, {"geometry": {"coordinates": [8.554501, 47.36162], "type": "Point"}, "properties": {"address": "Feldeggstrasse 80", "electric": 3, "id": "pb_133", "manual": 4, "name": "Villa Bleuler", "provider": "publibike", "timeStamp": "02/05/2020, 17:08:15", "zip": 8008}, "type": "Feature"}, {"geometry": {"coordinates": [8.557088, 47.358557], "type": "Point"}, "properties": {"address": "M\u00fchlebachstrasse 131", "electric": 9, "id": "pb_134", "manual": 3, "name": "M\u00fchlebachstrasse", "provider": "publibike", "timeStamp": "02/05/2020, 17:08:15", "zip": 8008}, "type": "Feature"}, {"geometry": {"coordinates": [8.547639, 47.361266], "type": "Point"}, "properties": {"address": "Utoquai 50", "electric": 6, "id": "pb_135", "manual": 8, "name": "Seebad Utoquai", "provider": "publibike", "timeStamp": "02/05/2020, 17:08:15", "zip": 8008}, "type": "Feature"}, {"geometry": {"coordinates": [8.548045, 47.370869], "type": "Point"}, "properties": {"address": "Heimplatz 1", "electric": 9, "id": "pb_137", "manual": 1, "name": "Kunsthaus", "provider": "publibike", "timeStamp": "02/05/2020, 17:08:15", "zip": 8001}, "type": "Feature"}, {"geometry": {"coordinates": [8.543447, 47.375933], "type": "Point"}, "properties": {"address": "Limmatquai 138", "electric": 11, "id": "pb_138", "manual": 3, "name": "Central", "provider": "publibike", "timeStamp": "02/05/2020, 17:08:15", "zip": 8001}, "type": "Feature"}, {"geometry": {"coordinates": [8.549356, 47.408827], "type": "Point"}, "properties": {"address": "Tramstrasse 35", "electric": 3, "id": "pb_139", "manual": 2, "name": "ewz Tramstrasse", "provider": "publibike", "timeStamp": "02/05/2020, 17:08:15", "zip": 8050}, "type": "Feature"}, {"geometry": {"coordinates": [8.533736, 47.366904], "type": "Point"}, "properties": {"address": "Bleicherweg 33", "electric": 1, "id": "pb_140", "manual": 8, "name": "Bleicherweg", "provider": "publibike", "timeStamp": "02/05/2020, 17:08:15", "zip": 8002}, "type": "Feature"}, {"geometry": {"coordinates": [8.544935, 47.366752], "type": "Point"}, "properties": {"address": "Bellevueplatz 2", "electric": 3, "id": "pb_141", "manual": 14, "name": "Bellevue", "provider": "publibike", "timeStamp": "02/05/2020, 17:08:15", "zip": 8001}, "type": "Feature"}, {"geometry": {"coordinates": [8.5285533, 47.3742296], "type": "Point"}, "properties": {"address": "Stauffacherstrasse 41", "electric": 2, "id": "pb_142", "manual": 1, "name": "Stauffacher", "provider": "publibike", "timeStamp": "02/05/2020, 17:08:15", "zip": 8004}, "type": "Feature"}, {"geometry": {"coordinates": [8.523722, 47.3899], "type": "Point"}, "properties": {"address": "Limmatstrasse 310", "electric": 0, "id": "pb_143", "manual": 3, "name": "Escher-Wyss-Platz", "provider": "publibike", "timeStamp": "02/05/2020, 17:08:15", "zip": 8005}, "type": "Feature"}, {"geometry": {"coordinates": [8.491061, 47.392336], "type": "Point"}, "properties": {"address": "Vulkanplatz 1", "electric": 4, "id": "pb_149", "manual": 8, "name": "Vulkanplatz", "provider": "publibike", "timeStamp": "02/05/2020, 17:08:15", "zip": 8048}, "type": "Feature"}, {"geometry": {"coordinates": [8.52306, 47.359872], "type": "Point"}, "properties": {"address": "Giessh\u00fcbelstrasse 15", "electric": 10, "id": "pb_150", "manual": 4, "name": "Utoplatz", "provider": "publibike", "timeStamp": "02/05/2020, 17:08:15", "zip": 8045}, "type": "Feature"}, {"geometry": {"coordinates": [8.486284, 47.387685], "type": "Point"}, "properties": {"address": "Lindenplatz 1", "electric": 2, "id": "pb_151", "manual": 9, "name": "Lindenplatz", "provider": "publibike", "timeStamp": "02/05/2020, 17:08:15", "zip": 8048}, "type": "Feature"}, {"geometry": {"coordinates": [8.49163, 47.389823], "type": "Point"}, "properties": {"address": "Hohlstrasse 563", "electric": 1, "id": "pb_152", "manual": 4, "name": "Luggweg", "provider": "publibike", "timeStamp": "02/05/2020, 17:08:15", "zip": 8048}, "type": "Feature"}, {"geometry": {"coordinates": [8.52174, 47.365272], "type": "Point"}, "properties": {"address": "Manessestrasse 87", "electric": 2, "id": "pb_153", "manual": 0, "name": "Manesseplatz", "provider": "publibike", "timeStamp": "02/05/2020, 17:08:15", "zip": 8045}, "type": "Feature"}, {"geometry": {"coordinates": [8.52714, 47.372329], "type": "Point"}, "properties": {"address": "Werdstrasse 75", "electric": 1, "id": "pb_154", "manual": 2, "name": "Werd", "provider": "publibike", "timeStamp": "02/05/2020, 17:08:15", "zip": 8004}, "type": "Feature"}, {"geometry": {"coordinates": [8.543042, 47.374711], "type": "Point"}, "properties": {"address": "Limmatquai 100", "electric": 0, "id": "pb_155", "manual": 0, "name": "Rudolf-Brun-Br\u00fccke", "provider": "publibike", "timeStamp": "02/05/2020, 17:08:15", "zip": 8001}, "type": "Feature"}, {"geometry": {"coordinates": [8.490837, 47.386596], "type": "Point"}, "properties": {"address": "Badenerstrasse 627", "electric": 1, "id": "pb_156", "manual": 9, "name": "Luggwegstrasse VBZ", "provider": "publibike", "timeStamp": "02/05/2020, 17:08:15", "zip": 8048}, "type": "Feature"}, {"geometry": {"coordinates": [8.535119, 47.355189], "type": "Point"}, "properties": {"address": "Mythenquai 95", "electric": 2, "id": "pb_157", "manual": 4, "name": "Strandbad Mythenquai", "provider": "publibike", "timeStamp": "02/05/2020, 17:08:15", "zip": 8002}, "type": "Feature"}, {"geometry": {"coordinates": [8.545505, 47.373675], "type": "Point"}, "properties": {"address": "Predigerpatz 21", "electric": 7, "id": "pb_158", "manual": 7, "name": "Predigerplatz", "provider": "publibike", "timeStamp": "02/05/2020, 17:08:15", "zip": 8001}, "type": "Feature"}, {"geometry": {"coordinates": [8.515558, 47.371868], "type": "Point"}, "properties": {"address": "Aemtlerstrasse 23", "electric": 6, "id": "pb_159", "manual": 0, "name": "Zwinglihaus", "provider": "publibike", "timeStamp": "02/05/2020, 17:08:15", "zip": 8003}, "type": "Feature"}, {"geometry": {"coordinates": [8.524629, 47.386072], "type": "Point"}, "properties": {"address": "Josefstrasse 188", "electric": 4, "id": "pb_160", "manual": 2, "name": "Josefwiese", "provider": "publibike", "timeStamp": "02/05/2020, 17:08:15", "zip": 8005}, "type": "Feature"}, {"geometry": {"coordinates": [8.527138, 47.387531], "type": "Point"}, "properties": {"address": "R\u00f6ntgenstrasse 87", "electric": 2, "id": "pb_164", "manual": 6, "name": "Markthalle", "provider": "publibike", "timeStamp": "02/05/2020, 17:08:15", "zip": 8005}, "type": "Feature"}, {"geometry": {"coordinates": [8.552717, 47.359978], "type": "Point"}, "properties": {"address": "Seefeldstrasse 96", "electric": 2, "id": "pb_263", "manual": 23, "name": "Feldeggstrasse", "provider": "publibike", "timeStamp": "02/05/2020, 17:08:15", "zip": 8008}, "type": "Feature"}, {"geometry": {"coordinates": [8.553189, 47.353198], "type": "Point"}, "properties": {"address": "Bellerivestrasse 170", "electric": 9, "id": "pb_264", "manual": 0, "name": "Lake Side", "provider": "publibike", "timeStamp": "02/05/2020, 17:08:15", "zip": 8008}, "type": "Feature"}, {"geometry": {"coordinates": [8.543437, 47.369256], "type": "Point"}, "properties": {"address": "Limmatquai 18", "electric": 0, "id": "pb_265", "manual": 0, "name": "Helmhaus", "provider": "publibike", "timeStamp": "02/05/2020, 17:08:15", "zip": 8032}, "type": "Feature"}, {"geometry": {"coordinates": [8.516676, 47.375819], "type": "Point"}, "properties": {"address": "Badenerstrasse 246", "electric": 0, "id": "pb_266", "manual": 3, "name": "Lochergut", "provider": "publibike", "timeStamp": "02/05/2020, 17:08:15", "zip": 8004}, "type": "Feature"}, {"geometry": {"coordinates": [8.514605, 47.389862], "type": "Point"}, "properties": {"address": "Pfingstweidstrasse 60", "electric": 4, "id": "pb_273", "manual": 6, "name": "Westpark", "provider": "publibike", "timeStamp": "02/05/2020, 17:08:15", "zip": 8005}, "type": "Feature"}, {"geometry": {"coordinates": [8.541239126, 47.375991201], "type": "Point"}, "properties": {"address": "Beatenplatz 1", "electric": 3, "id": "pb_274", "manual": 6, "name": "Beatenplatz", "provider": "publibike", "timeStamp": "02/05/2020, 17:08:15", "zip": 8001}, "type": "Feature"}, {"geometry": {"coordinates": [8.5417135, 47.3942197], "type": "Point"}, "properties": {"address": "Scheuchzerstrasse 181", "electric": 9, "id": "pb_275", "manual": 1, "name": "Pauluskirche", "provider": "publibike", "timeStamp": "02/05/2020, 17:08:15", "zip": 8057}, "type": "Feature"}, {"geometry": {"coordinates": [8.5528182, 47.414558], "type": "Point"}, "properties": {"address": "Hagenholzstrasse 51", "electric": 2, "id": "pb_276", "manual": 7, "name": "Airgate", "provider": "publibike", "timeStamp": "02/05/2020, 17:08:15", "zip": 8050}, "type": "Feature"}, {"geometry": {"coordinates": [8.537816, 47.413514], "type": "Point"}, "properties": {"address": "Birchstrasse 183", "electric": 6, "id": "pb_277", "manual": 2, "name": "Lamprechtweg", "provider": "publibike", "timeStamp": "02/05/2020, 17:08:15", "zip": 8050}, "type": "Feature"}, {"geometry": {"coordinates": [8.545602, 47.417701], "type": "Point"}, "properties": {"address": "Felsenrainstrasse 2", "electric": 5, "id": "pb_278", "manual": 4, "name": "Emil-Oberh\u00e4nsli", "provider": "publibike", "timeStamp": "02/05/2020, 17:08:15", "zip": 8050}, "type": "Feature"}, {"geometry": {"coordinates": [8.533647, 47.39808], "type": "Point"}, "properties": {"address": "Bucheggplatz 2", "electric": 1, "id": "pb_279", "manual": 3, "name": "Bucheggplatz", "provider": "publibike", "timeStamp": "02/05/2020, 17:08:15", "zip": 8057}, "type": "Feature"}, {"geometry": {"coordinates": [8.523549, 47.392347], "type": "Point"}, "properties": {"address": "Wipkingerplatz 4", "electric": 0, "id": "pb_280", "manual": 4, "name": "Wipkingerplatz", "provider": "publibike", "timeStamp": "02/05/2020, 17:08:15", "zip": 8037}, "type": "Feature"}, {"geometry": {"coordinates": [8.548562, 47.36691], "type": "Point"}, "properties": {"address": "Galerie \u00fcber Gleis 2/3", "electric": 22, "id": "pb_285", "manual": 3, "name": "Bahnhof Stadelhofen", "provider": "publibike", "timeStamp": "02/05/2020, 17:08:15", "zip": 8001}, "type": "Feature"}, {"geometry": {"coordinates": [8.493822, 47.3985553], "type": "Point"}, "properties": {"address": "Meierwiesenstrasse 12-4", "electric": 4, "id": "pb_286", "manual": 0, "name": "T\u00fcffenwies", "provider": "publibike", "timeStamp": "02/05/2020, 17:08:15", "zip": 8064}, "type": "Feature"}, {"geometry": {"coordinates": [8.552432, 47.3801757], "type": "Point"}, "properties": {"address": "Hochstrasse 34", "electric": 2, "id": "pb_356", "manual": 0, "name": "Siriuswiese", "provider": "publibike", "timeStamp": "02/05/2020, 17:08:15", "zip": 8044}, "type": "Feature"}, {"geometry": {"coordinates": [8.527298, 47.370141], "type": "Point"}, "properties": {"address": "Hallwylstrasse 71", "electric": 0, "id": "pb_357", "manual": 3, "name": "Hallwylstrasse", "provider": "publibike", "timeStamp": "02/05/2020, 17:08:15", "zip": 8004}, "type": "Feature"}, {"geometry": {"coordinates": [8.5414185, 47.3972455], "type": "Point"}, "properties": {"address": "Schaffhauserstrasse 137", "electric": 6, "id": "pb_358", "manual": 0, "name": "Milchbuck", "provider": "publibike", "timeStamp": "02/05/2020, 17:08:15", "zip": 8057}, "type": "Feature"}, {"geometry": {"coordinates": [8.512381, 47.393409], "type": "Point"}, "properties": {"address": "Hardturmstrasse 161", "electric": 2, "id": "pb_359", "manual": 2, "name": "Fischerweg", "provider": "publibike", "timeStamp": "02/05/2020, 17:08:15", "zip": 8005}, "type": "Feature"}, {"geometry": {"coordinates": [8.5421457, 47.3876979], "type": "Point"}, "properties": {"address": "Turnerstrasse 47", "electric": 1, "id": "pb_360", "manual": 3, "name": "Kirche Unterstrass", "provider": "publibike", "timeStamp": "02/05/2020, 17:08:15", "zip": 8006}, "type": "Feature"}, {"geometry": {"coordinates": [8.522117, 47.394554], "type": "Point"}, "properties": {"address": "Dorfstrasse 40", "electric": 9, "id": "pb_361", "manual": 1, "name": "Dorfstrasse", "provider": "publibike", "timeStamp": "02/05/2020, 17:08:15", "zip": 8037}, "type": "Feature"}, {"geometry": {"coordinates": [8.530437, 47.37271], "type": "Point"}, "properties": {"address": "Werdstrasse 25", "electric": 8, "id": "pb_362", "manual": 9, "name": "Stauffachertor", "provider": "publibike", "timeStamp": "02/05/2020, 17:08:15", "zip": 8004}, "type": "Feature"}, {"geometry": {"coordinates": [8.541712, 47.416155], "type": "Point"}, "properties": {"address": "Eggb\u00fchlstrasse 21", "electric": 6, "id": "pb_363", "manual": 2, "name": "Wahlenpark", "provider": "publibike", "timeStamp": "02/05/2020, 17:08:15", "zip": 8050}, "type": "Feature"}, {"geometry": {"coordinates": [8.5595335, 47.3708387], "type": "Point"}, "properties": {"address": "Dolderstrasse 32", "electric": 1, "id": "pb_364", "manual": 3, "name": "Kinderspital", "provider": "publibike", "timeStamp": "02/05/2020, 17:08:15", "zip": 8032}, "type": "Feature"}, {"geometry": {"coordinates": [8.536433, 47.388689], "type": "Point"}, "properties": {"address": "Kornhausstrasse 30", "electric": 2, "id": "pb_365", "manual": 1, "name": "Kornhausstrasse", "provider": "publibike", "timeStamp": "02/05/2020, 17:08:15", "zip": 8006}, "type": "Feature"}, {"geometry": {"coordinates": [8.55033, 47.407098], "type": "Point"}, "properties": {"address": "Schwamendingenstrasse 41", "electric": 1, "id": "pb_366", "manual": 9, "name": "Dorflinde", "provider": "publibike", "timeStamp": "02/05/2020, 17:08:15", "zip": 8050}, "type": "Feature"}, {"geometry": {"coordinates": [8.560476, 47.368199], "type": "Point"}, "properties": {"address": "R\u00f6merhofplatz 5", "electric": 2, "id": "pb_367", "manual": 3, "name": "R\u00f6merhof", "provider": "publibike", "timeStamp": "02/05/2020, 17:08:15", "zip": 8032}, "type": "Feature"}, {"geometry": {"coordinates": [8.5609218, 47.3619068], "type": "Point"}, "properties": {"address": "Forchstrasse 99", "electric": 11, "id": "pb_368", "manual": 0, "name": "Hegibachplatz", "provider": "publibike", "timeStamp": "02/05/2020, 17:08:15", "zip": 8032}, "type": "Feature"}, {"geometry": {"coordinates": [8.5721264, 47.4039985], "type": "Point"}, "properties": {"address": "Winterthurerstrasse 519", "electric": 3, "id": "pb_370", "manual": 3, "name": "Schwamendingerplatz", "provider": "publibike", "timeStamp": "02/05/2020, 17:08:15", "zip": 8051}, "type": "Feature"}, {"geometry": {"coordinates": [8.520168, 47.378556], "type": "Point"}, "properties": {"address": "Herman-Greulich-Strasse 56", "electric": 2, "id": "pb_384", "manual": 8, "name": "Hermann-Greulich-Weg", "provider": "publibike", "timeStamp": "02/05/2020, 17:08:15", "zip": 8004}, "type": "Feature"}, {"geometry": {"coordinates": [8.547912, 47.384923], "type": "Point"}, "properties": {"address": "Culmannstrasse", "electric": 2, "id": "pb_386", "manual": 3, "name": "Rigiplatz", "provider": "publibike", "timeStamp": "02/05/2020, 17:08:15", "zip": 8006}, "type": "Feature"}, {"geometry": {"coordinates": [8.543768, 47.411057], "type": "Point"}, "properties": {"address": "Hofwiesenstrasse 369", "electric": 3, "id": "pb_387", "manual": 3, "name": "Bahnhof Oerlikon S\u00fcd", "provider": "publibike", "timeStamp": "02/05/2020, 17:08:15", "zip": 8050}, "type": "Feature"}, {"geometry": {"coordinates": [8.544185, 47.412732], "type": "Point"}, "properties": {"address": "Jungholzstrasse 6", "electric": 7, "id": "pb_388", "manual": 1, "name": "Max-Frisch-Platz", "provider": "publibike", "timeStamp": "02/05/2020, 17:08:15", "zip": 8050}, "type": "Feature"}, {"geometry": {"coordinates": [8.558096, 47.413032], "type": "Point"}, "properties": {"address": "Andreasstrasse", "electric": 3, "id": "pb_389", "manual": 7, "name": "Hunziker-Areal", "provider": "publibike", "timeStamp": "02/05/2020, 17:08:15", "zip": 8050}, "type": "Feature"}, {"geometry": {"coordinates": [8.533265, 47.412873], "type": "Point"}, "properties": {"address": "Regina-K\u00e4gi-Strasse 1", "electric": 6, "id": "pb_390", "manual": 5, "name": "Luis-H\u00e4fliger-Park", "provider": "publibike", "timeStamp": "02/05/2020, 17:08:15", "zip": 8050}, "type": "Feature"}, {"geometry": {"coordinates": [8.499265, 47.401852], "type": "Point"}, "properties": {"address": "Limmattalstrasse 177", "electric": 5, "id": "pb_391", "manual": 1, "name": "Meierhofplatz", "provider": "publibike", "timeStamp": "02/05/2020, 17:08:15", "zip": 8049}, "type": "Feature"}, {"geometry": {"coordinates": [8.528356, 47.393255], "type": "Point"}, "properties": {"address": "R\u00f6schibachstrasse 73", "electric": 2, "id": "pb_392", "manual": 6, "name": "R\u00f6schibachplatz", "provider": "publibike", "timeStamp": "02/05/2020, 17:08:15", "zip": 8037}, "type": "Feature"}, {"geometry": {"coordinates": [8.538067, 47.415721], "type": "Point"}, "properties": {"address": "Birchstrasse 191", "electric": 4, "id": "pb_393", "manual": 1, "name": "Oerliker Park", "provider": "publibike", "timeStamp": "02/05/2020, 17:08:15", "zip": 8050}, "type": "Feature"}, {"geometry": {"coordinates": [8.5420304, 47.3669233], "type": "Point"}, "properties": {"address": "Stadthausquai 1", "electric": 3, "id": "pb_395", "manual": 3, "name": "B\u00fcrkliplatz", "provider": "publibike", "timeStamp": "02/05/2020, 17:08:15", "zip": 8001}, "type": "Feature"}, {"geometry": {"coordinates": [8.535767, 47.409881], "type": "Point"}, "properties": {"address": "Regensbergstrasse 195", "electric": 2, "id": "pb_396", "manual": 3, "name": "Holunderhof", "provider": "publibike", "timeStamp": "02/05/2020, 17:08:15", "zip": 8050}, "type": "Feature"}, {"geometry": {"coordinates": [8.5116245, 47.3616199], "type": "Point"}, "properties": {"address": "Grubenstrasse 42", "electric": 5, "id": "pb_431", "manual": 0, "name": "Binz Center", "provider": "publibike", "timeStamp": "02/05/2020, 17:08:15", "zip": 8045}, "type": "Feature"}, {"geometry": {"coordinates": [8.547195, 47.382089], "type": "Point"}, "properties": {"address": "Nelkenstrasse 24", "electric": 4, "id": "pb_430", "manual": 1, "name": "Stapferstube", "provider": "publibike", "timeStamp": "02/05/2020, 17:08:15", "zip": 8006}, "type": "Feature"}, {"geometry": {"coordinates": [8.5787183, 47.4039845], "type": "Point"}, "properties": {"address": "Kronwiesenstrasse 35", "electric": 1, "id": "pb_426", "manual": 3, "name": "Kronwiesen", "provider": "publibike", "timeStamp": "02/05/2020, 17:08:15", "zip": 8051}, "type": "Feature"}, {"geometry": {"coordinates": [8.508131, 47.420757], "type": "Point"}, "properties": {"address": "Riedenhaldenstrasse 20-18", "electric": 14, "id": "pb_425", "manual": 0, "name": "Bahnhof Affoltern", "provider": "publibike", "timeStamp": "02/05/2020, 17:08:15", "zip": 8046}, "type": "Feature"}, {"geometry": {"coordinates": [8.532464, 47.406988], "type": "Point"}, "properties": {"address": "K\u00fcnzlistrasse 41", "electric": 4, "id": "pb_424", "manual": 1, "name": "Birchd\u00f6rfli", "provider": "publibike", "timeStamp": "02/05/2020, 17:08:15", "zip": 8057}, "type": "Feature"}, {"geometry": {"coordinates": [8.5777038, 47.4080095], "type": "Point"}, "properties": {"address": "Luegislandstrasse 412", "electric": 6, "id": "pb_429", "manual": 3, "name": "Luegisland", "provider": "publibike", "timeStamp": "02/05/2020, 17:08:15", "zip": 8051}, "type": "Feature"}, {"geometry": {"coordinates": [8.58841, 47.40158], "type": "Point"}, "properties": {"address": "Hirzenbachstrasse 2-4", "electric": 0, "id": "pb_428", "manual": 3, "name": "Hirzenbachstrasse", "provider": "publibike", "timeStamp": "02/05/2020, 17:08:15", "zip": 8051}, "type": "Feature"}, {"geometry": {"coordinates": [8.5563463, 47.4095467], "type": "Point"}, "properties": {"address": "K\u00fchriedweg", "electric": 0, "id": "pb_445", "manual": 3, "name": "Hallenbad Oerlikon", "provider": "publibike", "timeStamp": "02/05/2020, 17:08:15", "zip": 8050}, "type": "Feature"}, {"geometry": {"coordinates": [8.537971, 47.364871], "type": "Point"}, "properties": {"address": "General-Guisan-Quai 17", "electric": 1, "id": "pb_454", "manual": 4, "name": "General-Guisan-Quai", "provider": "publibike", "timeStamp": "02/05/2020, 17:08:15", "zip": 8002}, "type": "Feature"}, {"geometry": {"coordinates": [8.560587, 47.350578], "type": "Point"}, "properties": {"address": "Bellerivestrasse 245", "electric": 11, "id": "pb_450", "manual": 5, "name": "Bahnhof Tiefenbrunnen", "provider": "publibike", "timeStamp": "02/05/2020, 17:08:15", "zip": 8008}, "type": "Feature"}, {"geometry": {"coordinates": [8.5269416, 47.3563719], "type": "Point"}, "properties": {"address": "Waffenplatzstrasse 89", "electric": 1, "id": "pb_452", "manual": 7, "name": "Rieterplatz", "provider": "publibike", "timeStamp": "02/05/2020, 17:08:15", "zip": 8002}, "type": "Feature"}, {"geometry": {"coordinates": [8.514176, 47.3663708], "type": "Point"}, "properties": {"address": "Talwiesenstrasse 92", "electric": 6, "id": "pb_446", "manual": 3, "name": "Binzallee", "provider": "publibike", "timeStamp": "02/05/2020, 17:08:15", "zip": 8055}, "type": "Feature"}, {"geometry": {"coordinates": [8.5070564, 47.371455], "type": "Point"}, "properties": {"address": "Gutstrasse 87", "electric": 5, "id": "pb_447", "manual": 0, "name": "Gutstrasse", "provider": "publibike", "timeStamp": "02/05/2020, 17:08:15", "zip": 8055}, "type": "Feature"}, {"geometry": {"coordinates": [8.4941268, 47.3836391], "type": "Point"}, "properties": {"address": "Flurstrasse 62", "electric": 4, "id": "pb_453", "manual": 9, "name": "Flurpark", "provider": "publibike", "timeStamp": "02/05/2020, 17:08:15", "zip": 8048}, "type": "Feature"}, {"geometry": {"coordinates": [8.500343, 47.380778], "type": "Point"}, "properties": {"address": "Edelweissstrasse 32", "electric": 5, "id": "pb_448", "manual": 1, "name": "Bl\u00fcemliquartier", "provider": "publibike", "timeStamp": "02/05/2020, 17:08:15", "zip": 8048}, "type": "Feature"}, {"geometry": {"coordinates": [8.528796, 47.383858], "type": "Point"}, "properties": {"address": "Gasometerstrasse 24", "electric": 0, "id": "pb_449", "manual": 5, "name": "Gasometerstrasse", "provider": "publibike", "timeStamp": "02/05/2020, 17:08:15", "zip": 8005}, "type": "Feature"}, {"geometry": {"coordinates": [8.4981964, 47.3859194], "type": "Point"}, "properties": {"address": "Baslerstrasse 57", "electric": 10, "id": "pb_455", "manual": 3, "name": "Letzipark", "provider": "publibike", "timeStamp": "02/05/2020, 17:08:15", "zip": 8048}, "type": "Feature"}, {"geometry": {"coordinates": [8.515252, 47.381915], "type": "Point"}, "properties": {"address": "Sihlfeldstrasse 175", "electric": 0, "id": "pb_451", "manual": 1, "name": "Hardplatz", "provider": "publibike", "timeStamp": "02/05/2020, 17:08:15", "zip": 8004}, "type": "Feature"}, {"geometry": {"coordinates": [8.5064743, 47.4188324], "type": "Point"}, "properties": {"address": "Wehntalerstrasse 541", "electric": 5, "id": "pb_427", "manual": 5, "name": "Zehntenhausplatz", "provider": "publibike", "timeStamp": "02/05/2020, 17:08:15", "zip": 8046}, "type": "Feature"}, {"geometry": {"coordinates": [8.537729, 47.379719], "type": "Point"}, "properties": {"address": "Sihlquai/HB", "electric": 7, "id": "pb_513", "manual": 16, "name": "Sihlquai", "provider": "publibike", "timeStamp": "02/05/2020, 17:08:15", "zip": 8005}, "type": "Feature"}, {"geometry": {"coordinates": [8.596202, 47.397885], "type": "Point"}, "properties": {"address": "Bahnhof Stettbach", "electric": 7, "id": "pb_514", "manual": 0, "name": "Bahnhof Stettbach", "provider": "publibike", "timeStamp": "02/05/2020, 17:08:15", "zip": 8051}, "type": "Feature"}, {"geometry": {"coordinates": [8.5543974, 47.3690153], "type": "Point"}, "properties": {"address": "Kasinostrasse 10", "electric": 10, "id": "pb_515", "manual": 2, "name": "Hottingerplatz", "provider": "publibike", "timeStamp": "02/05/2020, 17:08:15", "zip": 8032}, "type": "Feature"}, {"geometry": {"coordinates": [8.534444, 47.351525], "type": "Point"}, "properties": {"address": "Mobile Station Z\u00fcrich 1", "electric": 0, "id": "pb_282", "manual": 0, "name": "Theaterspektakel", "provider": "publibike", "timeStamp": "02/05/2020, 17:08:15", "zip": 8002}, "type": "Feature"}, {"geometry": {"coordinates": [8.516257, 47.367656], "type": "Point"}, "properties": {"address": "Goldbrunnenstrasse 54", "electric": 4, "id": "pb_538", "manual": 1, "name": "Kirche B\u00fchl", "provider": "publibike", "timeStamp": "02/05/2020, 17:08:15", "zip": 8055}, "type": "Feature"}, {"geometry": {"coordinates": [8.555639, 47.416873], "type": "Point"}, "properties": {"address": "Leutschenbachstrasse 50", "electric": 1, "id": "pb_537", "manual": 4, "name": "Leutschenpark", "provider": "publibike", "timeStamp": "02/05/2020, 17:08:15", "zip": 8050}, "type": "Feature"}, {"geometry": {"coordinates": [8.546464, 47.403822], "type": "Point"}, "properties": {"address": "Berninastrasse 45", "electric": 3, "id": "pb_540", "manual": 0, "name": "Berninaplatz", "provider": "publibike", "timeStamp": "02/05/2020, 17:08:15", "zip": 8057}, "type": "Feature"}, {"geometry": {"coordinates": [8.523134, 47.369004], "type": "Point"}, "properties": {"address": "Erlachstrasse 3", "electric": 0, "id": "pb_385", "manual": 1, "name": "Aegerten", "provider": "publibike", "timeStamp": "02/05/2020, 17:08:15", "zip": 8003}, "type": "Feature"}, {"geometry": {"coordinates": [8.49038, 47.381591], "type": "Point"}, "properties": {"address": "Rautistrasse 60", "electric": 9, "id": "pb_536", "manual": 9, "name": "Freilager", "provider": "publibike", "timeStamp": "02/05/2020, 17:08:15", "zip": 8048}, "type": "Feature"}, {"geometry": {"coordinates": [8.496511, 47.375247], "type": "Point"}, "properties": {"address": "Letzigraben 139", "electric": 7, "id": "pb_444", "manual": 0, "name": "Sackzelg", "provider": "publibike", "timeStamp": "02/05/2020, 17:08:15", "zip": 8047}, "type": "Feature"}, {"geometry": {"coordinates": [8.58131, 47.402801], "type": "Point"}, "properties": {"address": "Altwiesenstrasse 104", "electric": 0, "id": "pb_539", "manual": 5, "name": "Glattwiesen", "provider": "publibike", "timeStamp": "02/05/2020, 17:08:15", "zip": 8051}, "type": "Feature"}, {"geometry": {"coordinates": [8.52689, 47.3767], "type": "Point"}, "properties": {"address": "Molkenstrasse 5", "electric": 1, "id": "pb_560", "manual": 8, "name": "Helvetiaplatz", "provider": "publibike", "timeStamp": "02/05/2020, 17:08:15", "zip": 8004}, "type": "Feature"}, {"geometry": {"coordinates": [8.525602, 47.374241], "type": "Point"}, "properties": {"address": "Badenerstrasse 90", "electric": 0, "id": "pb_559", "manual": 0, "name": "Bezirksgeb\u00e4ude", "provider": "publibike", "timeStamp": "02/05/2020, 17:08:15", "zip": 8004}, "type": "Feature"}, {"geometry": {"coordinates": [8.535082, 47.345248], "type": "Point"}, "properties": {"address": "Bachstrasse 15", "electric": 5, "id": "pb_564", "manual": 3, "name": "GZ Wollishofen", "provider": "publibike", "timeStamp": "02/05/2020, 17:08:15", "zip": 8038}, "type": "Feature"}, {"geometry": {"coordinates": [8.514841, 47.370238], "type": "Point"}, "properties": {"address": "Schrennengasse 37", "electric": 1, "id": "pb_562", "manual": 3, "name": "Goldbrunnenplatz", "provider": "publibike", "timeStamp": "02/05/2020, 17:08:15", "zip": 8003}, "type": "Feature"}, {"geometry": {"coordinates": [8.514138, 47.374206], "type": "Point"}, "properties": {"address": "Idaplatz 4", "electric": 1, "id": "pb_557", "manual": 1, "name": "Idaplatz", "provider": "publibike", "timeStamp": "02/05/2020, 17:08:15", "zip": 8003}, "type": "Feature"}, {"geometry": {"coordinates": [8.518432, 47.369549], "type": "Point"}, "properties": {"address": "Brinerstrasse 2", "electric": 4, "id": "pb_558", "manual": 10, "name": "Schmiede Wiedikon", "provider": "publibike", "timeStamp": "02/05/2020, 17:08:15", "zip": 8003}, "type": "Feature"}, {"geometry": {"coordinates": [8.537546, 47.391289], "type": "Point"}, "properties": {"address": "Rotbuchstrasse 15", "electric": 3, "id": "pb_556", "manual": 0, "name": "Schaffhauserplatz", "provider": "publibike", "timeStamp": "02/05/2020, 17:08:15", "zip": 8006}, "type": "Feature"}, {"geometry": {"coordinates": [8.541541, 47.413733], "type": "Point"}, "properties": {"address": "Therese-Giehse-Strasse 11", "electric": 5, "id": "pb_561", "manual": 1, "name": "Center Eleven", "provider": "publibike", "timeStamp": "02/05/2020, 17:08:15", "zip": 8050}, "type": "Feature"}, {"geometry": {"coordinates": [8.534227, 47.360004], "type": "Point"}, "properties": {"address": "Alfred Escher-Strasse 76", "electric": 5, "id": "pb_563", "manual": 11, "name": "Mythenschloss", "provider": "publibike", "timeStamp": "02/05/2020, 17:08:15", "zip": 8002}, "type": "Feature"}, {"geometry": {"coordinates": [8.50373, 47.396172], "type": "Point"}, "properties": {"address": "Hardeggstrasse 6", "electric": 5, "id": "pb_566", "manual": 4, "name": "Am Wasser", "provider": "publibike", "timeStamp": "02/05/2020, 17:08:15", "zip": 8049}, "type": "Feature"}, {"geometry": {"coordinates": [8.532432, 47.381174], "type": "Point"}, "properties": {"address": "Klingenstrasse 9", "electric": 1, "id": "pb_565", "manual": 14, "name": "Zollstrasse", "provider": "publibike", "timeStamp": "02/05/2020, 17:08:15", "zip": 8005}, "type": "Feature"}, {"geometry": {"coordinates": [8.497982, 47.381447], "type": "Point"}, "properties": {"address": "Dennlerstrasse 23", "electric": 8, "id": "pb_567", "manual": 2, "name": "Dennlerstrasse", "provider": "publibike", "timeStamp": "02/05/2020, 17:08:15", "zip": 8047}, "type": "Feature"}, {"geometry": {"coordinates": [8.528049, 47.347701], "type": "Point"}, "properties": {"address": "Mutschellenstrasse 114", "electric": 4, "id": "pb_568", "manual": 4, "name": "Jugendherberge", "provider": "publibike", "timeStamp": "02/05/2020, 17:08:15", "zip": 8038}, "type": "Feature"}, {"geometry": {"coordinates": [8.539016, 47.405751], "type": "Point"}, "properties": {"address": "Ringstrasse 82", "electric": 0, "id": "pb_569", "manual": 3, "name": "Freibad Allenmoos", "provider": "publibike", "timeStamp": "02/05/2020, 17:08:15", "zip": 8057}, "type": "Feature"}, {"geometry": {"coordinates": [8.534974, 47.402164], "type": "Point"}, "properties": {"address": "Brache Guggach", "electric": 3, "id": "pb_572", "manual": 2, "name": "Radiostudio", "provider": "publibike", "timeStamp": "02/05/2020, 17:08:15", "zip": 8057}, "type": "Feature"}, {"geometry": {"coordinates": [8.547901, 47.375556], "type": "Point"}, "properties": {"address": "Karl-Schmid-Strasse 4", "electric": 1, "id": "pb_571", "manual": 2, "name": "ETH/Zoologisches Museum", "provider": "publibike", "timeStamp": "02/05/2020, 17:08:15", "zip": 8006}, "type": "Feature"}, {"geometry": {"coordinates": [8.547323, 47.358706], "type": "Point"}, "properties": {"charge": 45, "id": "smide_2901", "name": "ZH 267278", "provider": "smide", "range": 22.0, "size": 20, "time": "02/05/2020, 17:09:48"}, "type": "Feature"}, {"geometry": {"coordinates": [8.502068, 47.36885], "type": "Point"}, "properties": {"charge": 85, "id": "smide_2895", "name": "ZH 267279", "provider": "smide", "range": 42.0, "size": 20, "time": "02/05/2020, 17:09:48"}, "type": "Feature"}, {"geometry": {"coordinates": [8.546295, 47.398173], "type": "Point"}, "properties": {"charge": 44, "id": "smide_2880", "name": "ZH267289", "provider": "smide", "range": 22.0, "size": 17, "time": "02/05/2020, 17:09:48"}, "type": "Feature"}, {"geometry": {"coordinates": [8.540943, 47.397008], "type": "Point"}, "properties": {"charge": 97, "id": "smide_2874", "name": "ZH 267288", "provider": "smide", "range": 48.0, "size": 17, "time": "02/05/2020, 17:09:48"}, "type": "Feature"}, {"geometry": {"coordinates": [8.524221, 47.391996], "type": "Point"}, "properties": {"charge": 100, "id": "smide_2871", "name": "ZH 267086", "provider": "smide", "range": 50.0, "size": 20, "time": "02/05/2020, 17:09:48"}, "type": "Feature"}, {"geometry": {"coordinates": [8.514628, 47.429605], "type": "Point"}, "properties": {"charge": 62, "id": "smide_2867", "name": "ZH 267090", "provider": "smide", "range": 31.0, "size": 20, "time": "02/05/2020, 17:09:48"}, "type": "Feature"}, {"geometry": {"coordinates": [8.489746, 47.39105], "type": "Point"}, "properties": {"charge": 28, "id": "smide_2861", "name": "ZH 267096", "provider": "smide", "range": 14.0, "size": 17, "time": "02/05/2020, 17:09:48"}, "type": "Feature"}, {"geometry": {"coordinates": [8.57609, 47.350095], "type": "Point"}, "properties": {"charge": 69, "id": "smide_2860", "name": "ZH 267097", "provider": "smide", "range": 34.0, "size": 17, "time": "02/05/2020, 17:09:48"}, "type": "Feature"}, {"geometry": {"coordinates": [8.529208, 47.378873], "type": "Point"}, "properties": {"charge": 40, "id": "smide_2859", "name": "ZH 267098", "provider": "smide", "range": 20.0, "size": 17, "time": "02/05/2020, 17:09:48"}, "type": "Feature"}, {"geometry": {"coordinates": [8.515316, 47.381971], "type": "Point"}, "properties": {"charge": 100, "id": "smide_2856", "name": "ZH 267101", "provider": "smide", "range": 50.0, "size": 17, "time": "02/05/2020, 17:09:48"}, "type": "Feature"}, {"geometry": {"coordinates": [8.530828, 47.38477], "type": "Point"}, "properties": {"charge": 100, "id": "smide_2855", "name": "ZH 267102", "provider": "smide", "range": 50.0, "size": 17, "time": "02/05/2020, 17:09:48"}, "type": "Feature"}, {"geometry": {"coordinates": [8.530341, 47.352145], "type": "Point"}, "properties": {"charge": 73, "id": "smide_2833", "name": "ZH 267182", "provider": "smide", "range": 36.0, "size": 20, "time": "02/05/2020, 17:09:48"}, "type": "Feature"}, {"geometry": {"coordinates": [8.570068, 47.352421], "type": "Point"}, "properties": {"charge": 84, "id": "smide_2831", "name": "ZH 267180", "provider": "smide", "range": 42.0, "size": 20, "time": "02/05/2020, 17:09:48"}, "type": "Feature"}, {"geometry": {"coordinates": [8.570226, 47.351943], "type": "Point"}, "properties": {"charge": 100, "id": "smide_2829", "name": "ZH 267049", "provider": "smide", "range": 50.0, "size": 20, "time": "02/05/2020, 17:09:48"}, "type": "Feature"}, {"geometry": {"coordinates": [8.55365, 47.417101], "type": "Point"}, "properties": {"charge": 100, "id": "smide_2804", "name": "ZH266903", "provider": "smide", "range": 50.0, "size": 20, "time": "02/05/2020, 17:09:48"}, "type": "Feature"}, {"geometry": {"coordinates": [8.53995, 47.37897], "type": "Point"}, "properties": {"charge": 94, "id": "smide_2798", "name": "ZH266888", "provider": "smide", "range": 47.0, "size": 17, "time": "02/05/2020, 17:09:48"}, "type": "Feature"}, {"geometry": {"coordinates": [8.520383, 47.339908], "type": "Point"}, "properties": {"charge": 72, "id": "smide_2793", "name": "ZH266883", "provider": "smide", "range": 36.0, "size": 17, "time": "02/05/2020, 17:09:48"}, "type": "Feature"}, {"geometry": {"coordinates": [8.530245, 47.371385], "type": "Point"}, "properties": {"charge": 72, "id": "smide_2790", "name": "ZH266880", "provider": "smide", "range": 36.0, "size": 17, "time": "02/05/2020, 17:09:48"}, "type": "Feature"}, {"geometry": {"coordinates": [8.508285, 47.393561], "type": "Point"}, "properties": {"charge": 77, "id": "smide_2785", "name": "ZH266875", "provider": "smide", "range": 38.0, "size": 17, "time": "02/05/2020, 17:09:48"}, "type": "Feature"}, {"geometry": {"coordinates": [8.564091, 47.347711], "type": "Point"}, "properties": {"charge": 61, "id": "smide_2781", "name": "ZH 266871", "provider": "smide", "range": 30.0, "size": 17, "time": "02/05/2020, 17:09:48"}, "type": "Feature"}, {"geometry": {"coordinates": [8.549273, 47.372112], "type": "Point"}, "properties": {"charge": 98, "id": "smide_2775", "name": "ZH267283", "provider": "smide", "range": 49.0, "size": 20, "time": "02/05/2020, 17:09:48"}, "type": "Feature"}, {"geometry": {"coordinates": [8.568808, 47.410584], "type": "Point"}, "properties": {"charge": 100, "id": "smide_2773", "name": "ZH266561", "provider": "smide", "range": 50.0, "size": 17, "time": "02/05/2020, 17:09:48"}, "type": "Feature"}, {"geometry": {"coordinates": [8.54012, 47.378932], "type": "Point"}, "properties": {"charge": 100, "id": "smide_2763", "name": "ZH266641", "provider": "smide", "range": 50.0, "size": 17, "time": "02/05/2020, 17:09:48"}, "type": "Feature"}, {"geometry": {"coordinates": [8.492275, 47.402652], "type": "Point"}, "properties": {"charge": 29, "id": "smide_2758", "name": "ZH266638 M", "provider": "smide", "range": 14.0, "size": 17, "time": "02/05/2020, 17:09:48"}, "type": "Feature"}, {"geometry": {"coordinates": [8.517252, 47.366524], "type": "Point"}, "properties": {"charge": 100, "id": "smide_2752", "name": "BE343856", "provider": "smide", "range": 50.0, "size": 17, "time": "02/05/2020, 17:09:48"}, "type": "Feature"}, {"geometry": {"coordinates": [8.531459, 47.369444], "type": "Point"}, "properties": {"charge": 100, "id": "smide_2751", "name": "BE343857", "provider": "smide", "range": 50.0, "size": 17, "time": "02/05/2020, 17:09:48"}, "type": "Feature"}, {"geometry": {"coordinates": [8.544045, 47.379904], "type": "Point"}, "properties": {"charge": 95, "id": "smide_2749", "name": "BE343867", "provider": "smide", "range": 47.0, "size": 17, "time": "02/05/2020, 17:09:48"}, "type": "Feature"}, {"geometry": {"coordinates": [8.475478, 47.385544], "type": "Point"}, "properties": {"charge": 59, "id": "smide_2748", "name": "BE335758", "provider": "smide", "range": 29.0, "size": 17, "time": "02/05/2020, 17:09:48"}, "type": "Feature"}, {"geometry": {"coordinates": [8.56252, 47.383004], "type": "Point"}, "properties": {"charge": 100, "id": "smide_2746", "name": "BE335817", "provider": "smide", "range": 50.0, "size": 17, "time": "02/05/2020, 17:09:48"}, "type": "Feature"}, {"geometry": {"coordinates": [8.518106, 47.36764], "type": "Point"}, "properties": {"charge": 84, "id": "smide_2745", "name": "BE335818", "provider": "smide", "range": 42.0, "size": 17, "time": "02/05/2020, 17:09:48"}, "type": "Feature"}, {"geometry": {"coordinates": [8.519512, 47.3372], "type": "Point"}, "properties": {"charge": 94, "id": "smide_2742", "name": "BE343866", "provider": "smide", "range": 47.0, "size": 17, "time": "02/05/2020, 17:09:48"}, "type": "Feature"}, {"geometry": {"coordinates": [8.536305, 47.403212], "type": "Point"}, "properties": {"charge": 33, "id": "smide_2741", "name": "BE343874", "provider": "smide", "range": 16.0, "size": 17, "time": "02/05/2020, 17:09:48"}, "type": "Feature"}, {"geometry": {"coordinates": [8.514315, 47.357256], "type": "Point"}, "properties": {"charge": 42, "id": "smide_2740", "name": "BE343875", "provider": "smide", "range": 21.0, "size": 17, "time": "02/05/2020, 17:09:48"}, "type": "Feature"}, {"geometry": {"coordinates": [8.518118, 47.398678], "type": "Point"}, "properties": {"charge": 36, "id": "smide_2738", "name": "BE343865", "provider": "smide", "range": 18.0, "size": 17, "time": "02/05/2020, 17:09:48"}, "type": "Feature"}, {"geometry": {"coordinates": [8.545209, 47.367712], "type": "Point"}, "properties": {"charge": 59, "id": "smide_2736", "name": "BE346639", "provider": "smide", "range": 29.0, "size": 17, "time": "02/05/2020, 17:09:48"}, "type": "Feature"}, {"geometry": {"coordinates": [8.514894, 47.390044], "type": "Point"}, "properties": {"charge": 95, "id": "smide_2734", "name": "BE343876", "provider": "smide", "range": 47.0, "size": 17, "time": "02/05/2020, 17:09:48"}, "type": "Feature"}, {"geometry": {"coordinates": [8.527118, 47.354024], "type": "Point"}, "properties": {"charge": 100, "id": "smide_2729", "name": "BE343878", "provider": "smide", "range": 50.0, "size": 17, "time": "02/05/2020, 17:09:48"}, "type": "Feature"}, {"geometry": {"coordinates": [8.511471, 47.409005], "type": "Point"}, "properties": {"charge": 56, "id": "smide_2725", "name": "ZH261545", "provider": "smide", "range": 28.0, "size": 0, "time": "02/05/2020, 17:09:48"}, "type": "Feature"}, {"geometry": {"coordinates": [8.544063, 47.380363], "type": "Point"}, "properties": {"charge": 80, "id": "smide_2718", "name": "ZH259019", "provider": "smide", "range": 40.0, "size": 20, "time": "02/05/2020, 17:09:48"}, "type": "Feature"}, {"geometry": {"coordinates": [8.530193, 47.390243], "type": "Point"}, "properties": {"charge": 64, "id": "smide_2716", "name": "ZH254606", "provider": "smide", "range": 32.0, "size": 17, "time": "02/05/2020, 17:09:48"}, "type": "Feature"}, {"geometry": {"coordinates": [8.537095, 47.402956], "type": "Point"}, "properties": {"charge": 36, "id": "smide_2710", "name": "ZH256460", "provider": "smide", "range": 18.0, "size": 17, "time": "02/05/2020, 17:09:48"}, "type": "Feature"}, {"geometry": {"coordinates": [8.538518, 47.377588], "type": "Point"}, "properties": {"charge": 95, "id": "smide_2712", "name": "ZH256462", "provider": "smide", "range": 47.0, "size": 17, "time": "02/05/2020, 17:09:48"}, "type": "Feature"}, {"geometry": {"coordinates": [8.564692, 47.372836], "type": "Point"}, "properties": {"charge": 65, "id": "smide_2711", "name": "ZH256463", "provider": "smide", "range": 32.0, "size": 17, "time": "02/05/2020, 17:09:48"}, "type": "Feature"}, {"geometry": {"coordinates": [8.564011, 47.348103], "type": "Point"}, "properties": {"charge": 100, "id": "smide_2709", "name": "ZH256466", "provider": "smide", "range": 50.0, "size": 20, "time": "02/05/2020, 17:09:48"}, "type": "Feature"}, {"geometry": {"coordinates": [8.559524, 47.41598], "type": "Point"}, "properties": {"charge": 45, "id": "smide_2707", "name": "ZH256467", "provider": "smide", "range": 22.0, "size": 20, "time": "02/05/2020, 17:09:48"}, "type": "Feature"}, {"geometry": {"coordinates": [8.539615, 47.399752], "type": "Point"}, "properties": {"charge": 64, "id": "smide_2708", "name": "ZH256464", "provider": "smide", "range": 32.0, "size": 17, "time": "02/05/2020, 17:09:48"}, "type": "Feature"}, {"geometry": {"coordinates": [8.518107, 47.391264], "type": "Point"}, "properties": {"charge": 59, "id": "smide_2701", "name": "ZH256468", "provider": "smide", "range": 29.0, "size": 20, "time": "02/05/2020, 17:09:48"}, "type": "Feature"}, {"geometry": {"coordinates": [8.553548, 47.387312], "type": "Point"}, "properties": {"charge": 83, "id": "smide_2699", "name": "ZH254611", "provider": "smide", "range": 41.0, "size": 20, "time": "02/05/2020, 17:09:48"}, "type": "Feature"}, {"geometry": {"coordinates": [8.536635, 47.37182], "type": "Point"}, "properties": {"charge": 75, "id": "smide_2697", "name": "ZH254629", "provider": "smide", "range": 37.0, "size": 20, "time": "02/05/2020, 17:09:48"}, "type": "Feature"}, {"geometry": {"coordinates": [8.556715, 47.420008], "type": "Point"}, "properties": {"charge": 100, "id": "smide_2696", "name": "ZH254616", "provider": "smide", "range": 50.0, "size": 20, "time": "02/05/2020, 17:09:48"}, "type": "Feature"}, {"geometry": {"coordinates": [8.551963, 47.389232], "type": "Point"}, "properties": {"charge": 78, "id": "smide_2694", "name": "ZH254610", "provider": "smide", "range": 39.0, "size": 20, "time": "02/05/2020, 17:09:48"}, "type": "Feature"}, {"geometry": {"coordinates": [8.558511, 47.403878], "type": "Point"}, "properties": {"charge": 100, "id": "smide_2691", "name": "ZH254622", "provider": "smide", "range": 50.0, "size": 20, "time": "02/05/2020, 17:09:48"}, "type": "Feature"}, {"geometry": {"coordinates": [8.529301, 47.342128], "type": "Point"}, "properties": {"charge": 100, "id": "smide_2690", "name": "ZH254625", "provider": "smide", "range": 50.0, "size": 20, "time": "02/05/2020, 17:09:48"}, "type": "Feature"}, {"geometry": {"coordinates": [8.555622, 47.384416], "type": "Point"}, "properties": {"charge": 100, "id": "smide_2689", "name": "ZH254623", "provider": "smide", "range": 50.0, "size": 20, "time": "02/05/2020, 17:09:48"}, "type": "Feature"}, {"geometry": {"coordinates": [8.551841, 47.414632], "type": "Point"}, "properties": {"charge": 100, "id": "smide_2687", "name": "ZH263529", "provider": "smide", "range": 50.0, "size": 20, "time": "02/05/2020, 17:09:48"}, "type": "Feature"}, {"geometry": {"coordinates": [8.531325, 47.36338], "type": "Point"}, "properties": {"charge": 42, "id": "smide_2684", "name": "ZH254626", "provider": "smide", "range": 21.0, "size": 20, "time": "02/05/2020, 17:09:48"}, "type": "Feature"}, {"geometry": {"coordinates": [8.539103, 47.373868], "type": "Point"}, "properties": {"charge": 95, "id": "smide_2680", "name": "ZH254619", "provider": "smide", "range": 47.0, "size": 20, "time": "02/05/2020, 17:09:48"}, "type": "Feature"}, {"geometry": {"coordinates": [8.576412, 47.351268], "type": "Point"}, "properties": {"charge": 66, "id": "smide_2679", "name": "ZH258489", "provider": "smide", "range": 33.0, "size": 17, "time": "02/05/2020, 17:09:48"}, "type": "Feature"}, {"geometry": {"coordinates": [8.531776, 47.367552], "type": "Point"}, "properties": {"charge": 61, "id": "smide_2677", "name": "ZH258487", "provider": "smide", "range": 30.0, "size": 17, "time": "02/05/2020, 17:09:48"}, "type": "Feature"}, {"geometry": {"coordinates": [8.543158, 47.400304], "type": "Point"}, "properties": {"charge": 56, "id": "smide_2674", "name": "ZH258654", "provider": "smide", "range": 28.0, "size": 17, "time": "02/05/2020, 17:09:48"}, "type": "Feature"}, {"geometry": {"coordinates": [8.535603, 47.406056], "type": "Point"}, "properties": {"charge": 100, "id": "smide_2671", "name": "ZH258645", "provider": "smide", "range": 50.0, "size": 17, "time": "02/05/2020, 17:09:48"}, "type": "Feature"}, {"geometry": {"coordinates": [8.540824, 47.396932], "type": "Point"}, "properties": {"charge": 89, "id": "smide_2669", "name": "ZH263294", "provider": "smide", "range": 44.0, "size": 17, "time": "02/05/2020, 17:09:48"}, "type": "Feature"}, {"geometry": {"coordinates": [8.519507, 47.337256], "type": "Point"}, "properties": {"charge": 84, "id": "smide_2666", "name": "ZH258653", "provider": "smide", "range": 42.0, "size": 17, "time": "02/05/2020, 17:09:48"}, "type": "Feature"}, {"geometry": {"coordinates": [8.51174, 47.398608], "type": "Point"}, "properties": {"charge": 100, "id": "smide_2664", "name": "ZH258652", "provider": "smide", "range": 50.0, "size": 17, "time": "02/05/2020, 17:09:48"}, "type": "Feature"}, {"geometry": {"coordinates": [8.568235, 47.367844], "type": "Point"}, "properties": {"charge": 87, "id": "smide_2662", "name": "ZH258643", "provider": "smide", "range": 43.0, "size": 17, "time": "02/05/2020, 17:09:48"}, "type": "Feature"}, {"geometry": {"coordinates": [8.502062, 47.36892], "type": "Point"}, "properties": {"charge": 100, "id": "smide_2660", "name": "ZH258647", "provider": "smide", "range": 50.0, "size": 17, "time": "02/05/2020, 17:09:48"}, "type": "Feature"}, {"geometry": {"coordinates": [8.570591, 47.352215], "type": "Point"}, "properties": {"charge": 100, "id": "smide_2657", "name": "ZH257936", "provider": "smide", "range": 50.0, "size": 17, "time": "02/05/2020, 17:09:48"}, "type": "Feature"}, {"geometry": {"coordinates": [8.54971, 47.396996], "type": "Point"}, "properties": {"charge": 71, "id": "smide_2647", "name": "ZH257932", "provider": "smide", "range": 35.0, "size": 20, "time": "02/05/2020, 17:09:48"}, "type": "Feature"}, {"geometry": {"coordinates": [8.512319, 47.392068], "type": "Point"}, "properties": {"charge": 100, "id": "smide_2645", "name": "ZH257933", "provider": "smide", "range": 50.0, "size": 20, "time": "02/05/2020, 17:09:48"}, "type": "Feature"}, {"geometry": {"coordinates": [8.537593, 47.3685], "type": "Point"}, "properties": {"charge": 100, "id": "smide_3", "name": "ZH253765", "provider": "smide", "range": 50.0, "size": 20, "time": "02/05/2020, 17:09:48"}, "type": "Feature"}, {"geometry": {"coordinates": [8.526108, 47.408556], "type": "Point"}, "properties": {"charge": 60, "id": "smide_105", "name": "ZH253804", "provider": "smide", "range": 30.0, "size": 17, "time": "02/05/2020, 17:09:48"}, "type": "Feature"}, {"geometry": {"coordinates": [8.542075, 47.407628], "type": "Point"}, "properties": {"charge": 84, "id": "smide_186", "name": "ZH253751", "provider": "smide", "range": 42.0, "size": 20, "time": "02/05/2020, 17:09:48"}, "type": "Feature"}, {"geometry": {"coordinates": [8.573899, 47.352752], "type": "Point"}, "properties": {"charge": 73, "id": "smide_173", "name": "ZH258501", "provider": "smide", "range": 36.0, "size": 17, "time": "02/05/2020, 17:09:48"}, "type": "Feature"}, {"geometry": {"coordinates": [8.55927, 47.406036], "type": "Point"}, "properties": {"charge": 73, "id": "smide_77", "name": "ZH261548", "provider": "smide", "range": 36.0, "size": 20, "time": "02/05/2020, 17:09:48"}, "type": "Feature"}, {"geometry": {"coordinates": [8.528736, 47.370256], "type": "Point"}, "properties": {"charge": 100, "id": "smide_200", "name": "ZH253801", "provider": "smide", "range": 50.0, "size": 20, "time": "02/05/2020, 17:09:48"}, "type": "Feature"}, {"geometry": {"coordinates": [8.535708, 47.367903], "type": "Point"}, "properties": {"charge": 78, "id": "smide_197", "name": "ZH253864", "provider": "smide", "range": 39.0, "size": 20, "time": "02/05/2020, 17:09:48"}, "type": "Feature"}, {"geometry": {"coordinates": [8.489485, 47.376464], "type": "Point"}, "properties": {"charge": 64, "id": "smide_199", "name": "ZH253766", "provider": "smide", "range": 32.0, "size": 20, "time": "02/05/2020, 17:09:48"}, "type": "Feature"}, {"geometry": {"coordinates": [8.520956, 47.388364], "type": "Point"}, "properties": {"charge": 100, "id": "smide_8", "name": "ZH253861", "provider": "smide", "range": 50.0, "size": 17, "time": "02/05/2020, 17:09:48"}, "type": "Feature"}, {"geometry": {"coordinates": [8.565211, 47.349271], "type": "Point"}, "properties": {"charge": 100, "id": "smide_45", "name": "ZH253716", "provider": "smide", "range": 50.0, "size": 17, "time": "02/05/2020, 17:09:48"}, "type": "Feature"}, {"geometry": {"coordinates": [8.517678, 47.41432], "type": "Point"}, "properties": {"charge": 51, "id": "smide_101", "name": "ZH253814", "provider": "smide", "range": 25.0, "size": 17, "time": "02/05/2020, 17:09:48"}, "type": "Feature"}, {"geometry": {"coordinates": [8.449982, 47.397784], "type": "Point"}, "properties": {"charge": 46, "id": "smide_9", "name": "ZH253796", "provider": "smide", "range": 23.0, "size": 17, "time": "02/05/2020, 17:09:48"}, "type": "Feature"}, {"geometry": {"coordinates": [8.546667, 47.41268], "type": "Point"}, "properties": {"charge": 49, "id": "smide_143", "name": "ZH253778", "provider": "smide", "range": 24.0, "size": 17, "time": "02/05/2020, 17:09:48"}, "type": "Feature"}, {"geometry": {"coordinates": [8.544601, 47.416511], "type": "Point"}, "properties": {"charge": 85, "id": "smide_180", "name": "ZH253824", "provider": "smide", "range": 42.0, "size": 20, "time": "02/05/2020, 17:09:48"}, "type": "Feature"}, {"geometry": {"coordinates": [8.536785, 47.37304], "type": "Point"}, "properties": {"charge": 76, "id": "smide_50", "name": "ZH253853", "provider": "smide", "range": 38.0, "size": 17, "time": "02/05/2020, 17:09:48"}, "type": "Feature"}, {"geometry": {"coordinates": [8.546096, 47.39784], "type": "Point"}, "properties": {"charge": 44, "id": "smide_30", "name": "ZH253813", "provider": "smide", "range": 22.0, "size": 20, "time": "02/05/2020, 17:09:48"}, "type": "Feature"}, {"geometry": {"coordinates": [8.527245, 47.39721], "type": "Point"}, "properties": {"charge": 45, "id": "smide_10", "name": "ZH253855", "provider": "smide", "range": 22.0, "size": 17, "time": "02/05/2020, 17:09:48"}, "type": "Feature"}, {"geometry": {"coordinates": [8.546748, 47.368264], "type": "Point"}, "properties": {"charge": 100, "id": "smide_84", "name": "ZH253733", "provider": "smide", "range": 50.0, "size": 17, "time": "02/05/2020, 17:09:48"}, "type": "Feature"}, {"geometry": {"coordinates": [8.564615, 47.369292], "type": "Point"}, "properties": {"charge": 65, "id": "smide_165", "name": "ZH253752", "provider": "smide", "range": 32.0, "size": 17, "time": "02/05/2020, 17:09:48"}, "type": "Feature"}, {"geometry": {"coordinates": [8.516567, 47.389984], "type": "Point"}, "properties": {"charge": 29, "id": "smide_35", "name": "ZH253755", "provider": "smide", "range": 14.0, "size": 20, "time": "02/05/2020, 17:09:48"}, "type": "Feature"}, {"geometry": {"coordinates": [8.543596, 47.374376], "type": "Point"}, "properties": {"charge": 86, "id": "smide_76", "name": "ZH253764", "provider": "smide", "range": 43.0, "size": 17, "time": "02/05/2020, 17:09:48"}, "type": "Feature"}, {"geometry": {"coordinates": [8.533951, 47.38484], "type": "Point"}, "properties": {"charge": 21, "id": "smide_129", "name": "ZH261378", "provider": "smide", "range": 10.0, "size": 17, "time": "02/05/2020, 17:09:48"}, "type": "Feature"}, {"geometry": {"coordinates": [8.50168, 47.387175], "type": "Point"}, "properties": {"charge": 62, "id": "smide_49", "name": "ZH253873", "provider": "smide", "range": 31.0, "size": 17, "time": "02/05/2020, 17:09:48"}, "type": "Feature"}, {"geometry": {"coordinates": [8.565261, 47.366318], "type": "Point"}, "properties": {"charge": 97, "id": "smide_191", "name": "ZH253762", "provider": "smide", "range": 48.0, "size": 17, "time": "02/05/2020, 17:09:48"}, "type": "Feature"}, {"geometry": {"coordinates": [8.544882, 47.368384], "type": "Point"}, "properties": {"charge": 100, "id": "smide_56", "name": "ZH261442", "provider": "smide", "range": 50.0, "size": 20, "time": "02/05/2020, 17:09:48"}, "type": "Feature"}, {"geometry": {"coordinates": [8.488498, 47.390715], "type": "Point"}, "properties": {"charge": 49, "id": "smide_47", "name": "ZH253858", "provider": "smide", "range": 24.0, "size": 17, "time": "02/05/2020, 17:09:48"}, "type": "Feature"}, {"geometry": {"coordinates": [8.549047, 47.414132], "type": "Point"}, "properties": {"charge": 100, "id": "smide_23", "name": "ZH253704", "provider": "smide", "range": 50.0, "size": 17, "time": "02/05/2020, 17:09:48"}, "type": "Feature"}, {"geometry": {"coordinates": [8.558475, 47.403868], "type": "Point"}, "properties": {"charge": 90, "id": "smide_66", "name": "ZH253818", "provider": "smide", "range": 45.0, "size": 20, "time": "02/05/2020, 17:09:48"}, "type": "Feature"}, {"geometry": {"coordinates": [8.508225, 47.400658], "type": "Point"}, "properties": {"charge": 67, "id": "smide_17", "name": "ZH253793", "provider": "smide", "range": 33.0, "size": 17, "time": "02/05/2020, 17:09:48"}, "type": "Feature"}, {"geometry": {"coordinates": [8.564055, 47.366308], "type": "Point"}, "properties": {"charge": 52, "id": "smide_127", "name": "ZH253808", "provider": "smide", "range": 26.0, "size": 20, "time": "02/05/2020, 17:09:48"}, "type": "Feature"}, {"geometry": {"coordinates": [8.547135, 47.407836], "type": "Point"}, "properties": {"charge": 57, "id": "smide_145", "name": "ZH253780", "provider": "smide", "range": 28.0, "size": 20, "time": "02/05/2020, 17:09:48"}, "type": "Feature"}, {"geometry": {"coordinates": [8.536707, 47.372664], "type": "Point"}, "properties": {"charge": 99, "id": "smide_203", "name": "ZH261547", "provider": "smide", "range": 49.0, "size": 17, "time": "02/05/2020, 17:09:48"}, "type": "Feature"}, {"geometry": {"coordinates": [8.519908, 47.337168], "type": "Point"}, "properties": {"charge": 100, "id": "smide_21", "name": "ZH253841", "provider": "smide", "range": 50.0, "size": 17, "time": "02/05/2020, 17:09:48"}, "type": "Feature"}, {"geometry": {"coordinates": [8.517614, 47.358704], "type": "Point"}, "properties": {"charge": 76, "id": "smide_164", "name": "ZH253775", "provider": "smide", "range": 38.0, "size": 17, "time": "02/05/2020, 17:09:48"}, "type": "Feature"}, {"geometry": {"coordinates": [8.560796, 47.416812], "type": "Point"}, "properties": {"charge": 99, "id": "smide_189", "name": "ZH253845", "provider": "smide", "range": 49.0, "size": 20, "time": "02/05/2020, 17:09:48"}, "type": "Feature"}, {"geometry": {"coordinates": [8.486364, 47.38716], "type": "Point"}, "properties": {"charge": 37, "id": "smide_81", "name": "ZH253753", "provider": "smide", "range": 18.0, "size": 17, "time": "02/05/2020, 17:09:48"}, "type": "Feature"}, {"geometry": {"coordinates": [8.539935, 47.376844], "type": "Point"}, "properties": {"charge": 33, "id": "smide_171", "name": "ZH253689", "provider": "smide", "range": 16.0, "size": 20, "time": "02/05/2020, 17:09:48"}, "type": "Feature"}, {"geometry": {"coordinates": [8.556833, 47.403944], "type": "Point"}, "properties": {"charge": 70, "id": "smide_93", "name": "ZH253681", "provider": "smide", "range": 35.0, "size": 17, "time": "02/05/2020, 17:09:48"}, "type": "Feature"}, {"geometry": {"coordinates": [8.573282, 47.352248], "type": "Point"}, "properties": {"charge": 75, "id": "smide_67", "name": "ZH253779", "provider": "smide", "range": 37.0, "size": 17, "time": "02/05/2020, 17:09:48"}, "type": "Feature"}, {"geometry": {"coordinates": [8.568666, 47.37344], "type": "Point"}, "properties": {"charge": 100, "id": "smide_133", "name": "ZH253848", "provider": "smide", "range": 50.0, "size": 20, "time": "02/05/2020, 17:09:48"}, "type": "Feature"}, {"geometry": {"coordinates": [8.482628, 47.38565], "type": "Point"}, "properties": {"charge": 83, "id": "smide_118", "name": "ZH253759", "provider": "smide", "range": 41.0, "size": 20, "time": "02/05/2020, 17:09:48"}, "type": "Feature"}, {"geometry": {"coordinates": [8.523248, 47.38524], "type": "Point"}, "properties": {"charge": 50, "id": "smide_142", "name": "ZH258745", "provider": "smide", "range": 25.0, "size": 17, "time": "02/05/2020, 17:09:48"}, "type": "Feature"}, {"geometry": {"coordinates": [8.540316, 47.378683], "type": "Point"}, "properties": {"charge": 98, "id": "smide_166", "name": "ZH253728", "provider": "smide", "range": 49.0, "size": 17, "time": "02/05/2020, 17:09:48"}, "type": "Feature"}, {"geometry": {"coordinates": [8.515585, 47.392772], "type": "Point"}, "properties": {"charge": 75, "id": "smide_126", "name": "ZH268400", "provider": "smide", "range": 37.0, "size": 17, "time": "02/05/2020, 17:09:48"}, "type": "Feature"}, {"geometry": {"coordinates": [8.547293, 47.407841], "type": "Point"}, "properties": {"charge": 63, "id": "smide_98", "name": "ZH256321", "provider": "smide", "range": 31.0, "size": 17, "time": "02/05/2020, 17:09:48"}, "type": "Feature"}, {"geometry": {"coordinates": [8.526611, 47.384992], "type": "Point"}, "properties": {"charge": 100, "id": "smide_154", "name": "ZH253744", "provider": "smide", "range": 50.0, "size": 20, "time": "02/05/2020, 17:09:48"}, "type": "Feature"}, {"geometry": {"coordinates": [8.507676, 47.363312], "type": "Point"}, "properties": {"charge": 53, "id": "smide_7", "name": "ZH256289", "provider": "smide", "range": 26.0, "size": 20, "time": "02/05/2020, 17:09:48"}, "type": "Feature"}, {"geometry": {"coordinates": [8.515051, 47.414592], "type": "Point"}, "properties": {"charge": 53, "id": "smide_92", "name": "ZH253798", "provider": "smide", "range": 26.0, "size": 17, "time": "02/05/2020, 17:09:48"}, "type": "Feature"}, {"geometry": {"coordinates": [8.51428, 47.357176], "type": "Point"}, "properties": {"charge": 70, "id": "smide_65", "name": "ZH253810", "provider": "smide", "range": 35.0, "size": 17, "time": "02/05/2020, 17:09:48"}, "type": "Feature"}, {"geometry": {"coordinates": [8.556481, 47.36562], "type": "Point"}, "properties": {"charge": 27, "id": "smide_111", "name": "ZH253763", "provider": "smide", "range": 13.0, "size": 17, "time": "02/05/2020, 17:09:48"}, "type": "Feature"}, {"geometry": {"coordinates": [8.556245, 47.410604], "type": "Point"}, "properties": {"charge": 100, "id": "smide_40", "name": "ZH253690", "provider": "smide", "range": 50.0, "size": 20, "time": "02/05/2020, 17:09:48"}, "type": "Feature"}, {"geometry": {"coordinates": [8.560495, 47.351736], "type": "Point"}, "properties": {"charge": 63, "id": "smide_1", "name": "ZH253776", "provider": "smide", "range": 31.0, "size": 17, "time": "02/05/2020, 17:09:48"}, "type": "Feature"}, {"geometry": {"coordinates": [8.52009, 47.340123], "type": "Point"}, "properties": {"charge": 59, "id": "smide_14", "name": "ZH253749", "provider": "smide", "range": 29.0, "size": 20, "time": "02/05/2020, 17:09:48"}, "type": "Feature"}, {"geometry": {"coordinates": [8.484664, 47.393932], "type": "Point"}, "properties": {"charge": 61, "id": "smide_130", "name": "ZH253847", "provider": "smide", "range": 30.0, "size": 20, "time": "02/05/2020, 17:09:48"}, "type": "Feature"}, {"geometry": {"coordinates": [8.548752, 47.362484], "type": "Point"}, "properties": {"charge": 69, "id": "smide_24", "name": "ZH253696", "provider": "smide", "range": 34.0, "size": 20, "time": "02/05/2020, 17:09:48"}, "type": "Feature"}, {"geometry": {"coordinates": [8.492818, 47.388516], "type": "Point"}, "properties": {"charge": 51, "id": "smide_107", "name": "ZH253819", "provider": "smide", "range": 25.0, "size": 17, "time": "02/05/2020, 17:09:48"}, "type": "Feature"}, {"geometry": {"coordinates": [8.540586, 47.372916], "type": "Point"}, "properties": {"charge": 55, "id": "smide_136", "name": "ZH253682", "provider": "smide", "range": 27.0, "size": 17, "time": "02/05/2020, 17:09:48"}, "type": "Feature"}, {"geometry": {"coordinates": [8.514114, 47.389232], "type": "Point"}, "properties": {"charge": 50, "id": "smide_83", "name": "ZH253869", "provider": "smide", "range": 25.0, "size": 20, "time": "02/05/2020, 17:09:48"}, "type": "Feature"}, {"geometry": {"coordinates": [8.528717, 47.37028], "type": "Point"}, "properties": {"charge": 79, "id": "smide_193", "name": "ZH253738", "provider": "smide", "range": 39.0, "size": 20, "time": "02/05/2020, 17:09:48"}, "type": "Feature"}, {"geometry": {"coordinates": [8.50767, 47.367571], "type": "Point"}, "properties": {"charge": 62, "id": "smide_73", "name": "ZH261379", "provider": "smide", "range": 31.0, "size": 20, "time": "02/05/2020, 17:09:48"}, "type": "Feature"}, {"geometry": {"coordinates": [8.534223, 47.40452], "type": "Point"}, "properties": {"charge": 87, "id": "smide_100", "name": "ZH253862", "provider": "smide", "range": 43.0, "size": 20, "time": "02/05/2020, 17:09:48"}, "type": "Feature"}, {"geometry": {"coordinates": [8.53383, 47.405438], "type": "Point"}, "properties": {"charge": 69, "id": "smide_134", "name": "ZH253741", "provider": "smide", "range": 34.0, "size": 20, "time": "02/05/2020, 17:09:48"}, "type": "Feature"}, {"geometry": {"coordinates": [8.491456, 47.379973], "type": "Point"}, "properties": {"charge": 46, "id": "smide_141", "name": "ZH253800", "provider": "smide", "range": 23.0, "size": 20, "time": "02/05/2020, 17:09:48"}, "type": "Feature"}, {"geometry": {"coordinates": [8.572855, 47.3516], "type": "Point"}, "properties": {"charge": 75, "id": "smide_16", "name": "ZH253713", "provider": "smide", "range": 37.0, "size": 20, "time": "02/05/2020, 17:09:48"}, "type": "Feature"}, {"geometry": {"coordinates": [8.527167, 47.383932], "type": "Point"}, "properties": {"charge": 20, "id": "smide_74", "name": "ZH253693", "provider": "smide", "range": 10.0, "size": 20, "time": "02/05/2020, 17:09:48"}, "type": "Feature"}, {"geometry": {"coordinates": [8.559038, 47.352376], "type": "Point"}, "properties": {"charge": 20, "id": "smide_33", "name": "ZH253782", "provider": "smide", "range": 10.0, "size": 20, "time": "02/05/2020, 17:09:48"}, "type": "Feature"}, {"geometry": {"coordinates": [8.550577, 47.39258], "type": "Point"}, "properties": {"charge": 100, "id": "smide_161", "name": "ZH253691", "provider": "smide", "range": 50.0, "size": 20, "time": "02/05/2020, 17:09:48"}, "type": "Feature"}, {"geometry": {"coordinates": [8.501798, 47.36992], "type": "Point"}, "properties": {"charge": 100, "id": "smide_183", "name": "ZH253868", "provider": "smide", "range": 50.0, "size": 17, "time": "02/05/2020, 17:09:48"}, "type": "Feature"}, {"geometry": {"coordinates": [8.568406, 47.36764], "type": "Point"}, "properties": {"charge": 97, "id": "smide_42", "name": "ZH253846", "provider": "smide", "range": 48.0, "size": 20, "time": "02/05/2020, 17:09:48"}, "type": "Feature"}, {"geometry": {"coordinates": [8.511252, 47.40902], "type": "Point"}, "properties": {"charge": 100, "id": "smide_4", "name": "ZH253740", "provider": "smide", "range": 50.0, "size": 20, "time": "02/05/2020, 17:09:48"}, "type": "Feature"}, {"geometry": {"coordinates": [8.556717, 47.381584], "type": "Point"}, "properties": {"charge": 55, "id": "smide_160", "name": "ZH253722", "provider": "smide", "range": 27.0, "size": 17, "time": "02/05/2020, 17:09:48"}, "type": "Feature"}, {"geometry": {"coordinates": [8.575263, 47.349031], "type": "Point"}, "properties": {"charge": 79, "id": "smide_137", "name": "ZH258502", "provider": "smide", "range": 39.0, "size": 17, "time": "02/05/2020, 17:09:48"}, "type": "Feature"}, {"geometry": {"coordinates": [8.577362, 47.353164], "type": "Point"}, "properties": {"charge": 90, "id": "smide_178", "name": "ZH253803", "provider": "smide", "range": 45.0, "size": 17, "time": "02/05/2020, 17:09:48"}, "type": "Feature"}, {"geometry": {"coordinates": [8.536831, 47.366105], "type": "Point"}, "properties": {"charge": 99, "id": "smide_55", "name": "ZH253875", "provider": "smide", "range": 49.0, "size": 17, "time": "02/05/2020, 17:09:48"}, "type": "Feature"}, {"geometry": {"coordinates": [8.528805, 47.37854], "type": "Point"}, "properties": {"charge": 44, "id": "smide_96", "name": "ZH256146", "provider": "smide", "range": 22.0, "size": 20, "time": "02/05/2020, 17:09:48"}, "type": "Feature"}, {"geometry": {"coordinates": [8.54884, 47.402296], "type": "Point"}, "properties": {"charge": 72, "id": "smide_58", "name": "ZH259246", "provider": "smide", "range": 36.0, "size": 20, "time": "02/05/2020, 17:09:48"}, "type": "Feature"}, {"geometry": {"coordinates": [8.516734, 47.38992], "type": "Point"}, "properties": {"charge": 31, "id": "smide_54", "name": "ZH253874", "provider": "smide", "range": 15.0, "size": 20, "time": "02/05/2020, 17:09:48"}, "type": "Feature"}, {"geometry": {"coordinates": [8.522801, 47.359708], "type": "Point"}, "properties": {"charge": 60, "id": "smide_175", "name": "ZH253730", "provider": "smide", "range": 30.0, "size": 17, "time": "02/05/2020, 17:09:48"}, "type": "Feature"}, {"geometry": {"coordinates": [8.510764, 47.366928], "type": "Point"}, "properties": {"charge": 67, "id": "smide_95", "name": "ZH253773", "provider": "smide", "range": 33.0, "size": 17, "time": "02/05/2020, 17:09:48"}, "type": "Feature"}, {"geometry": {"coordinates": [8.516138, 47.385588], "type": "Point"}, "properties": {"charge": 80, "id": "smide_163", "name": "ZH256147", "provider": "smide", "range": 40.0, "size": 20, "time": "02/05/2020, 17:09:48"}, "type": "Feature"}, {"geometry": {"coordinates": [8.502038, 47.368984], "type": "Point"}, "properties": {"charge": 91, "id": "smide_122", "name": "ZH253850", "provider": "smide", "range": 45.0, "size": 20, "time": "02/05/2020, 17:09:48"}, "type": "Feature"}, {"geometry": {"coordinates": [8.510895, 47.366596], "type": "Point"}, "properties": {"charge": 100, "id": "smide_38", "name": "ZH253851", "provider": "smide", "range": 50.0, "size": 20, "time": "02/05/2020, 17:09:48"}, "type": "Feature"}, {"geometry": {"coordinates": [8.557747, 47.404384], "type": "Point"}, "properties": {"charge": 77, "id": "smide_6", "name": "ZH253787", "provider": "smide", "range": 38.0, "size": 17, "time": "02/05/2020, 17:09:48"}, "type": "Feature"}, {"geometry": {"coordinates": [8.556886, 47.403832], "type": "Point"}, "properties": {"charge": 59, "id": "smide_18", "name": "ZH253859", "provider": "smide", "range": 29.0, "size": 17, "time": "02/05/2020, 17:09:48"}, "type": "Feature"}, {"geometry": {"coordinates": [8.49942, 47.402304], "type": "Point"}, "properties": {"charge": 42, "id": "smide_12", "name": "ZH253685", "provider": "smide", "range": 21.0, "size": 17, "time": "02/05/2020, 17:09:48"}, "type": "Feature"}, {"geometry": {"coordinates": [8.576237, 47.348836], "type": "Point"}, "properties": {"charge": 89, "id": "smide_192", "name": "ZH253706", "provider": "smide", "range": 44.0, "size": 20, "time": "02/05/2020, 17:09:48"}, "type": "Feature"}, {"geometry": {"coordinates": [8.540043, 47.378813], "type": "Point"}, "properties": {"charge": 100, "id": "smide_5", "name": "ZH261443", "provider": "smide", "range": 50.0, "size": 20, "time": "02/05/2020, 17:09:48"}, "type": "Feature"}, {"geometry": {"coordinates": [8.541901, 47.400143], "type": "Point"}, "properties": {"charge": 77, "id": "smide_85", "name": "ZH253729", "provider": "smide", "range": 38.0, "size": 17, "time": "02/05/2020, 17:09:48"}, "type": "Feature"}, {"geometry": {"coordinates": [8.543275, 47.372804], "type": "Point"}, "properties": {"charge": 71, "id": "smide_48", "name": "ZH253849", "provider": "smide", "range": 35.0, "size": 20, "time": "02/05/2020, 17:09:48"}, "type": "Feature"}, {"geometry": {"coordinates": [8.52928166666667, 47.393425], "type": "Point"}, "properties": {"charge": 100, "id": "bird_9bd6d937-bbe0-436d-93d4-ec934b18909e", "provider": "bird", "timeStamp": "02/05/2020, 17:09:47"}, "type": "Feature"}, {"geometry": {"coordinates": [8.54895, 47.3760416666667], "type": "Point"}, "properties": {"charge": 100, "id": "bird_3bc79a6d-4284-4064-a077-2cccb1581ca3", "provider": "bird", "timeStamp": "02/05/2020, 17:09:47"}, "type": "Feature"}, {"geometry": {"coordinates": [8.54902666666667, 47.3762283333333], "type": "Point"}, "properties": {"charge": 100, "id": "bird_354f2b3c-6e77-4416-adb6-fff950cd7f9b", "provider": "bird", "timeStamp": "02/05/2020, 17:09:47"}, "type": "Feature"}, {"geometry": {"coordinates": [8.52927833333333, 47.3934133333333], "type": "Point"}, "properties": {"charge": 100, "id": "bird_82000852-c51d-4c54-b739-c3be57811dba", "provider": "bird", "timeStamp": "02/05/2020, 17:09:47"}, "type": "Feature"}, {"geometry": {"coordinates": [8.54897166666667, 47.3761783333333], "type": "Point"}, "properties": {"charge": 100, "id": "bird_74f0c708-5b7b-457b-9385-4c8b010ddb01", "provider": "bird", "timeStamp": "02/05/2020, 17:09:47"}, "type": "Feature"}, {"geometry": {"coordinates": [8.53842666666667, 47.39206], "type": "Point"}, "properties": {"charge": 100, "id": "bird_9c5ca6ce-5ca5-4ee0-b280-b307cca13610", "provider": "bird", "timeStamp": "02/05/2020, 17:09:47"}, "type": "Feature"}, {"geometry": {"coordinates": [8.54887166666667, 47.3762166666667], "type": "Point"}, "properties": {"charge": 100, "id": "bird_f7e6c4e9-ffff-4de1-b67b-348f1cdb2b77", "provider": "bird", "timeStamp": "02/05/2020, 17:09:47"}, "type": "Feature"}, {"geometry": {"coordinates": [8.5292, 47.39331], "type": "Point"}, "properties": {"charge": 100, "id": "bird_614913f2-4ff4-4022-aff3-32be0e17ecb9", "provider": "bird", "timeStamp": "02/05/2020, 17:09:47"}, "type": "Feature"}, {"geometry": {"coordinates": [8.53836166666667, 47.392055], "type": "Point"}, "properties": {"charge": 100, "id": "bird_d07ae52e-12af-408e-9874-a67d095b52b5", "provider": "bird", "timeStamp": "02/05/2020, 17:09:47"}, "type": "Feature"}, {"geometry": {"coordinates": [8.54881166666667, 47.3761666666667], "type": "Point"}, "properties": {"charge": 100, "id": "bird_bd5c8eab-530a-4b89-bd52-4f62d8ba996b", "provider": "bird", "timeStamp": "02/05/2020, 17:09:47"}, "type": "Feature"}, {"geometry": {"coordinates": [8.529155, 47.3932883333333], "type": "Point"}, "properties": {"charge": 100, "id": "bird_d0a536ab-3d16-42b4-a251-3208f8a8372e", "provider": "bird", "timeStamp": "02/05/2020, 17:09:47"}, "type": "Feature"}, {"geometry": {"coordinates": [8.51053333333333, 47.3782883333333], "type": "Point"}, "properties": {"charge": 100, "id": "bird_82323ab9-7a38-472c-8b95-2bf4ae1672dc", "provider": "bird", "timeStamp": "02/05/2020, 17:09:47"}, "type": "Feature"}, {"geometry": {"coordinates": [8.536035, 47.3673516666667], "type": "Point"}, "properties": {"charge": 33, "id": "bird_8c45bf8f-07c6-4856-b1f6-d601d471ce20", "provider": "bird", "timeStamp": "02/05/2020, 17:09:47"}, "type": "Feature"}, {"geometry": {"coordinates": [8.51104333333333, 47.37674], "type": "Point"}, "properties": {"charge": 56, "id": "bird_e2d3f875-1562-4b1b-82a9-7585bef9833d", "provider": "bird", "timeStamp": "02/05/2020, 17:09:47"}, "type": "Feature"}, {"geometry": {"coordinates": [8.51060666666667, 47.3783], "type": "Point"}, "properties": {"charge": 98, "id": "bird_6a612bed-2aa5-438b-a03e-e49192648312", "provider": "bird", "timeStamp": "02/05/2020, 17:09:47"}, "type": "Feature"}, {"geometry": {"coordinates": [8.54051333333333, 47.3911583333333], "type": "Point"}, "properties": {"charge": 26, "id": "bird_f5aa290b-2cbc-40a6-8f4a-fb65dcadd271", "provider": "bird", "timeStamp": "02/05/2020, 17:09:47"}, "type": "Feature"}, {"geometry": {"coordinates": [8.51299, 47.373645], "type": "Point"}, "properties": {"charge": 33, "id": "bird_f9c7de13-cf8b-48ac-8e67-d7046d913153", "provider": "bird", "timeStamp": "02/05/2020, 17:09:47"}, "type": "Feature"}, {"geometry": {"coordinates": [8.53153166666667, 47.3668983333333], "type": "Point"}, "properties": {"charge": 89, "id": "bird_af05c5bd-cd12-4a8c-8bf2-08bc7b2b5d73", "provider": "bird", "timeStamp": "02/05/2020, 17:09:47"}, "type": "Feature"}, {"geometry": {"coordinates": [8.523745, 47.392265], "type": "Point"}, "properties": {"charge": 26, "id": "bird_21b5fa41-2b13-4bcc-81d1-895637af243a", "provider": "bird", "timeStamp": "02/05/2020, 17:09:47"}, "type": "Feature"}, {"geometry": {"coordinates": [8.545755, 47.3726583333333], "type": "Point"}, "properties": {"charge": 26, "id": "bird_b2fd602d-243f-48e5-8f21-16bebe89c0bc", "provider": "bird", "timeStamp": "02/05/2020, 17:09:47"}, "type": "Feature"}, {"geometry": {"coordinates": [8.51113333333333, 47.37788], "type": "Point"}, "properties": {"charge": 18, "id": "bird_f15d7e1b-baa6-4c51-b4cc-55193ea1abbd", "provider": "bird", "timeStamp": "02/05/2020, 17:09:47"}, "type": "Feature"}, {"geometry": {"coordinates": [8.51390833333333, 47.38699], "type": "Point"}, "properties": {"charge": 90, "id": "bird_152596cb-e802-4598-8af5-5dc7db0215f2", "provider": "bird", "timeStamp": "02/05/2020, 17:09:47"}, "type": "Feature"}, {"geometry": {"coordinates": [8.54449333333333, 47.3717233333333], "type": "Point"}, "properties": {"charge": 37, "id": "bird_bd693085-e45b-4865-a70b-41371c952e23", "provider": "bird", "timeStamp": "02/05/2020, 17:09:47"}, "type": "Feature"}, {"geometry": {"coordinates": [8.54691, 47.3857766666667], "type": "Point"}, "properties": {"charge": 35, "id": "bird_20075318-0504-4d8c-8521-80cb08be83e3", "provider": "bird", "timeStamp": "02/05/2020, 17:09:47"}, "type": "Feature"}, {"geometry": {"coordinates": [8.525545, 47.3924516666667], "type": "Point"}, "properties": {"charge": 35, "id": "bird_1b988910-e478-4678-b5bf-5c5eda0e5b91", "provider": "bird", "timeStamp": "02/05/2020, 17:09:47"}, "type": "Feature"}, {"geometry": {"coordinates": [8.52563333333333, 47.39236], "type": "Point"}, "properties": {"charge": 35, "id": "bird_35f271b5-9608-44d5-96a5-d9bdcbdcc1e9", "provider": "bird", "timeStamp": "02/05/2020, 17:09:47"}, "type": "Feature"}, {"geometry": {"coordinates": [8.51463166666667, 47.3871883333333], "type": "Point"}, "properties": {"charge": 67, "id": "bird_31be4000-cfa4-4ff8-ad4b-8f19d3d25282", "provider": "bird", "timeStamp": "02/05/2020, 17:09:47"}, "type": "Feature"}, {"geometry": {"coordinates": [8.52790833333333, 47.3923383333333], "type": "Point"}, "properties": {"charge": 72, "id": "bird_af60b997-4467-4603-9e04-90c2e1116714", "provider": "bird", "timeStamp": "02/05/2020, 17:09:47"}, "type": "Feature"}, {"geometry": {"coordinates": [8.54785, 47.38176], "type": "Point"}, "properties": {"charge": 26, "id": "bird_c3fa7d97-ae07-48b1-b805-4c327c730ba0", "provider": "bird", "timeStamp": "02/05/2020, 17:09:47"}, "type": "Feature"}, {"geometry": {"coordinates": [8.54566333333333, 47.38596], "type": "Point"}, "properties": {"charge": 21, "id": "bird_52cb61bc-6286-4424-9c7a-e7210c70c505", "provider": "bird", "timeStamp": "02/05/2020, 17:09:47"}, "type": "Feature"}, {"geometry": {"coordinates": [8.54389166666667, 47.37239], "type": "Point"}, "properties": {"charge": 10, "id": "bird_e4b5dc6b-3c50-4d91-90b8-c9b398fbb374", "provider": "bird", "timeStamp": "02/05/2020, 17:09:47"}, "type": "Feature"}, {"geometry": {"coordinates": [8.53842, 47.3693283333333], "type": "Point"}, "properties": {"charge": 89, "id": "bird_c893fde1-3d2d-4841-83a0-64d09c16398d", "provider": "bird", "timeStamp": "02/05/2020, 17:09:47"}, "type": "Feature"}, {"geometry": {"coordinates": [8.51488833333333, 47.3736766666667], "type": "Point"}, "properties": {"charge": 88, "id": "bird_fe6eebd9-6d36-4afe-bb1a-22035be46662", "provider": "bird", "timeStamp": "02/05/2020, 17:09:47"}, "type": "Feature"}, {"geometry": {"coordinates": [8.51509666666667, 47.3735283333333], "type": "Point"}, "properties": {"charge": 99, "id": "bird_19eac986-8d7c-457a-893f-c4872f1dc18c", "provider": "bird", "timeStamp": "02/05/2020, 17:09:47"}, "type": "Feature"}, {"geometry": {"coordinates": [8.54703833333333, 47.376835], "type": "Point"}, "properties": {"charge": 33, "id": "bird_26934ae3-6e31-4d93-9a26-098f05f7c8c0", "provider": "bird", "timeStamp": "02/05/2020, 17:09:47"}, "type": "Feature"}, {"geometry": {"coordinates": [8.53840833333333, 47.3695266666667], "type": "Point"}, "properties": {"charge": 89, "id": "bird_78bc23ba-0c9d-4f9e-b0d3-a7c877f4ae57", "provider": "bird", "timeStamp": "02/05/2020, 17:09:47"}, "type": "Feature"}, {"geometry": {"coordinates": [8.51482166666667, 47.374015], "type": "Point"}, "properties": {"charge": 53, "id": "bird_20a29c23-57f7-4a0c-9ba7-7fedddcfb1f1", "provider": "bird", "timeStamp": "02/05/2020, 17:09:47"}, "type": "Feature"}, {"geometry": {"coordinates": [8.54509333333333, 47.3859483333333], "type": "Point"}, "properties": {"charge": 58, "id": "bird_4baf6432-87b3-4063-9972-ff4cf7ff82bf", "provider": "bird", "timeStamp": "02/05/2020, 17:09:47"}, "type": "Feature"}, {"geometry": {"coordinates": [8.545045, 47.3740533333333], "type": "Point"}, "properties": {"charge": 33, "id": "bird_1b295b62-cd10-454e-aea0-ef72c6893a27", "provider": "bird", "timeStamp": "02/05/2020, 17:09:47"}, "type": "Feature"}, {"geometry": {"coordinates": [8.53975166666667, 47.3897216666667], "type": "Point"}, "properties": {"charge": 71, "id": "bird_baaa8d5b-45d4-4046-94b5-9d068ea65049", "provider": "bird", "timeStamp": "02/05/2020, 17:09:47"}, "type": "Feature"}, {"geometry": {"coordinates": [8.538205, 47.36969], "type": "Point"}, "properties": {"charge": 44, "id": "bird_4c7fb1bf-1c70-47ea-9622-fc8fe1056d4a", "provider": "bird", "timeStamp": "02/05/2020, 17:09:47"}, "type": "Feature"}, {"geometry": {"coordinates": [8.53834833333333, 47.3697433333333], "type": "Point"}, "properties": {"charge": 19, "id": "bird_deced5f0-1596-4b1b-ae70-1192febee735", "provider": "bird", "timeStamp": "02/05/2020, 17:09:47"}, "type": "Feature"}, {"geometry": {"coordinates": [8.54035333333333, 47.370685], "type": "Point"}, "properties": {"charge": 47, "id": "bird_a62967f5-6666-4ec5-aa95-806e0fefb226", "provider": "bird", "timeStamp": "02/05/2020, 17:09:47"}, "type": "Feature"}, {"geometry": {"coordinates": [8.5417, 47.3715516666667], "type": "Point"}, "properties": {"charge": 51, "id": "bird_c518a074-17da-45dc-af20-4ecd40dfd944", "provider": "bird", "timeStamp": "02/05/2020, 17:09:47"}, "type": "Feature"}, {"geometry": {"coordinates": [8.54456666666667, 47.374115], "type": "Point"}, "properties": {"charge": 15, "id": "bird_f362a016-919d-4032-9531-4c9b57d60f25", "provider": "bird", "timeStamp": "02/05/2020, 17:09:47"}, "type": "Feature"}, {"geometry": {"coordinates": [8.543855, 47.3733866666667], "type": "Point"}, "properties": {"charge": 76, "id": "bird_f5f31a25-33b4-4cfc-a581-4e4e558d7ad1", "provider": "bird", "timeStamp": "02/05/2020, 17:09:47"}, "type": "Feature"}, {"geometry": {"coordinates": [8.53776333333333, 47.390175], "type": "Point"}, "properties": {"charge": 29, "id": "bird_b5b241c9-c697-44e0-a4b6-334146d679e6", "provider": "bird", "timeStamp": "02/05/2020, 17:09:47"}, "type": "Feature"}, {"geometry": {"coordinates": [8.54461333333333, 47.3742783333333], "type": "Point"}, "properties": {"charge": 28, "id": "bird_f477297e-41ff-4879-a475-f09c2884abe3", "provider": "bird", "timeStamp": "02/05/2020, 17:09:47"}, "type": "Feature"}, {"geometry": {"coordinates": [8.52221333333333, 47.3901183333333], "type": "Point"}, "properties": {"charge": 100, "id": "bird_25564b21-300d-4ff3-b95b-4d626f13984b", "provider": "bird", "timeStamp": "02/05/2020, 17:09:47"}, "type": "Feature"}, {"geometry": {"coordinates": [8.54503333333333, 47.3751], "type": "Point"}, "properties": {"charge": 24, "id": "bird_e3a2a339-92bd-4493-830b-9aabcae9ef00", "provider": "bird", "timeStamp": "02/05/2020, 17:09:47"}, "type": "Feature"}, {"geometry": {"coordinates": [8.51356666666667, 47.37807], "type": "Point"}, "properties": {"charge": 69, "id": "bird_24c213e3-ad57-4f00-81c1-dfef87310739", "provider": "bird", "timeStamp": "02/05/2020, 17:09:47"}, "type": "Feature"}, {"geometry": {"coordinates": [8.52203666666667, 47.3899233333333], "type": "Point"}, "properties": {"charge": 100, "id": "bird_947ad3de-a495-4054-8dee-b25edad91633", "provider": "bird", "timeStamp": "02/05/2020, 17:09:47"}, "type": "Feature"}, {"geometry": {"coordinates": [8.53750666666667, 47.3699183333333], "type": "Point"}, "properties": {"charge": 83, "id": "bird_4f0ec214-a3e0-4e5e-bef1-823936579c8d", "provider": "bird", "timeStamp": "02/05/2020, 17:09:47"}, "type": "Feature"}, {"geometry": {"coordinates": [8.52185166666667, 47.38985], "type": "Point"}, "properties": {"charge": 100, "id": "bird_9bb01c7d-559e-4e09-9205-7e74cfb855aa", "provider": "bird", "timeStamp": "02/05/2020, 17:09:47"}, "type": "Feature"}, {"geometry": {"coordinates": [8.52198833333333, 47.3899], "type": "Point"}, "properties": {"charge": 100, "id": "bird_09c16c8d-2bc3-49de-bd2a-20a2ca686e6f", "provider": "bird", "timeStamp": "02/05/2020, 17:09:47"}, "type": "Feature"}, {"geometry": {"coordinates": [8.51905833333333, 47.3715016666667], "type": "Point"}, "properties": {"charge": 78, "id": "bird_4f38d25a-4391-4993-9319-078d071cc0a1", "provider": "bird", "timeStamp": "02/05/2020, 17:09:47"}, "type": "Feature"}, {"geometry": {"coordinates": [8.52222666666667, 47.389965], "type": "Point"}, "properties": {"charge": 100, "id": "bird_bf749641-f8d8-43be-9d51-f45be4b50b0d", "provider": "bird", "timeStamp": "02/05/2020, 17:09:47"}, "type": "Feature"}, {"geometry": {"coordinates": [8.543575, 47.3735166666667], "type": "Point"}, "properties": {"charge": 61, "id": "bird_dc356a09-b353-42e1-a0ea-3e5acd00719c", "provider": "bird", "timeStamp": "02/05/2020, 17:09:47"}, "type": "Feature"}, {"geometry": {"coordinates": [8.522025, 47.3898616666667], "type": "Point"}, "properties": {"charge": 100, "id": "bird_7e892bd2-9844-44f4-9246-a22cbc938ae8", "provider": "bird", "timeStamp": "02/05/2020, 17:09:47"}, "type": "Feature"}, {"geometry": {"coordinates": [8.52191, 47.389805], "type": "Point"}, "properties": {"charge": 100, "id": "bird_18b26021-b810-499c-a862-ee38369bfcfb", "provider": "bird", "timeStamp": "02/05/2020, 17:09:47"}, "type": "Feature"}, {"geometry": {"coordinates": [8.52185166666667, 47.3897516666667], "type": "Point"}, "properties": {"charge": 100, "id": "bird_4bb3b6c8-d7a6-4111-8db6-9715248b8807", "provider": "bird", "timeStamp": "02/05/2020, 17:09:47"}, "type": "Feature"}, {"geometry": {"coordinates": [8.52176666666667, 47.38966], "type": "Point"}, "properties": {"charge": 100, "id": "bird_7fb5bb07-aa53-499d-ad8b-9384b8078211", "provider": "bird", "timeStamp": "02/05/2020, 17:09:47"}, "type": "Feature"}, {"geometry": {"coordinates": [8.53755166666667, 47.37009], "type": "Point"}, "properties": {"charge": 20, "id": "bird_e0723e21-cc37-4008-b67c-a2f580fe0453", "provider": "bird", "timeStamp": "02/05/2020, 17:09:47"}, "type": "Feature"}, {"geometry": {"coordinates": [8.53681166666667, 47.3698916666667], "type": "Point"}, "properties": {"charge": 40, "id": "bird_76e6134a-e000-432a-8430-d2eca8f4fee0", "provider": "bird", "timeStamp": "02/05/2020, 17:09:47"}, "type": "Feature"}, {"geometry": {"coordinates": [8.54350666666667, 47.3738133333333], "type": "Point"}, "properties": {"charge": 47, "id": "bird_4796eab4-91e0-4a21-a486-91ff04703b9f", "provider": "bird", "timeStamp": "02/05/2020, 17:09:47"}, "type": "Feature"}, {"geometry": {"coordinates": [8.5216, 47.3893783333333], "type": "Point"}, "properties": {"charge": 99, "id": "bird_2b69aaf7-4e97-4ee9-aecb-769b6a8132a0", "provider": "bird", "timeStamp": "02/05/2020, 17:09:47"}, "type": "Feature"}, {"geometry": {"coordinates": [8.52276833333333, 47.3701933333333], "type": "Point"}, "properties": {"charge": 11, "id": "bird_6ff18aa1-c256-4c1a-be6e-dbf80c9de415", "provider": "bird", "timeStamp": "02/05/2020, 17:09:47"}, "type": "Feature"}, {"geometry": {"coordinates": [8.53773666666667, 47.3703766666667], "type": "Point"}, "properties": {"charge": 87, "id": "bird_14c04621-ee94-464d-90fb-27c9101e0ed4", "provider": "bird", "timeStamp": "02/05/2020, 17:09:47"}, "type": "Feature"}, {"geometry": {"coordinates": [8.51979833333333, 47.3884933333333], "type": "Point"}, "properties": {"charge": 94, "id": "bird_0464d79d-ae16-48f5-b906-eaf5e2b9ef17", "provider": "bird", "timeStamp": "02/05/2020, 17:09:47"}, "type": "Feature"}, {"geometry": {"coordinates": [8.51998, 47.3885383333333], "type": "Point"}, "properties": {"charge": 93, "id": "bird_732113ad-f486-4917-a93d-0802e424b766", "provider": "bird", "timeStamp": "02/05/2020, 17:09:47"}, "type": "Feature"}, {"geometry": {"coordinates": [8.53766166666667, 47.370415], "type": "Point"}, "properties": {"charge": 82, "id": "bird_a52424c6-6a98-4010-8168-514513104c88", "provider": "bird", "timeStamp": "02/05/2020, 17:09:47"}, "type": "Feature"}, {"geometry": {"coordinates": [8.53543833333333, 47.3697583333333], "type": "Point"}, "properties": {"charge": 12, "id": "bird_bf5e364f-102c-4c63-b6ad-fc7f33da0096", "provider": "bird", "timeStamp": "02/05/2020, 17:09:47"}, "type": "Feature"}, {"geometry": {"coordinates": [8.54133666666667, 47.372295], "type": "Point"}, "properties": {"charge": 19, "id": "bird_c81532cc-ce29-4e53-94ac-1537969ca91c", "provider": "bird", "timeStamp": "02/05/2020, 17:09:47"}, "type": "Feature"}, {"geometry": {"coordinates": [8.51715333333333, 47.386375], "type": "Point"}, "properties": {"charge": 71, "id": "bird_c2e98363-07b5-4bea-8231-e9294b93d0d2", "provider": "bird", "timeStamp": "02/05/2020, 17:09:47"}, "type": "Feature"}, {"geometry": {"coordinates": [8.543785, 47.3746333333333], "type": "Point"}, "properties": {"charge": 36, "id": "bird_6fff34f5-a84c-4f66-b661-322c7fde33e8", "provider": "bird", "timeStamp": "02/05/2020, 17:09:47"}, "type": "Feature"}, {"geometry": {"coordinates": [8.53602166666667, 47.3700833333333], "type": "Point"}, "properties": {"charge": 52, "id": "bird_79b801e4-cee9-41ef-9c00-1960a8ea50e3", "provider": "bird", "timeStamp": "02/05/2020, 17:09:47"}, "type": "Feature"}, {"geometry": {"coordinates": [8.543905, 47.38512], "type": "Point"}, "properties": {"charge": 19, "id": "bird_6efd0a01-16d9-414e-af7b-05f49ed021e7", "provider": "bird", "timeStamp": "02/05/2020, 17:09:47"}, "type": "Feature"}, {"geometry": {"coordinates": [8.52128333333333, 47.3888966666667], "type": "Point"}, "properties": {"charge": 71, "id": "bird_bb292995-ece3-4c08-8c61-46afd06e8f59", "provider": "bird", "timeStamp": "02/05/2020, 17:09:47"}, "type": "Feature"}, {"geometry": {"coordinates": [8.54555833333333, 47.3784033333333], "type": "Point"}, "properties": {"charge": 19, "id": "bird_717143e5-6dc7-497b-be9d-14b2d4f2a6e9", "provider": "bird", "timeStamp": "02/05/2020, 17:09:47"}, "type": "Feature"}, {"geometry": {"coordinates": [8.52178666666667, 47.3890683333333], "type": "Point"}, "properties": {"charge": 97, "id": "bird_be331961-ce60-4ad6-970c-6872ef0683b6", "provider": "bird", "timeStamp": "02/05/2020, 17:09:47"}, "type": "Feature"}, {"geometry": {"coordinates": [8.523025, 47.3704983333333], "type": "Point"}, "properties": {"charge": 34, "id": "bird_81e453d2-e134-4d27-a3c1-5d6b9a7c4ee4", "provider": "bird", "timeStamp": "02/05/2020, 17:09:47"}, "type": "Feature"}, {"geometry": {"coordinates": [8.51801, 47.3731733333333], "type": "Point"},