{"features": [{"geometry": {"coordinates": [8.540062, 47.374392], "type": "Point"}, "properties": {"address": "Uraniastrasse 7", "electric": 0, "id": "pb_60", "manual": 6, "name": "Demo Station Werdm\u00fchleplatz", "provider": "publibike", "timeStamp": "02/12/2020, 09:48:59", "zip": 8001}, "type": "Feature"}, {"geometry": {"coordinates": [8.5452956, 47.4099615], "type": "Point"}, "properties": {"address": "Querstrasse 8", "electric": 0, "id": "pb_61", "manual": 1, "name": "Marktplatz", "provider": "publibike", "timeStamp": "02/12/2020, 09:48:59", "zip": 8050}, "type": "Feature"}, {"geometry": {"coordinates": [8.5156327, 47.3795837], "type": "Point"}, "properties": {"address": "Bullingerstrasse 5", "electric": 0, "id": "pb_80", "manual": 4, "name": "Bullingerplatz", "provider": "publibike", "timeStamp": "02/12/2020, 09:48:59", "zip": 8004}, "type": "Feature"}, {"geometry": {"coordinates": [8.5104051, 47.3899342], "type": "Point"}, "properties": {"address": "Pfingstweidstrasse 96e", "electric": 4, "id": "pb_81", "manual": 4, "name": "Herdern", "provider": "publibike", "timeStamp": "02/12/2020, 09:48:59", "zip": 8001}, "type": "Feature"}, {"geometry": {"coordinates": [8.535718, 47.359675], "type": "Point"}, "properties": {"address": "Mythenquai 50", "electric": 20, "id": "pb_82", "manual": 3, "name": "Hafen Enge", "provider": "publibike", "timeStamp": "02/12/2020, 09:48:59", "zip": 8002}, "type": "Feature"}, {"geometry": {"coordinates": [8.520370505, 47.358663827], "type": "Point"}, "properties": {"address": "Bubenbergstrasse 1", "electric": 1, "id": "pb_83", "manual": 3, "name": "Comerge", "provider": "publibike", "timeStamp": "02/12/2020, 09:48:59", "zip": 8045}, "type": "Feature"}, {"geometry": {"coordinates": [8.5412505, 47.3789825], "type": "Point"}, "properties": {"address": "Museumstrasse 2", "electric": 7, "id": "pb_84", "manual": 19, "name": "Landesmuseum", "provider": "publibike", "timeStamp": "02/12/2020, 09:48:59", "zip": 8001}, "type": "Feature"}, {"geometry": {"coordinates": [8.5235479, 47.3716661], "type": "Point"}, "properties": {"address": "Birmensdorferstrasse 80", "electric": 2, "id": "pb_85", "manual": 0, "name": "Bahnhof Wiedikon", "provider": "publibike", "timeStamp": "02/12/2020, 09:48:59", "zip": 8003}, "type": "Feature"}, {"geometry": {"coordinates": [8.506822854, 47.40781197], "type": "Point"}, "properties": {"address": "Stefano-Franscini-Platz 5", "electric": 12, "id": "pb_86", "manual": 0, "name": "ETH H\u00f6nggerberg", "provider": "publibike", "timeStamp": "02/12/2020, 09:48:59", "zip": 8093}, "type": "Feature"}, {"geometry": {"coordinates": [8.536101, 47.371083], "type": "Point"}, "properties": {"address": "Pelikanplatz 5", "electric": 9, "id": "pb_87", "manual": 15, "name": "Pelikanplatz", "provider": "publibike", "timeStamp": "02/12/2020, 09:48:59", "zip": 8001}, "type": "Feature"}, {"geometry": {"coordinates": [8.5257822, 47.3651936], "type": "Point"}, "properties": {"address": "H\u00fcrlimannplatz 90", "electric": 22, "id": "pb_88", "manual": 9, "name": "H\u00fcrlimannplatz", "provider": "publibike", "timeStamp": "02/12/2020, 09:48:59", "zip": 8002}, "type": "Feature"}, {"geometry": {"coordinates": [8.5313344, 47.3713591], "type": "Point"}, "properties": {"address": "Selnaustrasse 32", "electric": 5, "id": "pb_89", "manual": 0, "name": "Stauffacherbr\u00fccke", "provider": "publibike", "timeStamp": "02/12/2020, 09:48:59", "zip": 8001}, "type": "Feature"}, {"geometry": {"coordinates": [8.5056978, 47.3917964], "type": "Point"}, "properties": {"address": "Sportweg 25", "electric": 2, "id": "pb_90", "manual": 5, "name": "Sportweg", "provider": "publibike", "timeStamp": "02/12/2020, 09:48:59", "zip": 8005}, "type": "Feature"}, {"geometry": {"coordinates": [8.5181701, 47.3917837], "type": "Point"}, "properties": {"address": "Hardturmstrasse 11", "electric": 2, "id": "pb_91", "manual": 2, "name": "Puls 5", "provider": "publibike", "timeStamp": "02/12/2020, 09:48:59", "zip": 8005}, "type": "Feature"}, {"geometry": {"coordinates": [8.5286468, 47.3820827], "type": "Point"}, "properties": {"address": "R\u00f6ntgenstrasse 6", "electric": 9, "id": "pb_92", "manual": 10, "name": "R\u00f6ntgenstrasse", "provider": "publibike", "timeStamp": "02/12/2020, 09:48:59", "zip": 8005}, "type": "Feature"}, {"geometry": {"coordinates": [8.531935, 47.384918], "type": "Point"}, "properties": {"address": "Kornhausbr\u00fccke 1", "electric": 1, "id": "pb_93", "manual": 6, "name": "Limmatplatz", "provider": "publibike", "timeStamp": "02/12/2020, 09:48:59", "zip": 8005}, "type": "Feature"}, {"geometry": {"coordinates": [8.5354006, 47.3758639], "type": "Point"}, "properties": {"address": "Gessnerallee 15", "electric": 2, "id": "pb_94", "manual": 0, "name": "Gessnerallee", "provider": "publibike", "timeStamp": "02/12/2020, 09:48:59", "zip": 8001}, "type": "Feature"}, {"geometry": {"coordinates": [8.523818, 47.377148], "type": "Point"}, "properties": {"address": "Stauffacherstrasse 127", "electric": 5, "id": "pb_95", "manual": 6, "name": "B\u00e4ckeranlage", "provider": "publibike", "timeStamp": "02/12/2020, 09:48:59", "zip": 8004}, "type": "Feature"}, {"geometry": {"coordinates": [8.531836, 47.378548], "type": "Point"}, "properties": {"address": "Lagerstrasse 44", "electric": 3, "id": "pb_96", "manual": 4, "name": "Gustav-Gull-Platz", "provider": "publibike", "timeStamp": "02/12/2020, 09:48:59", "zip": 8004}, "type": "Feature"}, {"geometry": {"coordinates": [8.5104883, 47.3771535], "type": "Point"}, "properties": {"address": "Zurlindenstrasse 291", "electric": 2, "id": "pb_97", "manual": 7, "name": "Zurlindenstrasse", "provider": "publibike", "timeStamp": "02/12/2020, 09:48:59", "zip": 8003}, "type": "Feature"}, {"geometry": {"coordinates": [8.5333139, 47.3731102], "type": "Point"}, "properties": {"address": "Sihlstrasse 81", "electric": 10, "id": "pb_98", "manual": 13, "name": "Sihlstrasse", "provider": "publibike", "timeStamp": "02/12/2020, 09:48:59", "zip": 8001}, "type": "Feature"}, {"geometry": {"coordinates": [8.520532, 47.374951], "type": "Point"}, "properties": {"address": "Feldstrasse 24", "electric": 4, "id": "pb_99", "manual": 3, "name": "Kalkbreite", "provider": "publibike", "timeStamp": "02/12/2020, 09:48:59", "zip": 8004}, "type": "Feature"}, {"geometry": {"coordinates": [8.539046, 47.368064], "type": "Point"}, "properties": {"address": "Talstrasse 12", "electric": 2, "id": "pb_100", "manual": 5, "name": "Z\u00fcrcher Kantonalbank", "provider": "publibike", "timeStamp": "02/12/2020, 09:48:59", "zip": 8001}, "type": "Feature"}, {"geometry": {"coordinates": [8.5348427, 47.3625938], "type": "Point"}, "properties": {"address": "Breitingerstrasse 5", "electric": 1, "id": "pb_101", "manual": 2, "name": "Rentenanstalt", "provider": "publibike", "timeStamp": "02/12/2020, 09:48:59", "zip": 8002}, "type": "Feature"}, {"geometry": {"coordinates": [8.5166922, 47.3897772], "type": "Point"}, "properties": {"address": "Technoparkstrasse 4", "electric": 3, "id": "pb_102", "manual": 3, "name": "Turbinenplatz", "provider": "publibike", "timeStamp": "02/12/2020, 09:48:59", "zip": 8005}, "type": "Feature"}, {"geometry": {"coordinates": [8.539312, 47.3739964], "type": "Point"}, "properties": {"address": "Oetenbachgasse 14", "electric": 2, "id": "pb_104", "manual": 6, "name": "Rennweg", "provider": "publibike", "timeStamp": "02/12/2020, 09:48:59", "zip": 8001}, "type": "Feature"}, {"geometry": {"coordinates": [8.5360685, 47.3775022], "type": "Point"}, "properties": {"address": "Kasernenstrasse 101", "electric": 11, "id": "pb_105", "manual": 15, "name": "Sihlpost", "provider": "publibike", "timeStamp": "02/12/2020, 09:48:59", "zip": 8004}, "type": "Feature"}, {"geometry": {"coordinates": [8.53545, 47.382798], "type": "Point"}, "properties": {"address": "Ausstellungsstrasse 44", "electric": 6, "id": "pb_106", "manual": 11, "name": "Museum f\u00fcr Gestaltung", "provider": "publibike", "timeStamp": "02/12/2020, 09:48:59", "zip": 8005}, "type": "Feature"}, {"geometry": {"coordinates": [8.5306155, 47.3647902], "type": "Point"}, "properties": {"address": "Gutenbergstrasse 1", "electric": 1, "id": "pb_107", "manual": 10, "name": "Bederbr\u00fccke", "provider": "publibike", "timeStamp": "02/12/2020, 09:48:59", "zip": 8002}, "type": "Feature"}, {"geometry": {"coordinates": [8.518982, 47.386741], "type": "Point"}, "properties": {"address": "Geroldstrasse 4", "electric": 11, "id": "pb_108", "manual": 5, "name": "Bahnhof Hardbr\u00fccke", "provider": "publibike", "timeStamp": "02/12/2020, 09:48:59", "zip": 8005}, "type": "Feature"}, {"geometry": {"coordinates": [8.53001018, 47.37247535], "type": "Point"}, "properties": {"address": "Werdstrasse 21", "electric": 12, "id": "pb_109", "manual": 3, "name": "Tamedia", "provider": "publibike", "timeStamp": "02/12/2020, 09:48:59", "zip": 8004}, "type": "Feature"}, {"geometry": {"coordinates": [8.4860017, 47.396401], "type": "Point"}, "properties": {"address": "Gr\u00fcnauring 37", "electric": 8, "id": "pb_110", "manual": 1, "name": "Gr\u00fcnau", "provider": "publibike", "timeStamp": "02/12/2020, 09:48:59", "zip": 8064}, "type": "Feature"}, {"geometry": {"coordinates": [8.548519, 47.376756], "type": "Point"}, "properties": {"address": "R\u00e4mistrasse 101", "electric": 15, "id": "pb_111", "manual": 0, "name": "ETH Zentrum", "provider": "publibike", "timeStamp": "02/12/2020, 09:48:59", "zip": 8006}, "type": "Feature"}, {"geometry": {"coordinates": [8.520449, 47.388151], "type": "Point"}, "properties": {"address": "Josefstrasse 224", "electric": 5, "id": "pb_112", "manual": 2, "name": "Steinfelsareal", "provider": "publibike", "timeStamp": "02/12/2020, 09:48:59", "zip": 8005}, "type": "Feature"}, {"geometry": {"coordinates": [8.520482, 47.37209], "type": "Point"}, "properties": {"address": "Weststrasse 115", "electric": 0, "id": "pb_124", "manual": 5, "name": "Weststrasse", "provider": "publibike", "timeStamp": "02/12/2020, 09:48:59", "zip": 8003}, "type": "Feature"}, {"geometry": {"coordinates": [8.496727, 47.378521], "type": "Point"}, "properties": {"address": "Albisriederstrasse 200", "electric": 5, "id": "pb_125", "manual": 2, "name": "Utogrund", "provider": "publibike", "timeStamp": "02/12/2020, 09:48:59", "zip": 8047}, "type": "Feature"}, {"geometry": {"coordinates": [8.510418, 47.381356], "type": "Point"}, "properties": {"address": "Bullingerstrasse 73", "electric": 0, "id": "pb_126", "manual": 6, "name": "Hardau", "provider": "publibike", "timeStamp": "02/12/2020, 09:48:59", "zip": 8004}, "type": "Feature"}, {"geometry": {"coordinates": [8.525525, 47.361567], "type": "Point"}, "properties": {"address": "Klopstockstrasse 23", "electric": 3, "id": "pb_127", "manual": 5, "name": "Klopstockwiese", "provider": "publibike", "timeStamp": "02/12/2020, 09:48:59", "zip": 8002}, "type": "Feature"}, {"geometry": {"coordinates": [8.518143, 47.363148], "type": "Point"}, "properties": {"address": "Haldenstrasse 8", "electric": 1, "id": "pb_128", "manual": 0, "name": "Binz", "provider": "publibike", "timeStamp": "02/12/2020, 09:48:59", "zip": 8045}, "type": "Feature"}, {"geometry": {"coordinates": [8.542726, 47.379952], "type": "Point"}, "properties": {"address": "Walchestrasse 11", "electric": 0, "id": "pb_129", "manual": 0, "name": "Stampfenbachplatz", "provider": "publibike", "timeStamp": "02/12/2020, 09:48:59", "zip": 8006}, "type": "Feature"}, {"geometry": {"coordinates": [8.488108, 47.391366], "type": "Point"}, "properties": {"address": "Altstetterplatz 1", "electric": 6, "id": "pb_130", "manual": 5, "name": "Bahnhof Altstetten", "provider": "publibike", "timeStamp": "02/12/2020, 09:48:59", "zip": 8048}, "type": "Feature"}, {"geometry": {"coordinates": [8.554114, 47.365119], "type": "Point"}, "properties": {"address": "Kreuzplatz 2", "electric": 1, "id": "pb_131", "manual": 4, "name": "Kreuzplatz", "provider": "publibike", "timeStamp": "02/12/2020, 09:48:59", "zip": 8032}, "type": "Feature"}, {"geometry": {"coordinates": [8.549852, 47.35594], "type": "Point"}, "properties": {"address": "H\u00f6schgasse 3", "electric": 2, "id": "pb_132", "manual": 9, "name": "Blatterwiese", "provider": "publibike", "timeStamp": "02/12/2020, 09:48:59", "zip": 8008}, "type": "Feature"}, {"geometry": {"coordinates": [8.554501, 47.36162], "type": "Point"}, "properties": {"address": "Feldeggstrasse 80", "electric": 4, "id": "pb_133", "manual": 2, "name": "Villa Bleuler", "provider": "publibike", "timeStamp": "02/12/2020, 09:48:59", "zip": 8008}, "type": "Feature"}, {"geometry": {"coordinates": [8.557088, 47.358557], "type": "Point"}, "properties": {"address": "M\u00fchlebachstrasse 131", "electric": 3, "id": "pb_134", "manual": 0, "name": "M\u00fchlebachstrasse", "provider": "publibike", "timeStamp": "02/12/2020, 09:48:59", "zip": 8008}, "type": "Feature"}, {"geometry": {"coordinates": [8.547639, 47.361266], "type": "Point"}, "properties": {"address": "Utoquai 50", "electric": 0, "id": "pb_135", "manual": 0, "name": "Seebad Utoquai", "provider": "publibike", "timeStamp": "02/12/2020, 09:48:59", "zip": 8008}, "type": "Feature"}, {"geometry": {"coordinates": [8.548045, 47.370869], "type": "Point"}, "properties": {"address": "Heimplatz 1", "electric": 7, "id": "pb_137", "manual": 0, "name": "Kunsthaus", "provider": "publibike", "timeStamp": "02/12/2020, 09:48:59", "zip": 8001}, "type": "Feature"}, {"geometry": {"coordinates": [8.543447, 47.375933], "type": "Point"}, "properties": {"address": "Limmatquai 138", "electric": 0, "id": "pb_138", "manual": 4, "name": "Central", "provider": "publibike", "timeStamp": "02/12/2020, 09:48:59", "zip": 8001}, "type": "Feature"}, {"geometry": {"coordinates": [8.549356, 47.408827], "type": "Point"}, "properties": {"address": "Tramstrasse 35", "electric": 2, "id": "pb_139", "manual": 4, "name": "ewz Tramstrasse", "provider": "publibike", "timeStamp": "02/12/2020, 09:48:59", "zip": 8050}, "type": "Feature"}, {"geometry": {"coordinates": [8.533736, 47.366904], "type": "Point"}, "properties": {"address": "Bleicherweg 33", "electric": 0, "id": "pb_140", "manual": 9, "name": "Bleicherweg", "provider": "publibike", "timeStamp": "02/12/2020, 09:48:59", "zip": 8002}, "type": "Feature"}, {"geometry": {"coordinates": [8.544935, 47.366752], "type": "Point"}, "properties": {"address": "Bellevueplatz 2", "electric": 12, "id": "pb_141", "manual": 26, "name": "Bellevue", "provider": "publibike", "timeStamp": "02/12/2020, 09:48:59", "zip": 8001}, "type": "Feature"}, {"geometry": {"coordinates": [8.5285533, 47.3742296], "type": "Point"}, "properties": {"address": "Stauffacherstrasse 41", "electric": 3, "id": "pb_142", "manual": 6, "name": "Stauffacher", "provider": "publibike", "timeStamp": "02/12/2020, 09:48:59", "zip": 8004}, "type": "Feature"}, {"geometry": {"coordinates": [8.523722, 47.3899], "type": "Point"}, "properties": {"address": "Limmatstrasse 310", "electric": 0, "id": "pb_143", "manual": 6, "name": "Escher-Wyss-Platz", "provider": "publibike", "timeStamp": "02/12/2020, 09:48:59", "zip": 8005}, "type": "Feature"}, {"geometry": {"coordinates": [8.491061, 47.392336], "type": "Point"}, "properties": {"address": "Vulkanplatz 1", "electric": 4, "id": "pb_149", "manual": 6, "name": "Vulkanplatz", "provider": "publibike", "timeStamp": "02/12/2020, 09:48:59", "zip": 8048}, "type": "Feature"}, {"geometry": {"coordinates": [8.52306, 47.359872], "type": "Point"}, "properties": {"address": "Giessh\u00fcbelstrasse 15", "electric": 8, "id": "pb_150", "manual": 2, "name": "Utoplatz", "provider": "publibike", "timeStamp": "02/12/2020, 09:48:59", "zip": 8045}, "type": "Feature"}, {"geometry": {"coordinates": [8.486284, 47.387685], "type": "Point"}, "properties": {"address": "Lindenplatz 1", "electric": 5, "id": "pb_151", "manual": 5, "name": "Lindenplatz", "provider": "publibike", "timeStamp": "02/12/2020, 09:48:59", "zip": 8048}, "type": "Feature"}, {"geometry": {"coordinates": [8.49163, 47.389823], "type": "Point"}, "properties": {"address": "Hohlstrasse 563", "electric": 0, "id": "pb_152", "manual": 1, "name": "Luggweg", "provider": "publibike", "timeStamp": "02/12/2020, 09:48:59", "zip": 8048}, "type": "Feature"}, {"geometry": {"coordinates": [8.52174, 47.365272], "type": "Point"}, "properties": {"address": "Manessestrasse 87", "electric": 1, "id": "pb_153", "manual": 5, "name": "Manesseplatz", "provider": "publibike", "timeStamp": "02/12/2020, 09:48:59", "zip": 8045}, "type": "Feature"}, {"geometry": {"coordinates": [8.52714, 47.372329], "type": "Point"}, "properties": {"address": "Werdstrasse 75", "electric": 3, "id": "pb_154", "manual": 5, "name": "Werd", "provider": "publibike", "timeStamp": "02/12/2020, 09:48:59", "zip": 8004}, "type": "Feature"}, {"geometry": {"coordinates": [8.543042, 47.374711], "type": "Point"}, "properties": {"address": "Limmatquai 100", "electric": 0, "id": "pb_155", "manual": 0, "name": "Rudolf-Brun-Br\u00fccke", "provider": "publibike", "timeStamp": "02/12/2020, 09:48:59", "zip": 8001}, "type": "Feature"}, {"geometry": {"coordinates": [8.490837, 47.386596], "type": "Point"}, "properties": {"address": "Badenerstrasse 627", "electric": 6, "id": "pb_156", "manual": 0, "name": "Luggwegstrasse VBZ", "provider": "publibike", "timeStamp": "02/12/2020, 09:48:59", "zip": 8048}, "type": "Feature"}, {"geometry": {"coordinates": [8.535119, 47.355189], "type": "Point"}, "properties": {"address": "Mythenquai 95", "electric": 0, "id": "pb_157", "manual": 3, "name": "Strandbad Mythenquai", "provider": "publibike", "timeStamp": "02/12/2020, 09:48:59", "zip": 8002}, "type": "Feature"}, {"geometry": {"coordinates": [8.545505, 47.373675], "type": "Point"}, "properties": {"address": "Predigerpatz 21", "electric": 6, "id": "pb_158", "manual": 8, "name": "Predigerplatz", "provider": "publibike", "timeStamp": "02/12/2020, 09:48:59", "zip": 8001}, "type": "Feature"}, {"geometry": {"coordinates": [8.515558, 47.371868], "type": "Point"}, "properties": {"address": "Aemtlerstrasse 23", "electric": 0, "id": "pb_159", "manual": 6, "name": "Zwinglihaus", "provider": "publibike", "timeStamp": "02/12/2020, 09:48:59", "zip": 8003}, "type": "Feature"}, {"geometry": {"coordinates": [8.524629, 47.386072], "type": "Point"}, "properties": {"address": "Josefstrasse 188", "electric": 3, "id": "pb_160", "manual": 5, "name": "Josefwiese", "provider": "publibike", "timeStamp": "02/12/2020, 09:48:59", "zip": 8005}, "type": "Feature"}, {"geometry": {"coordinates": [8.527138, 47.387531], "type": "Point"}, "properties": {"address": "R\u00f6ntgenstrasse 87", "electric": 1, "id": "pb_164", "manual": 4, "name": "Markthalle", "provider": "publibike", "timeStamp": "02/12/2020, 09:48:59", "zip": 8005}, "type": "Feature"}, {"geometry": {"coordinates": [8.552717, 47.359978], "type": "Point"}, "properties": {"address": "Seefeldstrasse 96", "electric": 9, "id": "pb_263", "manual": 12, "name": "Feldeggstrasse", "provider": "publibike", "timeStamp": "02/12/2020, 09:48:59", "zip": 8008}, "type": "Feature"}, {"geometry": {"coordinates": [8.553189, 47.353198], "type": "Point"}, "properties": {"address": "Bellerivestrasse 170", "electric": 6, "id": "pb_264", "manual": 0, "name": "Lake Side", "provider": "publibike", "timeStamp": "02/12/2020, 09:48:59", "zip": 8008}, "type": "Feature"}, {"geometry": {"coordinates": [8.543437, 47.369256], "type": "Point"}, "properties": {"address": "Limmatquai 18", "electric": 0, "id": "pb_265", "manual": 0, "name": "Helmhaus", "provider": "publibike", "timeStamp": "02/12/2020, 09:48:59", "zip": 8032}, "type": "Feature"}, {"geometry": {"coordinates": [8.516676, 47.375819], "type": "Point"}, "properties": {"address": "Badenerstrasse 246", "electric": 0, "id": "pb_266", "manual": 6, "name": "Lochergut", "provider": "publibike", "timeStamp": "02/12/2020, 09:48:59", "zip": 8004}, "type": "Feature"}, {"geometry": {"coordinates": [8.514605, 47.389862], "type": "Point"}, "properties": {"address": "Pfingstweidstrasse 60", "electric": 5, "id": "pb_273", "manual": 3, "name": "Westpark", "provider": "publibike", "timeStamp": "02/12/2020, 09:48:59", "zip": 8005}, "type": "Feature"}, {"geometry": {"coordinates": [8.541239126, 47.375991201], "type": "Point"}, "properties": {"address": "Beatenplatz 1", "electric": 3, "id": "pb_274", "manual": 5, "name": "Beatenplatz", "provider": "publibike", "timeStamp": "02/12/2020, 09:48:59", "zip": 8001}, "type": "Feature"}, {"geometry": {"coordinates": [8.5417135, 47.3942197], "type": "Point"}, "properties": {"address": "Scheuchzerstrasse 181", "electric": 0, "id": "pb_275", "manual": 1, "name": "Pauluskirche", "provider": "publibike", "timeStamp": "02/12/2020, 09:48:59", "zip": 8057}, "type": "Feature"}, {"geometry": {"coordinates": [8.5528182, 47.414558], "type": "Point"}, "properties": {"address": "Hagenholzstrasse 51", "electric": 5, "id": "pb_276", "manual": 7, "name": "Airgate", "provider": "publibike", "timeStamp": "02/12/2020, 09:48:59", "zip": 8050}, "type": "Feature"}, {"geometry": {"coordinates": [8.537816, 47.413514], "type": "Point"}, "properties": {"address": "Birchstrasse 183", "electric": 7, "id": "pb_277", "manual": 1, "name": "Lamprechtweg", "provider": "publibike", "timeStamp": "02/12/2020, 09:48:59", "zip": 8050}, "type": "Feature"}, {"geometry": {"coordinates": [8.545602, 47.417701], "type": "Point"}, "properties": {"address": "Felsenrainstrasse 2", "electric": 6, "id": "pb_278", "manual": 3, "name": "Emil-Oberh\u00e4nsli", "provider": "publibike", "timeStamp": "02/12/2020, 09:48:59", "zip": 8050}, "type": "Feature"}, {"geometry": {"coordinates": [8.533647, 47.39808], "type": "Point"}, "properties": {"address": "Bucheggplatz 2", "electric": 1, "id": "pb_279", "manual": 5, "name": "Bucheggplatz", "provider": "publibike", "timeStamp": "02/12/2020, 09:48:59", "zip": 8057}, "type": "Feature"}, {"geometry": {"coordinates": [8.523549, 47.392347], "type": "Point"}, "properties": {"address": "Wipkingerplatz 4", "electric": 0, "id": "pb_280", "manual": 2, "name": "Wipkingerplatz", "provider": "publibike", "timeStamp": "02/12/2020, 09:48:59", "zip": 8037}, "type": "Feature"}, {"geometry": {"coordinates": [8.548562, 47.36691], "type": "Point"}, "properties": {"address": "Galerie \u00fcber Gleis 2/3", "electric": 4, "id": "pb_285", "manual": 8, "name": "Bahnhof Stadelhofen", "provider": "publibike", "timeStamp": "02/12/2020, 09:48:59", "zip": 8001}, "type": "Feature"}, {"geometry": {"coordinates": [8.493822, 47.3985553], "type": "Point"}, "properties": {"address": "Meierwiesenstrasse 12-4", "electric": 2, "id": "pb_286", "manual": 2, "name": "T\u00fcffenwies", "provider": "publibike", "timeStamp": "02/12/2020, 09:48:59", "zip": 8064}, "type": "Feature"}, {"geometry": {"coordinates": [8.552432, 47.3801757], "type": "Point"}, "properties": {"address": "Hochstrasse 34", "electric": 5, "id": "pb_356", "manual": 0, "name": "Siriuswiese", "provider": "publibike", "timeStamp": "02/12/2020, 09:48:59", "zip": 8044}, "type": "Feature"}, {"geometry": {"coordinates": [8.527298, 47.370141], "type": "Point"}, "properties": {"address": "Hallwylstrasse 71", "electric": 1, "id": "pb_357", "manual": 3, "name": "Hallwylstrasse", "provider": "publibike", "timeStamp": "02/12/2020, 09:48:59", "zip": 8004}, "type": "Feature"}, {"geometry": {"coordinates": [8.5414185, 47.3972455], "type": "Point"}, "properties": {"address": "Schaffhauserstrasse 137", "electric": 1, "id": "pb_358", "manual": 0, "name": "Milchbuck", "provider": "publibike", "timeStamp": "02/12/2020, 09:48:59", "zip": 8057}, "type": "Feature"}, {"geometry": {"coordinates": [8.512381, 47.393409], "type": "Point"}, "properties": {"address": "Hardturmstrasse 161", "electric": 2, "id": "pb_359", "manual": 6, "name": "Fischerweg", "provider": "publibike", "timeStamp": "02/12/2020, 09:48:59", "zip": 8005}, "type": "Feature"}, {"geometry": {"coordinates": [8.5421457, 47.3876979], "type": "Point"}, "properties": {"address": "Turnerstrasse 47", "electric": 5, "id": "pb_360", "manual": 0, "name": "Kirche Unterstrass", "provider": "publibike", "timeStamp": "02/12/2020, 09:48:59", "zip": 8006}, "type": "Feature"}, {"geometry": {"coordinates": [8.522117, 47.394554], "type": "Point"}, "properties": {"address": "Dorfstrasse 40", "electric": 3, "id": "pb_361", "manual": 4, "name": "Dorfstrasse", "provider": "publibike", "timeStamp": "02/12/2020, 09:48:59", "zip": 8037}, "type": "Feature"}, {"geometry": {"coordinates": [8.530437, 47.37271], "type": "Point"}, "properties": {"address": "Werdstrasse 25", "electric": 3, "id": "pb_362", "manual": 4, "name": "Stauffachertor", "provider": "publibike", "timeStamp": "02/12/2020, 09:48:59", "zip": 8004}, "type": "Feature"}, {"geometry": {"coordinates": [8.541712, 47.416155], "type": "Point"}, "properties": {"address": "Eggb\u00fchlstrasse 21", "electric": 11, "id": "pb_363", "manual": 1, "name": "Wahlenpark", "provider": "publibike", "timeStamp": "02/12/2020, 09:48:59", "zip": 8050}, "type": "Feature"}, {"geometry": {"coordinates": [8.5595335, 47.3708387], "type": "Point"}, "properties": {"address": "Dolderstrasse 32", "electric": 0, "id": "pb_364", "manual": 0, "name": "Kinderspital", "provider": "publibike", "timeStamp": "02/12/2020, 09:48:59", "zip": 8032}, "type": "Feature"}, {"geometry": {"coordinates": [8.536433, 47.388689], "type": "Point"}, "properties": {"address": "Kornhausstrasse 30", "electric": 4, "id": "pb_365", "manual": 0, "name": "Kornhausstrasse", "provider": "publibike", "timeStamp": "02/12/2020, 09:48:59", "zip": 8006}, "type": "Feature"}, {"geometry": {"coordinates": [8.55033, 47.407098], "type": "Point"}, "properties": {"address": "Schwamendingenstrasse 41", "electric": 6, "id": "pb_366", "manual": 10, "name": "Dorflinde", "provider": "publibike", "timeStamp": "02/12/2020, 09:48:59", "zip": 8050}, "type": "Feature"}, {"geometry": {"coordinates": [8.560476, 47.368199], "type": "Point"}, "properties": {"address": "R\u00f6merhofplatz 5", "electric": 6, "id": "pb_367", "manual": 0, "name": "R\u00f6merhof", "provider": "publibike", "timeStamp": "02/12/2020, 09:48:59", "zip": 8032}, "type": "Feature"}, {"geometry": {"coordinates": [8.5609218, 47.3619068], "type": "Point"}, "properties": {"address": "Forchstrasse 99", "electric": 2, "id": "pb_368", "manual": 2, "name": "Hegibachplatz", "provider": "publibike", "timeStamp": "02/12/2020, 09:48:59", "zip": 8032}, "type": "Feature"}, {"geometry": {"coordinates": [8.5721264, 47.4039985], "type": "Point"}, "properties": {"address": "Winterthurerstrasse 519", "electric": 8, "id": "pb_370", "manual": 6, "name": "Schwamendingerplatz", "provider": "publibike", "timeStamp": "02/12/2020, 09:48:59", "zip": 8051}, "type": "Feature"}, {"geometry": {"coordinates": [8.520168, 47.378556], "type": "Point"}, "properties": {"address": "Herman-Greulich-Strasse 56", "electric": 0, "id": "pb_384", "manual": 6, "name": "Hermann-Greulich-Weg", "provider": "publibike", "timeStamp": "02/12/2020, 09:48:59", "zip": 8004}, "type": "Feature"}, {"geometry": {"coordinates": [8.547912, 47.384923], "type": "Point"}, "properties": {"address": "Culmannstrasse", "electric": 1, "id": "pb_386", "manual": 5, "name": "Rigiplatz", "provider": "publibike", "timeStamp": "02/12/2020, 09:48:59", "zip": 8006}, "type": "Feature"}, {"geometry": {"coordinates": [8.543768, 47.411057], "type": "Point"}, "properties": {"address": "Hofwiesenstrasse 369", "electric": 2, "id": "pb_387", "manual": 2, "name": "Bahnhof Oerlikon S\u00fcd", "provider": "publibike", "timeStamp": "02/12/2020, 09:48:59", "zip": 8050}, "type": "Feature"}, {"geometry": {"coordinates": [8.544185, 47.412732], "type": "Point"}, "properties": {"address": "Jungholzstrasse 6", "electric": 7, "id": "pb_388", "manual": 8, "name": "Max-Frisch-Platz", "provider": "publibike", "timeStamp": "02/12/2020, 09:48:59", "zip": 8050}, "type": "Feature"}, {"geometry": {"coordinates": [8.558096, 47.413032], "type": "Point"}, "properties": {"address": "Andreasstrasse", "electric": 10, "id": "pb_389", "manual": 10, "name": "Hunziker-Areal", "provider": "publibike", "timeStamp": "02/12/2020, 09:48:59", "zip": 8050}, "type": "Feature"}, {"geometry": {"coordinates": [8.533265, 47.412873], "type": "Point"}, "properties": {"address": "Regina-K\u00e4gi-Strasse 1", "electric": 7, "id": "pb_390", "manual": 6, "name": "Luis-H\u00e4fliger-Park", "provider": "publibike", "timeStamp": "02/12/2020, 09:48:59", "zip": 8050}, "type": "Feature"}, {"geometry": {"coordinates": [8.499265, 47.401852], "type": "Point"}, "properties": {"address": "Limmattalstrasse 177", "electric": 2, "id": "pb_391", "manual": 2, "name": "Meierhofplatz", "provider": "publibike", "timeStamp": "02/12/2020, 09:48:59", "zip": 8049}, "type": "Feature"}, {"geometry": {"coordinates": [8.528356, 47.393255], "type": "Point"}, "properties": {"address": "R\u00f6schibachstrasse 73", "electric": 2, "id": "pb_392", "manual": 4, "name": "R\u00f6schibachplatz", "provider": "publibike", "timeStamp": "02/12/2020, 09:48:59", "zip": 8037}, "type": "Feature"}, {"geometry": {"coordinates": [8.538067, 47.415721], "type": "Point"}, "properties": {"address": "Birchstrasse 191", "electric": 3, "id": "pb_393", "manual": 2, "name": "Oerliker Park", "provider": "publibike", "timeStamp": "02/12/2020, 09:48:59", "zip": 8050}, "type": "Feature"}, {"geometry": {"coordinates": [8.5420304, 47.3669233], "type": "Point"}, "properties": {"address": "Stadthausquai 1", "electric": 0, "id": "pb_395", "manual": 4, "name": "B\u00fcrkliplatz", "provider": "publibike", "timeStamp": "02/12/2020, 09:48:59", "zip": 8001}, "type": "Feature"}, {"geometry": {"coordinates": [8.535767, 47.409881], "type": "Point"}, "properties": {"address": "Regensbergstrasse 195", "electric": 3, "id": "pb_396", "manual": 1, "name": "Holunderhof", "provider": "publibike", "timeStamp": "02/12/2020, 09:48:59", "zip": 8050}, "type": "Feature"}, {"geometry": {"coordinates": [8.5116245, 47.3616199], "type": "Point"}, "properties": {"address": "Grubenstrasse 42", "electric": 8, "id": "pb_431", "manual": 2, "name": "Binz Center", "provider": "publibike", "timeStamp": "02/12/2020, 09:48:59", "zip": 8045}, "type": "Feature"}, {"geometry": {"coordinates": [8.547195, 47.382089], "type": "Point"}, "properties": {"address": "Nelkenstrasse 24", "electric": 6, "id": "pb_430", "manual": 2, "name": "Stapferstube", "provider": "publibike", "timeStamp": "02/12/2020, 09:48:59", "zip": 8006}, "type": "Feature"}, {"geometry": {"coordinates": [8.5787183, 47.4039845], "type": "Point"}, "properties": {"address": "Kronwiesenstrasse 35", "electric": 0, "id": "pb_426", "manual": 4, "name": "Kronwiesen", "provider": "publibike", "timeStamp": "02/12/2020, 09:48:59", "zip": 8051}, "type": "Feature"}, {"geometry": {"coordinates": [8.508131, 47.420757], "type": "Point"}, "properties": {"address": "Riedenhaldenstrasse 20-18", "electric": 10, "id": "pb_425", "manual": 2, "name": "Bahnhof Affoltern", "provider": "publibike", "timeStamp": "02/12/2020, 09:48:59", "zip": 8046}, "type": "Feature"}, {"geometry": {"coordinates": [8.532464, 47.406988], "type": "Point"}, "properties": {"address": "K\u00fcnzlistrasse 41", "electric": 3, "id": "pb_424", "manual": 1, "name": "Birchd\u00f6rfli", "provider": "publibike", "timeStamp": "02/12/2020, 09:48:59", "zip": 8057}, "type": "Feature"}, {"geometry": {"coordinates": [8.5777038, 47.4080095], "type": "Point"}, "properties": {"address": "Luegislandstrasse 412", "electric": 3, "id": "pb_429", "manual": 2, "name": "Luegisland", "provider": "publibike", "timeStamp": "02/12/2020, 09:48:59", "zip": 8051}, "type": "Feature"}, {"geometry": {"coordinates": [8.58841, 47.40158], "type": "Point"}, "properties": {"address": "Hirzenbachstrasse 2-4", "electric": 0, "id": "pb_428", "manual": 2, "name": "Hirzenbachstrasse", "provider": "publibike", "timeStamp": "02/12/2020, 09:48:59", "zip": 8051}, "type": "Feature"}, {"geometry": {"coordinates": [8.5563463, 47.4095467], "type": "Point"}, "properties": {"address": "K\u00fchriedweg", "electric": 0, "id": "pb_445", "manual": 11, "name": "Hallenbad Oerlikon", "provider": "publibike", "timeStamp": "02/12/2020, 09:48:59", "zip": 8050}, "type": "Feature"}, {"geometry": {"coordinates": [8.537971, 47.364871], "type": "Point"}, "properties": {"address": "General-Guisan-Quai 17", "electric": 0, "id": "pb_454", "manual": 4, "name": "General-Guisan-Quai", "provider": "publibike", "timeStamp": "02/12/2020, 09:48:59", "zip": 8002}, "type": "Feature"}, {"geometry": {"coordinates": [8.560587, 47.350578], "type": "Point"}, "properties": {"address": "Bellerivestrasse 245", "electric": 8, "id": "pb_450", "manual": 8, "name": "Bahnhof Tiefenbrunnen", "provider": "publibike", "timeStamp": "02/12/2020, 09:48:59", "zip": 8008}, "type": "Feature"}, {"geometry": {"coordinates": [8.5269416, 47.3563719], "type": "Point"}, "properties": {"address": "Waffenplatzstrasse 89", "electric": 1, "id": "pb_452", "manual": 4, "name": "Rieterplatz", "provider": "publibike", "timeStamp": "02/12/2020, 09:48:59", "zip": 8002}, "type": "Feature"}, {"geometry": {"coordinates": [8.514176, 47.3663708], "type": "Point"}, "properties": {"address": "Talwiesenstrasse 92", "electric": 8, "id": "pb_446", "manual": 1, "name": "Binzallee", "provider": "publibike", "timeStamp": "02/12/2020, 09:48:59", "zip": 8055}, "type": "Feature"}, {"geometry": {"coordinates": [8.5070564, 47.371455], "type": "Point"}, "properties": {"address": "Gutstrasse 87", "electric": 6, "id": "pb_447", "manual": 0, "name": "Gutstrasse", "provider": "publibike", "timeStamp": "02/12/2020, 09:48:59", "zip": 8055}, "type": "Feature"}, {"geometry": {"coordinates": [8.4941268, 47.3836391], "type": "Point"}, "properties": {"address": "Flurstrasse 62", "electric": 3, "id": "pb_453", "manual": 2, "name": "Flurpark", "provider": "publibike", "timeStamp": "02/12/2020, 09:48:59", "zip": 8048}, "type": "Feature"}, {"geometry": {"coordinates": [8.500343, 47.380778], "type": "Point"}, "properties": {"address": "Edelweissstrasse 32", "electric": 7, "id": "pb_448", "manual": 4, "name": "Bl\u00fcemliquartier", "provider": "publibike", "timeStamp": "02/12/2020, 09:48:59", "zip": 8048}, "type": "Feature"}, {"geometry": {"coordinates": [8.528796, 47.383858], "type": "Point"}, "properties": {"address": "Gasometerstrasse 24", "electric": 1, "id": "pb_449", "manual": 3, "name": "Gasometerstrasse", "provider": "publibike", "timeStamp": "02/12/2020, 09:48:59", "zip": 8005}, "type": "Feature"}, {"geometry": {"coordinates": [8.4981964, 47.3859194], "type": "Point"}, "properties": {"address": "Baslerstrasse 57", "electric": 3, "id": "pb_455", "manual": 6, "name": "Letzipark", "provider": "publibike", "timeStamp": "02/12/2020, 09:48:59", "zip": 8048}, "type": "Feature"}, {"geometry": {"coordinates": [8.515252, 47.381915], "type": "Point"}, "properties": {"address": "Sihlfeldstrasse 175", "electric": 3, "id": "pb_451", "manual": 1, "name": "Hardplatz", "provider": "publibike", "timeStamp": "02/12/2020, 09:48:59", "zip": 8004}, "type": "Feature"}, {"geometry": {"coordinates": [8.5064743, 47.4188324], "type": "Point"}, "properties": {"address": "Wehntalerstrasse 541", "electric": 0, "id": "pb_427", "manual": 10, "name": "Zehntenhausplatz", "provider": "publibike", "timeStamp": "02/12/2020, 09:48:59", "zip": 8046}, "type": "Feature"}, {"geometry": {"coordinates": [8.537729, 47.379719], "type": "Point"}, "properties": {"address": "Sihlquai/HB", "electric": 2, "id": "pb_513", "manual": 5, "name": "Sihlquai", "provider": "publibike", "timeStamp": "02/12/2020, 09:48:59", "zip": 8005}, "type": "Feature"}, {"geometry": {"coordinates": [8.596202, 47.397885], "type": "Point"}, "properties": {"address": "Bahnhof Stettbach", "electric": 5, "id": "pb_514", "manual": 2, "name": "Bahnhof Stettbach", "provider": "publibike", "timeStamp": "02/12/2020, 09:48:59", "zip": 8051}, "type": "Feature"}, {"geometry": {"coordinates": [8.5543974, 47.3690153], "type": "Point"}, "properties": {"address": "Kasinostrasse 10", "electric": 4, "id": "pb_515", "manual": 1, "name": "Hottingerplatz", "provider": "publibike", "timeStamp": "02/12/2020, 09:48:59", "zip": 8032}, "type": "Feature"}, {"geometry": {"coordinates": [8.534444, 47.351525], "type": "Point"}, "properties": {"address": "Mobile Station Z\u00fcrich 1", "electric": 0, "id": "pb_282", "manual": 0, "name": "Theaterspektakel", "provider": "publibike", "timeStamp": "02/12/2020, 09:48:59", "zip": 8002}, "type": "Feature"}, {"geometry": {"coordinates": [8.516257, 47.367656], "type": "Point"}, "properties": {"address": "Goldbrunnenstrasse 54", "electric": 0, "id": "pb_538", "manual": 0, "name": "Kirche B\u00fchl", "provider": "publibike", "timeStamp": "02/12/2020, 09:48:59", "zip": 8055}, "type": "Feature"}, {"geometry": {"coordinates": [8.555639, 47.416873], "type": "Point"}, "properties": {"address": "Leutschenbachstrasse 50", "electric": 4, "id": "pb_537", "manual": 5, "name": "Leutschenpark", "provider": "publibike", "timeStamp": "02/12/2020, 09:48:59", "zip": 8050}, "type": "Feature"}, {"geometry": {"coordinates": [8.546464, 47.403822], "type": "Point"}, "properties": {"address": "Berninastrasse 45", "electric": 3, "id": "pb_540", "manual": 2, "name": "Berninaplatz", "provider": "publibike", "timeStamp": "02/12/2020, 09:48:59", "zip": 8057}, "type": "Feature"}, {"geometry": {"coordinates": [8.523134, 47.369004], "type": "Point"}, "properties": {"address": "Erlachstrasse 3", "electric": 1, "id": "pb_385", "manual": 5, "name": "Aegerten", "provider": "publibike", "timeStamp": "02/12/2020, 09:48:59", "zip": 8003}, "type": "Feature"}, {"geometry": {"coordinates": [8.49038, 47.381591], "type": "Point"}, "properties": {"address": "Rautistrasse 60", "electric": 13, "id": "pb_536", "manual": 4, "name": "Freilager", "provider": "publibike", "timeStamp": "02/12/2020, 09:48:59", "zip": 8048}, "type": "Feature"}, {"geometry": {"coordinates": [8.496511, 47.375247], "type": "Point"}, "properties": {"address": "Letzigraben 139", "electric": 6, "id": "pb_444", "manual": 3, "name": "Sackzelg", "provider": "publibike", "timeStamp": "02/12/2020, 09:48:59", "zip": 8047}, "type": "Feature"}, {"geometry": {"coordinates": [8.58131, 47.402801], "type": "Point"}, "properties": {"address": "Altwiesenstrasse 104", "electric": 3, "id": "pb_539", "manual": 2, "name": "Glattwiesen", "provider": "publibike", "timeStamp": "02/12/2020, 09:48:59", "zip": 8051}, "type": "Feature"}, {"geometry": {"coordinates": [8.52689, 47.3767], "type": "Point"}, "properties": {"address": "Molkenstrasse 5", "electric": 1, "id": "pb_560", "manual": 5, "name": "Helvetiaplatz", "provider": "publibike", "timeStamp": "02/12/2020, 09:48:59", "zip": 8004}, "type": "Feature"}, {"geometry": {"coordinates": [8.525602, 47.374241], "type": "Point"}, "properties": {"address": "Badenerstrasse 90", "electric": 2, "id": "pb_559", "manual": 2, "name": "Bezirksgeb\u00e4ude", "provider": "publibike", "timeStamp": "02/12/2020, 09:48:59", "zip": 8004}, "type": "Feature"}, {"geometry": {"coordinates": [8.535082, 47.345248], "type": "Point"}, "properties": {"address": "Bachstrasse 15", "electric": 4, "id": "pb_564", "manual": 5, "name": "GZ Wollishofen", "provider": "publibike", "timeStamp": "02/12/2020, 09:48:59", "zip": 8038}, "type": "Feature"}, {"geometry": {"coordinates": [8.514841, 47.370238], "type": "Point"}, "properties": {"address": "Schrennengasse 37", "electric": 2, "id": "pb_562", "manual": 3, "name": "Goldbrunnenplatz", "provider": "publibike", "timeStamp": "02/12/2020, 09:48:59", "zip": 8003}, "type": "Feature"}, {"geometry": {"coordinates": [8.514138, 47.374206], "type": "Point"}, "properties": {"address": "Idaplatz 4", "electric": 0, "id": "pb_557", "manual": 11, "name": "Idaplatz", "provider": "publibike", "timeStamp": "02/12/2020, 09:48:59", "zip": 8003}, "type": "Feature"}, {"geometry": {"coordinates": [8.518432, 47.369549], "type": "Point"}, "properties": {"address": "Brinerstrasse 2", "electric": 1, "id": "pb_558", "manual": 5, "name": "Schmiede Wiedikon", "provider": "publibike", "timeStamp": "02/12/2020, 09:48:59", "zip": 8003}, "type": "Feature"}, {"geometry": {"coordinates": [8.537546, 47.391289], "type": "Point"}, "properties": {"address": "Rotbuchstrasse 15", "electric": 5, "id": "pb_556", "manual": 3, "name": "Schaffhauserplatz", "provider": "publibike", "timeStamp": "02/12/2020, 09:48:59", "zip": 8006}, "type": "Feature"}, {"geometry": {"coordinates": [8.541541, 47.413733], "type": "Point"}, "properties": {"address": "Therese-Giehse-Strasse 11", "electric": 6, "id": "pb_561", "manual": 1, "name": "Center Eleven", "provider": "publibike", "timeStamp": "02/12/2020, 09:48:59", "zip": 8050}, "type": "Feature"}, {"geometry": {"coordinates": [8.534227, 47.360004], "type": "Point"}, "properties": {"address": "Alfred Escher-Strasse 76", "electric": 14, "id": "pb_563", "manual": 4, "name": "Mythenschloss", "provider": "publibike", "timeStamp": "02/12/2020, 09:48:59", "zip": 8002}, "type": "Feature"}, {"geometry": {"coordinates": [8.50373, 47.396172], "type": "Point"}, "properties": {"address": "Hardeggstrasse 6", "electric": 9, "id": "pb_566", "manual": 6, "name": "Am Wasser", "provider": "publibike", "timeStamp": "02/12/2020, 09:48:59", "zip": 8049}, "type": "Feature"}, {"geometry": {"coordinates": [8.532432, 47.381174], "type": "Point"}, "properties": {"address": "Klingenstrasse 9", "electric": 1, "id": "pb_565", "manual": 5, "name": "Zollstrasse", "provider": "publibike", "timeStamp": "02/12/2020, 09:48:59", "zip": 8005}, "type": "Feature"}, {"geometry": {"coordinates": [8.497982, 47.381447], "type": "Point"}, "properties": {"address": "Dennlerstrasse 23", "electric": 2, "id": "pb_567", "manual": 2, "name": "Dennlerstrasse", "provider": "publibike", "timeStamp": "02/12/2020, 09:48:59", "zip": 8047}, "type": "Feature"}, {"geometry": {"coordinates": [8.528049, 47.347701], "type": "Point"}, "properties": {"address": "Mutschellenstrasse 114", "electric": 9, "id": "pb_568", "manual": 3, "name": "Jugendherberge", "provider": "publibike", "timeStamp": "02/12/2020, 09:48:59", "zip": 8038}, "type": "Feature"}, {"geometry": {"coordinates": [8.539016, 47.405751], "type": "Point"}, "properties": {"address": "Ringstrasse 82", "electric": 0, "id": "pb_569", "manual": 4, "name": "Freibad Allenmoos", "provider": "publibike", "timeStamp": "02/12/2020, 09:48:59", "zip": 8057}, "type": "Feature"}, {"geometry": {"coordinates": [8.534974, 47.402164], "type": "Point"}, "properties": {"address": "Brache Guggach", "electric": 1, "id": "pb_572", "manual": 0, "name": "Radiostudio", "provider": "publibike", "timeStamp": "02/12/2020, 09:48:59", "zip": 8057}, "type": "Feature"}, {"geometry": {"coordinates": [8.547901, 47.375556], "type": "Point"}, "properties": {"address": "Karl-Schmid-Strasse 4", "electric": 4, "id": "pb_571", "manual": 0, "name": "ETH/Zoologisches Museum", "provider": "publibike", "timeStamp": "02/12/2020, 09:48:59", "zip": 8006}, "type": "Feature"}, {"geometry": {"coordinates": [8.5592, 47.379063], "type": "Point"}, "properties": {"charge": 56, "id": "smide_2901", "name": "ZH 267278", "provider": "smide", "range": 28.0, "size": 20, "time": "02/12/2020, 09:48:32"}, "type": "Feature"}, {"geometry": {"coordinates": [8.520623, 47.423938], "type": "Point"}, "properties": {"charge": 46, "id": "smide_2895", "name": "ZH 267279", "provider": "smide", "range": 23.0, "size": 20, "time": "02/12/2020, 09:48:32"}, "type": "Feature"}, {"geometry": {"coordinates": [8.547868, 47.368746], "type": "Point"}, "properties": {"charge": 46, "id": "smide_2880", "name": "ZH267289", "provider": "smide", "range": 23.0, "size": 17, "time": "02/12/2020, 09:48:32"}, "type": "Feature"}, {"geometry": {"coordinates": [8.529281, 47.3755], "type": "Point"}, "properties": {"charge": 80, "id": "smide_2874", "name": "ZH 267288", "provider": "smide", "range": 40.0, "size": 17, "time": "02/12/2020, 09:48:32"}, "type": "Feature"}, {"geometry": {"coordinates": [8.558335, 47.35686], "type": "Point"}, "properties": {"charge": 94, "id": "smide_2871", "name": "ZH 267086", "provider": "smide", "range": 47.0, "size": 20, "time": "02/12/2020, 09:48:32"}, "type": "Feature"}, {"geometry": {"coordinates": [8.51331, 47.429568], "type": "Point"}, "properties": {"charge": 19, "id": "smide_2867", "name": "ZH 267090", "provider": "smide", "range": 9.0, "size": 20, "time": "02/12/2020, 09:48:32"}, "type": "Feature"}, {"geometry": {"coordinates": [8.544613, 47.374408], "type": "Point"}, "properties": {"charge": 81, "id": "smide_2859", "name": "ZH 267098", "provider": "smide", "range": 40.0, "size": 17, "time": "02/12/2020, 09:48:32"}, "type": "Feature"}, {"geometry": {"coordinates": [8.542203, 47.372275], "type": "Point"}, "properties": {"charge": 45, "id": "smide_2856", "name": "ZH 267101", "provider": "smide", "range": 22.0, "size": 17, "time": "02/12/2020, 09:48:32"}, "type": "Feature"}, {"geometry": {"coordinates": [8.502248, 47.37031], "type": "Point"}, "properties": {"charge": 71, "id": "smide_2854", "name": "ZH 267103", "provider": "smide", "range": 35.0, "size": 17, "time": "02/12/2020, 09:48:32"}, "type": "Feature"}, {"geometry": {"coordinates": [8.555831, 47.384343], "type": "Point"}, "properties": {"charge": 89, "id": "smide_2833", "name": "ZH 267182", "provider": "smide", "range": 44.0, "size": 20, "time": "02/12/2020, 09:48:32"}, "type": "Feature"}, {"geometry": {"coordinates": [8.536651, 47.387198], "type": "Point"}, "properties": {"charge": 91, "id": "smide_2831", "name": "ZH 267180", "provider": "smide", "range": 45.0, "size": 20, "time": "02/12/2020, 09:48:32"}, "type": "Feature"}, {"geometry": {"coordinates": [8.574371, 47.348243], "type": "Point"}, "properties": {"charge": 98, "id": "smide_2804", "name": "ZH266903", "provider": "smide", "range": 49.0, "size": 20, "time": "02/12/2020, 09:48:32"}, "type": "Feature"}, {"geometry": {"coordinates": [8.494383, 47.367665], "type": "Point"}, "properties": {"charge": 91, "id": "smide_2793", "name": "ZH266883", "provider": "smide", "range": 45.0, "size": 17, "time": "02/12/2020, 09:48:32"}, "type": "Feature"}, {"geometry": {"coordinates": [8.508198, 47.407465], "type": "Point"}, "properties": {"charge": 57, "id": "smide_2790", "name": "ZH266880", "provider": "smide", "range": 28.0, "size": 17, "time": "02/12/2020, 09:48:32"}, "type": "Feature"}, {"geometry": {"coordinates": [8.540671, 47.397071], "type": "Point"}, "properties": {"charge": 73, "id": "smide_2785", "name": "ZH266875", "provider": "smide", "range": 36.0, "size": 17, "time": "02/12/2020, 09:48:32"}, "type": "Feature"}, {"geometry": {"coordinates": [8.506573, 47.360698], "type": "Point"}, "properties": {"charge": 76, "id": "smide_2780", "name": "ST1 X #1", "provider": "smide", "range": 38.0, "size": 17, "time": "02/12/2020, 09:48:32"}, "type": "Feature"}, {"geometry": {"coordinates": [8.483227, 47.388368], "type": "Point"}, "properties": {"charge": 100, "id": "smide_2775", "name": "ZH267283", "provider": "smide", "range": 50.0, "size": 20, "time": "02/12/2020, 09:48:32"}, "type": "Feature"}, {"geometry": {"coordinates": [8.498743, 47.388152], "type": "Point"}, "properties": {"charge": 100, "id": "smide_2773", "name": "ZH266561", "provider": "smide", "range": 50.0, "size": 17, "time": "02/12/2020, 09:48:32"}, "type": "Feature"}, {"geometry": {"coordinates": [8.503917, 47.39914], "type": "Point"}, "properties": {"charge": 95, "id": "smide_2771", "name": "ZH266559", "provider": "smide", "range": 47.0, "size": 17, "time": "02/12/2020, 09:48:32"}, "type": "Feature"}, {"geometry": {"coordinates": [8.501928, 47.398072], "type": "Point"}, "properties": {"charge": 97, "id": "smide_2763", "name": "ZH266641", "provider": "smide", "range": 48.0, "size": 17, "time": "02/12/2020, 09:48:32"}, "type": "Feature"}, {"geometry": {"coordinates": [8.555741, 47.384191], "type": "Point"}, "properties": {"charge": 83, "id": "smide_2761", "name": "ZH266642", "provider": "smide", "range": 41.0, "size": 20, "time": "02/12/2020, 09:48:32"}, "type": "Feature"}, {"geometry": {"coordinates": [8.506198, 47.379496], "type": "Point"}, "properties": {"charge": 51, "id": "smide_2759", "name": "ZH266639", "provider": "smide", "range": 25.0, "size": 17, "time": "02/12/2020, 09:48:32"}, "type": "Feature"}, {"geometry": {"coordinates": [8.574209, 47.348244], "type": "Point"}, "properties": {"charge": 98, "id": "smide_2758", "name": "ZH266638 M", "provider": "smide", "range": 49.0, "size": 17, "time": "02/12/2020, 09:48:32"}, "type": "Feature"}, {"geometry": {"coordinates": [8.566552, 47.347588], "type": "Point"}, "properties": {"charge": 97, "id": "smide_2752", "name": "BE343856", "provider": "smide", "range": 48.0, "size": 17, "time": "02/12/2020, 09:48:32"}, "type": "Feature"}, {"geometry": {"coordinates": [8.503407, 47.396784], "type": "Point"}, "properties": {"charge": 89, "id": "smide_2751", "name": "BE343857", "provider": "smide", "range": 44.0, "size": 17, "time": "02/12/2020, 09:48:32"}, "type": "Feature"}, {"geometry": {"coordinates": [8.513112, 47.366324], "type": "Point"}, "properties": {"charge": 90, "id": "smide_2749", "name": "BE343867", "provider": "smide", "range": 45.0, "size": 17, "time": "02/12/2020, 09:48:32"}, "type": "Feature"}, {"geometry": {"coordinates": [8.47488, 47.385456], "type": "Point"}, "properties": {"charge": 57, "id": "smide_2748", "name": "BE335758", "provider": "smide", "range": 28.0, "size": 17, "time": "02/12/2020, 09:48:32"}, "type": "Feature"}, {"geometry": {"coordinates": [8.567188, 47.382812], "type": "Point"}, "properties": {"charge": 100, "id": "smide_2746", "name": "BE335817", "provider": "smide", "range": 50.0, "size": 17, "time": "02/12/2020, 09:48:32"}, "type": "Feature"}, {"geometry": {"coordinates": [8.48259, 47.384628], "type": "Point"}, "properties": {"charge": 81, "id": "smide_2747", "name": "BE335820", "provider": "smide", "range": 40.0, "size": 17, "time": "02/12/2020, 09:48:32"}, "type": "Feature"}, {"geometry": {"coordinates": [8.494617, 47.383768], "type": "Point"}, "properties": {"charge": 30, "id": "smide_2745", "name": "BE335818", "provider": "smide", "range": 15.0, "size": 17, "time": "02/12/2020, 09:48:32"}, "type": "Feature"}, {"geometry": {"coordinates": [8.572538, 47.380784], "type": "Point"}, "properties": {"charge": 75, "id": "smide_2742", "name": "BE343866", "provider": "smide", "range": 37.0, "size": 17, "time": "02/12/2020, 09:48:32"}, "type": "Feature"}, {"geometry": {"coordinates": [8.5634, 47.382432], "type": "Point"}, "properties": {"charge": 51, "id": "smide_2741", "name": "BE343874", "provider": "smide", "range": 25.0, "size": 17, "time": "02/12/2020, 09:48:32"}, "type": "Feature"}, {"geometry": {"coordinates": [8.535973, 47.371491], "type": "Point"}, "properties": {"charge": 38, "id": "smide_2738", "name": "BE343865", "provider": "smide", "range": 19.0, "size": 17, "time": "02/12/2020, 09:48:32"}, "type": "Feature"}, {"geometry": {"coordinates": [8.540174, 47.379076], "type": "Point"}, "properties": {"charge": 100, "id": "smide_2737", "name": "BE336149", "provider": "smide", "range": 50.0, "size": 17, "time": "02/12/2020, 09:48:32"}, "type": "Feature"}, {"geometry": {"coordinates": [8.517807, 47.38556], "type": "Point"}, "properties": {"charge": 85, "id": "smide_2733", "name": "BE343873", "provider": "smide", "range": 42.0, "size": 17, "time": "02/12/2020, 09:48:32"}, "type": "Feature"}, {"geometry": {"coordinates": [8.57641, 47.35118], "type": "Point"}, "properties": {"charge": 62, "id": "smide_2729", "name": "BE343878", "provider": "smide", "range": 31.0, "size": 17, "time": "02/12/2020, 09:48:32"}, "type": "Feature"}, {"geometry": {"coordinates": [8.544935, 47.37481], "type": "Point"}, "properties": {"charge": 19, "id": "smide_2725", "name": "ZH261545", "provider": "smide", "range": 9.0, "size": 0, "time": "02/12/2020, 09:48:32"}, "type": "Feature"}, {"geometry": {"coordinates": [8.53697, 47.373745], "type": "Point"}, "properties": {"charge": 98, "id": "smide_2718", "name": "ZH259019", "provider": "smide", "range": 49.0, "size": 20, "time": "02/12/2020, 09:48:32"}, "type": "Feature"}, {"geometry": {"coordinates": [8.554469, 47.36784], "type": "Point"}, "properties": {"charge": 74, "id": "smide_2717", "name": "ZH263287", "provider": "smide", "range": 37.0, "size": 17, "time": "02/12/2020, 09:48:32"}, "type": "Feature"}, {"geometry": {"coordinates": [8.536755, 47.380123], "type": "Point"}, "properties": {"charge": 56, "id": "smide_2716", "name": "ZH254606", "provider": "smide", "range": 28.0, "size": 17, "time": "02/12/2020, 09:48:32"}, "type": "Feature"}, {"geometry": {"coordinates": [8.552465, 47.375792], "type": "Point"}, "properties": {"charge": 26, "id": "smide_2710", "name": "ZH256460", "provider": "smide", "range": 13.0, "size": 17, "time": "02/12/2020, 09:48:32"}, "type": "Feature"}, {"geometry": {"coordinates": [8.548007, 47.36878], "type": "Point"}, "properties": {"charge": 61, "id": "smide_2707", "name": "ZH256467", "provider": "smide", "range": 30.0, "size": 20, "time": "02/12/2020, 09:48:32"}, "type": "Feature"}, {"geometry": {"coordinates": [8.487466, 47.367672], "type": "Point"}, "properties": {"charge": 80, "id": "smide_2708", "name": "ZH256464", "provider": "smide", "range": 40.0, "size": 17, "time": "02/12/2020, 09:48:32"}, "type": "Feature"}, {"geometry": {"coordinates": [8.517688, 47.414372], "type": "Point"}, "properties": {"charge": 69, "id": "smide_2699", "name": "ZH254611", "provider": "smide", "range": 34.0, "size": 20, "time": "02/12/2020, 09:48:32"}, "type": "Feature"}, {"geometry": {"coordinates": [8.48426, 47.396948], "type": "Point"}, "properties": {"charge": 20, "id": "smide_2697", "name": "ZH254629", "provider": "smide", "range": 10.0, "size": 20, "time": "02/12/2020, 09:48:32"}, "type": "Feature"}, {"geometry": {"coordinates": [8.544896, 47.419], "type": "Point"}, "properties": {"charge": 93, "id": "smide_2696", "name": "ZH254616", "provider": "smide", "range": 46.0, "size": 20, "time": "02/12/2020, 09:48:32"}, "type": "Feature"}, {"geometry": {"coordinates": [8.572651, 47.38085], "type": "Point"}, "properties": {"charge": 100, "id": "smide_2691", "name": "ZH254622", "provider": "smide", "range": 50.0, "size": 20, "time": "02/12/2020, 09:48:32"}, "type": "Feature"}, {"geometry": {"coordinates": [8.535555, 47.39965], "type": "Point"}, "properties": {"charge": 67, "id": "smide_2690", "name": "ZH254625", "provider": "smide", "range": 33.0, "size": 20, "time": "02/12/2020, 09:48:32"}, "type": "Feature"}, {"geometry": {"coordinates": [8.483499, 47.374604], "type": "Point"}, "properties": {"charge": 67, "id": "smide_2687", "name": "ZH263529", "provider": "smide", "range": 33.0, "size": 20, "time": "02/12/2020, 09:48:32"}, "type": "Feature"}, {"geometry": {"coordinates": [8.512009, 47.393804], "type": "Point"}, "properties": {"charge": 50, "id": "smide_2684", "name": "ZH254626", "provider": "smide", "range": 25.0, "size": 20, "time": "02/12/2020, 09:48:32"}, "type": "Feature"}, {"geometry": {"coordinates": [8.561726, 47.362848], "type": "Point"}, "properties": {"charge": 90, "id": "smide_2680", "name": "ZH254619", "provider": "smide", "range": 45.0, "size": 20, "time": "02/12/2020, 09:48:32"}, "type": "Feature"}, {"geometry": {"coordinates": [8.56952, 47.352088], "type": "Point"}, "properties": {"charge": 84, "id": "smide_2679", "name": "ZH258489", "provider": "smide", "range": 42.0, "size": 17, "time": "02/12/2020, 09:48:32"}, "type": "Feature"}, {"geometry": {"coordinates": [8.560878, 47.384236], "type": "Point"}, "properties": {"charge": 100, "id": "smide_2674", "name": "ZH258654", "provider": "smide", "range": 50.0, "size": 17, "time": "02/12/2020, 09:48:32"}, "type": "Feature"}, {"geometry": {"coordinates": [8.539632, 47.39976], "type": "Point"}, "properties": {"charge": 67, "id": "smide_2671", "name": "ZH258645", "provider": "smide", "range": 33.0, "size": 17, "time": "02/12/2020, 09:48:32"}, "type": "Feature"}, {"geometry": {"coordinates": [8.548351, 47.377896], "type": "Point"}, "properties": {"charge": 45, "id": "smide_2669", "name": "ZH263294", "provider": "smide", "range": 22.0, "size": 17, "time": "02/12/2020, 09:48:32"}, "type": "Feature"}, {"geometry": {"coordinates": [8.502016, 47.36918], "type": "Point"}, "properties": {"charge": 80, "id": "smide_2666", "name": "ZH258653", "provider": "smide", "range": 40.0, "size": 17, "time": "02/12/2020, 09:48:32"}, "type": "Feature"}, {"geometry": {"coordinates": [8.572918, 47.352892], "type": "Point"}, "properties": {"charge": 100, "id": "smide_2665", "name": "ZH258644", "provider": "smide", "range": 50.0, "size": 17, "time": "02/12/2020, 09:48:32"}, "type": "Feature"}, {"geometry": {"coordinates": [8.523214, 47.378544], "type": "Point"}, "properties": {"charge": 88, "id": "smide_2664", "name": "ZH258652", "provider": "smide", "range": 44.0, "size": 17, "time": "02/12/2020, 09:48:32"}, "type": "Feature"}, {"geometry": {"coordinates": [8.53354, 47.412152], "type": "Point"}, "properties": {"charge": 52, "id": "smide_2663", "name": "ZH258649", "provider": "smide", "range": 26.0, "size": 17, "time": "02/12/2020, 09:48:32"}, "type": "Feature"}, {"geometry": {"coordinates": [8.569337, 47.373008], "type": "Point"}, "properties": {"charge": 61, "id": "smide_2662", "name": "ZH258643", "provider": "smide", "range": 30.0, "size": 17, "time": "02/12/2020, 09:48:32"}, "type": "Feature"}, {"geometry": {"coordinates": [8.487311, 47.384376], "type": "Point"}, "properties": {"charge": 71, "id": "smide_2660", "name": "ZH258647", "provider": "smide", "range": 35.0, "size": 17, "time": "02/12/2020, 09:48:32"}, "type": "Feature"}, {"geometry": {"coordinates": [8.525956, 47.36504], "type": "Point"}, "properties": {"charge": 91, "id": "smide_2648", "name": "ZH257930", "provider": "smide", "range": 45.0, "size": 20, "time": "02/12/2020, 09:48:32"}, "type": "Feature"}, {"geometry": {"coordinates": [8.547736, 47.412356], "type": "Point"}, "properties": {"charge": 62, "id": "smide_2647", "name": "ZH257932", "provider": "smide", "range": 31.0, "size": 20, "time": "02/12/2020, 09:48:32"}, "type": "Feature"}, {"geometry": {"coordinates": [8.502112, 47.368932], "type": "Point"}, "properties": {"charge": 74, "id": "smide_2645", "name": "ZH257933", "provider": "smide", "range": 37.0, "size": 20, "time": "02/12/2020, 09:48:32"}, "type": "Feature"}, {"geometry": {"coordinates": [8.502211, 47.367728], "type": "Point"}, "properties": {"charge": 100, "id": "smide_3", "name": "ZH253765", "provider": "smide", "range": 50.0, "size": 20, "time": "02/12/2020, 09:48:32"}, "type": "Feature"}, {"geometry": {"coordinates": [8.511408, 47.409108], "type": "Point"}, "properties": {"charge": 91, "id": "smide_105", "name": "ZH253804", "provider": "smide", "range": 45.0, "size": 17, "time": "02/12/2020, 09:48:32"}, "type": "Feature"}, {"geometry": {"coordinates": [8.501936, 47.398092], "type": "Point"}, "properties": {"charge": 26, "id": "smide_186", "name": "ZH253751", "provider": "smide", "range": 13.0, "size": 20, "time": "02/12/2020, 09:48:32"}, "type": "Feature"}, {"geometry": {"coordinates": [8.559244, 47.406124], "type": "Point"}, "properties": {"charge": 93, "id": "smide_77", "name": "ZH261548", "provider": "smide", "range": 46.0, "size": 20, "time": "02/12/2020, 09:48:32"}, "type": "Feature"}, {"geometry": {"coordinates": [8.500605, 47.369461], "type": "Point"}, "properties": {"charge": 100, "id": "smide_197", "name": "ZH253864", "provider": "smide", "range": 50.0, "size": 20, "time": "02/12/2020, 09:48:32"}, "type": "Feature"}, {"geometry": {"coordinates": [8.532081, 47.372103], "type": "Point"}, "properties": {"charge": 86, "id": "smide_199", "name": "ZH253766", "provider": "smide", "range": 43.0, "size": 20, "time": "02/12/2020, 09:48:32"}, "type": "Feature"}, {"geometry": {"coordinates": [8.503507, 47.386556], "type": "Point"}, "properties": {"charge": 93, "id": "smide_8", "name": "ZH253861", "provider": "smide", "range": 46.0, "size": 17, "time": "02/12/2020, 09:48:32"}, "type": "Feature"}, {"geometry": {"coordinates": [8.48946, 47.3815], "type": "Point"}, "properties": {"charge": 84, "id": "smide_201", "name": "ZH253698", "provider": "smide", "range": 42.0, "size": 17, "time": "02/12/2020, 09:48:32"}, "type": "Feature"}, {"geometry": {"coordinates": [8.535748, 47.363932], "type": "Point"}, "properties": {"charge": 33, "id": "smide_71", "name": "ZH253742", "provider": "smide", "range": 16.0, "size": 20, "time": "02/12/2020, 09:48:32"}, "type": "Feature"}, {"geometry": {"coordinates": [8.524079, 47.37838], "type": "Point"}, "properties": {"charge": 71, "id": "smide_101", "name": "ZH253814", "provider": "smide", "range": 35.0, "size": 17, "time": "02/12/2020, 09:48:32"}, "type": "Feature"}, {"geometry": {"coordinates": [8.531487, 47.39118], "type": "Point"}, "properties": {"charge": 45, "id": "smide_9", "name": "ZH253796", "provider": "smide", "range": 22.0, "size": 17, "time": "02/12/2020, 09:48:32"}, "type": "Feature"}, {"geometry": {"coordinates": [8.529881, 47.373624], "type": "Point"}, "properties": {"charge": 29, "id": "smide_143", "name": "ZH253778", "provider": "smide", "range": 14.0, "size": 17, "time": "02/12/2020, 09:48:32"}, "type": "Feature"}, {"geometry": {"coordinates": [8.545481, 47.374661], "type": "Point"}, "properties": {"charge": 65, "id": "smide_180", "name": "ZH253824", "provider": "smide", "range": 32.0, "size": 20, "time": "02/12/2020, 09:48:32"}, "type": "Feature"}, {"geometry": {"coordinates": [8.5325, 47.364808], "type": "Point"}, "properties": {"charge": 100, "id": "smide_20", "name": "ZH253770", "provider": "smide", "range": 50.0, "size": 20, "time": "02/12/2020, 09:48:32"}, "type": "Feature"}, {"geometry": {"coordinates": [8.525885, 47.3651], "type": "Point"}, "properties": {"charge": 60, "id": "smide_30", "name": "ZH253813", "provider": "smide", "range": 30.0, "size": 20, "time": "02/12/2020, 09:48:32"}, "type": "Feature"}, {"geometry": {"coordinates": [8.558858, 47.414581], "type": "Point"}, "properties": {"charge": 98, "id": "smide_10", "name": "ZH253855", "provider": "smide", "range": 49.0, "size": 17, "time": "02/12/2020, 09:48:32"}, "type": "Feature"}, {"geometry": {"coordinates": [8.507862, 47.398248], "type": "Point"}, "properties": {"charge": 100, "id": "smide_179", "name": "ZH253687", "provider": "smide", "range": 50.0, "size": 20, "time": "02/12/2020, 09:48:32"}, "type": "Feature"}, {"geometry": {"coordinates": [8.56317, 47.372112], "type": "Point"}, "properties": {"charge": 100, "id": "smide_84", "name": "ZH253733", "provider": "smide", "range": 50.0, "size": 17, "time": "02/12/2020, 09:48:32"}, "type": "Feature"}, {"geometry": {"coordinates": [8.528948, 47.375108], "type": "Point"}, "properties": {"charge": 67, "id": "smide_35", "name": "ZH253755", "provider": "smide", "range": 33.0, "size": 20, "time": "02/12/2020, 09:48:32"}, "type": "Feature"}, {"geometry": {"coordinates": [8.546415, 47.374196], "type": "Point"}, "properties": {"charge": 16, "id": "smide_119", "name": "ZH253686", "provider": "smide", "range": 8.0, "size": 20, "time": "02/12/2020, 09:48:32"}, "type": "Feature"}, {"geometry": {"coordinates": [8.496974, 47.365988], "type": "Point"}, "properties": {"charge": 91, "id": "smide_76", "name": "ZH253764", "provider": "smide", "range": 45.0, "size": 17, "time": "02/12/2020, 09:48:32"}, "type": "Feature"}, {"geometry": {"coordinates": [8.52958, 47.379752], "type": "Point"}, "properties": {"charge": 36, "id": "smide_129", "name": "ZH261378", "provider": "smide", "range": 18.0, "size": 17, "time": "02/12/2020, 09:48:32"}, "type": "Feature"}, {"geometry": {"coordinates": [8.568085, 47.367821], "type": "Point"}, "properties": {"charge": 71, "id": "smide_49", "name": "ZH253873", "provider": "smide", "range": 35.0, "size": 17, "time": "02/12/2020, 09:48:32"}, "type": "Feature"}, {"geometry": {"coordinates": [8.501513, 47.422696], "type": "Point"}, "properties": {"charge": 22, "id": "smide_37", "name": "ZH261377", "provider": "smide", "range": 11.0, "size": 20, "time": "02/12/2020, 09:48:32"}, "type": "Feature"}, {"geometry": {"coordinates": [8.538598, 47.3738], "type": "Point"}, "properties": {"charge": 66, "id": "smide_191", "name": "ZH253762", "provider": "smide", "range": 33.0, "size": 17, "time": "02/12/2020, 09:48:32"}, "type": "Feature"}, {"geometry": {"coordinates": [8.513003, 47.391655], "type": "Point"}, "properties": {"charge": 61, "id": "smide_202", "name": "ZH253830", "provider": "smide", "range": 30.0, "size": 17, "time": "02/12/2020, 09:48:32"}, "type": "Feature"}, {"geometry": {"coordinates": [8.478458, 47.3897], "type": "Point"}, "properties": {"charge": 91, "id": "smide_66", "name": "ZH253818", "provider": "smide", "range": 45.0, "size": 20, "time": "02/12/2020, 09:48:32"}, "type": "Feature"}, {"geometry": {"coordinates": [8.496823, 47.362661], "type": "Point"}, "properties": {"charge": 85, "id": "smide_17", "name": "ZH253793", "provider": "smide", "range": 42.0, "size": 17, "time": "02/12/2020, 09:48:32"}, "type": "Feature"}, {"geometry": {"coordinates": [8.548543, 47.377793], "type": "Point"}, "properties": {"charge": 67, "id": "smide_145", "name": "ZH253780", "provider": "smide", "range": 33.0, "size": 20, "time": "02/12/2020, 09:48:32"}, "type": "Feature"}, {"geometry": {"coordinates": [8.533096, 47.41734], "type": "Point"}, "properties": {"charge": 20, "id": "smide_203", "name": "ZH261547", "provider": "smide", "range": 10.0, "size": 17, "time": "02/12/2020, 09:48:32"}, "type": "Feature"}, {"geometry": {"coordinates": [8.541403, 47.38164], "type": "Point"}, "properties": {"charge": 77, "id": "smide_21", "name": "ZH253841", "provider": "smide", "range": 38.0, "size": 17, "time": "02/12/2020, 09:48:32"}, "type": "Feature"}, {"geometry": {"coordinates": [8.476791, 47.387372], "type": "Point"}, "properties": {"charge": 93, "id": "smide_164", "name": "ZH253775", "provider": "smide", "range": 46.0, "size": 17, "time": "02/12/2020, 09:48:32"}, "type": "Feature"}, {"geometry": {"coordinates": [8.513169, 47.391808], "type": "Point"}, "properties": {"charge": 62, "id": "smide_189", "name": "ZH253845", "provider": "smide", "range": 31.0, "size": 20, "time": "02/12/2020, 09:48:32"}, "type": "Feature"}, {"geometry": {"coordinates": [8.527875, 47.384484], "type": "Point"}, "properties": {"charge": 76, "id": "smide_81", "name": "ZH253753", "provider": "smide", "range": 38.0, "size": 17, "time": "02/12/2020, 09:48:32"}, "type": "Feature"}, {"geometry": {"coordinates": [8.546438, 47.36722], "type": "Point"}, "properties": {"charge": 47, "id": "smide_171", "name": "ZH253689", "provider": "smide", "range": 23.0, "size": 20, "time": "02/12/2020, 09:48:32"}, "type": "Feature"}, {"geometry": {"coordinates": [8.536482, 47.380484], "type": "Point"}, "properties": {"charge": 80, "id": "smide_93", "name": "ZH253681", "provider": "smide", "range": 40.0, "size": 17, "time": "02/12/2020, 09:48:32"}, "type": "Feature"}, {"geometry": {"coordinates": [8.522223, 47.385944], "type": "Point"}, "properties": {"charge": 97, "id": "smide_67", "name": "ZH253779", "provider": "smide", "range": 48.0, "size": 17, "time": "02/12/2020, 09:48:32"}, "type": "Feature"}, {"geometry": {"coordinates": [8.54853, 47.362052], "type": "Point"}, "properties": {"charge": 100, "id": "smide_133", "name": "ZH253848", "provider": "smide", "range": 50.0, "size": 20, "time": "02/12/2020, 09:48:32"}, "type": "Feature"}, {"geometry": {"coordinates": [8.491331, 47.386166], "type": "Point"}, "properties": {"charge": 79, "id": "smide_118", "name": "ZH253759", "provider": "smide", "range": 39.0, "size": 20, "time": "02/12/2020, 09:48:32"}, "type": "Feature"}, {"geometry": {"coordinates": [8.502016, 47.368948], "type": "Point"}, "properties": {"charge": 73, "id": "smide_142", "name": "ZH258745", "provider": "smide", "range": 36.0, "size": 17, "time": "02/12/2020, 09:48:32"}, "type": "Feature"}, {"geometry": {"coordinates": [8.535716, 47.407645], "type": "Point"}, "properties": {"charge": 81, "id": "smide_166", "name": "ZH253728", "provider": "smide", "range": 40.0, "size": 17, "time": "02/12/2020, 09:48:32"}, "type": "Feature"}, {"geometry": {"coordinates": [8.550592, 47.362712], "type": "Point"}, "properties": {"charge": 45, "id": "smide_126", "name": "ZH268400", "provider": "smide", "range": 22.0, "size": 17, "time": "02/12/2020, 09:48:32"}, "type": "Feature"}, {"geometry": {"coordinates": [8.524803, 47.341141], "type": "Point"}, "properties": {"charge": 94, "id": "smide_44", "name": "ZH253837", "provider": "smide", "range": 47.0, "size": 17, "time": "02/12/2020, 09:48:32"}, "type": "Feature"}, {"geometry": {"coordinates": [8.517646, 47.378026], "type": "Point"}, "properties": {"charge": 92, "id": "smide_98", "name": "ZH256321", "provider": "smide", "range": 46.0, "size": 17, "time": "02/12/2020, 09:48:32"}, "type": "Feature"}, {"geometry": {"coordinates": [8.527248, 47.397364], "type": "Point"}, "properties": {"charge": 55, "id": "smide_92", "name": "ZH253798", "provider": "smide", "range": 27.0, "size": 17, "time": "02/12/2020, 09:48:32"}, "type": "Feature"}, {"geometry": {"coordinates": [8.55356, 47.397624], "type": "Point"}, "properties": {"charge": 49, "id": "smide_65", "name": "ZH253810", "provider": "smide", "range": 24.0, "size": 17, "time": "02/12/2020, 09:48:32"}, "type": "Feature"}, {"geometry": {"coordinates": [8.543186, 47.402564], "type": "Point"}, "properties": {"charge": 88, "id": "smide_111", "name": "ZH253763", "provider": "smide", "range": 44.0, "size": 17, "time": "02/12/2020, 09:48:32"}, "type": "Feature"}, {"geometry": {"coordinates": [8.575797, 47.348856], "type": "Point"}, "properties": {"charge": 22, "id": "smide_40", "name": "ZH253690", "provider": "smide", "range": 11.0, "size": 20, "time": "02/12/2020, 09:48:32"}, "type": "Feature"}, {"geometry": {"coordinates": [8.517122, 47.389836], "type": "Point"}, "properties": {"charge": 38, "id": "smide_1", "name": "ZH253776", "provider": "smide", "range": 19.0, "size": 17, "time": "02/12/2020, 09:48:32"}, "type": "Feature"}, {"geometry": {"coordinates": [8.5197, 47.340058], "type": "Point"}, "properties": {"charge": 77, "id": "smide_14", "name": "ZH253749", "provider": "smide", "range": 38.0, "size": 20, "time": "02/12/2020, 09:48:32"}, "type": "Feature"}, {"geometry": {"coordinates": [8.499232, 47.3708], "type": "Point"}, "properties": {"charge": 74, "id": "smide_130", "name": "ZH253847", "provider": "smide", "range": 37.0, "size": 20, "time": "02/12/2020, 09:48:32"}, "type": "Feature"}, {"geometry": {"coordinates": [8.514385, 47.357372], "type": "Point"}, "properties": {"charge": 62, "id": "smide_107", "name": "ZH253819", "provider": "smide", "range": 31.0, "size": 17, "time": "02/12/2020, 09:48:32"}, "type": "Feature"}, {"geometry": {"coordinates": [8.517652, 47.391912], "type": "Point"}, "properties": {"charge": 88, "id": "smide_136", "name": "ZH253682", "provider": "smide", "range": 44.0, "size": 17, "time": "02/12/2020, 09:48:32"}, "type": "Feature"}, {"geometry": {"coordinates": [8.569493, 47.352052], "type": "Point"}, "properties": {"charge": 65, "id": "smide_83", "name": "ZH253869", "provider": "smide", "range": 32.0, "size": 20, "time": "02/12/2020, 09:48:32"}, "type": "Feature"}, {"geometry": {"coordinates": [8.535955, 47.371484], "type": "Point"}, "properties": {"charge": 62, "id": "smide_205", "name": "ZH253805", "provider": "smide", "range": 31.0, "size": 17, "time": "02/12/2020, 09:48:32"}, "type": "Feature"}, {"geometry": {"coordinates": [8.540186, 47.378735], "type": "Point"}, "properties": {"charge": 100, "id": "smide_158", "name": "ZH253870", "provider": "smide", "range": 50.0, "size": 20, "time": "02/12/2020, 09:48:32"}, "type": "Feature"}, {"geometry": {"coordinates": [8.544446, 47.379532], "type": "Point"}, "properties": {"charge": 87, "id": "smide_100", "name": "ZH253862", "provider": "smide", "range": 43.0, "size": 20, "time": "02/12/2020, 09:48:32"}, "type": "Feature"}, {"geometry": {"coordinates": [8.502156, 47.37926], "type": "Point"}, "properties": {"charge": 60, "id": "smide_134", "name": "ZH253741", "provider": "smide", "range": 30.0, "size": 20, "time": "02/12/2020, 09:48:32"}, "type": "Feature"}, {"geometry": {"coordinates": [8.557878, 47.352628], "type": "Point"}, "properties": {"charge": 42, "id": "smide_141", "name": "ZH253800", "provider": "smide", "range": 21.0, "size": 20, "time": "02/12/2020, 09:48:32"}, "type": "Feature"}, {"geometry": {"coordinates": [8.573074, 47.351488], "type": "Point"}, "properties": {"charge": 61, "id": "smide_16", "name": "ZH253713", "provider": "smide", "range": 30.0, "size": 20, "time": "02/12/2020, 09:48:32"}, "type": "Feature"}, {"geometry": {"coordinates": [8.582234, 47.35188], "type": "Point"}, "properties": {"charge": 87, "id": "smide_74", "name": "ZH253693", "provider": "smide", "range": 43.0, "size": 20, "time": "02/12/2020, 09:48:32"}, "type": "Feature"}, {"geometry": {"coordinates": [8.513594, 47.392748], "type": "Point"}, "properties": {"charge": 87, "id": "smide_161", "name": "ZH253691", "provider": "smide", "range": 43.0, "size": 20, "time": "02/12/2020, 09:48:32"}, "type": "Feature"}, {"geometry": {"coordinates": [8.54533, 47.370884], "type": "Point"}, "properties": {"charge": 33, "id": "smide_42", "name": "ZH253846", "provider": "smide", "range": 16.0, "size": 20, "time": "02/12/2020, 09:48:32"}, "type": "Feature"}, {"geometry": {"coordinates": [8.497005, 47.392256], "type": "Point"}, "properties": {"charge": 92, "id": "smide_160", "name": "ZH253722", "provider": "smide", "range": 46.0, "size": 17, "time": "02/12/2020, 09:48:32"}, "type": "Feature"}, {"geometry": {"coordinates": [8.514333, 47.357146], "type": "Point"}, "properties": {"charge": 84, "id": "smide_137", "name": "ZH258502", "provider": "smide", "range": 42.0, "size": 17, "time": "02/12/2020, 09:48:32"}, "type": "Feature"}, {"geometry": {"coordinates": [8.542076, 47.424632], "type": "Point"}, "properties": {"charge": 69, "id": "smide_178", "name": "ZH253803", "provider": "smide", "range": 34.0, "size": 17, "time": "02/12/2020, 09:48:32"}, "type": "Feature"}, {"geometry": {"coordinates": [8.553701, 47.397575], "type": "Point"}, "properties": {"charge": 47, "id": "smide_55", "name": "ZH253875", "provider": "smide", "range": 23.0, "size": 17, "time": "02/12/2020, 09:48:32"}, "type": "Feature"}, {"geometry": {"coordinates": [8.556787, 47.40764], "type": "Point"}, "properties": {"charge": 100, "id": "smide_96", "name": "ZH256146", "provider": "smide", "range": 50.0, "size": 20, "time": "02/12/2020, 09:48:32"}, "type": "Feature"}, {"geometry": {"coordinates": [8.496938, 47.383556], "type": "Point"}, "properties": {"charge": 93, "id": "smide_58", "name": "ZH259246", "provider": "smide", "range": 46.0, "size": 20, "time": "02/12/2020, 09:48:32"}, "type": "Feature"}, {"geometry": {"coordinates": [8.501278, 47.384092], "type": "Point"}, "properties": {"charge": 79, "id": "smide_54", "name": "ZH253874", "provider": "smide", "range": 39.0, "size": 20, "time": "02/12/2020, 09:48:32"}, "type": "Feature"}, {"geometry": {"coordinates": [8.522068, 47.394516], "type": "Point"}, "properties": {"charge": 97, "id": "smide_175", "name": "ZH253730", "provider": "smide", "range": 48.0, "size": 17, "time": "02/12/2020, 09:48:32"}, "type": "Feature"}, {"geometry": {"coordinates": [8.537573, 47.368408], "type": "Point"}, "properties": {"charge": 86, "id": "smide_162", "name": "ZH253760", "provider": "smide", "range": 43.0, "size": 17, "time": "02/12/2020, 09:48:32"}, "type": "Feature"}, {"geometry": {"coordinates": [8.509427, 47.39528], "type": "Point"}, "properties": {"charge": 80, "id": "smide_95", "name": "ZH253773", "provider": "smide", "range": 40.0, "size": 17, "time": "02/12/2020, 09:48:32"}, "type": "Feature"}, {"geometry": {"coordinates": [8.523925, 47.358448], "type": "Point"}, "properties": {"charge": 70, "id": "smide_163", "name": "ZH256147", "provider": "smide", "range": 35.0, "size": 20, "time": "02/12/2020, 09:48:32"}, "type": "Feature"}, {"geometry": {"coordinates": [8.534369, 47.416852], "type": "Point"}, "properties": {"charge": 48, "id": "smide_112", "name": "ZH263530", "provider": "smide", "range": 24.0, "size": 20, "time": "02/12/2020, 09:48:32"}, "type": "Feature"}, {"geometry": {"coordinates": [8.56207, 47.415], "type": "Point"}, "properties": {"charge": 91, "id": "smide_38", "name": "ZH253851", "provider": "smide", "range": 45.0, "size": 20, "time": "02/12/2020, 09:48:32"}, "type": "Feature"}, {"geometry": {"coordinates": [8.55769, 47.40444], "type": "Point"}, "properties": {"charge": 55, "id": "smide_6", "name": "ZH253787", "provider": "smide", "range": 27.0, "size": 17, "time": "02/12/2020, 09:48:32"}, "type": "Feature"}, {"geometry": {"coordinates": [8.551355, 47.385504], "type": "Point"}, "properties": {"charge": 65, "id": "smide_18", "name": "ZH253859", "provider": "smide", "range": 32.0, "size": 17, "time": "02/12/2020, 09:48:32"}, "type": "Feature"}, {"geometry": {"coordinates": [8.498238, 47.358324], "type": "Point"}, "properties": {"charge": 61, "id": "smide_12", "name": "ZH253685", "provider": "smide", "range": 30.0, "size": 17, "time": "02/12/2020, 09:48:32"}, "type": "Feature"}, {"geometry": {"coordinates": [8.545771, 47.375112], "type": "Point"}, "properties": {"charge": 93, "id": "smide_192", "name": "ZH253706", "provider": "smide", "range": 46.0, "size": 20, "time": "02/12/2020, 09:48:32"}, "type": "Feature"}, {"geometry": {"coordinates": [8.538728, 47.372556], "type": "Point"}, "properties": {"charge": 74, "id": "smide_39", "name": "ZH253714", "provider": "smide", "range": 37.0, "size": 20, "time": "02/12/2020, 09:48:32"}, "type": "Feature"}, {"geometry": {"coordinates": [8.509026, 47.420736], "type": "Point"}, "properties": {"charge": 24, "id": "smide_5", "name": "ZH261443", "provider": "smide", "range": 12.0, "size": 20, "time": "02/12/2020, 09:48:32"}, "type": "Feature"}, {"geometry": {"coordinates": [8.528423, 47.382796], "type": "Point"}, "properties": {"charge": 90, "id": "smide_29", "name": "ZH253723", "provider": "smide", "range": 45.0, "size": 17, "time": "02/12/2020, 09:48:32"}, "type": "Feature"}, {"geometry": {"coordinates": [8.560374, 47.405744], "type": "Point"}, "properties": {"charge": 37, "id": "smide_46", "name": "ZH253843", "provider": "smide", "range": 18.0, "size": 20, "time": "02/12/2020, 09:48:32"}, "type": "Feature"}, {"geometry": {"coordinates": [8.53754666666667, 47.37001], "type": "Point"}, "properties": {"charge": 71, "id": "bird_b7ad87e7-029d-46de-a306-b7cf0b5ce7ef", "provider": "bird", "timeStamp": "02/12/2020, 09:48:31"}, "type": "Feature"}, {"geometry": {"coordinates": [8.54465833333333, 47.37479], "type": "Point"}, "properties": {"charge": 43, "id": "bird_14313ebb-8cc9-4a21-857a-393625e2d950", "provider": "bird", "timeStamp": "02/12/2020, 09:48:31"}, "type": "Feature"}, {"geometry": {"coordinates": [8.53665, 47.369915], "type": "Point"}, "properties": {"charge": 62, "id": "bird_d4032e5e-f6f9-41ad-931a-85cf642d211e", "provider": "bird", "timeStamp": "02/12/2020, 09:48:31"}, "type": "Feature"}, {"geometry": {"coordinates": [8.537225, 47.3701016666667], "type": "Point"}, "properties": {"charge": 51, "id": "bird_2dc33569-e87c-4cfd-8962-ff8eb2d95a88", "provider": "bird", "timeStamp": "02/12/2020, 09:48:31"}, "type": "Feature"}, {"geometry": {"coordinates": [8.515325, 47.3752333333333], "type": "Point"}, "properties": {"charge": 82, "id": "bird_bc319415-146a-4f69-a629-1d001145d682", "provider": "bird", "timeStamp": "02/12/2020, 09:48:31"}, "type": "Feature"}, {"geometry": {"coordinates": [8.51962166666667, 47.3884883333333], "type": "Point"}, "properties": {"charge": 22, "id": "bird_2954c5ef-922c-4eac-8f06-b9ffc9debf11", "provider": "bird", "timeStamp": "02/12/2020, 09:48:31"}, "type": "Feature"}, {"geometry": {"coordinates": [8.53767166666667, 47.370285], "type": "Point"}, "properties": {"charge": 60, "id": "bird_a2d7cede-6cbd-4ef3-b7fd-dd49fbcd6d8e", "provider": "bird", "timeStamp": "02/12/2020, 09:48:31"}, "type": "Feature"}, {"geometry": {"coordinates": [8.536615, 47.3699416666667], "type": "Point"}, "properties": {"charge": 73, "id": "bird_662570ed-d2df-4555-b521-d77ffdcb1f63", "provider": "bird", "timeStamp": "02/12/2020, 09:48:31"}, "type": "Feature"}, {"geometry": {"coordinates": [8.52247666666667, 47.37025], "type": "Point"}, "properties": {"charge": 64, "id": "bird_a447bcba-3a26-4087-938f-a5707973ba49", "provider": "bird", "timeStamp": "02/12/2020, 09:48:31"}, "type": "Feature"}, {"geometry": {"coordinates": [8.51993666666667, 47.388595], "type": "Point"}, "properties": {"charge": 71, "id": "bird_feaa967a-a38d-45b1-8cff-6c08cd53c22d", "provider": "bird", "timeStamp": "02/12/2020, 09:48:31"}, "type": "Feature"}, {"geometry": {"coordinates": [8.51995166666667, 47.3885883333333], "type": "Point"}, "properties": {"charge": 90, "id": "bird_b1ff54f5-8be3-4aa5-ba5c-b6ef903fae8b", "provider": "bird", "timeStamp": "02/12/2020, 09:48:31"}, "type": "Feature"}, {"geometry": {"coordinates": [8.51994, 47.3885766666667], "type": "Point"}, "properties": {"charge": 17, "id": "bird_12f91bf2-06ac-4384-be2c-786308a51b9e", "provider": "bird", "timeStamp": "02/12/2020, 09:48:31"}, "type": "Feature"}, {"geometry": {"coordinates": [8.54375333333333, 47.385605], "type": "Point"}, "properties": {"charge": 26, "id": "bird_19838b78-da42-4269-9ded-3cf123b234b2", "provider": "bird", "timeStamp": "02/12/2020, 09:48:31"}, "type": "Feature"}, {"geometry": {"coordinates": [8.53710833333333, 47.3702666666667], "type": "Point"}, "properties": {"charge": 83, "id": "bird_8aa4f4bb-400d-4d48-b6dd-a78e132a0fb0", "provider": "bird", "timeStamp": "02/12/2020, 09:48:31"}, "type": "Feature"}, {"geometry": {"coordinates": [8.51471833333333, 47.37672], "type": "Point"}, "properties": {"charge": 42, "id": "bird_a0541819-06e3-4661-ad09-fc87439ee312", "provider": "bird", "timeStamp": "02/12/2020, 09:48:31"}, "type": "Feature"}, {"geometry": {"coordinates": [8.54083666666667, 47.372055], "type": "Point"}, "properties": {"charge": 17, "id": "bird_de410d05-2b92-47dc-bb1a-23e587e79002", "provider": "bird", "timeStamp": "02/12/2020, 09:48:31"}, "type": "Feature"}, {"geometry": {"coordinates": [8.51999, 47.388405], "type": "Point"}, "properties": {"charge": 22, "id": "bird_9ffea683-5f59-4b5f-9917-abb1682d87c9", "provider": "bird", "timeStamp": "02/12/2020, 09:48:31"}, "type": "Feature"}, {"geometry": {"coordinates": [8.51970666666667, 47.388195], "type": "Point"}, "properties": {"charge": 84, "id": "bird_f19ea90d-d06d-4611-b72b-5907cc2ceba9", "provider": "bird", "timeStamp": "02/12/2020, 09:48:31"}, "type": "Feature"}, {"geometry": {"coordinates": [8.52161666666667, 47.3709866666667], "type": "Point"}, "properties": {"charge": 55, "id": "bird_60253a6b-0991-42f3-8db7-fd715b4ef0ed", "provider": "bird", "timeStamp": "02/12/2020, 09:48:31"}, "type": "Feature"}, {"geometry": {"coordinates": [8.51743333333333, 47.3864066666667], "type": "Point"}, "properties": {"charge": 96, "id": "bird_19bfc972-67e4-400a-bed6-bd96d4a03e73", "provider": "bird", "timeStamp": "02/12/2020, 09:48:31"}, "type": "Feature"}, {"geometry": {"coordinates": [8.517365, 47.386215], "type": "Point"}, "properties": {"charge": 42, "id": "bird_519bf26f-19c5-4674-984e-09ff5a5cbef0", "provider": "bird", "timeStamp": "02/12/2020, 09:48:31"}, "type": "Feature"}, {"geometry": {"coordinates": [8.53784833333333, 47.3709866666667], "type": "Point"}, "properties": {"charge": 56, "id": "bird_509a22f4-c75a-478f-b58c-8cfc92aa1b31", "provider": "bird", "timeStamp": "02/12/2020, 09:48:31"}, "type": "Feature"}, {"geometry": {"coordinates": [8.51496333333333, 47.37764], "type": "Point"}, "properties": {"charge": 21, "id": "bird_a756599c-8c1d-4098-b2c1-c86e591c3cea", "provider": "bird", "timeStamp": "02/12/2020, 09:48:31"}, "type": "Feature"}, {"geometry": {"coordinates": [8.51538333333333, 47.3766983333333], "type": "Point"}, "properties": {"charge": 69, "id": "bird_bc02d478-b66a-4f01-8832-e2d13a780311", "provider": "bird", "timeStamp": "02/12/2020, 09:48:31"}, "type": "Feature"}, {"geometry": {"coordinates": [8.515415, 47.3767016666667], "type": "Point"}, "properties": {"charge": 48, "id": "bird_86ea8b1a-a0a0-45d0-97ec-309b02c6e469", "provider": "bird", "timeStamp": "02/12/2020, 09:48:31"}, "type": "Feature"}, {"geometry": {"coordinates": [8.51797666666667, 47.3864516666667], "type": "Point"}, "properties": {"charge": 11, "id": "bird_b136f010-3838-43d1-87eb-6c8dc7c90302", "provider": "bird", "timeStamp": "02/12/2020, 09:48:31"}, "type": "Feature"}, {"geometry": {"coordinates": [8.53959, 47.3879583333333], "type": "Point"}, "properties": {"charge": 64, "id": "bird_3f1d0d3c-f435-40f4-a703-b00b11fd2864", "provider": "bird", "timeStamp": "02/12/2020, 09:48:31"}, "type": "Feature"}, {"geometry": {"coordinates": [8.51801666666667, 47.3862533333333], "type": "Point"}, "properties": {"charge": 91, "id": "bird_3d40adfa-3080-45a9-a054-91eb94a406ba", "provider": "bird", "timeStamp": "02/12/2020, 09:48:31"}, "type": "Feature"}, {"geometry": {"coordinates": [8.53499166666667, 47.3703583333333], "type": "Point"}, "properties": {"charge": 17, "id": "bird_7fab84f4-0527-4696-9fd0-1df9f2226f02", "provider": "bird", "timeStamp": "02/12/2020, 09:48:31"}, "type": "Feature"}, {"geometry": {"coordinates": [8.51802, 47.3861816666667], "type": "Point"}, "properties": {"charge": 98, "id": "bird_87b30c16-91a3-402c-9bfb-ffb8dedeafd8", "provider": "bird", "timeStamp": "02/12/2020, 09:48:31"}, "type": "Feature"}, {"geometry": {"coordinates": [8.54351666666667, 47.3755066666667], "type": "Point"}, "properties": {"charge": 20, "id": "bird_e1e5d6c2-496c-4e5f-bc30-c540899d54d5", "provider": "bird", "timeStamp": "02/12/2020, 09:48:31"}, "type": "Feature"}, {"geometry": {"coordinates": [8.51646, 47.3755766666667], "type": "Point"}, "properties": {"charge": 57, "id": "bird_490c5d55-21d8-4bd8-a28d-a9a9ce8536b8", "provider": "bird", "timeStamp": "02/12/2020, 09:48:31"}, "type": "Feature"}, {"geometry": {"coordinates": [8.537525, 47.3711883333333], "type": "Point"}, "properties": {"charge": 38, "id": "bird_23b5f769-2367-4c9c-8e19-c4bc41bfa931", "provider": "bird", "timeStamp": "02/12/2020, 09:48:31"}, "type": "Feature"}, {"geometry": {"coordinates": [8.518245, 47.38633], "type": "Point"}, "properties": {"charge": 97, "id": "bird_78f09778-50ba-466c-a748-fc2a25c6c16a", "provider": "bird", "timeStamp": "02/12/2020, 09:48:31"}, "type": "Feature"}, {"geometry": {"coordinates": [8.53518, 47.37046], "type": "Point"}, "properties": {"charge": 75, "id": "bird_1a34b62d-57ca-472d-9db4-4aaa21b9b7f7", "provider": "bird", "timeStamp": "02/12/2020, 09:48:31"}, "type": "Feature"}, {"geometry": {"coordinates": [8.51649333333333, 47.375595], "type": "Point"}, "properties": {"charge": 72, "id": "bird_1f588b72-88b3-4177-ac0a-18f8e6a8e62c", "provider": "bird", "timeStamp": "02/12/2020, 09:48:31"}, "type": "Feature"}, {"geometry": {"coordinates": [8.51791666666667, 47.3859983333333], "type": "Point"}, "properties": {"charge": 96, "id": "bird_1c6ff1db-fc96-49f4-9afc-e5a75a77463c", "provider": "bird", "timeStamp": "02/12/2020, 09:48:31"}, "type": "Feature"}, {"geometry": {"coordinates": [8.54447833333333, 47.3825566666667], "type": "Point"}, "properties": {"charge": 12, "id": "bird_43cb3a58-a445-4104-b34e-2175684112df", "provider": "bird", "timeStamp": "02/12/2020, 09:48:31"}, "type": "Feature"}, {"geometry": {"coordinates": [8.53918, 47.372005], "type": "Point"}, "properties": {"charge": 56, "id": "bird_2188f429-528e-4c4b-aa39-d8df1a4432fa", "provider": "bird", "timeStamp": "02/12/2020, 09:48:31"}, "type": "Feature"}, {"geometry": {"coordinates": [8.51807666666667, 47.3861], "type": "Point"}, "properties": {"charge": 45, "id": "bird_729a14aa-e130-4348-8531-407242b2f773", "provider": "bird", "timeStamp": "02/12/2020, 09:48:31"}, "type": "Feature"}, {"geometry": {"coordinates": [8.54385833333333, 47.3762316666667], "type": "Point"}, "properties": {"charge": 20, "id": "bird_4edd6be4-33ec-4001-b681-5b83bc97d14f", "provider": "bird", "timeStamp": "02/12/2020, 09:48:31"}, "type": "Feature"}, {"geometry": {"coordinates": [8.515865, 47.37674], "type": "Point"}, "properties": {"charge": 71, "id": "bird_e5f7cac1-9052-4e61-8c9d-4947b1026221", "provider": "bird", "timeStamp": "02/12/2020, 09:48:31"}, "type": "Feature"}, {"geometry": {"coordinates": [8.5185, 47.38644], "type": "Point"}, "properties": {"charge": 92, "id": "bird_671befec-2fbc-4753-bda8-a0db448928c4", "provider": "bird", "timeStamp": "02/12/2020, 09:48:31"}, "type": "Feature"}, {"geometry": {"coordinates": [8.51677833333333, 47.375355], "type": "Point"}, "properties": {"charge": 37, "id": "bird_403754d2-5b83-4ee9-b022-807b44410a4b", "provider": "bird", "timeStamp": "02/12/2020, 09:48:31"}, "type": "Feature"}, {"geometry": {"coordinates": [8.51792166666667, 47.3858916666667], "type": "Point"}, "properties": {"charge": 87, "id": "bird_20332607-d8ba-462f-81e5-bb65dae45381", "provider": "bird", "timeStamp": "02/12/2020, 09:48:31"}, "type": "Feature"}, {"geometry": {"coordinates": [8.51721, 47.3850816666667], "type": "Point"}, "properties": {"charge": 70, "id": "bird_ce05be7f-7316-45d8-9b6b-c5e8a3840734", "provider": "bird", "timeStamp": "02/12/2020, 09:48:31"}, "type": "Feature"}, {"geometry": {"coordinates": [8.51823166666667, 47.3860933333333], "type": "Point"}, "properties": {"charge": 92, "id": "bird_f8c03686-b87f-4ccb-965a-04249bb4fc17", "provider": "bird", "timeStamp": "02/12/2020, 09:48:31"}, "type": "Feature"}, {"geometry": {"coordinates": [8.523225, 47.37112], "type": "Point"}, "properties": {"charge": 100, "id": "bird_dd51efbc-62fb-4e24-b6e4-f3d2312283d0", "provider": "bird", "timeStamp": "02/12/2020, 09:48:31"}, "type": "Feature"}, {"geometry": {"coordinates": [8.51677166666667, 47.37558], "type": "Point"}, "properties": {"charge": 99, "id": "bird_3b636d2b-9c94-402e-9fb9-f2a1ef996b77", "provider": "bird", "timeStamp": "02/12/2020, 09:48:31"}, "type": "Feature"}, {"geometry": {"coordinates": [8.52771833333333, 47.3701366666667], "type": "Point"}, "properties": {"charge": 55, "id": "bird_7223dc4e-219f-41d4-b63e-b9e44f992ac4", "provider": "bird", "timeStamp": "02/12/2020, 09:48:31"}, "type": "Feature"}, {"geometry": {"coordinates": [8.52318, 47.3711666666667], "type": "Point"}, "properties": {"charge": 100, "id": "bird_d6b02ffa-1a34-4503-be85-078a756f588f", "provider": "bird", "timeStamp": "02/12/2020, 09:48:31"}, "type": "Feature"}, {"geometry": {"coordinates": [8.51669, 47.3757516666667], "type": "Point"}, "properties": {"charge": 85, "id": "bird_4e81d654-0e2c-4ef7-9c37-89be79a5e081", "provider": "bird", "timeStamp": "02/12/2020, 09:48:31"}, "type": "Feature"}, {"geometry": {"coordinates": [8.51666666666667, 47.3758233333333], "type": "Point"}, "properties": {"charge": 98, "id": "bird_ac9b92e5-3166-4e76-af4f-d505e5e7dc3d", "provider": "bird", "timeStamp": "02/12/2020, 09:48:31"}, "type": "Feature"}, {"geometry": {"coordinates": [8.51677833333333, 47.37571], "type": "Point"}, "properties": {"charge": 100, "id": "bird_e71c1d84-2a7f-4a79-9cd3-9935e9b311dc", "provider": "bird", "timeStamp": "02/12/2020, 09:48:31"}, "type": "Feature"}, {"geometry": {"coordinates": [8.52360166666667, 47.371075], "type": "Point"}, "properties": {"charge": 69, "id": "bird_b6604fc8-e81a-4011-ab26-736747bc4071", "provider": "bird", "timeStamp": "02/12/2020, 09:48:31"}, "type": "Feature"}, {"geometry": {"coordinates": [8.51669166666667, 47.3758666666667], "type": "Point"}, "properties": {"charge": 100, "id": "bird_b64c274f-9c05-4930-bf2c-729336c94593", "provider": "bird", "timeStamp": "02/12/2020, 09:48:31"}, "type": "Feature"}, {"geometry": {"coordinates": [8.51866166666667, 47.3862716666667], "type": "Point"}, "properties": {"charge": 93, "id": "bird_5bf48543-3efa-43b1-a72a-d64b9a22b6cd", "provider": "bird", "timeStamp": "02/12/2020, 09:48:31"}, "type": "Feature"}, {"geometry": {"coordinates": [8.52346166666667, 47.3711583333333], "type": "Point"}, "properties": {"charge": 100, "id": "bird_b3721901-721e-4fa8-8570-529912a8b08e", "provider": "bird", "timeStamp": "02/12/2020, 09:48:31"}, "type": "Feature"}, {"geometry": {"coordinates": [8.51683666666667, 47.3757666666667], "type": "Point"}, "properties": {"charge": 100, "id": "bird_bd4845a8-0675-4dc7-8814-222873240511", "provider": "bird", "timeStamp": "02/12/2020, 09:48:31"}, "type": "Feature"}, {"geometry": {"coordinates": [8.52397666666667, 47.3710633333333], "type": "Point"}, "properties": {"charge": 71, "id": "bird_b8f5fca1-fbb0-4941-9a7a-77a1bc35a67d", "provider": "bird", "timeStamp": "02/12/2020, 09:48:31"}, "type": "Feature"}, {"geometry": {"coordinates": [8.52352666666667, 47.37122], "type": "Point"}, "properties": {"charge": 100, "id": "bird_2a9e6b97-03d8-4d95-980c-ef5f2989647f", "provider": "bird", "timeStamp": "02/12/2020, 09:48:31"}, "type": "Feature"}, {"geometry": {"coordinates": [8.51873, 47.38617], "type": "Point"}, "properties": {"charge": 93, "id": "bird_2884fc09-8fdf-41f2-906b-e590aa4d10d0", "provider": "bird", "timeStamp": "02/12/2020, 09:48:31"}, "type": "Feature"}, {"geometry": {"coordinates": [8.54072333333333, 47.373405], "type": "Point"}, "properties": {"charge": 26, "id": "bird_42bdc7a0-4f45-4e3c-91ea-88e068e2c464", "provider": "bird", "timeStamp": "02/12/2020, 09:48:31"}, "type": "Feature"}, {"geometry": {"coordinates": [8.52614333333333, 47.3705483333333], "type": "Point"}, "properties": {"charge": 43, "id": "bird_069f5d33-7e55-41a6-a048-ce63caa1b3cf", "provider": "bird", "timeStamp": "02/12/2020, 09:48:31"}, "type": "Feature"}, {"geometry": {"coordinates": [8.518685, 47.3860666666667], "type": "Point"}, "properties": {"charge": 93, "id": "bird_b7f3867a-5235-4aa2-8a6e-f81170d09917", "provider": "bird", "timeStamp": "02/12/2020, 09:48:31"}, "type": "Feature"}, {"geometry": {"coordinates": [8.52421833333333, 47.3710483333333], "type": "Point"}, "properties": {"charge": 96, "id": "bird_abb31544-4d9d-427e-b455-ab26e08c2db4", "provider": "bird", "timeStamp": "02/12/2020, 09:48:31"}, "type": "Feature"}, {"geometry": {"coordinates": [8.53812333333333, 47.388005], "type": "Point"}, "properties": {"charge": 21, "id": "bird_87068fbc-6ee2-42c1-9798-e9914518d514", "provider": "bird", "timeStamp": "02/12/2020, 09:48:31"}, "type": "Feature"}, {"geometry": {"coordinates": [8.517445, 47.375405], "type": "Point"}, "properties": {"charge": 39, "id": "bird_9b91de79-0f20-4ec0-b849-37429c94e359", "provider": "bird", "timeStamp": "02/12/2020, 09:48:31"}, "type": "Feature"}, {"geometry": {"coordinates": [8.5194, 47.3863683333333], "type": "Point"}, "properties": {"charge": 93, "id": "bird_4d753c8b-6d42-4046-8b3d-8ef69ec71efc", "provider": "bird", "timeStamp": "02/12/2020, 09:48:31"}, "type": "Feature"}, {"geometry": {"coordinates": [8.52183833333333, 47.3878216666667], "type": "Point"}, "properties": {"charge": 27, "id": "bird_4d9be8f1-5ec3-4dda-984f-e32c26f0bc1b", "provider": "bird", "timeStamp": "02/12/2020, 09:48:31"}, "type": "Feature"}, {"geometry": {"coordinates": [8.51602666666667, 47.3792716666667], "type": "Point"}, "properties": {"charge": 45, "id": "bird_5394abc1-bf72-4948-9cd7-cac95d66eb40", "provider": "bird", "timeStamp": "02/12/2020, 09:48:31"}, "type": "Feature"}, {"geometry": {"coordinates": [8.51775833333333, 47.3754583333333], "type": "Point"}, "properties": {"charge": 71, "id": "bird_fdcab07b-a2d4-434e-9a67-bd02c3341421", "provider": "bird", "timeStamp": "02/12/2020, 09:48:31"}, "type": "Feature"}, {"geometry": {"coordinates": [8.53675166666667, 47.37175], "type": "Point"}, "properties": {"charge": 62, "id": "bird_b9ab561b-2cc6-4f93-b1ae-8ad19e15fb6d", "provider": "bird", "timeStamp": "02/12/2020, 09:48:31"}, "type": "Feature"}, {"geometry": {"coordinates": [8.51858333333333, 47.38533], "type": "Point"}, "properties": {"charge": 26, "id": "bird_8b5f36d7-e397-4492-a40d-2b18891d7956", "provider": "bird", "timeStamp": "02/12/2020, 09:48:31"}, "type": "Feature"}, {"geometry": {"coordinates": [8.51645333333333, 47.38079], "type": "Point"}, "properties": {"charge": 56, "id": "bird_735c1b6a-b5ff-4eec-87e6-168836ca9840", "provider": "bird", "timeStamp": "02/12/2020, 09:48:31"}, "type": "Feature"}, {"geometry": {"coordinates": [8.524385, 47.3718383333333], "type": "Point"}, "properties": {"charge": 40, "id": "bird_5e73bb3b-4fc6-4eac-863a-1ddbae2f19c4", "provider": "bird", "timeStamp": "02/12/2020, 09:48:31"}, "type": "Feature"}, {"geometry": {"coordinates": [8.53903166666667, 47.3734283333333], "type": "Point"}, "properties": {"charge": 43, "id": "bird_819da838-2017-4bd8-8076-7d3e1ddbe8f0", "provider": "bird", "timeStamp": "02/12/2020, 09:48:31"}, "type": "Feature"}, {"geometry": {"coordinates": [8.543225, 47.3794666666667], "type": "Point"}, "properties": {"charge": 56, "id": "bird_248963d2-786c-4c28-a8bf-f58b33dc5957", "provider": "bird", "timeStamp": "02/12/2020, 09:48:31"}, "type": "Feature"}, {"geometry": {"coordinates": [8.535125, 47.38823], "type": "Point"}, "properties": {"charge": 18, "id": "bird_f9f45ba7-2120-4ea4-93a4-8a8b89b3863f", "provider": "bird", "timeStamp": "02/12/2020, 09:48:31"}, "type": "Feature"}, {"geometry": {"coordinates": [8.52267, 47.3728483333333], "type": "Point"}, "properties": {"charge": 31, "id": "bird_63c6f68a-0864-4d39-bffe-99f7b7ecf3cf", "provider": "bird", "timeStamp": "02/12/2020, 09:48:31"}, "type": "Feature"}, {"geometry": {"coordinates": [8.54144166666667, 47.3760483333333], "type": "Point"}, "properties": {"charge": 66, "id": "bird_0a9b32e1-40b3-423f-8f93-4db74385da81", "provider": "bird", "timeStamp": "02/12/2020, 09:48:31"}, "type": "Feature"}, {"geometry": {"coordinates": [8.52602666666667, 47.37173], "type": "Point"}, "properties": {"charge": 27, "id": "bird_359ff445-71f0-492d-a143-44b6d80ceb4e", "provider": "bird", "timeStamp": "02/12/2020, 09:48:31"}, "type": "Feature"}, {"geometry": {"coordinates": [8.53989166666667, 47.374515], "type": "Point"}, "properties": {"charge": 43, "id": "bird_93daf95a-156a-477c-b15f-f791924e89c2", "provider": "bird", "timeStamp": "02/12/2020, 09:48:31"}, "type": "Feature"}, {"geometry": {"coordinates": [8.541555, 47.3764266666667], "type": "Point"}, "properties": {"charge": 70, "id": "bird_c92f3aac-3384-4f05-818d-894c4c942e8f", "provider": "bird", "timeStamp": "02/12/2020, 09:48:31"}, "type": "Feature"}, {"geometry": {"coordinates": [8.52231333333333, 47.3731583333333], "type": "Point"}, "properties": {"charge": 12, "id": "bird_fa94bbb5-2bb8-4510-8390-e8830e7115f1", "provider": "bird", "timeStamp": "02/12/2020, 09:48:31"}, "type": "Feature"}, {"geometry": {"coordinates": [8.53973166666667, 47.37452], "type": "Point"}, "properties": {"charge": 69, "id": "bird_0f37e9bb-4817-4b2c-9400-351be5928674", "provider": "bird", "timeStamp": "02/12/2020, 09:48:31"}, "type": "Feature"}, {"geometry": {"coordinates": [8.54164833333333, 47.3768533333333], "type": "Point"}, "properties": {"charge": 64, "id": "bird_0f1f877d-e1db-438a-bedf-2768e91f890e", "provider": "bird", "timeStamp": "02/12/2020, 09:48:31"}, "type": "Feature"}, {"geometry": {"coordinates": [8.51961166666667, 47.3753316666667], "type": "Point"}, "properties": {"charge": 21, "id": "bird_349631b6-70bc-4f6e-a2dc-03eb6ae6856d", "provider": "bird", "timeStamp": "02/12/2020, 09:48:31"}, "type": "Feature"}, {"geometry": {"coordinates": [8.54092833333333, 47.37614], "type": "Point"}, "properties": {"charge": 73, "id": "bird_75480ccd-4468-4ba5-ad42-84024ee2bdad", "provider": "bird", "timeStamp": "02/12/2020, 09:48:31"}, "type": "Feature"}, {"geometry": {"coordinates": [8.52071333333333, 47.3746033333333], "type": "Point"}, "properties": {"charge": 100, "id": "bird_e6d75486-e852-4d7c-9523-0b98e70d3dba", "provider": "bird", "timeStamp": "02/12/2020, 09:48:31"}, "type": "Feature"}, {"geometry": {"coordinates": [8.540755, 47.3760716666667], "type": "Point"}, "properties": {"charge": 64, "id": "bird_39040218-7b8d-4b67-86a2-07a35432f095", "provider": "bird", "timeStamp": "02/12/2020, 09:48:31"}, "type": "Feature"}, {"geometry": {"coordinates": [8.53548333333333, 47.3726233333333], "type": "Point"}, "properties": {"charge": 60, "id": "bird_528e1741-190c-482a-9577-05e41b334fc6", "provider": "bird", "timeStamp": "02/12/2020, 09:48:31"}, "type": "Feature"},