{"features": [{"geometry": {"coordinates": [8.540062, 47.374392], "type": "Point"}, "properties": {"address": "Uraniastrasse 7", "electric": 8, "id": "pb_60", "manual": 5, "name": "Demo Station Werdm\u00fchleplatz", "provider": "publibike", "timeStamp": "02/01/2020, 21:49:00", "zip": 8001}, "type": "Feature"}, {"geometry": {"coordinates": [8.5452956, 47.4099615], "type": "Point"}, "properties": {"address": "Querstrasse 8", "electric": 3, "id": "pb_61", "manual": 3, "name": "Marktplatz", "provider": "publibike", "timeStamp": "02/01/2020, 21:49:00", "zip": 8050}, "type": "Feature"}, {"geometry": {"coordinates": [8.5156327, 47.3795837], "type": "Point"}, "properties": {"address": "Bullingerstrasse 5", "electric": 6, "id": "pb_80", "manual": 8, "name": "Bullingerplatz", "provider": "publibike", "timeStamp": "02/01/2020, 21:49:00", "zip": 8004}, "type": "Feature"}, {"geometry": {"coordinates": [8.5104051, 47.3899342], "type": "Point"}, "properties": {"address": "Pfingstweidstrasse 96e", "electric": 3, "id": "pb_81", "manual": 3, "name": "Herdern", "provider": "publibike", "timeStamp": "02/01/2020, 21:49:00", "zip": 8001}, "type": "Feature"}, {"geometry": {"coordinates": [8.535718, 47.359675], "type": "Point"}, "properties": {"address": "Mythenquai 50", "electric": 0, "id": "pb_82", "manual": 0, "name": "Hafen Enge", "provider": "publibike", "timeStamp": "02/01/2020, 21:49:00", "zip": 8002}, "type": "Feature"}, {"geometry": {"coordinates": [8.520370505, 47.358663827], "type": "Point"}, "properties": {"address": "Bubenbergstrasse 1", "electric": 4, "id": "pb_83", "manual": 5, "name": "Comerge", "provider": "publibike", "timeStamp": "02/01/2020, 21:49:00", "zip": 8045}, "type": "Feature"}, {"geometry": {"coordinates": [8.5412505, 47.3789825], "type": "Point"}, "properties": {"address": "Museumstrasse 2", "electric": 18, "id": "pb_84", "manual": 22, "name": "Landesmuseum", "provider": "publibike", "timeStamp": "02/01/2020, 21:49:00", "zip": 8001}, "type": "Feature"}, {"geometry": {"coordinates": [8.5235479, 47.3716661], "type": "Point"}, "properties": {"address": "Birmensdorferstrasse 80", "electric": 0, "id": "pb_85", "manual": 5, "name": "Bahnhof Wiedikon", "provider": "publibike", "timeStamp": "02/01/2020, 21:49:00", "zip": 8003}, "type": "Feature"}, {"geometry": {"coordinates": [8.506822854, 47.40781197], "type": "Point"}, "properties": {"address": "Stefano-Franscini-Platz 5", "electric": 1, "id": "pb_86", "manual": 0, "name": "ETH H\u00f6nggerberg", "provider": "publibike", "timeStamp": "02/01/2020, 21:49:00", "zip": 8093}, "type": "Feature"}, {"geometry": {"coordinates": [8.536101, 47.371083], "type": "Point"}, "properties": {"address": "Pelikanplatz 5", "electric": 2, "id": "pb_87", "manual": 8, "name": "Pelikanplatz", "provider": "publibike", "timeStamp": "02/01/2020, 21:49:00", "zip": 8001}, "type": "Feature"}, {"geometry": {"coordinates": [8.5257822, 47.3651936], "type": "Point"}, "properties": {"address": "H\u00fcrlimannplatz 90", "electric": 3, "id": "pb_88", "manual": 4, "name": "H\u00fcrlimannplatz", "provider": "publibike", "timeStamp": "02/01/2020, 21:49:00", "zip": 8002}, "type": "Feature"}, {"geometry": {"coordinates": [8.5313344, 47.3713591], "type": "Point"}, "properties": {"address": "Selnaustrasse 32", "electric": 1, "id": "pb_89", "manual": 4, "name": "Stauffacherbr\u00fccke", "provider": "publibike", "timeStamp": "02/01/2020, 21:49:00", "zip": 8001}, "type": "Feature"}, {"geometry": {"coordinates": [8.5056978, 47.3917964], "type": "Point"}, "properties": {"address": "Sportweg 25", "electric": 1, "id": "pb_90", "manual": 7, "name": "Sportweg", "provider": "publibike", "timeStamp": "02/01/2020, 21:49:00", "zip": 8005}, "type": "Feature"}, {"geometry": {"coordinates": [8.5181701, 47.3917837], "type": "Point"}, "properties": {"address": "Hardturmstrasse 11", "electric": 2, "id": "pb_91", "manual": 5, "name": "Puls 5", "provider": "publibike", "timeStamp": "02/01/2020, 21:49:00", "zip": 8005}, "type": "Feature"}, {"geometry": {"coordinates": [8.5286468, 47.3820827], "type": "Point"}, "properties": {"address": "R\u00f6ntgenstrasse 6", "electric": 5, "id": "pb_92", "manual": 0, "name": "R\u00f6ntgenstrasse", "provider": "publibike", "timeStamp": "02/01/2020, 21:49:00", "zip": 8005}, "type": "Feature"}, {"geometry": {"coordinates": [8.531935, 47.384918], "type": "Point"}, "properties": {"address": "Kornhausbr\u00fccke 1", "electric": 4, "id": "pb_93", "manual": 4, "name": "Limmatplatz", "provider": "publibike", "timeStamp": "02/01/2020, 21:49:00", "zip": 8005}, "type": "Feature"}, {"geometry": {"coordinates": [8.5354006, 47.3758639], "type": "Point"}, "properties": {"address": "Gessnerallee 15", "electric": 0, "id": "pb_94", "manual": 0, "name": "Gessnerallee", "provider": "publibike", "timeStamp": "02/01/2020, 21:49:00", "zip": 8001}, "type": "Feature"}, {"geometry": {"coordinates": [8.523818, 47.377148], "type": "Point"}, "properties": {"address": "Stauffacherstrasse 127", "electric": 2, "id": "pb_95", "manual": 6, "name": "B\u00e4ckeranlage", "provider": "publibike", "timeStamp": "02/01/2020, 21:49:00", "zip": 8004}, "type": "Feature"}, {"geometry": {"coordinates": [8.531836, 47.378548], "type": "Point"}, "properties": {"address": "Lagerstrasse 44", "electric": 9, "id": "pb_96", "manual": 8, "name": "Gustav-Gull-Platz", "provider": "publibike", "timeStamp": "02/01/2020, 21:49:00", "zip": 8004}, "type": "Feature"}, {"geometry": {"coordinates": [8.5104883, 47.3771535], "type": "Point"}, "properties": {"address": "Zurlindenstrasse 291", "electric": 3, "id": "pb_97", "manual": 2, "name": "Zurlindenstrasse", "provider": "publibike", "timeStamp": "02/01/2020, 21:49:00", "zip": 8003}, "type": "Feature"}, {"geometry": {"coordinates": [8.5333139, 47.3731102], "type": "Point"}, "properties": {"address": "Sihlstrasse 81", "electric": 1, "id": "pb_98", "manual": 0, "name": "Sihlstrasse", "provider": "publibike", "timeStamp": "02/01/2020, 21:49:00", "zip": 8001}, "type": "Feature"}, {"geometry": {"coordinates": [8.520532, 47.374951], "type": "Point"}, "properties": {"address": "Feldstrasse 24", "electric": 2, "id": "pb_99", "manual": 1, "name": "Kalkbreite", "provider": "publibike", "timeStamp": "02/01/2020, 21:49:00", "zip": 8004}, "type": "Feature"}, {"geometry": {"coordinates": [8.539046, 47.368064], "type": "Point"}, "properties": {"address": "Talstrasse 12", "electric": 3, "id": "pb_100", "manual": 8, "name": "Z\u00fcrcher Kantonalbank", "provider": "publibike", "timeStamp": "02/01/2020, 21:49:00", "zip": 8001}, "type": "Feature"}, {"geometry": {"coordinates": [8.5348427, 47.3625938], "type": "Point"}, "properties": {"address": "Breitingerstrasse 5", "electric": 1, "id": "pb_101", "manual": 3, "name": "Rentenanstalt", "provider": "publibike", "timeStamp": "02/01/2020, 21:49:00", "zip": 8002}, "type": "Feature"}, {"geometry": {"coordinates": [8.5166922, 47.3897772], "type": "Point"}, "properties": {"address": "Technoparkstrasse 4", "electric": 2, "id": "pb_102", "manual": 9, "name": "Turbinenplatz", "provider": "publibike", "timeStamp": "02/01/2020, 21:49:00", "zip": 8005}, "type": "Feature"}, {"geometry": {"coordinates": [8.539312, 47.3739964], "type": "Point"}, "properties": {"address": "Oetenbachgasse 14", "electric": 4, "id": "pb_104", "manual": 15, "name": "Rennweg", "provider": "publibike", "timeStamp": "02/01/2020, 21:49:00", "zip": 8001}, "type": "Feature"}, {"geometry": {"coordinates": [8.5360685, 47.3775022], "type": "Point"}, "properties": {"address": "Kasernenstrasse 101", "electric": 15, "id": "pb_105", "manual": 43, "name": "Sihlpost", "provider": "publibike", "timeStamp": "02/01/2020, 21:49:00", "zip": 8004}, "type": "Feature"}, {"geometry": {"coordinates": [8.53545, 47.382798], "type": "Point"}, "properties": {"address": "Ausstellungsstrasse 44", "electric": 15, "id": "pb_106", "manual": 0, "name": "Museum f\u00fcr Gestaltung", "provider": "publibike", "timeStamp": "02/01/2020, 21:49:00", "zip": 8005}, "type": "Feature"}, {"geometry": {"coordinates": [8.5306155, 47.3647902], "type": "Point"}, "properties": {"address": "Gutenbergstrasse 1", "electric": 2, "id": "pb_107", "manual": 5, "name": "Bederbr\u00fccke", "provider": "publibike", "timeStamp": "02/01/2020, 21:49:00", "zip": 8002}, "type": "Feature"}, {"geometry": {"coordinates": [8.518982, 47.386741], "type": "Point"}, "properties": {"address": "Geroldstrasse 4", "electric": 1, "id": "pb_108", "manual": 3, "name": "Bahnhof Hardbr\u00fccke", "provider": "publibike", "timeStamp": "02/01/2020, 21:49:00", "zip": 8005}, "type": "Feature"}, {"geometry": {"coordinates": [8.53001018, 47.37247535], "type": "Point"}, "properties": {"address": "Werdstrasse 21", "electric": 0, "id": "pb_109", "manual": 2, "name": "Tamedia", "provider": "publibike", "timeStamp": "02/01/2020, 21:49:00", "zip": 8004}, "type": "Feature"}, {"geometry": {"coordinates": [8.4860017, 47.396401], "type": "Point"}, "properties": {"address": "Gr\u00fcnauring 37", "electric": 8, "id": "pb_110", "manual": 3, "name": "Gr\u00fcnau", "provider": "publibike", "timeStamp": "02/01/2020, 21:49:00", "zip": 8064}, "type": "Feature"}, {"geometry": {"coordinates": [8.548519, 47.376756], "type": "Point"}, "properties": {"address": "R\u00e4mistrasse 101", "electric": 0, "id": "pb_111", "manual": 0, "name": "ETH Zentrum", "provider": "publibike", "timeStamp": "02/01/2020, 21:49:00", "zip": 8006}, "type": "Feature"}, {"geometry": {"coordinates": [8.520449, 47.388151], "type": "Point"}, "properties": {"address": "Josefstrasse 224", "electric": 4, "id": "pb_112", "manual": 4, "name": "Steinfelsareal", "provider": "publibike", "timeStamp": "02/01/2020, 21:49:00", "zip": 8005}, "type": "Feature"}, {"geometry": {"coordinates": [8.520482, 47.37209], "type": "Point"}, "properties": {"address": "Weststrasse 115", "electric": 7, "id": "pb_124", "manual": 3, "name": "Weststrasse", "provider": "publibike", "timeStamp": "02/01/2020, 21:49:00", "zip": 8003}, "type": "Feature"}, {"geometry": {"coordinates": [8.496727, 47.378521], "type": "Point"}, "properties": {"address": "Albisriederstrasse 200", "electric": 3, "id": "pb_125", "manual": 2, "name": "Utogrund", "provider": "publibike", "timeStamp": "02/01/2020, 21:49:00", "zip": 8047}, "type": "Feature"}, {"geometry": {"coordinates": [8.510418, 47.381356], "type": "Point"}, "properties": {"address": "Bullingerstrasse 73", "electric": 9, "id": "pb_126", "manual": 5, "name": "Hardau", "provider": "publibike", "timeStamp": "02/01/2020, 21:49:00", "zip": 8004}, "type": "Feature"}, {"geometry": {"coordinates": [8.525525, 47.361567], "type": "Point"}, "properties": {"address": "Klopstockstrasse 23", "electric": 6, "id": "pb_127", "manual": 1, "name": "Klopstockwiese", "provider": "publibike", "timeStamp": "02/01/2020, 21:49:00", "zip": 8002}, "type": "Feature"}, {"geometry": {"coordinates": [8.518143, 47.363148], "type": "Point"}, "properties": {"address": "Haldenstrasse 8", "electric": 6, "id": "pb_128", "manual": 3, "name": "Binz", "provider": "publibike", "timeStamp": "02/01/2020, 21:49:00", "zip": 8045}, "type": "Feature"}, {"geometry": {"coordinates": [8.542726, 47.379952], "type": "Point"}, "properties": {"address": "Walchestrasse 11", "electric": 2, "id": "pb_129", "manual": 1, "name": "Stampfenbachplatz", "provider": "publibike", "timeStamp": "02/01/2020, 21:49:00", "zip": 8006}, "type": "Feature"}, {"geometry": {"coordinates": [8.488108, 47.391366], "type": "Point"}, "properties": {"address": "Altstetterplatz 1", "electric": 12, "id": "pb_130", "manual": 6, "name": "Bahnhof Altstetten", "provider": "publibike", "timeStamp": "02/01/2020, 21:49:00", "zip": 8048}, "type": "Feature"}, {"geometry": {"coordinates": [8.554114, 47.365119], "type": "Point"}, "properties": {"address": "Kreuzplatz 2", "electric": 3, "id": "pb_131", "manual": 1, "name": "Kreuzplatz", "provider": "publibike", "timeStamp": "02/01/2020, 21:49:00", "zip": 8032}, "type": "Feature"}, {"geometry": {"coordinates": [8.549852, 47.35594], "type": "Point"}, "properties": {"address": "H\u00f6schgasse 3", "electric": 7, "id": "pb_132", "manual": 8, "name": "Blatterwiese", "provider": "publibike", "timeStamp": "02/01/2020, 21:49:00", "zip": 8008}, "type": "Feature"}, {"geometry": {"coordinates": [8.554501, 47.36162], "type": "Point"}, "properties": {"address": "Feldeggstrasse 80", "electric": 2, "id": "pb_133", "manual": 3, "name": "Villa Bleuler", "provider": "publibike", "timeStamp": "02/01/2020, 21:49:00", "zip": 8008}, "type": "Feature"}, {"geometry": {"coordinates": [8.557088, 47.358557], "type": "Point"}, "properties": {"address": "M\u00fchlebachstrasse 131", "electric": 2, "id": "pb_134", "manual": 1, "name": "M\u00fchlebachstrasse", "provider": "publibike", "timeStamp": "02/01/2020, 21:49:00", "zip": 8008}, "type": "Feature"}, {"geometry": {"coordinates": [8.547639, 47.361266], "type": "Point"}, "properties": {"address": "Utoquai 50", "electric": 6, "id": "pb_135", "manual": 7, "name": "Seebad Utoquai", "provider": "publibike", "timeStamp": "02/01/2020, 21:49:00", "zip": 8008}, "type": "Feature"}, {"geometry": {"coordinates": [8.548045, 47.370869], "type": "Point"}, "properties": {"address": "Heimplatz 1", "electric": 2, "id": "pb_137", "manual": 0, "name": "Kunsthaus", "provider": "publibike", "timeStamp": "02/01/2020, 21:49:00", "zip": 8001}, "type": "Feature"}, {"geometry": {"coordinates": [8.543447, 47.375933], "type": "Point"}, "properties": {"address": "Limmatquai 138", "electric": 4, "id": "pb_138", "manual": 2, "name": "Central", "provider": "publibike", "timeStamp": "02/01/2020, 21:49:00", "zip": 8001}, "type": "Feature"}, {"geometry": {"coordinates": [8.549356, 47.408827], "type": "Point"}, "properties": {"address": "Tramstrasse 35", "electric": 4, "id": "pb_139", "manual": 2, "name": "ewz Tramstrasse", "provider": "publibike", "timeStamp": "02/01/2020, 21:49:00", "zip": 8050}, "type": "Feature"}, {"geometry": {"coordinates": [8.533736, 47.366904], "type": "Point"}, "properties": {"address": "Bleicherweg 33", "electric": 2, "id": "pb_140", "manual": 11, "name": "Bleicherweg", "provider": "publibike", "timeStamp": "02/01/2020, 21:49:00", "zip": 8002}, "type": "Feature"}, {"geometry": {"coordinates": [8.544935, 47.366752], "type": "Point"}, "properties": {"address": "Bellevueplatz 2", "electric": 38, "id": "pb_141", "manual": 32, "name": "Bellevue", "provider": "publibike", "timeStamp": "02/01/2020, 21:49:00", "zip": 8001}, "type": "Feature"}, {"geometry": {"coordinates": [8.5285533, 47.3742296], "type": "Point"}, "properties": {"address": "Stauffacherstrasse 41", "electric": 1, "id": "pb_142", "manual": 5, "name": "Stauffacher", "provider": "publibike", "timeStamp": "02/01/2020, 21:49:00", "zip": 8004}, "type": "Feature"}, {"geometry": {"coordinates": [8.523722, 47.3899], "type": "Point"}, "properties": {"address": "Limmatstrasse 310", "electric": 2, "id": "pb_143", "manual": 3, "name": "Escher-Wyss-Platz", "provider": "publibike", "timeStamp": "02/01/2020, 21:49:00", "zip": 8005}, "type": "Feature"}, {"geometry": {"coordinates": [8.491061, 47.392336], "type": "Point"}, "properties": {"address": "Vulkanplatz 1", "electric": 0, "id": "pb_149", "manual": 4, "name": "Vulkanplatz", "provider": "publibike", "timeStamp": "02/01/2020, 21:49:00", "zip": 8048}, "type": "Feature"}, {"geometry": {"coordinates": [8.52306, 47.359872], "type": "Point"}, "properties": {"address": "Giessh\u00fcbelstrasse 15", "electric": 4, "id": "pb_150", "manual": 13, "name": "Utoplatz", "provider": "publibike", "timeStamp": "02/01/2020, 21:49:00", "zip": 8045}, "type": "Feature"}, {"geometry": {"coordinates": [8.486284, 47.387685], "type": "Point"}, "properties": {"address": "Lindenplatz 1", "electric": 4, "id": "pb_151", "manual": 7, "name": "Lindenplatz", "provider": "publibike", "timeStamp": "02/01/2020, 21:49:00", "zip": 8048}, "type": "Feature"}, {"geometry": {"coordinates": [8.49163, 47.389823], "type": "Point"}, "properties": {"address": "Hohlstrasse 563", "electric": 1, "id": "pb_152", "manual": 7, "name": "Luggweg", "provider": "publibike", "timeStamp": "02/01/2020, 21:49:00", "zip": 8048}, "type": "Feature"}, {"geometry": {"coordinates": [8.52174, 47.365272], "type": "Point"}, "properties": {"address": "Manessestrasse 87", "electric": 5, "id": "pb_153", "manual": 3, "name": "Manesseplatz", "provider": "publibike", "timeStamp": "02/01/2020, 21:49:00", "zip": 8045}, "type": "Feature"}, {"geometry": {"coordinates": [8.52714, 47.372329], "type": "Point"}, "properties": {"address": "Werdstrasse 75", "electric": 3, "id": "pb_154", "manual": 5, "name": "Werd", "provider": "publibike", "timeStamp": "02/01/2020, 21:49:00", "zip": 8004}, "type": "Feature"}, {"geometry": {"coordinates": [8.543042, 47.374711], "type": "Point"}, "properties": {"address": "Limmatquai 100", "electric": 0, "id": "pb_155", "manual": 0, "name": "Rudolf-Brun-Br\u00fccke", "provider": "publibike", "timeStamp": "02/01/2020, 21:49:00", "zip": 8001}, "type": "Feature"}, {"geometry": {"coordinates": [8.490837, 47.386596], "type": "Point"}, "properties": {"address": "Badenerstrasse 627", "electric": 1, "id": "pb_156", "manual": 8, "name": "Luggwegstrasse VBZ", "provider": "publibike", "timeStamp": "02/01/2020, 21:49:00", "zip": 8048}, "type": "Feature"}, {"geometry": {"coordinates": [8.535119, 47.355189], "type": "Point"}, "properties": {"address": "Mythenquai 95", "electric": 2, "id": "pb_157", "manual": 0, "name": "Strandbad Mythenquai", "provider": "publibike", "timeStamp": "02/01/2020, 21:49:00", "zip": 8002}, "type": "Feature"}, {"geometry": {"coordinates": [8.545505, 47.373675], "type": "Point"}, "properties": {"address": "Predigerpatz 21", "electric": 9, "id": "pb_158", "manual": 8, "name": "Predigerplatz", "provider": "publibike", "timeStamp": "02/01/2020, 21:49:00", "zip": 8001}, "type": "Feature"}, {"geometry": {"coordinates": [8.515558, 47.371868], "type": "Point"}, "properties": {"address": "Aemtlerstrasse 23", "electric": 10, "id": "pb_159", "manual": 0, "name": "Zwinglihaus", "provider": "publibike", "timeStamp": "02/01/2020, 21:49:00", "zip": 8003}, "type": "Feature"}, {"geometry": {"coordinates": [8.524629, 47.386072], "type": "Point"}, "properties": {"address": "Josefstrasse 188", "electric": 0, "id": "pb_160", "manual": 4, "name": "Josefwiese", "provider": "publibike", "timeStamp": "02/01/2020, 21:49:00", "zip": 8005}, "type": "Feature"}, {"geometry": {"coordinates": [8.527138, 47.387531], "type": "Point"}, "properties": {"address": "R\u00f6ntgenstrasse 87", "electric": 0, "id": "pb_164", "manual": 5, "name": "Markthalle", "provider": "publibike", "timeStamp": "02/01/2020, 21:49:00", "zip": 8005}, "type": "Feature"}, {"geometry": {"coordinates": [8.552717, 47.359978], "type": "Point"}, "properties": {"address": "Seefeldstrasse 96", "electric": 3, "id": "pb_263", "manual": 16, "name": "Feldeggstrasse", "provider": "publibike", "timeStamp": "02/01/2020, 21:49:00", "zip": 8008}, "type": "Feature"}, {"geometry": {"coordinates": [8.553189, 47.353198], "type": "Point"}, "properties": {"address": "Bellerivestrasse 170", "electric": 1, "id": "pb_264", "manual": 0, "name": "Lake Side", "provider": "publibike", "timeStamp": "02/01/2020, 21:49:00", "zip": 8008}, "type": "Feature"}, {"geometry": {"coordinates": [8.543437, 47.369256], "type": "Point"}, "properties": {"address": "Limmatquai 18", "electric": 0, "id": "pb_265", "manual": 0, "name": "Helmhaus", "provider": "publibike", "timeStamp": "02/01/2020, 21:49:00", "zip": 8032}, "type": "Feature"}, {"geometry": {"coordinates": [8.516676, 47.375819], "type": "Point"}, "properties": {"address": "Badenerstrasse 246", "electric": 3, "id": "pb_266", "manual": 0, "name": "Lochergut", "provider": "publibike", "timeStamp": "02/01/2020, 21:49:00", "zip": 8004}, "type": "Feature"}, {"geometry": {"coordinates": [8.514605, 47.389862], "type": "Point"}, "properties": {"address": "Pfingstweidstrasse 60", "electric": 0, "id": "pb_273", "manual": 4, "name": "Westpark", "provider": "publibike", "timeStamp": "02/01/2020, 21:49:00", "zip": 8005}, "type": "Feature"}, {"geometry": {"coordinates": [8.541239126, 47.375991201], "type": "Point"}, "properties": {"address": "Beatenplatz 1", "electric": 5, "id": "pb_274", "manual": 8, "name": "Beatenplatz", "provider": "publibike", "timeStamp": "02/01/2020, 21:49:00", "zip": 8001}, "type": "Feature"}, {"geometry": {"coordinates": [8.5417135, 47.3942197], "type": "Point"}, "properties": {"address": "Scheuchzerstrasse 181", "electric": 4, "id": "pb_275", "manual": 0, "name": "Pauluskirche", "provider": "publibike", "timeStamp": "02/01/2020, 21:49:00", "zip": 8057}, "type": "Feature"}, {"geometry": {"coordinates": [8.5528182, 47.414558], "type": "Point"}, "properties": {"address": "Hagenholzstrasse 51", "electric": 2, "id": "pb_276", "manual": 10, "name": "Airgate", "provider": "publibike", "timeStamp": "02/01/2020, 21:49:00", "zip": 8050}, "type": "Feature"}, {"geometry": {"coordinates": [8.537816, 47.413514], "type": "Point"}, "properties": {"address": "Birchstrasse 183", "electric": 2, "id": "pb_277", "manual": 3, "name": "Lamprechtweg", "provider": "publibike", "timeStamp": "02/01/2020, 21:49:00", "zip": 8050}, "type": "Feature"}, {"geometry": {"coordinates": [8.545602, 47.417701], "type": "Point"}, "properties": {"address": "Felsenrainstrasse 2", "electric": 7, "id": "pb_278", "manual": 7, "name": "Emil-Oberh\u00e4nsli", "provider": "publibike", "timeStamp": "02/01/2020, 21:49:00", "zip": 8050}, "type": "Feature"}, {"geometry": {"coordinates": [8.533647, 47.39808], "type": "Point"}, "properties": {"address": "Bucheggplatz 2", "electric": 4, "id": "pb_279", "manual": 1, "name": "Bucheggplatz", "provider": "publibike", "timeStamp": "02/01/2020, 21:49:00", "zip": 8057}, "type": "Feature"}, {"geometry": {"coordinates": [8.523549, 47.392347], "type": "Point"}, "properties": {"address": "Wipkingerplatz 4", "electric": 2, "id": "pb_280", "manual": 5, "name": "Wipkingerplatz", "provider": "publibike", "timeStamp": "02/01/2020, 21:49:00", "zip": 8037}, "type": "Feature"}, {"geometry": {"coordinates": [8.548562, 47.36691], "type": "Point"}, "properties": {"address": "Galerie \u00fcber Gleis 2/3", "electric": 22, "id": "pb_285", "manual": 5, "name": "Bahnhof Stadelhofen", "provider": "publibike", "timeStamp": "02/01/2020, 21:49:00", "zip": 8001}, "type": "Feature"}, {"geometry": {"coordinates": [8.493822, 47.3985553], "type": "Point"}, "properties": {"address": "Meierwiesenstrasse 12-4", "electric": 1, "id": "pb_286", "manual": 2, "name": "T\u00fcffenwies", "provider": "publibike", "timeStamp": "02/01/2020, 21:49:00", "zip": 8064}, "type": "Feature"}, {"geometry": {"coordinates": [8.552432, 47.3801757], "type": "Point"}, "properties": {"address": "Hochstrasse 34", "electric": 6, "id": "pb_356", "manual": 0, "name": "Siriuswiese", "provider": "publibike", "timeStamp": "02/01/2020, 21:49:00", "zip": 8044}, "type": "Feature"}, {"geometry": {"coordinates": [8.527298, 47.370141], "type": "Point"}, "properties": {"address": "Hallwylstrasse 71", "electric": 0, "id": "pb_357", "manual": 0, "name": "Hallwylstrasse", "provider": "publibike", "timeStamp": "02/01/2020, 21:49:00", "zip": 8004}, "type": "Feature"}, {"geometry": {"coordinates": [8.5414185, 47.3972455], "type": "Point"}, "properties": {"address": "Schaffhauserstrasse 137", "electric": 2, "id": "pb_358", "manual": 0, "name": "Milchbuck", "provider": "publibike", "timeStamp": "02/01/2020, 21:49:00", "zip": 8057}, "type": "Feature"}, {"geometry": {"coordinates": [8.512381, 47.393409], "type": "Point"}, "properties": {"address": "Hardturmstrasse 161", "electric": 5, "id": "pb_359", "manual": 1, "name": "Fischerweg", "provider": "publibike", "timeStamp": "02/01/2020, 21:49:00", "zip": 8005}, "type": "Feature"}, {"geometry": {"coordinates": [8.5421457, 47.3876979], "type": "Point"}, "properties": {"address": "Turnerstrasse 47", "electric": 0, "id": "pb_360", "manual": 0, "name": "Kirche Unterstrass", "provider": "publibike", "timeStamp": "02/01/2020, 21:49:00", "zip": 8006}, "type": "Feature"}, {"geometry": {"coordinates": [8.522117, 47.394554], "type": "Point"}, "properties": {"address": "Dorfstrasse 40", "electric": 7, "id": "pb_361", "manual": 1, "name": "Dorfstrasse", "provider": "publibike", "timeStamp": "02/01/2020, 21:49:00", "zip": 8037}, "type": "Feature"}, {"geometry": {"coordinates": [8.530437, 47.37271], "type": "Point"}, "properties": {"address": "Werdstrasse 25", "electric": 0, "id": "pb_362", "manual": 4, "name": "Stauffachertor", "provider": "publibike", "timeStamp": "02/01/2020, 21:49:00", "zip": 8004}, "type": "Feature"}, {"geometry": {"coordinates": [8.541712, 47.416155], "type": "Point"}, "properties": {"address": "Eggb\u00fchlstrasse 21", "electric": 2, "id": "pb_363", "manual": 3, "name": "Wahlenpark", "provider": "publibike", "timeStamp": "02/01/2020, 21:49:00", "zip": 8050}, "type": "Feature"}, {"geometry": {"coordinates": [8.5595335, 47.3708387], "type": "Point"}, "properties": {"address": "Dolderstrasse 32", "electric": 5, "id": "pb_364", "manual": 2, "name": "Kinderspital", "provider": "publibike", "timeStamp": "02/01/2020, 21:49:00", "zip": 8032}, "type": "Feature"}, {"geometry": {"coordinates": [8.536433, 47.388689], "type": "Point"}, "properties": {"address": "Kornhausstrasse 30", "electric": 1, "id": "pb_365", "manual": 0, "name": "Kornhausstrasse", "provider": "publibike", "timeStamp": "02/01/2020, 21:49:00", "zip": 8006}, "type": "Feature"}, {"geometry": {"coordinates": [8.55033, 47.407098], "type": "Point"}, "properties": {"address": "Schwamendingenstrasse 41", "electric": 2, "id": "pb_366", "manual": 7, "name": "Dorflinde", "provider": "publibike", "timeStamp": "02/01/2020, 21:49:00", "zip": 8050}, "type": "Feature"}, {"geometry": {"coordinates": [8.560476, 47.368199], "type": "Point"}, "properties": {"address": "R\u00f6merhofplatz 5", "electric": 13, "id": "pb_367", "manual": 3, "name": "R\u00f6merhof", "provider": "publibike", "timeStamp": "02/01/2020, 21:49:00", "zip": 8032}, "type": "Feature"}, {"geometry": {"coordinates": [8.5609218, 47.3619068], "type": "Point"}, "properties": {"address": "Forchstrasse 99", "electric": 12, "id": "pb_368", "manual": 3, "name": "Hegibachplatz", "provider": "publibike", "timeStamp": "02/01/2020, 21:49:00", "zip": 8032}, "type": "Feature"}, {"geometry": {"coordinates": [8.5721264, 47.4039985], "type": "Point"}, "properties": {"address": "Winterthurerstrasse 519", "electric": 8, "id": "pb_370", "manual": 4, "name": "Schwamendingerplatz", "provider": "publibike", "timeStamp": "02/01/2020, 21:49:00", "zip": 8051}, "type": "Feature"}, {"geometry": {"coordinates": [8.520168, 47.378556], "type": "Point"}, "properties": {"address": "Herman-Greulich-Strasse 56", "electric": 2, "id": "pb_384", "manual": 2, "name": "Hermann-Greulich-Weg", "provider": "publibike", "timeStamp": "02/01/2020, 21:49:00", "zip": 8004}, "type": "Feature"}, {"geometry": {"coordinates": [8.547912, 47.384923], "type": "Point"}, "properties": {"address": "Culmannstrasse", "electric": 0, "id": "pb_386", "manual": 0, "name": "Rigiplatz", "provider": "publibike", "timeStamp": "02/01/2020, 21:49:00", "zip": 8006}, "type": "Feature"}, {"geometry": {"coordinates": [8.543768, 47.411057], "type": "Point"}, "properties": {"address": "Hofwiesenstrasse 369", "electric": 2, "id": "pb_387", "manual": 2, "name": "Bahnhof Oerlikon S\u00fcd", "provider": "publibike", "timeStamp": "02/01/2020, 21:49:00", "zip": 8050}, "type": "Feature"}, {"geometry": {"coordinates": [8.544185, 47.412732], "type": "Point"}, "properties": {"address": "Jungholzstrasse 6", "electric": 6, "id": "pb_388", "manual": 2, "name": "Max-Frisch-Platz", "provider": "publibike", "timeStamp": "02/01/2020, 21:49:00", "zip": 8050}, "type": "Feature"}, {"geometry": {"coordinates": [8.558096, 47.413032], "type": "Point"}, "properties": {"address": "Andreasstrasse", "electric": 7, "id": "pb_389", "manual": 8, "name": "Hunziker-Areal", "provider": "publibike", "timeStamp": "02/01/2020, 21:49:00", "zip": 8050}, "type": "Feature"}, {"geometry": {"coordinates": [8.533265, 47.412873], "type": "Point"}, "properties": {"address": "Regina-K\u00e4gi-Strasse 1", "electric": 7, "id": "pb_390", "manual": 4, "name": "Luis-H\u00e4fliger-Park", "provider": "publibike", "timeStamp": "02/01/2020, 21:49:00", "zip": 8050}, "type": "Feature"}, {"geometry": {"coordinates": [8.499265, 47.401852], "type": "Point"}, "properties": {"address": "Limmattalstrasse 177", "electric": 1, "id": "pb_391", "manual": 0, "name": "Meierhofplatz", "provider": "publibike", "timeStamp": "02/01/2020, 21:49:00", "zip": 8049}, "type": "Feature"}, {"geometry": {"coordinates": [8.528356, 47.393255], "type": "Point"}, "properties": {"address": "R\u00f6schibachstrasse 73", "electric": 6, "id": "pb_392", "manual": 14, "name": "R\u00f6schibachplatz", "provider": "publibike", "timeStamp": "02/01/2020, 21:49:00", "zip": 8037}, "type": "Feature"}, {"geometry": {"coordinates": [8.538067, 47.415721], "type": "Point"}, "properties": {"address": "Birchstrasse 191", "electric": 9, "id": "pb_393", "manual": 2, "name": "Oerliker Park", "provider": "publibike", "timeStamp": "02/01/2020, 21:49:00", "zip": 8050}, "type": "Feature"}, {"geometry": {"coordinates": [8.5420304, 47.3669233], "type": "Point"}, "properties": {"address": "Stadthausquai 1", "electric": 1, "id": "pb_395", "manual": 4, "name": "B\u00fcrkliplatz", "provider": "publibike", "timeStamp": "02/01/2020, 21:49:00", "zip": 8001}, "type": "Feature"}, {"geometry": {"coordinates": [8.535767, 47.409881], "type": "Point"}, "properties": {"address": "Regensbergstrasse 195", "electric": 2, "id": "pb_396", "manual": 2, "name": "Holunderhof", "provider": "publibike", "timeStamp": "02/01/2020, 21:49:00", "zip": 8050}, "type": "Feature"}, {"geometry": {"coordinates": [8.5116245, 47.3616199], "type": "Point"}, "properties": {"address": "Grubenstrasse 42", "electric": 2, "id": "pb_431", "manual": 2, "name": "Binz Center", "provider": "publibike", "timeStamp": "02/01/2020, 21:49:00", "zip": 8045}, "type": "Feature"}, {"geometry": {"coordinates": [8.547195, 47.382089], "type": "Point"}, "properties": {"address": "Nelkenstrasse 24", "electric": 2, "id": "pb_430", "manual": 0, "name": "Stapferstube", "provider": "publibike", "timeStamp": "02/01/2020, 21:49:00", "zip": 8006}, "type": "Feature"}, {"geometry": {"coordinates": [8.5787183, 47.4039845], "type": "Point"}, "properties": {"address": "Kronwiesenstrasse 35", "electric": 3, "id": "pb_426", "manual": 3, "name": "Kronwiesen", "provider": "publibike", "timeStamp": "02/01/2020, 21:49:00", "zip": 8051}, "type": "Feature"}, {"geometry": {"coordinates": [8.508131, 47.420757], "type": "Point"}, "properties": {"address": "Riedenhaldenstrasse 20-18", "electric": 11, "id": "pb_425", "manual": 4, "name": "Bahnhof Affoltern", "provider": "publibike", "timeStamp": "02/01/2020, 21:49:00", "zip": 8046}, "type": "Feature"}, {"geometry": {"coordinates": [8.532464, 47.406988], "type": "Point"}, "properties": {"address": "K\u00fcnzlistrasse 41", "electric": 2, "id": "pb_424", "manual": 2, "name": "Birchd\u00f6rfli", "provider": "publibike", "timeStamp": "02/01/2020, 21:49:00", "zip": 8057}, "type": "Feature"}, {"geometry": {"coordinates": [8.5777038, 47.4080095], "type": "Point"}, "properties": {"address": "Luegislandstrasse 412", "electric": 4, "id": "pb_429", "manual": 3, "name": "Luegisland", "provider": "publibike", "timeStamp": "02/01/2020, 21:49:00", "zip": 8051}, "type": "Feature"}, {"geometry": {"coordinates": [8.58841, 47.40158], "type": "Point"}, "properties": {"address": "Hirzenbachstrasse 2-4", "electric": 7, "id": "pb_428", "manual": 0, "name": "Hirzenbachstrasse", "provider": "publibike", "timeStamp": "02/01/2020, 21:49:00", "zip": 8051}, "type": "Feature"}, {"geometry": {"coordinates": [8.5563463, 47.4095467], "type": "Point"}, "properties": {"address": "K\u00fchriedweg", "electric": 4, "id": "pb_445", "manual": 11, "name": "Hallenbad Oerlikon", "provider": "publibike", "timeStamp": "02/01/2020, 21:49:00", "zip": 8050}, "type": "Feature"}, {"geometry": {"coordinates": [8.537971, 47.364871], "type": "Point"}, "properties": {"address": "General-Guisan-Quai 17", "electric": 3, "id": "pb_454", "manual": 3, "name": "General-Guisan-Quai", "provider": "publibike", "timeStamp": "02/01/2020, 21:49:00", "zip": 8002}, "type": "Feature"}, {"geometry": {"coordinates": [8.560587, 47.350578], "type": "Point"}, "properties": {"address": "Bellerivestrasse 245", "electric": 6, "id": "pb_450", "manual": 5, "name": "Bahnhof Tiefenbrunnen", "provider": "publibike", "timeStamp": "02/01/2020, 21:49:00", "zip": 8008}, "type": "Feature"}, {"geometry": {"coordinates": [8.5269416, 47.3563719], "type": "Point"}, "properties": {"address": "Waffenplatzstrasse 89", "electric": 0, "id": "pb_452", "manual": 3, "name": "Rieterplatz", "provider": "publibike", "timeStamp": "02/01/2020, 21:49:00", "zip": 8002}, "type": "Feature"}, {"geometry": {"coordinates": [8.514176, 47.3663708], "type": "Point"}, "properties": {"address": "Talwiesenstrasse 92", "electric": 8, "id": "pb_446", "manual": 1, "name": "Binzallee", "provider": "publibike", "timeStamp": "02/01/2020, 21:49:00", "zip": 8055}, "type": "Feature"}, {"geometry": {"coordinates": [8.5070564, 47.371455], "type": "Point"}, "properties": {"address": "Gutstrasse 87", "electric": 2, "id": "pb_447", "manual": 4, "name": "Gutstrasse", "provider": "publibike", "timeStamp": "02/01/2020, 21:49:00", "zip": 8055}, "type": "Feature"}, {"geometry": {"coordinates": [8.4941268, 47.3836391], "type": "Point"}, "properties": {"address": "Flurstrasse 62", "electric": 6, "id": "pb_453", "manual": 3, "name": "Flurpark", "provider": "publibike", "timeStamp": "02/01/2020, 21:49:00", "zip": 8048}, "type": "Feature"}, {"geometry": {"coordinates": [8.500343, 47.380778], "type": "Point"}, "properties": {"address": "Edelweissstrasse 32", "electric": 8, "id": "pb_448", "manual": 1, "name": "Bl\u00fcemliquartier", "provider": "publibike", "timeStamp": "02/01/2020, 21:49:00", "zip": 8048}, "type": "Feature"}, {"geometry": {"coordinates": [8.528796, 47.383858], "type": "Point"}, "properties": {"address": "Gasometerstrasse 24", "electric": 4, "id": "pb_449", "manual": 5, "name": "Gasometerstrasse", "provider": "publibike", "timeStamp": "02/01/2020, 21:49:00", "zip": 8005}, "type": "Feature"}, {"geometry": {"coordinates": [8.4981964, 47.3859194], "type": "Point"}, "properties": {"address": "Baslerstrasse 57", "electric": 8, "id": "pb_455", "manual": 7, "name": "Letzipark", "provider": "publibike", "timeStamp": "02/01/2020, 21:49:00", "zip": 8048}, "type": "Feature"}, {"geometry": {"coordinates": [8.515252, 47.381915], "type": "Point"}, "properties": {"address": "Sihlfeldstrasse 175", "electric": 0, "id": "pb_451", "manual": 2, "name": "Hardplatz", "provider": "publibike", "timeStamp": "02/01/2020, 21:49:00", "zip": 8004}, "type": "Feature"}, {"geometry": {"coordinates": [8.5064743, 47.4188324], "type": "Point"}, "properties": {"address": "Wehntalerstrasse 541", "electric": 6, "id": "pb_427", "manual": 5, "name": "Zehntenhausplatz", "provider": "publibike", "timeStamp": "02/01/2020, 21:49:00", "zip": 8046}, "type": "Feature"}, {"geometry": {"coordinates": [8.537729, 47.379719], "type": "Point"}, "properties": {"address": "Sihlquai/HB", "electric": 10, "id": "pb_513", "manual": 8, "name": "Sihlquai", "provider": "publibike", "timeStamp": "02/01/2020, 21:49:00", "zip": 8005}, "type": "Feature"}, {"geometry": {"coordinates": [8.596202, 47.397885], "type": "Point"}, "properties": {"address": "Bahnhof Stettbach", "electric": 0, "id": "pb_514", "manual": 3, "name": "Bahnhof Stettbach", "provider": "publibike", "timeStamp": "02/01/2020, 21:49:00", "zip": 8051}, "type": "Feature"}, {"geometry": {"coordinates": [8.5543974, 47.3690153], "type": "Point"}, "properties": {"address": "Kasinostrasse 10", "electric": 3, "id": "pb_515", "manual": 0, "name": "Hottingerplatz", "provider": "publibike", "timeStamp": "02/01/2020, 21:49:00", "zip": 8032}, "type": "Feature"}, {"geometry": {"coordinates": [8.534444, 47.351525], "type": "Point"}, "properties": {"address": "Mobile Station Z\u00fcrich 1", "electric": 0, "id": "pb_282", "manual": 0, "name": "Theaterspektakel", "provider": "publibike", "timeStamp": "02/01/2020, 21:49:00", "zip": 8002}, "type": "Feature"}, {"geometry": {"coordinates": [8.516257, 47.367656], "type": "Point"}, "properties": {"address": "Goldbrunnenstrasse 54", "electric": 3, "id": "pb_538", "manual": 1, "name": "Kirche B\u00fchl", "provider": "publibike", "timeStamp": "02/01/2020, 21:49:00", "zip": 8055}, "type": "Feature"}, {"geometry": {"coordinates": [8.555639, 47.416873], "type": "Point"}, "properties": {"address": "Leutschenbachstrasse 50", "electric": 0, "id": "pb_537", "manual": 3, "name": "Leutschenpark", "provider": "publibike", "timeStamp": "02/01/2020, 21:49:00", "zip": 8050}, "type": "Feature"}, {"geometry": {"coordinates": [8.546464, 47.403822], "type": "Point"}, "properties": {"address": "Berninastrasse 45", "electric": 4, "id": "pb_540", "manual": 0, "name": "Berninaplatz", "provider": "publibike", "timeStamp": "02/01/2020, 21:49:00", "zip": 8057}, "type": "Feature"}, {"geometry": {"coordinates": [8.523134, 47.369004], "type": "Point"}, "properties": {"address": "Erlachstrasse 3", "electric": 1, "id": "pb_385", "manual": 4, "name": "Aegerten", "provider": "publibike", "timeStamp": "02/01/2020, 21:49:00", "zip": 8003}, "type": "Feature"}, {"geometry": {"coordinates": [8.49038, 47.381591], "type": "Point"}, "properties": {"address": "Rautistrasse 60", "electric": 4, "id": "pb_536", "manual": 6, "name": "Freilager", "provider": "publibike", "timeStamp": "02/01/2020, 21:49:00", "zip": 8048}, "type": "Feature"}, {"geometry": {"coordinates": [8.496511, 47.375247], "type": "Point"}, "properties": {"address": "Letzigraben 139", "electric": 3, "id": "pb_444", "manual": 3, "name": "Sackzelg", "provider": "publibike", "timeStamp": "02/01/2020, 21:49:00", "zip": 8047}, "type": "Feature"}, {"geometry": {"coordinates": [8.58131, 47.402801], "type": "Point"}, "properties": {"address": "Altwiesenstrasse 104", "electric": 0, "id": "pb_539", "manual": 4, "name": "Glattwiesen", "provider": "publibike", "timeStamp": "02/01/2020, 21:49:00", "zip": 8051}, "type": "Feature"}, {"geometry": {"coordinates": [8.52689, 47.3767], "type": "Point"}, "properties": {"address": "Molkenstrasse 5", "electric": 3, "id": "pb_560", "manual": 17, "name": "Helvetiaplatz", "provider": "publibike", "timeStamp": "02/01/2020, 21:49:00", "zip": 8004}, "type": "Feature"}, {"geometry": {"coordinates": [8.525602, 47.374241], "type": "Point"}, "properties": {"address": "Badenerstrasse 90", "electric": 1, "id": "pb_559", "manual": 6, "name": "Bezirksgeb\u00e4ude", "provider": "publibike", "timeStamp": "02/01/2020, 21:49:00", "zip": 8004}, "type": "Feature"}, {"geometry": {"coordinates": [8.535082, 47.345248], "type": "Point"}, "properties": {"address": "Bachstrasse 15", "electric": 8, "id": "pb_564", "manual": 5, "name": "GZ Wollishofen", "provider": "publibike", "timeStamp": "02/01/2020, 21:49:00", "zip": 8038}, "type": "Feature"}, {"geometry": {"coordinates": [8.514841, 47.370238], "type": "Point"}, "properties": {"address": "Schrennengasse 37", "electric": 1, "id": "pb_562", "manual": 4, "name": "Goldbrunnenplatz", "provider": "publibike", "timeStamp": "02/01/2020, 21:49:00", "zip": 8003}, "type": "Feature"}, {"geometry": {"coordinates": [8.514138, 47.374206], "type": "Point"}, "properties": {"address": "Idaplatz 4", "electric": 0, "id": "pb_557", "manual": 0, "name": "Idaplatz", "provider": "publibike", "timeStamp": "02/01/2020, 21:49:00", "zip": 8003}, "type": "Feature"}, {"geometry": {"coordinates": [8.518432, 47.369549], "type": "Point"}, "properties": {"address": "Brinerstrasse 2", "electric": 1, "id": "pb_558", "manual": 11, "name": "Schmiede Wiedikon", "provider": "publibike", "timeStamp": "02/01/2020, 21:49:00", "zip": 8003}, "type": "Feature"}, {"geometry": {"coordinates": [8.537546, 47.391289], "type": "Point"}, "properties": {"address": "Rotbuchstrasse 15", "electric": 3, "id": "pb_556", "manual": 0, "name": "Schaffhauserplatz", "provider": "publibike", "timeStamp": "02/01/2020, 21:49:00", "zip": 8006}, "type": "Feature"}, {"geometry": {"coordinates": [8.541541, 47.413733], "type": "Point"}, "properties": {"address": "Therese-Giehse-Strasse 11", "electric": 1, "id": "pb_561", "manual": 0, "name": "Center Eleven", "provider": "publibike", "timeStamp": "02/01/2020, 21:49:00", "zip": 8050}, "type": "Feature"}, {"geometry": {"coordinates": [8.534227, 47.360004], "type": "Point"}, "properties": {"address": "Alfred Escher-Strasse 76", "electric": 3, "id": "pb_563", "manual": 1, "name": "Mythenschloss", "provider": "publibike", "timeStamp": "02/01/2020, 21:49:00", "zip": 8002}, "type": "Feature"}, {"geometry": {"coordinates": [8.50373, 47.396172], "type": "Point"}, "properties": {"address": "Hardeggstrasse 6", "electric": 0, "id": "pb_566", "manual": 3, "name": "Am Wasser", "provider": "publibike", "timeStamp": "02/01/2020, 21:49:00", "zip": 8049}, "type": "Feature"}, {"geometry": {"coordinates": [8.532432, 47.381174], "type": "Point"}, "properties": {"address": "Klingenstrasse 9", "electric": 2, "id": "pb_565", "manual": 0, "name": "Zollstrasse", "provider": "publibike", "timeStamp": "02/01/2020, 21:49:00", "zip": 8005}, "type": "Feature"}, {"geometry": {"coordinates": [8.497982, 47.381447], "type": "Point"}, "properties": {"address": "Dennlerstrasse 23", "electric": 8, "id": "pb_567", "manual": 1, "name": "Dennlerstrasse", "provider": "publibike", "timeStamp": "02/01/2020, 21:49:00", "zip": 8047}, "type": "Feature"}, {"geometry": {"coordinates": [8.528049, 47.347701], "type": "Point"}, "properties": {"address": "Mutschellenstrasse 114", "electric": 3, "id": "pb_568", "manual": 7, "name": "Jugendherberge", "provider": "publibike", "timeStamp": "02/01/2020, 21:49:00", "zip": 8038}, "type": "Feature"}, {"geometry": {"coordinates": [8.539016, 47.405751], "type": "Point"}, "properties": {"address": "Ringstrasse 82", "electric": 1, "id": "pb_569", "manual": 4, "name": "Freibad Allenmoos", "provider": "publibike", "timeStamp": "02/01/2020, 21:49:00", "zip": 8057}, "type": "Feature"}, {"geometry": {"coordinates": [8.534974, 47.402164], "type": "Point"}, "properties": {"address": "Brache Guggach", "electric": 4, "id": "pb_572", "manual": 2, "name": "Radiostudio", "provider": "publibike", "timeStamp": "02/01/2020, 21:49:00", "zip": 8057}, "type": "Feature"}, {"geometry": {"coordinates": [8.547901, 47.375556], "type": "Point"}, "properties": {"address": "Karl-Schmid-Strasse 4", "electric": 0, "id": "pb_571", "manual": 1, "name": "ETH/Zoologisches Museum", "provider": "publibike", "timeStamp": "02/01/2020, 21:49:00", "zip": 8006}, "type": "Feature"}, {"geometry": {"coordinates": [8.532783, 47.336868], "type": "Point"}, "properties": {"charge": 66, "id": "smide_2901", "name": "ZH 267278", "provider": "smide", "range": 33.0, "size": 20, "time": "02/01/2020, 21:48:34"}, "type": "Feature"}, {"geometry": {"coordinates": [8.569513, 47.352176], "type": "Point"}, "properties": {"charge": 91, "id": "smide_2895", "name": "ZH 267279", "provider": "smide", "range": 45.0, "size": 20, "time": "02/01/2020, 21:48:34"}, "type": "Feature"}, {"geometry": {"coordinates": [8.48677, 47.388058], "type": "Point"}, "properties": {"charge": 85, "id": "smide_2880", "name": "ZH267289", "provider": "smide", "range": 42.0, "size": 17, "time": "02/01/2020, 21:48:34"}, "type": "Feature"}, {"geometry": {"coordinates": [8.519126, 47.33718], "type": "Point"}, "properties": {"charge": 82, "id": "smide_2871", "name": "ZH 267086", "provider": "smide", "range": 41.0, "size": 20, "time": "02/01/2020, 21:48:34"}, "type": "Feature"}, {"geometry": {"coordinates": [8.509908, 47.390591], "type": "Point"}, "properties": {"charge": 45, "id": "smide_2867", "name": "ZH 267090", "provider": "smide", "range": 22.0, "size": 20, "time": "02/01/2020, 21:48:34"}, "type": "Feature"}, {"geometry": {"coordinates": [8.536521, 47.361996], "type": "Point"}, "properties": {"charge": 15, "id": "smide_2861", "name": "ZH 267096", "provider": "smide", "range": 7.0, "size": 17, "time": "02/01/2020, 21:48:34"}, "type": "Feature"}, {"geometry": {"coordinates": [8.575963, 47.349805], "type": "Point"}, "properties": {"charge": 89, "id": "smide_2860", "name": "ZH 267097", "provider": "smide", "range": 44.0, "size": 17, "time": "02/01/2020, 21:48:34"}, "type": "Feature"}, {"geometry": {"coordinates": [8.536456, 47.375496], "type": "Point"}, "properties": {"charge": 100, "id": "smide_2859", "name": "ZH 267098", "provider": "smide", "range": 50.0, "size": 17, "time": "02/01/2020, 21:48:34"}, "type": "Feature"}, {"geometry": {"coordinates": [8.514918, 47.396236], "type": "Point"}, "properties": {"charge": 33, "id": "smide_2856", "name": "ZH 267101", "provider": "smide", "range": 16.0, "size": 17, "time": "02/01/2020, 21:48:34"}, "type": "Feature"}, {"geometry": {"coordinates": [8.539391, 47.375955], "type": "Point"}, "properties": {"charge": 78, "id": "smide_2855", "name": "ZH 267102", "provider": "smide", "range": 39.0, "size": 17, "time": "02/01/2020, 21:48:34"}, "type": "Feature"}, {"geometry": {"coordinates": [8.507226, 47.399808], "type": "Point"}, "properties": {"charge": 100, "id": "smide_2854", "name": "ZH 267103", "provider": "smide", "range": 50.0, "size": 17, "time": "02/01/2020, 21:48:34"}, "type": "Feature"}, {"geometry": {"coordinates": [8.53681, 47.403846], "type": "Point"}, "properties": {"charge": 100, "id": "smide_2833", "name": "ZH 267182", "provider": "smide", "range": 50.0, "size": 20, "time": "02/01/2020, 21:48:34"}, "type": "Feature"}, {"geometry": {"coordinates": [8.569943, 47.352433], "type": "Point"}, "properties": {"charge": 57, "id": "smide_2831", "name": "ZH 267180", "provider": "smide", "range": 28.0, "size": 20, "time": "02/01/2020, 21:48:34"}, "type": "Feature"}, {"geometry": {"coordinates": [8.572255, 47.357495], "type": "Point"}, "properties": {"charge": 53, "id": "smide_2829", "name": "ZH 267049", "provider": "smide", "range": 26.0, "size": 20, "time": "02/01/2020, 21:48:34"}, "type": "Feature"}, {"geometry": {"coordinates": [8.554075, 47.412206], "type": "Point"}, "properties": {"charge": 72, "id": "smide_2804", "name": "ZH266903", "provider": "smide", "range": 36.0, "size": 20, "time": "02/01/2020, 21:48:34"}, "type": "Feature"}, {"geometry": {"coordinates": [8.545318, 47.376321], "type": "Point"}, "properties": {"charge": 99, "id": "smide_2798", "name": "ZH266888", "provider": "smide", "range": 49.0, "size": 17, "time": "02/01/2020, 21:48:34"}, "type": "Feature"}, {"geometry": {"coordinates": [8.520953, 47.3701], "type": "Point"}, "properties": {"charge": 38, "id": "smide_2793", "name": "ZH266883", "provider": "smide", "range": 19.0, "size": 17, "time": "02/01/2020, 21:48:34"}, "type": "Feature"}, {"geometry": {"coordinates": [8.545368, 47.3697], "type": "Point"}, "properties": {"charge": 33, "id": "smide_2790", "name": "ZH266880", "provider": "smide", "range": 16.0, "size": 17, "time": "02/01/2020, 21:48:34"}, "type": "Feature"}, {"geometry": {"coordinates": [8.517503, 47.358678], "type": "Point"}, "properties": {"charge": 48, "id": "smide_2785", "name": "ZH266875", "provider": "smide", "range": 24.0, "size": 17, "time": "02/01/2020, 21:48:34"}, "type": "Feature"}, {"geometry": {"coordinates": [8.51553, 47.374936], "type": "Point"}, "properties": {"charge": 90, "id": "smide_2781", "name": "ZH 266871", "provider": "smide", "range": 45.0, "size": 17, "time": "02/01/2020, 21:48:34"}, "type": "Feature"}, {"geometry": {"coordinates": [8.51559, 47.398123], "type": "Point"}, "properties": {"charge": 93, "id": "smide_2780", "name": "ST1 X #1", "provider": "smide", "range": 46.0, "size": 17, "time": "02/01/2020, 21:48:34"}, "type": "Feature"}, {"geometry": {"coordinates": [8.554633, 47.40284], "type": "Point"}, "properties": {"charge": 60, "id": "smide_2773", "name": "ZH266561", "provider": "smide", "range": 30.0, "size": 17, "time": "02/01/2020, 21:48:34"}, "type": "Feature"}, {"geometry": {"coordinates": [8.483672, 47.381916], "type": "Point"}, "properties": {"charge": 55, "id": "smide_2763", "name": "ZH266641", "provider": "smide", "range": 27.0, "size": 17, "time": "02/01/2020, 21:48:34"}, "type": "Feature"}, {"geometry": {"coordinates": [8.560276, 47.382096], "type": "Point"}, "properties": {"charge": 37, "id": "smide_2761", "name": "ZH266642", "provider": "smide", "range": 18.0, "size": 20, "time": "02/01/2020, 21:48:34"}, "type": "Feature"}, {"geometry": {"coordinates": [8.55948, 47.376556], "type": "Point"}, "properties": {"charge": 98, "id": "smide_2758", "name": "ZH266638 M", "provider": "smide", "range": 49.0, "size": 17, "time": "02/01/2020, 21:48:34"}, "type": "Feature"}, {"geometry": {"coordinates": [8.496197, 47.388888], "type": "Point"}, "properties": {"charge": 65, "id": "smide_2752", "name": "BE343856", "provider": "smide", "range": 32.0, "size": 17, "time": "02/01/2020, 21:48:34"}, "type": "Feature"}, {"geometry": {"coordinates": [8.544998, 47.389296], "type": "Point"}, "properties": {"charge": 61, "id": "smide_2751", "name": "BE343857", "provider": "smide", "range": 30.0, "size": 17, "time": "02/01/2020, 21:48:34"}, "type": "Feature"}, {"geometry": {"coordinates": [8.496545, 47.392532], "type": "Point"}, "properties": {"charge": 19, "id": "smide_2749", "name": "BE343867", "provider": "smide", "range": 9.0, "size": 17, "time": "02/01/2020, 21:48:34"}, "type": "Feature"}, {"geometry": {"coordinates": [8.493844, 47.388068], "type": "Point"}, "properties": {"charge": 75, "id": "smide_2748", "name": "BE335758", "provider": "smide", "range": 37.0, "size": 17, "time": "02/01/2020, 21:48:34"}, "type": "Feature"}, {"geometry": {"coordinates": [8.562484, 47.382976], "type": "Point"}, "properties": {"charge": 56, "id": "smide_2746", "name": "BE335817", "provider": "smide", "range": 28.0, "size": 17, "time": "02/01/2020, 21:48:34"}, "type": "Feature"}, {"geometry": {"coordinates": [8.553751, 47.398852], "type": "Point"}, "properties": {"charge": 83, "id": "smide_2747", "name": "BE335820", "provider": "smide", "range": 41.0, "size": 17, "time": "02/01/2020, 21:48:34"}, "type": "Feature"}, {"geometry": {"coordinates": [8.546663, 47.401792], "type": "Point"}, "properties": {"charge": 91, "id": "smide_2745", "name": "BE335818", "provider": "smide", "range": 45.0, "size": 17, "time": "02/01/2020, 21:48:34"}, "type": "Feature"}, {"geometry": {"coordinates": [8.518162, 47.398568], "type": "Point"}, "properties": {"charge": 94, "id": "smide_2743", "name": "BE343864", "provider": "smide", "range": 47.0, "size": 17, "time": "02/01/2020, 21:48:34"}, "type": "Feature"}, {"geometry": {"coordinates": [8.532519, 47.385392], "type": "Point"}, "properties": {"charge": 76, "id": "smide_2742", "name": "BE343866", "provider": "smide", "range": 38.0, "size": 17, "time": "02/01/2020, 21:48:34"}, "type": "Feature"}, {"geometry": {"coordinates": [8.542274, 47.37714], "type": "Point"}, "properties": {"charge": 77, "id": "smide_2741", "name": "BE343874", "provider": "smide", "range": 38.0, "size": 17, "time": "02/01/2020, 21:48:34"}, "type": "Feature"}, {"geometry": {"coordinates": [8.529812, 47.369352], "type": "Point"}, "properties": {"charge": 65, "id": "smide_2740", "name": "BE343875", "provider": "smide", "range": 32.0, "size": 17, "time": "02/01/2020, 21:48:34"}, "type": "Feature"}, {"geometry": {"coordinates": [8.486256, 47.388671], "type": "Point"}, "properties": {"charge": 53, "id": "smide_2738", "name": "BE343865", "provider": "smide", "range": 26.0, "size": 17, "time": "02/01/2020, 21:48:34"}, "type": "Feature"}, {"geometry": {"coordinates": [8.55795, 47.352724], "type": "Point"}, "properties": {"charge": 36, "id": "smide_2737", "name": "BE336149", "provider": "smide", "range": 18.0, "size": 17, "time": "02/01/2020, 21:48:34"}, "type": "Feature"}, {"geometry": {"coordinates": [8.502081, 47.368912], "type": "Point"}, "properties": {"charge": 100, "id": "smide_2736", "name": "BE346639", "provider": "smide", "range": 50.0, "size": 17, "time": "02/01/2020, 21:48:34"}, "type": "Feature"}, {"geometry": {"coordinates": [8.518107, 47.367632], "type": "Point"}, "properties": {"charge": 41, "id": "smide_2734", "name": "BE343876", "provider": "smide", "range": 20.0, "size": 17, "time": "02/01/2020, 21:48:34"}, "type": "Feature"}, {"geometry": {"coordinates": [8.56648, 47.351804], "type": "Point"}, "properties": {"charge": 89, "id": "smide_2733", "name": "BE343873", "provider": "smide", "range": 44.0, "size": 17, "time": "02/01/2020, 21:48:34"}, "type": "Feature"}, {"geometry": {"coordinates": [8.478477, 47.389728], "type": "Point"}, "properties": {"charge": 78, "id": "smide_2732", "name": "BE343870", "provider": "smide", "range": 39.0, "size": 17, "time": "02/01/2020, 21:48:34"}, "type": "Feature"}, {"geometry": {"coordinates": [8.531381, 47.370952], "type": "Point"}, "properties": {"charge": 59, "id": "smide_2729", "name": "BE343878", "provider": "smide", "range": 29.0, "size": 17, "time": "02/01/2020, 21:48:34"}, "type": "Feature"}, {"geometry": {"coordinates": [8.508523, 47.40795], "type": "Point"}, "properties": {"charge": 100, "id": "smide_2725", "name": "ZH261545", "provider": "smide", "range": 50.0, "size": 0, "time": "02/01/2020, 21:48:34"}, "type": "Feature"}, {"geometry": {"coordinates": [8.56281, 47.382608], "type": "Point"}, "properties": {"charge": 59, "id": "smide_2718", "name": "ZH259019", "provider": "smide", "range": 29.0, "size": 20, "time": "02/01/2020, 21:48:34"}, "type": "Feature"}, {"geometry": {"coordinates": [8.553554, 47.397636], "type": "Point"}, "properties": {"charge": 34, "id": "smide_2717", "name": "ZH263287", "provider": "smide", "range": 17.0, "size": 17, "time": "02/01/2020, 21:48:34"}, "type": "Feature"}, {"geometry": {"coordinates": [8.53005, 47.390408], "type": "Point"}, "properties": {"charge": 97, "id": "smide_2716", "name": "ZH254606", "provider": "smide", "range": 48.0, "size": 17, "time": "02/01/2020, 21:48:34"}, "type": "Feature"}, {"geometry": {"coordinates": [8.54291, 47.385588], "type": "Point"}, "properties": {"charge": 100, "id": "smide_2715", "name": "ZH254605", "provider": "smide", "range": 50.0, "size": 17, "time": "02/01/2020, 21:48:34"}, "type": "Feature"}, {"geometry": {"coordinates": [8.568369, 47.36766], "type": "Point"}, "properties": {"charge": 73, "id": "smide_2710", "name": "ZH256460", "provider": "smide", "range": 36.0, "size": 17, "time": "02/01/2020, 21:48:34"}, "type": "Feature"}, {"geometry": {"coordinates": [8.515518, 47.368964], "type": "Point"}, "properties": {"charge": 100, "id": "smide_2712", "name": "ZH256462", "provider": "smide", "range": 50.0, "size": 17, "time": "02/01/2020, 21:48:34"}, "type": "Feature"}, {"geometry": {"coordinates": [8.534325, 47.361148], "type": "Point"}, "properties": {"charge": 46, "id": "smide_2711", "name": "ZH256463", "provider": "smide", "range": 23.0, "size": 17, "time": "02/01/2020, 21:48:34"}, "type": "Feature"}, {"geometry": {"coordinates": [8.564, 47.348201], "type": "Point"}, "properties": {"charge": 74, "id": "smide_2709", "name": "ZH256466", "provider": "smide", "range": 37.0, "size": 20, "time": "02/01/2020, 21:48:34"}, "type": "Feature"}, {"geometry": {"coordinates": [8.544353, 47.416528], "type": "Point"}, "properties": {"charge": 64, "id": "smide_2707", "name": "ZH256467", "provider": "smide", "range": 32.0, "size": 20, "time": "02/01/2020, 21:48:34"}, "type": "Feature"}, {"geometry": {"coordinates": [8.542884, 47.371828], "type": "Point"}, "properties": {"charge": 95, "id": "smide_2708", "name": "ZH256464", "provider": "smide", "range": 47.0, "size": 17, "time": "02/01/2020, 21:48:34"}, "type": "Feature"}, {"geometry": {"coordinates": [8.545165, 47.367604], "type": "Point"}, "properties": {"charge": 83, "id": "smide_2706", "name": "ZH256322", "provider": "smide", "range": 41.0, "size": 20, "time": "02/01/2020, 21:48:34"}, "type": "Feature"}, {"geometry": {"coordinates": [8.563238, 47.372288], "type": "Point"}, "properties": {"charge": 94, "id": "smide_2701", "name": "ZH256468", "provider": "smide", "range": 47.0, "size": 20, "time": "02/01/2020, 21:48:34"}, "type": "Feature"}, {"geometry": {"coordinates": [8.543831, 47.371868], "type": "Point"}, "properties": {"charge": 85, "id": "smide_2700", "name": "ZH256470", "provider": "smide", "range": 42.0, "size": 20, "time": "02/01/2020, 21:48:34"}, "type": "Feature"}, {"geometry": {"coordinates": [8.568359, 47.367632], "type": "Point"}, "properties": {"charge": 100, "id": "smide_2699", "name": "ZH254611", "provider": "smide", "range": 50.0, "size": 20, "time": "02/01/2020, 21:48:34"}, "type": "Feature"}, {"geometry": {"coordinates": [8.509386, 47.395272], "type": "Point"}, "properties": {"charge": 99, "id": "smide_2696", "name": "ZH254616", "provider": "smide", "range": 49.0, "size": 20, "time": "02/01/2020, 21:48:34"}, "type": "Feature"}, {"geometry": {"coordinates": [8.551832, 47.389124], "type": "Point"}, "properties": {"charge": 86, "id": "smide_2694", "name": "ZH254610", "provider": "smide", "range": 43.0, "size": 20, "time": "02/01/2020, 21:48:34"}, "type": "Feature"}, {"geometry": {"coordinates": [8.558526, 47.403723], "type": "Point"}, "properties": {"charge": 49, "id": "smide_2691", "name": "ZH254622", "provider": "smide", "range": 24.0, "size": 20, "time": "02/01/2020, 21:48:34"}, "type": "Feature"}, {"geometry": {"coordinates": [8.545445, 47.373873], "type": "Point"}, "properties": {"charge": 100, "id": "smide_2690", "name": "ZH254625", "provider": "smide", "range": 50.0, "size": 20, "time": "02/01/2020, 21:48:34"}, "type": "Feature"}, {"geometry": {"coordinates": [8.496664, 47.423928], "type": "Point"}, "properties": {"charge": 85, "id": "smide_2689", "name": "ZH254623", "provider": "smide", "range": 42.0, "size": 20, "time": "02/01/2020, 21:48:34"}, "type": "Feature"}, {"geometry": {"coordinates": [8.502154, 47.369032], "type": "Point"}, "properties": {"charge": 100, "id": "smide_2687", "name": "ZH263529", "provider": "smide", "range": 50.0, "size": 20, "time": "02/01/2020, 21:48:34"}, "type": "Feature"}, {"geometry": {"coordinates": [8.563383, 47.382372], "type": "Point"}, "properties": {"charge": 69, "id": "smide_2684", "name": "ZH254626", "provider": "smide", "range": 34.0, "size": 20, "time": "02/01/2020, 21:48:34"}, "type": "Feature"}, {"geometry": {"coordinates": [8.56063, 47.350536], "type": "Point"}, "properties": {"charge": 44, "id": "smide_2683", "name": "ZH254620", "provider": "smide", "range": 22.0, "size": 20, "time": "02/01/2020, 21:48:34"}, "type": "Feature"}, {"geometry": {"coordinates": [8.550869, 47.39234], "type": "Point"}, "properties": {"charge": 59, "id": "smide_2680", "name": "ZH254619", "provider": "smide", "range": 29.0, "size": 20, "time": "02/01/2020, 21:48:34"}, "type": "Feature"}, {"geometry": {"coordinates": [8.576532, 47.351304], "type": "Point"}, "properties": {"charge": 83, "id": "smide_2679", "name": "ZH258489", "provider": "smide", "range": 41.0, "size": 17, "time": "02/01/2020, 21:48:34"}, "type": "Feature"}, {"geometry": {"coordinates": [8.502216, 47.36904], "type": "Point"}, "properties": {"charge": 100, "id": "smide_2677", "name": "ZH258487", "provider": "smide", "range": 50.0, "size": 17, "time": "02/01/2020, 21:48:34"}, "type": "Feature"}, {"geometry": {"coordinates": [8.533112, 47.336792], "type": "Point"}, "properties": {"charge": 74, "id": "smide_2674", "name": "ZH258654", "provider": "smide", "range": 37.0, "size": 17, "time": "02/01/2020, 21:48:34"}, "type": "Feature"}, {"geometry": {"coordinates": [8.494525, 47.42352], "type": "Point"}, "properties": {"charge": 88, "id": "smide_2671", "name": "ZH258645", "provider": "smide", "range": 44.0, "size": 17, "time": "02/01/2020, 21:48:34"}, "type": "Feature"}, {"geometry": {"coordinates": [8.527393, 47.354232], "type": "Point"}, "properties": {"charge": 40, "id": "smide_2669", "name": "ZH263294", "provider": "smide", "range": 20.0, "size": 17, "time": "02/01/2020, 21:48:34"}, "type": "Feature"}, {"geometry": {"coordinates": [8.541651, 47.36744], "type": "Point"}, "properties": {"charge": 56, "id": "smide_2666", "name": "ZH258653", "provider": "smide", "range": 28.0, "size": 17, "time": "02/01/2020, 21:48:34"}, "type": "Feature"}, {"geometry": {"coordinates": [8.546274, 47.409368], "type": "Point"}, "properties": {"charge": 47, "id": "smide_2665", "name": "ZH258644", "provider": "smide", "range": 23.0, "size": 17, "time": "02/01/2020, 21:48:34"}, "type": "Feature"}, {"geometry": {"coordinates": [8.537701, 47.3794], "type": "Point"}, "properties": {"charge": 98, "id": "smide_2664", "name": "ZH258652", "provider": "smide", "range": 49.0, "size": 17, "time": "02/01/2020, 21:48:34"}, "type": "Feature"}, {"geometry": {"coordinates": [8.541451, 47.379092], "type": "Point"}, "properties": {"charge": 41, "id": "smide_2663", "name": "ZH258649", "provider": "smide", "range": 20.0, "size": 17, "time": "02/01/2020, 21:48:34"}, "type": "Feature"}, {"geometry": {"coordinates": [8.568435, 47.366848], "type": "Point"}, "properties": {"charge": 35, "id": "smide_2662", "name": "ZH258643", "provider": "smide", "range": 17.0, "size": 17, "time": "02/01/2020, 21:48:34"}, "type": "Feature"}, {"geometry": {"coordinates": [8.502186, 47.370304], "type": "Point"}, "properties": {"charge": 71, "id": "smide_2660", "name": "ZH258647", "provider": "smide", "range": 35.0, "size": 17, "time": "02/01/2020, 21:48:34"}, "type": "Feature"}, {"geometry": {"coordinates": [8.518554, 47.362976], "type": "Point"}, "properties": {"charge": 90, "id": "smide_2648", "name": "ZH257930", "provider": "smide", "range": 45.0, "size": 20, "time": "02/01/2020, 21:48:34"}, "type": "Feature"}, {"geometry": {"coordinates": [8.570033, 47.352406], "type": "Point"}, "properties": {"charge": 50, "id": "smide_2657", "name": "ZH257936", "provider": "smide", "range": 25.0, "size": 17, "time": "02/01/2020, 21:48:34"}, "type": "Feature"}, {"geometry": {"coordinates": [8.519266, 47.385984], "type": "Point"}, "properties": {"charge": 70, "id": "smide_2647", "name": "ZH257932", "provider": "smide", "range": 35.0, "size": 20, "time": "02/01/2020, 21:48:34"}, "type": "Feature"}, {"geometry": {"coordinates": [8.514458, 47.397156], "type": "Point"}, "properties": {"charge": 40, "id": "smide_2645", "name": "ZH257933", "provider": "smide", "range": 20.0, "size": 20, "time": "02/01/2020, 21:48:34"}, "type": "Feature"}, {"geometry": {"coordinates": [8.499035, 47.399525], "type": "Point"}, "properties": {"charge": 87, "id": "smide_3", "name": "ZH253765", "provider": "smide", "range": 43.0, "size": 20, "time": "02/01/2020, 21:48:34"}, "type": "Feature"}, {"geometry": {"coordinates": [8.526133, 47.40853], "type": "Point"}, "properties": {"charge": 72, "id": "smide_105", "name": "ZH253804", "provider": "smide", "range": 36.0, "size": 17, "time": "02/01/2020, 21:48:34"}, "type": "Feature"}, {"geometry": {"coordinates": [8.542102, 47.407708], "type": "Point"}, "properties": {"charge": 91, "id": "smide_186", "name": "ZH253751", "provider": "smide", "range": 45.0, "size": 20, "time": "02/01/2020, 21:48:34"}, "type": "Feature"}, {"geometry": {"coordinates": [8.571172, 47.352696], "type": "Point"}, "properties": {"charge": 89, "id": "smide_173", "name": "ZH258501", "provider": "smide", "range": 44.0, "size": 17, "time": "02/01/2020, 21:48:34"}, "type": "Feature"}, {"geometry": {"coordinates": [8.559233, 47.406048], "type": "Point"}, "properties": {"charge": 73, "id": "smide_77", "name": "ZH261548", "provider": "smide", "range": 36.0, "size": 20, "time": "02/01/2020, 21:48:34"}, "type": "Feature"}, {"geometry": {"coordinates": [8.563032, 47.365116], "type": "Point"}, "properties": {"charge": 85, "id": "smide_200", "name": "ZH253801", "provider": "smide", "range": 42.0, "size": 20, "time": "02/01/2020, 21:48:34"}, "type": "Feature"}, {"geometry": {"coordinates": [8.541901, 47.369876], "type": "Point"}, "properties": {"charge": 67, "id": "smide_197", "name": "ZH253864", "provider": "smide", "range": 33.0, "size": 20, "time": "02/01/2020, 21:48:34"}, "type": "Feature"}, {"geometry": {"coordinates": [8.558925, 47.414916], "type": "Point"}, "properties": {"charge": 100, "id": "smide_199", "name": "ZH253766", "provider": "smide", "range": 50.0, "size": 20, "time": "02/01/2020, 21:48:34"}, "type": "Feature"}, {"geometry": {"coordinates": [8.560353, 47.38204], "type": "Point"}, "properties": {"charge": 57, "id": "smide_8", "name": "ZH253861", "provider": "smide", "range": 28.0, "size": 17, "time": "02/01/2020, 21:48:34"}, "type": "Feature"}, {"geometry": {"coordinates": [8.563133, 47.38268], "type": "Point"}, "properties": {"charge": 76, "id": "smide_45", "name": "ZH253716", "provider": "smide", "range": 38.0, "size": 17, "time": "02/01/2020, 21:48:34"}, "type": "Feature"}, {"geometry": {"coordinates": [8.54816, 47.366392], "type": "Point"}, "properties": {"charge": 55, "id": "smide_188", "name": "ZH261543", "provider": "smide", "range": 27.0, "size": 20, "time": "02/01/2020, 21:48:34"}, "type": "Feature"}, {"geometry": {"coordinates": [8.540473, 47.41766], "type": "Point"}, "properties": {"charge": 43, "id": "smide_101", "name": "ZH253814", "provider": "smide", "range": 21.0, "size": 17, "time": "02/01/2020, 21:48:34"}, "type": "Feature"}, {"geometry": {"coordinates": [8.492533, 47.368244], "type": "Point"}, "properties": {"charge": 80, "id": "smide_9", "name": "ZH253796", "provider": "smide", "range": 40.0, "size": 17, "time": "02/01/2020, 21:48:34"}, "type": "Feature"}, {"geometry": {"coordinates": [8.55922, 47.414772], "type": "Point"}, "properties": {"charge": 95, "id": "smide_143", "name": "ZH253778", "provider": "smide", "range": 47.0, "size": 17, "time": "02/01/2020, 21:48:34"}, "type": "Feature"}, {"geometry": {"coordinates": [8.560148, 47.413986], "type": "Point"}, "properties": {"charge": 100, "id": "smide_180", "name": "ZH253824", "provider": "smide", "range": 50.0, "size": 20, "time": "02/01/2020, 21:48:34"}, "type": "Feature"}, {"geometry": {"coordinates": [8.541787, 47.3691], "type": "Point"}, "properties": {"charge": 52, "id": "smide_20", "name": "ZH253770", "provider": "smide", "range": 26.0, "size": 20, "time": "02/01/2020, 21:48:34"}, "type": "Feature"}, {"geometry": {"coordinates": [8.554773, 47.377204], "type": "Point"}, "properties": {"charge": 86, "id": "smide_50", "name": "ZH253853", "provider": "smide", "range": 43.0, "size": 17, "time": "02/01/2020, 21:48:34"}, "type": "Feature"}, {"geometry": {"coordinates": [8.544436, 47.393585], "type": "Point"}, "properties": {"charge": 90, "id": "smide_30", "name": "ZH253813", "provider": "smide", "range": 45.0, "size": 20, "time": "02/01/2020, 21:48:34"}, "type": "Feature"}, {"geometry": {"coordinates": [8.53566, 47.374515], "type": "Point"}, "properties": {"charge": 81, "id": "smide_10", "name": "ZH253855", "provider": "smide", "range": 40.0, "size": 17, "time": "02/01/2020, 21:48:34"}, "type": "Feature"}, {"geometry": {"coordinates": [8.541663, 47.37616], "type": "Point"}, "properties": {"charge": 48, "id": "smide_165", "name": "ZH253752", "provider": "smide", "range": 24.0, "size": 17, "time": "02/01/2020, 21:48:34"}, "type": "Feature"}, {"geometry": {"coordinates": [8.538335, 47.377084], "type": "Point"}, "properties": {"charge": 90, "id": "smide_35", "name": "ZH253755", "provider": "smide", "range": 45.0, "size": 20, "time": "02/01/2020, 21:48:34"}, "type": "Feature"}, {"geometry": {"coordinates": [8.541595, 47.36746], "type": "Point"}, "properties": {"charge": 27, "id": "smide_76", "name": "ZH253764", "provider": "smide", "range": 13.0, "size": 17, "time": "02/01/2020, 21:48:34"}, "type": "Feature"}, {"geometry": {"coordinates": [8.560711, 47.35054], "type": "Point"}, "properties": {"charge": 100, "id": "smide_129", "name": "ZH261378", "provider": "smide", "range": 50.0, "size": 17, "time": "02/01/2020, 21:48:34"}, "type": "Feature"}, {"geometry": {"coordinates": [8.56125, 47.36394], "type": "Point"}, "properties": {"charge": 41, "id": "smide_94", "name": "ZH253754", "provider": "smide", "range": 20.0, "size": 17, "time": "02/01/2020, 21:48:34"}, "type": "Feature"}, {"geometry": {"coordinates": [8.532543, 47.397428], "type": "Point"}, "properties": {"charge": 46, "id": "smide_37", "name": "ZH261377", "provider": "smide", "range": 23.0, "size": 20, "time": "02/01/2020, 21:48:34"}, "type": "Feature"}, {"geometry": {"coordinates": [8.544071, 47.36921], "type": "Point"}, "properties": {"charge": 83, "id": "smide_191", "name": "ZH253762", "provider": "smide", "range": 41.0, "size": 17, "time": "02/01/2020, 21:48:34"}, "type": "Feature"}, {"geometry": {"coordinates": [8.544868, 47.377816], "type": "Point"}, "properties": {"charge": 100, "id": "smide_202", "name": "ZH253830", "provider": "smide", "range": 50.0, "size": 17, "time": "02/01/2020, 21:48:34"}, "type": "Feature"}, {"geometry": {"coordinates": [8.539673, 47.408916], "type": "Point"}, "properties": {"charge": 71, "id": "smide_56", "name": "ZH261442", "provider": "smide", "range": 35.0, "size": 20, "time": "02/01/2020, 21:48:34"}, "type": "Feature"}, {"geometry": {"coordinates": [8.483141, 47.384686], "type": "Point"}, "properties": {"charge": 37, "id": "smide_47", "name": "ZH253858", "provider": "smide", "range": 18.0, "size": 17, "time": "02/01/2020, 21:48:34"}, "type": "Feature"}, {"geometry": {"coordinates": [8.559628, 47.404092], "type": "Point"}, "properties": {"charge": 100, "id": "smide_66", "name": "ZH253818", "provider": "smide", "range": 50.0, "size": 20, "time": "02/01/2020, 21:48:34"}, "type": "Feature"}, {"geometry": {"coordinates": [8.548401, 47.405705], "type": "Point"}, "properties": {"charge": 95, "id": "smide_17", "name": "ZH253793", "provider": "smide", "range": 47.0, "size": 17, "time": "02/01/2020, 21:48:34"}, "type": "Feature"}, {"geometry": {"coordinates": [8.560472, 47.35164], "type": "Point"}, "properties": {"charge": 65, "id": "smide_127", "name": "ZH253808", "provider": "smide", "range": 32.0, "size": 20, "time": "02/01/2020, 21:48:34"}, "type": "Feature"}, {"geometry": {"coordinates": [8.541995, 47.416111], "type": "Point"}, "properties": {"charge": 81, "id": "smide_145", "name": "ZH253780", "provider": "smide", "range": 40.0, "size": 20, "time": "02/01/2020, 21:48:34"}, "type": "Feature"}, {"geometry": {"coordinates": [8.53297, 47.416308], "type": "Point"}, "properties": {"charge": 100, "id": "smide_114", "name": "ZH253878", "provider": "smide", "range": 50.0, "size": 20, "time": "02/01/2020, 21:48:34"}, "type": "Feature"}, {"geometry": {"coordinates": [8.548906, 47.421532], "type": "Point"}, "properties": {"charge": 59, "id": "smide_203", "name": "ZH261547", "provider": "smide", "range": 29.0, "size": 17, "time": "02/01/2020, 21:48:34"}, "type": "Feature"}, {"geometry": {"coordinates": [8.543167, 47.373128], "type": "Point"}, "properties": {"charge": 80, "id": "smide_21", "name": "ZH253841", "provider": "smide", "range": 40.0, "size": 17, "time": "02/01/2020, 21:48:34"}, "type": "Feature"}, {"geometry": {"coordinates": [8.530593, 47.3833], "type": "Point"}, "properties": {"charge": 93, "id": "smide_164", "name": "ZH253775", "provider": "smide", "range": 46.0, "size": 17, "time": "02/01/2020, 21:48:34"}, "type": "Feature"}, {"geometry": {"coordinates": [8.48765, 47.368036], "type": "Point"}, "properties": {"charge": 93, "id": "smide_189", "name": "ZH253845", "provider": "smide", "range": 46.0, "size": 20, "time": "02/01/2020, 21:48:34"}, "type": "Feature"}, {"geometry": {"coordinates": [8.545368, 47.3737], "type": "Point"}, "properties": {"charge": 22, "id": "smide_81", "name": "ZH253753", "provider": "smide", "range": 11.0, "size": 17, "time": "02/01/2020, 21:48:34"}, "type": "Feature"}, {"geometry": {"coordinates": [8.571666, 47.381488], "type": "Point"}, "properties": {"charge": 86, "id": "smide_171", "name": "ZH253689", "provider": "smide", "range": 43.0, "size": 20, "time": "02/01/2020, 21:48:34"}, "type": "Feature"}, {"geometry": {"coordinates": [8.553853, 47.374784], "type": "Point"}, "properties": {"charge": 58, "id": "smide_93", "name": "ZH253681", "provider": "smide", "range": 28.0, "size": 17, "time": "02/01/2020, 21:48:34"}, "type": "Feature"}, {"geometry": {"coordinates": [8.573428, 47.352604], "type": "Point"}, "properties": {"charge": 88, "id": "smide_67", "name": "ZH253779", "provider": "smide", "range": 44.0, "size": 17, "time": "02/01/2020, 21:48:34"}, "type": "Feature"}, {"geometry": {"coordinates": [8.536682, 47.419188], "type": "Point"}, "properties": {"charge": 100, "id": "smide_133", "name": "ZH253848", "provider": "smide", "range": 50.0, "size": 20, "time": "02/01/2020, 21:48:34"}, "type": "Feature"}, {"geometry": {"coordinates": [8.482023, 47.38572], "type": "Point"}, "properties": {"charge": 99, "id": "smide_118", "name": "ZH253759", "provider": "smide", "range": 49.0, "size": 20, "time": "02/01/2020, 21:48:34"}, "type": "Feature"}, {"geometry": {"coordinates": [8.550499, 47.392512], "type": "Point"}, "properties": {"charge": 92, "id": "smide_142", "name": "ZH258745", "provider": "smide", "range": 46.0, "size": 17, "time": "02/01/2020, 21:48:34"}, "type": "Feature"}, {"geometry": {"coordinates": [8.538001, 47.375808], "type": "Point"}, "properties": {"charge": 55, "id": "smide_166", "name": "ZH253728", "provider": "smide", "range": 27.0, "size": 17, "time": "02/01/2020, 21:48:34"}, "type": "Feature"}, {"geometry": {"coordinates": [8.494568, 47.398008], "type": "Point"}, "properties": {"charge": 55, "id": "smide_126", "name": "ZH268400", "provider": "smide", "range": 27.0, "size": 17, "time": "02/01/2020, 21:48:34"}, "type": "Feature"}, {"geometry": {"coordinates": [8.546438, 47.364421], "type": "Point"}, "properties": {"charge": 100, "id": "smide_98", "name": "ZH256321", "provider": "smide", "range": 50.0, "size": 17, "time": "02/01/2020, 21:48:34"}, "type": "Feature"}, {"geometry": {"coordinates": [8.484967, 47.394256], "type": "Point"}, "properties": {"charge": 75, "id": "smide_154", "name": "ZH253744", "provider": "smide", "range": 37.0, "size": 20, "time": "02/01/2020, 21:48:34"}, "type": "Feature"}, {"geometry": {"coordinates": [8.521715, 47.357256], "type": "Point"}, "properties": {"charge": 48, "id": "smide_7", "name": "ZH256289", "provider": "smide", "range": 24.0, "size": 20, "time": "02/01/2020, 21:48:34"}, "type": "Feature"}, {"geometry": {"coordinates": [8.560391, 47.372404], "type": "Point"}, "properties": {"charge": 86, "id": "smide_92", "name": "ZH253798", "provider": "smide", "range": 43.0, "size": 17, "time": "02/01/2020, 21:48:34"}, "type": "Feature"}, {"geometry": {"coordinates": [8.517663, 47.424746], "type": "Point"}, "properties": {"charge": 59, "id": "smide_167", "name": "ZH253854", "provider": "smide", "range": 29.0, "size": 17, "time": "02/01/2020, 21:48:34"}, "type": "Feature"}, {"geometry": {"coordinates": [8.500467, 47.370204], "type": "Point"}, "properties": {"charge": 23, "id": "smide_65", "name": "ZH253810", "provider": "smide", "range": 11.0, "size": 17, "time": "02/01/2020, 21:48:34"}, "type": "Feature"}, {"geometry": {"coordinates": [8.531735, 47.389988], "type": "Point"}, "properties": {"charge": 75, "id": "smide_111", "name": "ZH253763", "provider": "smide", "range": 37.0, "size": 17, "time": "02/01/2020, 21:48:34"}, "type": "Feature"}, {"geometry": {"coordinates": [8.546339, 47.41254], "type": "Point"}, "properties": {"charge": 97, "id": "smide_40", "name": "ZH253690", "provider": "smide", "range": 48.0, "size": 20, "time": "02/01/2020, 21:48:34"}, "type": "Feature"}, {"geometry": {"coordinates": [8.557764, 47.352124], "type": "Point"}, "properties": {"charge": 99, "id": "smide_1", "name": "ZH253776", "provider": "smide", "range": 49.0, "size": 17, "time": "02/01/2020, 21:48:34"}, "type": "Feature"}, {"geometry": {"coordinates": [8.539513, 47.378828], "type": "Point"}, "properties": {"charge": 71, "id": "smide_28", "name": "ZH253831", "provider": "smide", "range": 35.0, "size": 17, "time": "02/01/2020, 21:48:34"}, "type": "Feature"}, {"geometry": {"coordinates": [8.519398, 47.341038], "type": "Point"}, "properties": {"charge": 75, "id": "smide_14", "name": "ZH253749", "provider": "smide", "range": 37.0, "size": 20, "time": "02/01/2020, 21:48:34"}, "type": "Feature"}, {"geometry": {"coordinates": [8.531438, 47.379256], "type": "Point"}, "properties": {"charge": 100, "id": "smide_130", "name": "ZH253847", "provider": "smide", "range": 50.0, "size": 20, "time": "02/01/2020, 21:48:34"}, "type": "Feature"}, {"geometry": {"coordinates": [8.540946, 47.378596], "type": "Point"}, "properties": {"charge": 40, "id": "smide_24", "name": "ZH253696", "provider": "smide", "range": 20.0, "size": 20, "time": "02/01/2020, 21:48:34"}, "type": "Feature"}, {"geometry": {"coordinates": [8.502151, 47.36906], "type": "Point"}, "properties": {"charge": 94, "id": "smide_107", "name": "ZH253819", "provider": "smide", "range": 47.0, "size": 17, "time": "02/01/2020, 21:48:34"}, "type": "Feature"}, {"geometry": {"coordinates": [8.540298, 47.378912], "type": "Point"}, "properties": {"charge": 98, "id": "smide_136", "name": "ZH253682", "provider": "smide", "range": 49.0, "size": 17, "time": "02/01/2020, 21:48:34"}, "type": "Feature"}, {"geometry": {"coordinates": [8.520859, 47.411676], "type": "Point"}, "properties": {"charge": 100, "id": "smide_83", "name": "ZH253869", "provider": "smide", "range": 50.0, "size": 20, "time": "02/01/2020, 21:48:34"}, "type": "Feature"}, {"geometry": {"coordinates": [8.536105, 47.37112], "type": "Point"}, "properties": {"charge": 32, "id": "smide_193", "name": "ZH253738", "provider": "smide", "range": 16.0, "size": 20, "time": "02/01/2020, 21:48:34"}, "type": "Feature"}, {"geometry": {"coordinates": [8.545181, 47.412256], "type": "Point"}, "properties": {"charge": 99, "id": "smide_73", "name": "ZH261379", "provider": "smide", "range": 49.0, "size": 20, "time": "02/01/2020, 21:48:34"}, "type": "Feature"}, {"geometry": {"coordinates": [8.485321, 47.375388], "type": "Point"}, "properties": {"charge": 100, "id": "smide_158", "name": "ZH253870", "provider": "smide", "range": 50.0, "size": 20, "time": "02/01/2020, 21:48:34"}, "type": "Feature"}, {"geometry": {"coordinates": [8.542415, 47.411988], "type": "Point"}, "properties": {"charge": 91, "id": "smide_100", "name": "ZH253862", "provider": "smide", "range": 45.0, "size": 20, "time": "02/01/2020, 21:48:34"}, "type": "Feature"}, {"geometry": {"coordinates": [8.489363, 47.392995], "type": "Point"}, "properties": {"charge": 89, "id": "smide_134", "name": "ZH253741", "provider": "smide", "range": 44.0, "size": 20, "time": "02/01/2020, 21:48:34"}, "type": "Feature"}, {"geometry": {"coordinates": [8.517596, 47.414316], "type": "Point"}, "properties": {"charge": 100, "id": "smide_141", "name": "ZH253800", "provider": "smide", "range": 50.0, "size": 20, "time": "02/01/2020, 21:48:34"}, "type": "Feature"}, {"geometry": {"coordinates": [8.562884, 47.366136], "type": "Point"}, "properties": {"charge": 51, "id": "smide_74", "name": "ZH253693", "provider": "smide", "range": 25.0, "size": 20, "time": "02/01/2020, 21:48:34"}, "type": "Feature"}, {"geometry": {"coordinates": [8.57649, 47.351266], "type": "Point"}, "properties": {"charge": 83, "id": "smide_33", "name": "ZH253782", "provider": "smide", "range": 41.0, "size": 20, "time": "02/01/2020, 21:48:34"}, "type": "Feature"}, {"geometry": {"coordinates": [8.560374, 47.372524], "type": "Point"}, "properties": {"charge": 58, "id": "smide_161", "name": "ZH253691", "provider": "smide", "range": 28.0, "size": 20, "time": "02/01/2020, 21:48:34"}, "type": "Feature"}, {"geometry": {"coordinates": [8.523241, 47.36277], "type": "Point"}, "properties": {"charge": 50, "id": "smide_183", "name": "ZH253868", "provider": "smide", "range": 25.0, "size": 17, "time": "02/01/2020, 21:48:34"}, "type": "Feature"}, {"geometry": {"coordinates": [8.542934, 47.375144], "type": "Point"}, "properties": {"charge": 78, "id": "smide_42", "name": "ZH253846", "provider": "smide", "range": 39.0, "size": 20, "time": "02/01/2020, 21:48:34"}, "type": "Feature"}, {"geometry": {"coordinates": [8.5395, 47.419332], "type": "Point"}, "properties": {"charge": 97, "id": "smide_4", "name": "ZH253740", "provider": "smide", "range": 48.0, "size": 20, "time": "02/01/2020, 21:48:34"}, "type": "Feature"}, {"geometry": {"coordinates": [8.555584, 47.366888], "type": "Point"}, "properties": {"charge": 97, "id": "smide_160", "name": "ZH253722", "provider": "smide", "range": 48.0, "size": 17, "time": "02/01/2020, 21:48:34"}, "type": "Feature"}, {"geometry": {"coordinates": [8.573285, 47.349121], "type": "Point"}, "properties": {"charge": 98, "id": "smide_137", "name": "ZH258502", "provider": "smide", "range": 49.0, "size": 17, "time": "02/01/2020, 21:48:34"}, "type": "Feature"}, {"geometry": {"coordinates": [8.577462, 47.353052], "type": "Point"}, "properties": {"charge": 98, "id": "smide_178", "name": "ZH253803", "provider": "smide", "range": 49.0, "size": 17, "time": "02/01/2020, 21:48:34"}, "type": "Feature"}, {"geometry": {"coordinates": [8.52244, 47.378964], "type": "Point"}, "properties": {"charge": 89, "id": "smide_96", "name": "ZH256146", "provider": "smide", "range": 44.0, "size": 20, "time": "02/01/2020, 21:48:34"}, "type": "Feature"}, {"geometry": {"coordinates": [8.545161, 47.385188], "type": "Point"}, "properties": {"charge": 27, "id": "smide_58", "name": "ZH259246", "provider": "smide", "range": 13.0, "size": 20, "time": "02/01/2020, 21:48:34"}, "type": "Feature"}, {"geometry": {"coordinates": [8.502191, 47.3691], "type": "Point"}, "properties": {"charge": 100, "id": "smide_54", "name": "ZH253874", "provider": "smide", "range": 50.0, "size": 20, "time": "02/01/2020, 21:48:34"}, "type": "Feature"}, {"geometry": {"coordinates": [8.551891, 47.38946], "type": "Point"}, "properties": {"charge": 89, "id": "smide_175", "name": "ZH253730", "provider": "smide", "range": 44.0, "size": 17, "time": "02/01/2020, 21:48:34"}, "type": "Feature"}, {"geometry": {"coordinates": [8.532754, 47.384], "type": "Point"}, "properties": {"charge": 94, "id": "smide_95", "name": "ZH253773", "provider": "smide", "range": 47.0, "size": 17, "time": "02/01/2020, 21:48:34"}, "type": "Feature"}, {"geometry": {"coordinates": [8.541361, 47.41358], "type": "Point"}, "properties": {"charge": 57, "id": "smide_112", "name": "ZH263530", "provider": "smide", "range": 28.0, "size": 20, "time": "02/01/2020, 21:48:34"}, "type": "Feature"}, {"geometry": {"coordinates": [8.564301, 47.36936], "type": "Point"}, "properties": {"charge": 34, "id": "smide_122", "name": "ZH253850", "provider": "smide", "range": 17.0, "size": 20, "time": "02/01/2020, 21:48:34"}, "type": "Feature"}, {"geometry": {"coordinates": [8.544208, 47.372521], "type": "Point"}, "properties": {"charge": 85, "id": "smide_38", "name": "ZH253851", "provider": "smide", "range": 42.0, "size": 20, "time": "02/01/2020, 21:48:34"}, "type": "Feature"}, {"geometry": {"coordinates": [8.557699, 47.404364], "type": "Point"}, "properties": {"charge": 89, "id": "smide_6", "name": "ZH253787", "provider": "smide", "range": 44.0, "size": 17, "time": "02/01/2020, 21:48:34"}, "type": "Feature"}, {"geometry": {"coordinates": [8.556819, 47.403956], "type": "Point"}, "properties": {"charge": 100, "id": "smide_18", "name": "ZH253859", "provider": "smide", "range": 50.0, "size": 17, "time": "02/01/2020, 21:48:34"}, "type": "Feature"}, {"geometry": {"coordinates": [8.498154, 47.39922], "type": "Point"}, "properties": {"charge": 59, "id": "smide_12", "name": "ZH253685", "provider": "smide", "range": 29.0, "size": 17, "time": "02/01/2020, 21:48:34"}, "type": "Feature"}, {"geometry": {"coordinates": [8.576261, 47.348796], "type": "Point"}, "properties": {"charge": 95, "id": "smide_192", "name": "ZH253706", "provider": "smide", "range": 47.0, "size": 20, "time": "02/01/2020, 21:48:34"}, "type": "Feature"}, {"geometry": {"coordinates": [8.559618, 47.357236], "type": "Point"}, "properties": {"charge": 65, "id": "smide_39", "name": "ZH253714", "provider": "smide", "range": 32.0, "size": 20, "time": "02/01/2020, 21:48:34"}, "type": "Feature"}, {"geometry": {"coordinates": [8.519008, 47.33736], "type": "Point"}, "properties": {"charge": 59, "id": "smide_5", "name": "ZH261443", "provider": "smide", "range": 29.0, "size": 20, "time": "02/01/2020, 21:48:34"}, "type": "Feature"}, {"geometry": {"coordinates": [8.562776, 47.377771], "type": "Point"}, "properties": {"charge": 98, "id": "smide_85", "name": "ZH253729", "provider": "smide", "range": 49.0, "size": 17, "time": "02/01/2020, 21:48:34"}, "type": "Feature"}, {"geometry": {"coordinates": [8.532012, 47.373448], "type": "Point"}, "properties": {"charge": 21, "id": "smide_29", "name": "ZH253723", "provider": "smide", "range": 10.0, "size": 17, "time": "02/01/2020, 21:48:34"}, "type": "Feature"}, {"geometry": {"coordinates": [8.547407, 47.391036], "type": "Point"}, "properties": {"charge": 55, "id": "smide_48", "name": "ZH253849", "provider": "smide", "range": 27.0, "size": 20, "time": "02/01/2020, 21:48:34"}, "type": "Feature"}, {"geometry": {"coordinates": [8.548279, 47.384636], "type": "Point"}, "properties": {"charge": 13, "id": "smide_46", "name": "ZH253843", "provider": "smide", "range": 6.0, "size": 20, "time": "02/01/2020, 21:48:34"}, "type": "Feature"}, {"geometry": {"coordinates": [8.53609333333333, 47.39127], "type": "Point"}, "properties": {"charge": 93, "id": "bird_672e466a-9b00-4f84-a78b-a2d8fe4bdf39", "provider": "bird", "timeStamp": "02/01/2020, 21:48:34"}, "type": "Feature"}, {"geometry": {"coordinates": [8.51244333333333, 47.3788983333333], "type": "Point"}, "properties": {"charge": 83, "id": "bird_d2fe00ef-990b-48c3-bf83-37b7ce5ed37d", "provider": "bird", "timeStamp": "02/01/2020, 21:48:34"}, "type": "Feature"}, {"geometry": {"coordinates": [8.54709, 47.3772016666667], "type": "Point"}, "properties": {"charge": 96, "id": "bird_9937a3a7-cc4b-4d50-a491-703d7e43122e", "provider": "bird", "timeStamp": "02/01/2020, 21:48:34"}, "type": "Feature"}, {"geometry": {"coordinates": [8.515345, 47.3734366666667], "type": "Point"}, "properties": {"charge": 89, "id": "bird_6609747d-01e0-4924-bbe5-8afb226e3a13", "provider": "bird", "timeStamp": "02/01/2020, 21:48:34"}, "type": "Feature"}, {"geometry": {"coordinates": [8.54367166666667, 47.3725883333333], "type": "Point"}, "properties": {"charge": 57, "id": "bird_afe72d96-7067-4c7b-b74e-02550c50c552", "provider": "bird", "timeStamp": "02/01/2020, 21:48:34"}, "type": "Feature"}, {"geometry": {"coordinates": [8.51784666666667, 47.38853], "type": "Point"}, "properties": {"charge": 75, "id": "bird_81426be8-9f66-4810-8be6-9d668ab57fbf", "provider": "bird", "timeStamp": "02/01/2020, 21:48:34"}, "type": "Feature"}, {"geometry": {"coordinates": [8.51261, 47.380375], "type": "Point"}, "properties": {"charge": 17, "id": "bird_413029c6-0606-48c4-9313-fc7d8bed4e59", "provider": "bird", "timeStamp": "02/01/2020, 21:48:34"}, "type": "Feature"}, {"geometry": {"coordinates": [8.54657666666666, 47.3765483333333], "type": "Point"}, "properties": {"charge": 93, "id": "bird_6bc22f7b-4fb7-4a41-b6c9-9fd300a719d5", "provider": "bird", "timeStamp": "02/01/2020, 21:48:34"}, "type": "Feature"}, {"geometry": {"coordinates": [8.51299333333333, 47.3783716666667], "type": "Point"}, "properties": {"charge": 76, "id": "bird_dc257b82-1982-4ff4-a00f-d9183a0678d6", "provider": "bird", "timeStamp": "02/01/2020, 21:48:34"}, "type": "Feature"}, {"geometry": {"coordinates": [8.543795, 47.3731766666667], "type": "Point"}, "properties": {"charge": 76, "id": "bird_1d37c9ac-f6aa-4dd7-b43c-c1e979691ad2", "provider": "bird", "timeStamp": "02/01/2020, 21:48:34"}, "type": "Feature"}, {"geometry": {"coordinates": [8.54466333333333, 47.3741333333333], "type": "Point"}, "properties": {"charge": 75, "id": "bird_f362a016-919d-4032-9531-4c9b57d60f25", "provider": "bird", "timeStamp": "02/01/2020, 21:48:34"}, "type": "Feature"}, {"geometry": {"coordinates": [8.54391166666667, 47.3733483333333], "type": "Point"}, "properties": {"charge": 70, "id": "bird_56cda254-971a-4881-8d36-94ac857cf947", "provider": "bird", "timeStamp": "02/01/2020, 21:48:34"}, "type": "Feature"}, {"geometry": {"coordinates": [8.54465833333333, 47.3741566666667], "type": "Point"}, "properties": {"charge": 64, "id": "bird_74778cd2-817a-4b29-b907-39531af30d08", "provider": "bird", "timeStamp": "02/01/2020, 21:48:34"}, "type": "Feature"}, {"geometry": {"coordinates": [8.54373, 47.373295], "type": "Point"}, "properties": {"charge": 17, "id": "bird_916874c5-d266-41e8-a409-fa1e8527f2e8", "provider": "bird", "timeStamp": "02/01/2020, 21:48:34"}, "type": "Feature"}, {"geometry": {"coordinates": [8.51369333333333, 47.377025], "type": "Point"}, "properties": {"charge": 58, "id": "bird_8b95fdc9-2f93-4a83-b7d0-73cafa17d7a6", "provider": "bird", "timeStamp": "02/01/2020, 21:48:34"}, "type": "Feature"}, {"geometry": {"coordinates": [8.51371833333333, 47.3828466666667], "type": "Point"}, "properties": {"charge": 37, "id": "bird_c7a01df5-87ca-4aed-a7a6-2cfb46b1150f", "provider": "bird", "timeStamp": "02/01/2020, 21:48:34"}, "type": "Feature"}, {"geometry": {"coordinates": [8.51460833333333, 47.3756866666667], "type": "Point"}, "properties": {"charge": 21, "id": "bird_2d8d9c5c-25ab-4f20-9ad0-fb10553e99d7", "provider": "bird", "timeStamp": "02/01/2020, 21:48:34"}, "type": "Feature"}, {"geometry": {"coordinates": [8.51357333333333, 47.3782966666667], "type": "Point"}, "properties": {"charge": 87, "id": "bird_ea8c11a4-f19d-44ff-b866-3c5c164c0c82", "provider": "bird", "timeStamp": "02/01/2020, 21:48:34"}, "type": "Feature"}, {"geometry": {"coordinates": [8.51412166666667, 47.37672], "type": "Point"}, "properties": {"charge": 25, "id": "bird_56476b14-919a-4f6f-8ce4-cc30764f46e8", "provider": "bird", "timeStamp": "02/01/2020, 21:48:34"}, "type": "Feature"}, {"geometry": {"coordinates": [8.53833833333333, 47.3702966666667], "type": "Point"}, "properties": {"charge": 45, "id": "bird_8e4791ae-ff98-4f19-ba91-4be271433918", "provider": "bird", "timeStamp": "02/01/2020, 21:48:34"}, "type": "Feature"}, {"geometry": {"coordinates": [8.53774333333333, 47.3702166666667], "type": "Point"}, "properties": {"charge": 83, "id": "bird_8beab993-14a3-4e10-a126-73a884761366", "provider": "bird", "timeStamp": "02/01/2020, 21:48:34"}, "type": "Feature"}, {"geometry": {"coordinates": [8.51948166666667, 47.388455], "type": "Point"}, "properties": {"charge": 66, "id": "bird_751a35fb-b8c6-458c-a2d7-3edf225074c9", "provider": "bird", "timeStamp": "02/01/2020, 21:48:34"}, "type": "Feature"}, {"geometry": {"coordinates": [8.54604, 47.378025], "type": "Point"}, "properties": {"charge": 91, "id": "bird_b196189e-e074-4f2d-8846-35f7691fa905", "provider": "bird", "timeStamp": "02/01/2020, 21:48:34"}, "type": "Feature"}, {"geometry": {"coordinates": [8.54457333333333, 47.3751266666667], "type": "Point"}, "properties": {"charge": 57, "id": "bird_05c5633f-3abd-4d09-95d3-7714f71ed747", "provider": "bird", "timeStamp": "02/01/2020, 21:48:34"}, "type": "Feature"}, {"geometry": {"coordinates": [8.54621666666667, 47.38052], "type": "Point"}, "properties": {"charge": 35, "id": "bird_283498b7-bf29-4e7b-9c1f-e981f05dfd62", "provider": "bird", "timeStamp": "02/01/2020, 21:48:34"}, "type": "Feature"}, {"geometry": {"coordinates": [8.53411333333333, 47.3693816666667], "type": "Point"}, "properties": {"charge": 55, "id": "bird_9c8fdae5-ab78-4bcf-8bc1-0a9e7a005cec", "provider": "bird", "timeStamp": "02/01/2020, 21:48:34"}, "type": "Feature"}, {"geometry": {"coordinates": [8.54581, 47.3779033333333], "type": "Point"}, "properties": {"charge": 93, "id": "bird_8b9c23f7-97d8-48eb-9d52-9139eeca7fbb", "provider": "bird", "timeStamp": "02/01/2020, 21:48:34"}, "type": "Feature"}, {"geometry": {"coordinates": [8.53536166666667, 47.3697433333333], "type": "Point"}, "properties": {"charge": 78, "id": "bird_bf5e364f-102c-4c63-b6ad-fc7f33da0096", "provider": "bird", "timeStamp": "02/01/2020, 21:48:34"}, "type": "Feature"}, {"geometry": {"coordinates": [8.52702666666667, 47.3693283333333], "type": "Point"}, "properties": {"charge": 84, "id": "bird_9b01e6fb-0391-410f-bb1c-d79c45ad9ade", "provider": "bird", "timeStamp": "02/01/2020, 21:48:34"}, "type": "Feature"}, {"geometry": {"coordinates": [8.54145166666667, 47.3725166666667], "type": "Point"}, "properties": {"charge": 75, "id": "bird_c81532cc-ce29-4e53-94ac-1537969ca91c", "provider": "bird", "timeStamp": "02/01/2020, 21:48:34"}, "type": "Feature"}, {"geometry": {"coordinates": [8.54559833333333, 47.3780516666667], "type": "Point"}, "properties": {"charge": 96, "id": "bird_96c9f325-461c-44a8-887c-354226effd2e", "provider": "bird", "timeStamp": "02/01/2020, 21:48:34"}, "type": "Feature"}, {"geometry": {"coordinates": [8.51595833333333, 47.3751183333333], "type": "Point"}, "properties": {"charge": 78, "id": "bird_5a3719ef-e8dd-4c17-a66e-e5bb850f391e", "provider": "bird", "timeStamp": "02/01/2020, 21:48:34"}, "type": "Feature"}, {"geometry": {"coordinates": [8.53397666666667, 47.369705], "type": "Point"}, "properties": {"charge": 60, "id": "bird_2d2c2ed0-7feb-408b-8b35-7cc04bd2c3f3", "provider": "bird", "timeStamp": "02/01/2020, 21:48:34"}, "type": "Feature"}, {"geometry": {"coordinates": [8.543095, 47.3742633333333], "type": "Point"}, "properties": {"charge": 72, "id": "bird_b9242005-8495-4343-bcbd-1942e267dfed", "provider": "bird", "timeStamp": "02/01/2020, 21:48:34"}, "type": "Feature"}, {"geometry": {"coordinates": [8.52173166666667, 47.3710716666667], "type": "Point"}, "properties": {"charge": 75, "id": "bird_269389a5-463f-4538-9f88-6c420658d69a", "provider": "bird", "timeStamp": "02/01/2020, 21:48:34"}, "type": "Feature"}, {"geometry": {"coordinates": [8.54527, 47.3819733333333], "type": "Point"}, "properties": {"charge": 29, "id": "bird_aa41194e-8656-48e1-b568-3c086a22d1fd", "provider": "bird", "timeStamp": "02/01/2020, 21:48:34"}, "type": "Feature"}, {"geometry": {"coordinates": [8.52133833333333, 47.3887283333333], "type": "Point"}, "properties": {"charge": 31, "id": "bird_b1c054d4-5841-4f32-a77f-9b8af2a09d97", "provider": "bird", "timeStamp": "02/01/2020, 21:48:34"}, "type": "Feature"}, {"geometry": {"coordinates": [8.52036166666667, 47.388245], "type": "Point"}, "properties": {"charge": 71, "id": "bird_6b02df25-7999-455a-b0e0-fd21c444ce7b", "provider": "bird", "timeStamp": "02/01/2020, 21:48:34"}, "type": "Feature"}, {"geometry": {"coordinates": [8.53930833333333, 47.3884116666667], "type": "Point"}, "properties": {"charge": 69, "id": "bird_eb0b2f65-42ee-4bb1-9927-dde3c7eddb7b", "provider": "bird", "timeStamp": "02/01/2020, 21:48:34"}, "type": "Feature"}, {"geometry": {"coordinates": [8.52037833333333, 47.3881866666667], "type": "Point"}, "properties": {"charge": 11, "id": "bird_7eba84b2-f987-4265-8946-4ce20d1f2d1b", "provider": "bird", "timeStamp": "02/01/2020, 21:48:34"}, "type": "Feature"}, {"geometry": {"coordinates": [8.53538, 47.3702316666667], "type": "Point"}, "properties": {"charge": 74, "id": "bird_dbefb92d-ab1b-4f8c-8104-fd40c74f5d25", "provider": "bird", "timeStamp": "02/01/2020, 21:48:34"}, "type": "Feature"}, {"geometry": {"coordinates": [8.51546333333333, 47.3766716666667], "type": "Point"}, "properties": {"charge": 81, "id": "bird_4b793b03-c89c-4a41-a728-b1f83435fbc6", "provider": "bird", "timeStamp": "02/01/2020, 21:48:34"}, "type": "Feature"}, {"geometry": {"coordinates": [8.51543833333333, 47.3767783333333], "type": "Point"}, "properties": {"charge": 80, "id": "bird_62e1d335-6229-4270-8c58-cb41429fd45a", "provider": "bird", "timeStamp": "02/01/2020, 21:48:34"}, "type": "Feature"}, {"geometry": {"coordinates": [8.515545, 47.3833466666667], "type": "Point"}, "properties": {"charge": 91, "id": "bird_f29f1ea7-0d65-4e96-be62-67c320c924e7", "provider": "bird", "timeStamp": "02/01/2020, 21:48:34"}, "type": "Feature"}, {"geometry": {"coordinates": [8.54451833333333, 47.3769333333333], "type": "Point"}, "properties": {"charge": 90, "id": "bird_3d70a4b7-a826-43d4-86fa-f60aedd4d64c", "provider": "bird", "timeStamp": "02/01/2020, 21:48:34"}, "type": "Feature"}, {"geometry": {"coordinates": [8.51970833333333, 47.3724516666667], "type": "Point"}, "properties": {"charge": 16, "id": "bird_530cb39d-02e0-4d2d-beea-abe9b5b9a231", "provider": "bird", "timeStamp": "02/01/2020, 21:48:34"}, "type": "Feature"}, {"geometry": {"coordinates": [8.539245, 47.3718866666667], "type": "Point"}, "properties": {"charge": 42, "id": "bird_c5065410-d125-474a-a079-207d39327730", "provider": "bird", "timeStamp": "02/01/2020, 21:48:34"}, "type": "Feature"}, {"geometry": {"coordinates": [8.54358833333333, 47.3756183333333], "type": "Point"}, "properties": {"charge": 79, "id": "bird_9bf1bea5-a6a6-44d7-a5c2-ff8976db6191", "provider": "bird", "timeStamp": "02/01/2020, 21:48:34"}, "type": "Feature"}, {"geometry": {"coordinates": [8.54407333333333, 47.3764683333333], "type": "Point"}, "properties": {"charge": 92, "id": "bird_cfd154b4-5a26-4524-81c0-dca3517ded2f", "provider": "bird", "timeStamp": "02/01/2020, 21:48:34"}, "type": "Feature"}, {"geometry": {"coordinates": [8.51502666666667, 47.3800016666667], "type": "Point"}, "properties": {"charge": 34, "id": "bird_7e664e32-b9df-4f21-b776-466d8e1d9828", "provider": "bird", "timeStamp": "02/01/2020, 21:48:34"}, "type": "Feature"}, {"geometry": {"coordinates": [8.517975, 47.3859933333333], "type": "Point"}, "properties": {"charge": 33, "id": "bird_c822a9a2-13e1-4a93-8e25-c63ea296065f", "provider": "bird", "timeStamp": "02/01/2020, 21:48:34"}, "type": "Feature"}, {"geometry": {"coordinates": [8.54395833333333, 47.37645], "type": "Point"}, "properties": {"charge": 91, "id": "bird_d059bb1e-3366-4e74-909c-35b51bb507e2", "provider": "bird", "timeStamp": "02/01/2020, 21:48:34"}, "type": "Feature"}, {"geometry": {"coordinates": [8.53299166666667, 47.3898816666667], "type": "Point"}, "properties": {"charge": 34, "id": "bird_0d81403c-dabd-4b36-8e15-3f894b513242", "provider": "bird", "timeStamp": "02/01/2020, 21:48:34"}, "type": "Feature"}, {"geometry": {"coordinates": [8.54389833333333, 47.3764033333333], "type": "Point"}, "properties": {"charge": 37, "id": "bird_0ad2b1a1-ee3f-456d-8d5e-0d4e1552ca33", "provider": "bird", "timeStamp": "02/01/2020, 21:48:34"}, "type": "Feature"}, {"geometry": {"coordinates": [8.51803333333333, 47.3741333333333], "type": "Point"}, "properties": {"charge": 20, "id": "bird_21cec91f-ac8b-4c95-a40f-4da5040e4c8b", "provider": "bird", "timeStamp": "02/01/2020, 21:48:34"}, "type": "Feature"}, {"geometry": {"coordinates": [8.51723833333333, 47.3850366666667], "type": "Point"}, "properties": {"charge": 64, "id": "bird_061cb443-c6f7-4d87-999c-533c00733997", "provider": "bird", "timeStamp": "02/01/2020, 21:48:34"}, "type": "Feature"}, {"geometry": {"coordinates": [8.51773666666667, 47.385575], "type": "Point"}, "properties": {"charge": 82, "id": "bird_3481a0d7-7e82-4075-98a6-764a47f72237", "provider": "bird", "timeStamp": "02/01/2020, 21:48:34"}, "type": "Feature"}, {"geometry": {"coordinates": [8.51769666666667, 47.385495], "type": "Point"}, "properties": {"charge": 21, "id": "bird_0c42abea-7092-4537-8a45-f55302aae064", "provider": "bird", "timeStamp": "02/01/2020, 21:48:34"}, "type": "Feature"}, {"geometry": {"coordinates": [8.5231492, 47.3711709], "type": "Point"}, "properties": {"charge": 35, "id": "bird_84d48efe-4a1f-4fe8-943e-4d21e0f84bc6", "provider": "bird", "timeStamp": "02/01/2020, 21:48:34"}, "type": "Feature"}, {"geometry": {"coordinates": [8.51643833333333, 47.3761333333333], "type": "Point"}, "properties": {"charge": 76, "id": "bird_850f28dd-4cd0-4b3b-a9f6-60d3f8ccab9c", "provider": "bird", "timeStamp": "02/01/2020, 21:48:34"}, "type": "Feature"}, {"geometry": {"coordinates": [8.51980666666667, 47.3729483333333], "type": "Point"}, "properties": {"charge": 64, "id": "bird_e6d0e6e1-5800-467f-b292-c6304a9ab0a0", "provider": "bird", "timeStamp": "02/01/2020, 21:48:34"}, "type": "Feature"},