{"features": [{"geometry": {"coordinates": [8.540062, 47.374392], "type": "Point"}, "properties": {"address": "Uraniastrasse 7", "electric": 2, "id": "pb_60", "manual": 6, "name": "Demo Station Werdm\u00fchleplatz", "provider": "publibike", "timeStamp": "02/11/2020, 10:19:08", "zip": 8001}, "type": "Feature"}, {"geometry": {"coordinates": [8.5452956, 47.4099615], "type": "Point"}, "properties": {"address": "Querstrasse 8", "electric": 1, "id": "pb_61", "manual": 3, "name": "Marktplatz", "provider": "publibike", "timeStamp": "02/11/2020, 10:19:08", "zip": 8050}, "type": "Feature"}, {"geometry": {"coordinates": [8.5156327, 47.3795837], "type": "Point"}, "properties": {"address": "Bullingerstrasse 5", "electric": 0, "id": "pb_80", "manual": 0, "name": "Bullingerplatz", "provider": "publibike", "timeStamp": "02/11/2020, 10:19:08", "zip": 8004}, "type": "Feature"}, {"geometry": {"coordinates": [8.5104051, 47.3899342], "type": "Point"}, "properties": {"address": "Pfingstweidstrasse 96e", "electric": 5, "id": "pb_81", "manual": 1, "name": "Herdern", "provider": "publibike", "timeStamp": "02/11/2020, 10:19:08", "zip": 8001}, "type": "Feature"}, {"geometry": {"coordinates": [8.535718, 47.359675], "type": "Point"}, "properties": {"address": "Mythenquai 50", "electric": 12, "id": "pb_82", "manual": 10, "name": "Hafen Enge", "provider": "publibike", "timeStamp": "02/11/2020, 10:19:08", "zip": 8002}, "type": "Feature"}, {"geometry": {"coordinates": [8.520370505, 47.358663827], "type": "Point"}, "properties": {"address": "Bubenbergstrasse 1", "electric": 2, "id": "pb_83", "manual": 4, "name": "Comerge", "provider": "publibike", "timeStamp": "02/11/2020, 10:19:08", "zip": 8045}, "type": "Feature"}, {"geometry": {"coordinates": [8.5412505, 47.3789825], "type": "Point"}, "properties": {"address": "Museumstrasse 2", "electric": 8, "id": "pb_84", "manual": 21, "name": "Landesmuseum", "provider": "publibike", "timeStamp": "02/11/2020, 10:19:08", "zip": 8001}, "type": "Feature"}, {"geometry": {"coordinates": [8.5235479, 47.3716661], "type": "Point"}, "properties": {"address": "Birmensdorferstrasse 80", "electric": 4, "id": "pb_85", "manual": 1, "name": "Bahnhof Wiedikon", "provider": "publibike", "timeStamp": "02/11/2020, 10:19:08", "zip": 8003}, "type": "Feature"}, {"geometry": {"coordinates": [8.506822854, 47.40781197], "type": "Point"}, "properties": {"address": "Stefano-Franscini-Platz 5", "electric": 9, "id": "pb_86", "manual": 0, "name": "ETH H\u00f6nggerberg", "provider": "publibike", "timeStamp": "02/11/2020, 10:19:08", "zip": 8093}, "type": "Feature"}, {"geometry": {"coordinates": [8.536101, 47.371083], "type": "Point"}, "properties": {"address": "Pelikanplatz 5", "electric": 2, "id": "pb_87", "manual": 16, "name": "Pelikanplatz", "provider": "publibike", "timeStamp": "02/11/2020, 10:19:08", "zip": 8001}, "type": "Feature"}, {"geometry": {"coordinates": [8.5257822, 47.3651936], "type": "Point"}, "properties": {"address": "H\u00fcrlimannplatz 90", "electric": 36, "id": "pb_88", "manual": 15, "name": "H\u00fcrlimannplatz", "provider": "publibike", "timeStamp": "02/11/2020, 10:19:08", "zip": 8002}, "type": "Feature"}, {"geometry": {"coordinates": [8.5313344, 47.3713591], "type": "Point"}, "properties": {"address": "Selnaustrasse 32", "electric": 4, "id": "pb_89", "manual": 1, "name": "Stauffacherbr\u00fccke", "provider": "publibike", "timeStamp": "02/11/2020, 10:19:08", "zip": 8001}, "type": "Feature"}, {"geometry": {"coordinates": [8.5056978, 47.3917964], "type": "Point"}, "properties": {"address": "Sportweg 25", "electric": 2, "id": "pb_90", "manual": 4, "name": "Sportweg", "provider": "publibike", "timeStamp": "02/11/2020, 10:19:08", "zip": 8005}, "type": "Feature"}, {"geometry": {"coordinates": [8.5181701, 47.3917837], "type": "Point"}, "properties": {"address": "Hardturmstrasse 11", "electric": 2, "id": "pb_91", "manual": 1, "name": "Puls 5", "provider": "publibike", "timeStamp": "02/11/2020, 10:19:08", "zip": 8005}, "type": "Feature"}, {"geometry": {"coordinates": [8.5286468, 47.3820827], "type": "Point"}, "properties": {"address": "R\u00f6ntgenstrasse 6", "electric": 0, "id": "pb_92", "manual": 10, "name": "R\u00f6ntgenstrasse", "provider": "publibike", "timeStamp": "02/11/2020, 10:19:08", "zip": 8005}, "type": "Feature"}, {"geometry": {"coordinates": [8.531935, 47.384918], "type": "Point"}, "properties": {"address": "Kornhausbr\u00fccke 1", "electric": 0, "id": "pb_93", "manual": 4, "name": "Limmatplatz", "provider": "publibike", "timeStamp": "02/11/2020, 10:19:08", "zip": 8005}, "type": "Feature"}, {"geometry": {"coordinates": [8.5354006, 47.3758639], "type": "Point"}, "properties": {"address": "Gessnerallee 15", "electric": 7, "id": "pb_94", "manual": 3, "name": "Gessnerallee", "provider": "publibike", "timeStamp": "02/11/2020, 10:19:08", "zip": 8001}, "type": "Feature"}, {"geometry": {"coordinates": [8.523818, 47.377148], "type": "Point"}, "properties": {"address": "Stauffacherstrasse 127", "electric": 0, "id": "pb_95", "manual": 9, "name": "B\u00e4ckeranlage", "provider": "publibike", "timeStamp": "02/11/2020, 10:19:08", "zip": 8004}, "type": "Feature"}, {"geometry": {"coordinates": [8.531836, 47.378548], "type": "Point"}, "properties": {"address": "Lagerstrasse 44", "electric": 16, "id": "pb_96", "manual": 8, "name": "Gustav-Gull-Platz", "provider": "publibike", "timeStamp": "02/11/2020, 10:19:08", "zip": 8004}, "type": "Feature"}, {"geometry": {"coordinates": [8.5104883, 47.3771535], "type": "Point"}, "properties": {"address": "Zurlindenstrasse 291", "electric": 1, "id": "pb_97", "manual": 5, "name": "Zurlindenstrasse", "provider": "publibike", "timeStamp": "02/11/2020, 10:19:08", "zip": 8003}, "type": "Feature"}, {"geometry": {"coordinates": [8.5333139, 47.3731102], "type": "Point"}, "properties": {"address": "Sihlstrasse 81", "electric": 6, "id": "pb_98", "manual": 9, "name": "Sihlstrasse", "provider": "publibike", "timeStamp": "02/11/2020, 10:19:08", "zip": 8001}, "type": "Feature"}, {"geometry": {"coordinates": [8.520532, 47.374951], "type": "Point"}, "properties": {"address": "Feldstrasse 24", "electric": 0, "id": "pb_99", "manual": 1, "name": "Kalkbreite", "provider": "publibike", "timeStamp": "02/11/2020, 10:19:08", "zip": 8004}, "type": "Feature"}, {"geometry": {"coordinates": [8.539046, 47.368064], "type": "Point"}, "properties": {"address": "Talstrasse 12", "electric": 4, "id": "pb_100", "manual": 5, "name": "Z\u00fcrcher Kantonalbank", "provider": "publibike", "timeStamp": "02/11/2020, 10:19:08", "zip": 8001}, "type": "Feature"}, {"geometry": {"coordinates": [8.5348427, 47.3625938], "type": "Point"}, "properties": {"address": "Breitingerstrasse 5", "electric": 3, "id": "pb_101", "manual": 1, "name": "Rentenanstalt", "provider": "publibike", "timeStamp": "02/11/2020, 10:19:08", "zip": 8002}, "type": "Feature"}, {"geometry": {"coordinates": [8.5166922, 47.3897772], "type": "Point"}, "properties": {"address": "Technoparkstrasse 4", "electric": 4, "id": "pb_102", "manual": 6, "name": "Turbinenplatz", "provider": "publibike", "timeStamp": "02/11/2020, 10:19:08", "zip": 8005}, "type": "Feature"}, {"geometry": {"coordinates": [8.539312, 47.3739964], "type": "Point"}, "properties": {"address": "Oetenbachgasse 14", "electric": 0, "id": "pb_104", "manual": 6, "name": "Rennweg", "provider": "publibike", "timeStamp": "02/11/2020, 10:19:08", "zip": 8001}, "type": "Feature"}, {"geometry": {"coordinates": [8.5360685, 47.3775022], "type": "Point"}, "properties": {"address": "Kasernenstrasse 101", "electric": 1, "id": "pb_105", "manual": 18, "name": "Sihlpost", "provider": "publibike", "timeStamp": "02/11/2020, 10:19:08", "zip": 8004}, "type": "Feature"}, {"geometry": {"coordinates": [8.53545, 47.382798], "type": "Point"}, "properties": {"address": "Ausstellungsstrasse 44", "electric": 6, "id": "pb_106", "manual": 11, "name": "Museum f\u00fcr Gestaltung", "provider": "publibike", "timeStamp": "02/11/2020, 10:19:08", "zip": 8005}, "type": "Feature"}, {"geometry": {"coordinates": [8.5306155, 47.3647902], "type": "Point"}, "properties": {"address": "Gutenbergstrasse 1", "electric": 3, "id": "pb_107", "manual": 9, "name": "Bederbr\u00fccke", "provider": "publibike", "timeStamp": "02/11/2020, 10:19:08", "zip": 8002}, "type": "Feature"}, {"geometry": {"coordinates": [8.518982, 47.386741], "type": "Point"}, "properties": {"address": "Geroldstrasse 4", "electric": 4, "id": "pb_108", "manual": 7, "name": "Bahnhof Hardbr\u00fccke", "provider": "publibike", "timeStamp": "02/11/2020, 10:19:08", "zip": 8005}, "type": "Feature"}, {"geometry": {"coordinates": [8.53001018, 47.37247535], "type": "Point"}, "properties": {"address": "Werdstrasse 21", "electric": 8, "id": "pb_109", "manual": 5, "name": "Tamedia", "provider": "publibike", "timeStamp": "02/11/2020, 10:19:08", "zip": 8004}, "type": "Feature"}, {"geometry": {"coordinates": [8.4860017, 47.396401], "type": "Point"}, "properties": {"address": "Gr\u00fcnauring 37", "electric": 8, "id": "pb_110", "manual": 2, "name": "Gr\u00fcnau", "provider": "publibike", "timeStamp": "02/11/2020, 10:19:08", "zip": 8064}, "type": "Feature"}, {"geometry": {"coordinates": [8.548519, 47.376756], "type": "Point"}, "properties": {"address": "R\u00e4mistrasse 101", "electric": 22, "id": "pb_111", "manual": 1, "name": "ETH Zentrum", "provider": "publibike", "timeStamp": "02/11/2020, 10:19:08", "zip": 8006}, "type": "Feature"}, {"geometry": {"coordinates": [8.520449, 47.388151], "type": "Point"}, "properties": {"address": "Josefstrasse 224", "electric": 1, "id": "pb_112", "manual": 2, "name": "Steinfelsareal", "provider": "publibike", "timeStamp": "02/11/2020, 10:19:08", "zip": 8005}, "type": "Feature"}, {"geometry": {"coordinates": [8.520482, 47.37209], "type": "Point"}, "properties": {"address": "Weststrasse 115", "electric": 0, "id": "pb_124", "manual": 0, "name": "Weststrasse", "provider": "publibike", "timeStamp": "02/11/2020, 10:19:08", "zip": 8003}, "type": "Feature"}, {"geometry": {"coordinates": [8.496727, 47.378521], "type": "Point"}, "properties": {"address": "Albisriederstrasse 200", "electric": 4, "id": "pb_125", "manual": 2, "name": "Utogrund", "provider": "publibike", "timeStamp": "02/11/2020, 10:19:08", "zip": 8047}, "type": "Feature"}, {"geometry": {"coordinates": [8.510418, 47.381356], "type": "Point"}, "properties": {"address": "Bullingerstrasse 73", "electric": 0, "id": "pb_126", "manual": 5, "name": "Hardau", "provider": "publibike", "timeStamp": "02/11/2020, 10:19:08", "zip": 8004}, "type": "Feature"}, {"geometry": {"coordinates": [8.525525, 47.361567], "type": "Point"}, "properties": {"address": "Klopstockstrasse 23", "electric": 4, "id": "pb_127", "manual": 1, "name": "Klopstockwiese", "provider": "publibike", "timeStamp": "02/11/2020, 10:19:08", "zip": 8002}, "type": "Feature"}, {"geometry": {"coordinates": [8.518143, 47.363148], "type": "Point"}, "properties": {"address": "Haldenstrasse 8", "electric": 9, "id": "pb_128", "manual": 5, "name": "Binz", "provider": "publibike", "timeStamp": "02/11/2020, 10:19:08", "zip": 8045}, "type": "Feature"}, {"geometry": {"coordinates": [8.542726, 47.379952], "type": "Point"}, "properties": {"address": "Walchestrasse 11", "electric": 1, "id": "pb_129", "manual": 0, "name": "Stampfenbachplatz", "provider": "publibike", "timeStamp": "02/11/2020, 10:19:08", "zip": 8006}, "type": "Feature"}, {"geometry": {"coordinates": [8.488108, 47.391366], "type": "Point"}, "properties": {"address": "Altstetterplatz 1", "electric": 5, "id": "pb_130", "manual": 6, "name": "Bahnhof Altstetten", "provider": "publibike", "timeStamp": "02/11/2020, 10:19:08", "zip": 8048}, "type": "Feature"}, {"geometry": {"coordinates": [8.554114, 47.365119], "type": "Point"}, "properties": {"address": "Kreuzplatz 2", "electric": 0, "id": "pb_131", "manual": 1, "name": "Kreuzplatz", "provider": "publibike", "timeStamp": "02/11/2020, 10:19:08", "zip": 8032}, "type": "Feature"}, {"geometry": {"coordinates": [8.549852, 47.35594], "type": "Point"}, "properties": {"address": "H\u00f6schgasse 3", "electric": 3, "id": "pb_132", "manual": 8, "name": "Blatterwiese", "provider": "publibike", "timeStamp": "02/11/2020, 10:19:08", "zip": 8008}, "type": "Feature"}, {"geometry": {"coordinates": [8.554501, 47.36162], "type": "Point"}, "properties": {"address": "Feldeggstrasse 80", "electric": 5, "id": "pb_133", "manual": 1, "name": "Villa Bleuler", "provider": "publibike", "timeStamp": "02/11/2020, 10:19:08", "zip": 8008}, "type": "Feature"}, {"geometry": {"coordinates": [8.557088, 47.358557], "type": "Point"}, "properties": {"address": "M\u00fchlebachstrasse 131", "electric": 2, "id": "pb_134", "manual": 2, "name": "M\u00fchlebachstrasse", "provider": "publibike", "timeStamp": "02/11/2020, 10:19:08", "zip": 8008}, "type": "Feature"}, {"geometry": {"coordinates": [8.547639, 47.361266], "type": "Point"}, "properties": {"address": "Utoquai 50", "electric": 2, "id": "pb_135", "manual": 9, "name": "Seebad Utoquai", "provider": "publibike", "timeStamp": "02/11/2020, 10:19:08", "zip": 8008}, "type": "Feature"}, {"geometry": {"coordinates": [8.548045, 47.370869], "type": "Point"}, "properties": {"address": "Heimplatz 1", "electric": 3, "id": "pb_137", "manual": 2, "name": "Kunsthaus", "provider": "publibike", "timeStamp": "02/11/2020, 10:19:08", "zip": 8001}, "type": "Feature"}, {"geometry": {"coordinates": [8.543447, 47.375933], "type": "Point"}, "properties": {"address": "Limmatquai 138", "electric": 4, "id": "pb_138", "manual": 6, "name": "Central", "provider": "publibike", "timeStamp": "02/11/2020, 10:19:08", "zip": 8001}, "type": "Feature"}, {"geometry": {"coordinates": [8.549356, 47.408827], "type": "Point"}, "properties": {"address": "Tramstrasse 35", "electric": 2, "id": "pb_139", "manual": 1, "name": "ewz Tramstrasse", "provider": "publibike", "timeStamp": "02/11/2020, 10:19:08", "zip": 8050}, "type": "Feature"}, {"geometry": {"coordinates": [8.533736, 47.366904], "type": "Point"}, "properties": {"address": "Bleicherweg 33", "electric": 0, "id": "pb_140", "manual": 5, "name": "Bleicherweg", "provider": "publibike", "timeStamp": "02/11/2020, 10:19:08", "zip": 8002}, "type": "Feature"}, {"geometry": {"coordinates": [8.544935, 47.366752], "type": "Point"}, "properties": {"address": "Bellevueplatz 2", "electric": 15, "id": "pb_141", "manual": 23, "name": "Bellevue", "provider": "publibike", "timeStamp": "02/11/2020, 10:19:08", "zip": 8001}, "type": "Feature"}, {"geometry": {"coordinates": [8.5285533, 47.3742296], "type": "Point"}, "properties": {"address": "Stauffacherstrasse 41", "electric": 0, "id": "pb_142", "manual": 4, "name": "Stauffacher", "provider": "publibike", "timeStamp": "02/11/2020, 10:19:08", "zip": 8004}, "type": "Feature"}, {"geometry": {"coordinates": [8.523722, 47.3899], "type": "Point"}, "properties": {"address": "Limmatstrasse 310", "electric": 1, "id": "pb_143", "manual": 7, "name": "Escher-Wyss-Platz", "provider": "publibike", "timeStamp": "02/11/2020, 10:19:08", "zip": 8005}, "type": "Feature"}, {"geometry": {"coordinates": [8.491061, 47.392336], "type": "Point"}, "properties": {"address": "Vulkanplatz 1", "electric": 8, "id": "pb_149", "manual": 6, "name": "Vulkanplatz", "provider": "publibike", "timeStamp": "02/11/2020, 10:19:08", "zip": 8048}, "type": "Feature"}, {"geometry": {"coordinates": [8.52306, 47.359872], "type": "Point"}, "properties": {"address": "Giessh\u00fcbelstrasse 15", "electric": 6, "id": "pb_150", "manual": 1, "name": "Utoplatz", "provider": "publibike", "timeStamp": "02/11/2020, 10:19:08", "zip": 8045}, "type": "Feature"}, {"geometry": {"coordinates": [8.486284, 47.387685], "type": "Point"}, "properties": {"address": "Lindenplatz 1", "electric": 6, "id": "pb_151", "manual": 6, "name": "Lindenplatz", "provider": "publibike", "timeStamp": "02/11/2020, 10:19:08", "zip": 8048}, "type": "Feature"}, {"geometry": {"coordinates": [8.49163, 47.389823], "type": "Point"}, "properties": {"address": "Hohlstrasse 563", "electric": 1, "id": "pb_152", "manual": 2, "name": "Luggweg", "provider": "publibike", "timeStamp": "02/11/2020, 10:19:08", "zip": 8048}, "type": "Feature"}, {"geometry": {"coordinates": [8.52174, 47.365272], "type": "Point"}, "properties": {"address": "Manessestrasse 87", "electric": 0, "id": "pb_153", "manual": 7, "name": "Manesseplatz", "provider": "publibike", "timeStamp": "02/11/2020, 10:19:08", "zip": 8045}, "type": "Feature"}, {"geometry": {"coordinates": [8.52714, 47.372329], "type": "Point"}, "properties": {"address": "Werdstrasse 75", "electric": 4, "id": "pb_154", "manual": 5, "name": "Werd", "provider": "publibike", "timeStamp": "02/11/2020, 10:19:08", "zip": 8004}, "type": "Feature"}, {"geometry": {"coordinates": [8.543042, 47.374711], "type": "Point"}, "properties": {"address": "Limmatquai 100", "electric": 0, "id": "pb_155", "manual": 0, "name": "Rudolf-Brun-Br\u00fccke", "provider": "publibike", "timeStamp": "02/11/2020, 10:19:08", "zip": 8001}, "type": "Feature"}, {"geometry": {"coordinates": [8.490837, 47.386596], "type": "Point"}, "properties": {"address": "Badenerstrasse 627", "electric": 7, "id": "pb_156", "manual": 0, "name": "Luggwegstrasse VBZ", "provider": "publibike", "timeStamp": "02/11/2020, 10:19:08", "zip": 8048}, "type": "Feature"}, {"geometry": {"coordinates": [8.535119, 47.355189], "type": "Point"}, "properties": {"address": "Mythenquai 95", "electric": 0, "id": "pb_157", "manual": 4, "name": "Strandbad Mythenquai", "provider": "publibike", "timeStamp": "02/11/2020, 10:19:08", "zip": 8002}, "type": "Feature"}, {"geometry": {"coordinates": [8.545505, 47.373675], "type": "Point"}, "properties": {"address": "Predigerpatz 21", "electric": 9, "id": "pb_158", "manual": 8, "name": "Predigerplatz", "provider": "publibike", "timeStamp": "02/11/2020, 10:19:08", "zip": 8001}, "type": "Feature"}, {"geometry": {"coordinates": [8.515558, 47.371868], "type": "Point"}, "properties": {"address": "Aemtlerstrasse 23", "electric": 0, "id": "pb_159", "manual": 2, "name": "Zwinglihaus", "provider": "publibike", "timeStamp": "02/11/2020, 10:19:08", "zip": 8003}, "type": "Feature"}, {"geometry": {"coordinates": [8.524629, 47.386072], "type": "Point"}, "properties": {"address": "Josefstrasse 188", "electric": 0, "id": "pb_160", "manual": 0, "name": "Josefwiese", "provider": "publibike", "timeStamp": "02/11/2020, 10:19:08", "zip": 8005}, "type": "Feature"}, {"geometry": {"coordinates": [8.527138, 47.387531], "type": "Point"}, "properties": {"address": "R\u00f6ntgenstrasse 87", "electric": 1, "id": "pb_164", "manual": 2, "name": "Markthalle", "provider": "publibike", "timeStamp": "02/11/2020, 10:19:08", "zip": 8005}, "type": "Feature"}, {"geometry": {"coordinates": [8.552717, 47.359978], "type": "Point"}, "properties": {"address": "Seefeldstrasse 96", "electric": 7, "id": "pb_263", "manual": 10, "name": "Feldeggstrasse", "provider": "publibike", "timeStamp": "02/11/2020, 10:19:08", "zip": 8008}, "type": "Feature"}, {"geometry": {"coordinates": [8.553189, 47.353198], "type": "Point"}, "properties": {"address": "Bellerivestrasse 170", "electric": 4, "id": "pb_264", "manual": 0, "name": "Lake Side", "provider": "publibike", "timeStamp": "02/11/2020, 10:19:08", "zip": 8008}, "type": "Feature"}, {"geometry": {"coordinates": [8.543437, 47.369256], "type": "Point"}, "properties": {"address": "Limmatquai 18", "electric": 0, "id": "pb_265", "manual": 0, "name": "Helmhaus", "provider": "publibike", "timeStamp": "02/11/2020, 10:19:08", "zip": 8032}, "type": "Feature"}, {"geometry": {"coordinates": [8.516676, 47.375819], "type": "Point"}, "properties": {"address": "Badenerstrasse 246", "electric": 1, "id": "pb_266", "manual": 1, "name": "Lochergut", "provider": "publibike", "timeStamp": "02/11/2020, 10:19:08", "zip": 8004}, "type": "Feature"}, {"geometry": {"coordinates": [8.514605, 47.389862], "type": "Point"}, "properties": {"address": "Pfingstweidstrasse 60", "electric": 2, "id": "pb_273", "manual": 2, "name": "Westpark", "provider": "publibike", "timeStamp": "02/11/2020, 10:19:08", "zip": 8005}, "type": "Feature"}, {"geometry": {"coordinates": [8.541239126, 47.375991201], "type": "Point"}, "properties": {"address": "Beatenplatz 1", "electric": 4, "id": "pb_274", "manual": 4, "name": "Beatenplatz", "provider": "publibike", "timeStamp": "02/11/2020, 10:19:08", "zip": 8001}, "type": "Feature"}, {"geometry": {"coordinates": [8.5417135, 47.3942197], "type": "Point"}, "properties": {"address": "Scheuchzerstrasse 181", "electric": 2, "id": "pb_275", "manual": 2, "name": "Pauluskirche", "provider": "publibike", "timeStamp": "02/11/2020, 10:19:08", "zip": 8057}, "type": "Feature"}, {"geometry": {"coordinates": [8.5528182, 47.414558], "type": "Point"}, "properties": {"address": "Hagenholzstrasse 51", "electric": 2, "id": "pb_276", "manual": 5, "name": "Airgate", "provider": "publibike", "timeStamp": "02/11/2020, 10:19:08", "zip": 8050}, "type": "Feature"}, {"geometry": {"coordinates": [8.537816, 47.413514], "type": "Point"}, "properties": {"address": "Birchstrasse 183", "electric": 6, "id": "pb_277", "manual": 1, "name": "Lamprechtweg", "provider": "publibike", "timeStamp": "02/11/2020, 10:19:08", "zip": 8050}, "type": "Feature"}, {"geometry": {"coordinates": [8.545602, 47.417701], "type": "Point"}, "properties": {"address": "Felsenrainstrasse 2", "electric": 8, "id": "pb_278", "manual": 3, "name": "Emil-Oberh\u00e4nsli", "provider": "publibike", "timeStamp": "02/11/2020, 10:19:08", "zip": 8050}, "type": "Feature"}, {"geometry": {"coordinates": [8.533647, 47.39808], "type": "Point"}, "properties": {"address": "Bucheggplatz 2", "electric": 1, "id": "pb_279", "manual": 3, "name": "Bucheggplatz", "provider": "publibike", "timeStamp": "02/11/2020, 10:19:08", "zip": 8057}, "type": "Feature"}, {"geometry": {"coordinates": [8.523549, 47.392347], "type": "Point"}, "properties": {"address": "Wipkingerplatz 4", "electric": 2, "id": "pb_280", "manual": 4, "name": "Wipkingerplatz", "provider": "publibike", "timeStamp": "02/11/2020, 10:19:08", "zip": 8037}, "type": "Feature"}, {"geometry": {"coordinates": [8.548562, 47.36691], "type": "Point"}, "properties": {"address": "Galerie \u00fcber Gleis 2/3", "electric": 11, "id": "pb_285", "manual": 5, "name": "Bahnhof Stadelhofen", "provider": "publibike", "timeStamp": "02/11/2020, 10:19:08", "zip": 8001}, "type": "Feature"}, {"geometry": {"coordinates": [8.493822, 47.3985553], "type": "Point"}, "properties": {"address": "Meierwiesenstrasse 12-4", "electric": 2, "id": "pb_286", "manual": 3, "name": "T\u00fcffenwies", "provider": "publibike", "timeStamp": "02/11/2020, 10:19:08", "zip": 8064}, "type": "Feature"}, {"geometry": {"coordinates": [8.552432, 47.3801757], "type": "Point"}, "properties": {"address": "Hochstrasse 34", "electric": 1, "id": "pb_356", "manual": 0, "name": "Siriuswiese", "provider": "publibike", "timeStamp": "02/11/2020, 10:19:08", "zip": 8044}, "type": "Feature"}, {"geometry": {"coordinates": [8.527298, 47.370141], "type": "Point"}, "properties": {"address": "Hallwylstrasse 71", "electric": 0, "id": "pb_357", "manual": 6, "name": "Hallwylstrasse", "provider": "publibike", "timeStamp": "02/11/2020, 10:19:08", "zip": 8004}, "type": "Feature"}, {"geometry": {"coordinates": [8.5414185, 47.3972455], "type": "Point"}, "properties": {"address": "Schaffhauserstrasse 137", "electric": 3, "id": "pb_358", "manual": 0, "name": "Milchbuck", "provider": "publibike", "timeStamp": "02/11/2020, 10:19:08", "zip": 8057}, "type": "Feature"}, {"geometry": {"coordinates": [8.512381, 47.393409], "type": "Point"}, "properties": {"address": "Hardturmstrasse 161", "electric": 3, "id": "pb_359", "manual": 2, "name": "Fischerweg", "provider": "publibike", "timeStamp": "02/11/2020, 10:19:08", "zip": 8005}, "type": "Feature"}, {"geometry": {"coordinates": [8.5421457, 47.3876979], "type": "Point"}, "properties": {"address": "Turnerstrasse 47", "electric": 4, "id": "pb_360", "manual": 1, "name": "Kirche Unterstrass", "provider": "publibike", "timeStamp": "02/11/2020, 10:19:08", "zip": 8006}, "type": "Feature"}, {"geometry": {"coordinates": [8.522117, 47.394554], "type": "Point"}, "properties": {"address": "Dorfstrasse 40", "electric": 2, "id": "pb_361", "manual": 3, "name": "Dorfstrasse", "provider": "publibike", "timeStamp": "02/11/2020, 10:19:08", "zip": 8037}, "type": "Feature"}, {"geometry": {"coordinates": [8.530437, 47.37271], "type": "Point"}, "properties": {"address": "Werdstrasse 25", "electric": 1, "id": "pb_362", "manual": 4, "name": "Stauffachertor", "provider": "publibike", "timeStamp": "02/11/2020, 10:19:08", "zip": 8004}, "type": "Feature"}, {"geometry": {"coordinates": [8.541712, 47.416155], "type": "Point"}, "properties": {"address": "Eggb\u00fchlstrasse 21", "electric": 14, "id": "pb_363", "manual": 1, "name": "Wahlenpark", "provider": "publibike", "timeStamp": "02/11/2020, 10:19:08", "zip": 8050}, "type": "Feature"}, {"geometry": {"coordinates": [8.5595335, 47.3708387], "type": "Point"}, "properties": {"address": "Dolderstrasse 32", "electric": 1, "id": "pb_364", "manual": 0, "name": "Kinderspital", "provider": "publibike", "timeStamp": "02/11/2020, 10:19:08", "zip": 8032}, "type": "Feature"}, {"geometry": {"coordinates": [8.536433, 47.388689], "type": "Point"}, "properties": {"address": "Kornhausstrasse 30", "electric": 1, "id": "pb_365", "manual": 2, "name": "Kornhausstrasse", "provider": "publibike", "timeStamp": "02/11/2020, 10:19:08", "zip": 8006}, "type": "Feature"}, {"geometry": {"coordinates": [8.55033, 47.407098], "type": "Point"}, "properties": {"address": "Schwamendingenstrasse 41", "electric": 5, "id": "pb_366", "manual": 8, "name": "Dorflinde", "provider": "publibike", "timeStamp": "02/11/2020, 10:19:08", "zip": 8050}, "type": "Feature"}, {"geometry": {"coordinates": [8.560476, 47.368199], "type": "Point"}, "properties": {"address": "R\u00f6merhofplatz 5", "electric": 6, "id": "pb_367", "manual": 1, "name": "R\u00f6merhof", "provider": "publibike", "timeStamp": "02/11/2020, 10:19:08", "zip": 8032}, "type": "Feature"}, {"geometry": {"coordinates": [8.5609218, 47.3619068], "type": "Point"}, "properties": {"address": "Forchstrasse 99", "electric": 0, "id": "pb_368", "manual": 3, "name": "Hegibachplatz", "provider": "publibike", "timeStamp": "02/11/2020, 10:19:08", "zip": 8032}, "type": "Feature"}, {"geometry": {"coordinates": [8.5721264, 47.4039985], "type": "Point"}, "properties": {"address": "Winterthurerstrasse 519", "electric": 11, "id": "pb_370", "manual": 6, "name": "Schwamendingerplatz", "provider": "publibike", "timeStamp": "02/11/2020, 10:19:08", "zip": 8051}, "type": "Feature"}, {"geometry": {"coordinates": [8.520168, 47.378556], "type": "Point"}, "properties": {"address": "Herman-Greulich-Strasse 56", "electric": 0, "id": "pb_384", "manual": 6, "name": "Hermann-Greulich-Weg", "provider": "publibike", "timeStamp": "02/11/2020, 10:19:08", "zip": 8004}, "type": "Feature"}, {"geometry": {"coordinates": [8.547912, 47.384923], "type": "Point"}, "properties": {"address": "Culmannstrasse", "electric": 0, "id": "pb_386", "manual": 7, "name": "Rigiplatz", "provider": "publibike", "timeStamp": "02/11/2020, 10:19:08", "zip": 8006}, "type": "Feature"}, {"geometry": {"coordinates": [8.543768, 47.411057], "type": "Point"}, "properties": {"address": "Hofwiesenstrasse 369", "electric": 3, "id": "pb_387", "manual": 7, "name": "Bahnhof Oerlikon S\u00fcd", "provider": "publibike", "timeStamp": "02/11/2020, 10:19:08", "zip": 8050}, "type": "Feature"}, {"geometry": {"coordinates": [8.544185, 47.412732], "type": "Point"}, "properties": {"address": "Jungholzstrasse 6", "electric": 5, "id": "pb_388", "manual": 3, "name": "Max-Frisch-Platz", "provider": "publibike", "timeStamp": "02/11/2020, 10:19:08", "zip": 8050}, "type": "Feature"}, {"geometry": {"coordinates": [8.558096, 47.413032], "type": "Point"}, "properties": {"address": "Andreasstrasse", "electric": 10, "id": "pb_389", "manual": 4, "name": "Hunziker-Areal", "provider": "publibike", "timeStamp": "02/11/2020, 10:19:08", "zip": 8050}, "type": "Feature"}, {"geometry": {"coordinates": [8.533265, 47.412873], "type": "Point"}, "properties": {"address": "Regina-K\u00e4gi-Strasse 1", "electric": 8, "id": "pb_390", "manual": 5, "name": "Luis-H\u00e4fliger-Park", "provider": "publibike", "timeStamp": "02/11/2020, 10:19:08", "zip": 8050}, "type": "Feature"}, {"geometry": {"coordinates": [8.499265, 47.401852], "type": "Point"}, "properties": {"address": "Limmattalstrasse 177", "electric": 2, "id": "pb_391", "manual": 2, "name": "Meierhofplatz", "provider": "publibike", "timeStamp": "02/11/2020, 10:19:08", "zip": 8049}, "type": "Feature"}, {"geometry": {"coordinates": [8.528356, 47.393255], "type": "Point"}, "properties": {"address": "R\u00f6schibachstrasse 73", "electric": 18, "id": "pb_392", "manual": 8, "name": "R\u00f6schibachplatz", "provider": "publibike", "timeStamp": "02/11/2020, 10:19:08", "zip": 8037}, "type": "Feature"}, {"geometry": {"coordinates": [8.538067, 47.415721], "type": "Point"}, "properties": {"address": "Birchstrasse 191", "electric": 10, "id": "pb_393", "manual": 2, "name": "Oerliker Park", "provider": "publibike", "timeStamp": "02/11/2020, 10:19:08", "zip": 8050}, "type": "Feature"}, {"geometry": {"coordinates": [8.5420304, 47.3669233], "type": "Point"}, "properties": {"address": "Stadthausquai 1", "electric": 1, "id": "pb_395", "manual": 6, "name": "B\u00fcrkliplatz", "provider": "publibike", "timeStamp": "02/11/2020, 10:19:08", "zip": 8001}, "type": "Feature"}, {"geometry": {"coordinates": [8.535767, 47.409881], "type": "Point"}, "properties": {"address": "Regensbergstrasse 195", "electric": 1, "id": "pb_396", "manual": 1, "name": "Holunderhof", "provider": "publibike", "timeStamp": "02/11/2020, 10:19:08", "zip": 8050}, "type": "Feature"}, {"geometry": {"coordinates": [8.5116245, 47.3616199], "type": "Point"}, "properties": {"address": "Grubenstrasse 42", "electric": 4, "id": "pb_431", "manual": 2, "name": "Binz Center", "provider": "publibike", "timeStamp": "02/11/2020, 10:19:08", "zip": 8045}, "type": "Feature"}, {"geometry": {"coordinates": [8.547195, 47.382089], "type": "Point"}, "properties": {"address": "Nelkenstrasse 24", "electric": 4, "id": "pb_430", "manual": 2, "name": "Stapferstube", "provider": "publibike", "timeStamp": "02/11/2020, 10:19:08", "zip": 8006}, "type": "Feature"}, {"geometry": {"coordinates": [8.5787183, 47.4039845], "type": "Point"}, "properties": {"address": "Kronwiesenstrasse 35", "electric": 2, "id": "pb_426", "manual": 3, "name": "Kronwiesen", "provider": "publibike", "timeStamp": "02/11/2020, 10:19:08", "zip": 8051}, "type": "Feature"}, {"geometry": {"coordinates": [8.508131, 47.420757], "type": "Point"}, "properties": {"address": "Riedenhaldenstrasse 20-18", "electric": 10, "id": "pb_425", "manual": 2, "name": "Bahnhof Affoltern", "provider": "publibike", "timeStamp": "02/11/2020, 10:19:08", "zip": 8046}, "type": "Feature"}, {"geometry": {"coordinates": [8.532464, 47.406988], "type": "Point"}, "properties": {"address": "K\u00fcnzlistrasse 41", "electric": 3, "id": "pb_424", "manual": 1, "name": "Birchd\u00f6rfli", "provider": "publibike", "timeStamp": "02/11/2020, 10:19:08", "zip": 8057}, "type": "Feature"}, {"geometry": {"coordinates": [8.5777038, 47.4080095], "type": "Point"}, "properties": {"address": "Luegislandstrasse 412", "electric": 4, "id": "pb_429", "manual": 2, "name": "Luegisland", "provider": "publibike", "timeStamp": "02/11/2020, 10:19:08", "zip": 8051}, "type": "Feature"}, {"geometry": {"coordinates": [8.58841, 47.40158], "type": "Point"}, "properties": {"address": "Hirzenbachstrasse 2-4", "electric": 1, "id": "pb_428", "manual": 3, "name": "Hirzenbachstrasse", "provider": "publibike", "timeStamp": "02/11/2020, 10:19:08", "zip": 8051}, "type": "Feature"}, {"geometry": {"coordinates": [8.5563463, 47.4095467], "type": "Point"}, "properties": {"address": "K\u00fchriedweg", "electric": 3, "id": "pb_445", "manual": 10, "name": "Hallenbad Oerlikon", "provider": "publibike", "timeStamp": "02/11/2020, 10:19:08", "zip": 8050}, "type": "Feature"}, {"geometry": {"coordinates": [8.537971, 47.364871], "type": "Point"}, "properties": {"address": "General-Guisan-Quai 17", "electric": 1, "id": "pb_454", "manual": 3, "name": "General-Guisan-Quai", "provider": "publibike", "timeStamp": "02/11/2020, 10:19:08", "zip": 8002}, "type": "Feature"}, {"geometry": {"coordinates": [8.560587, 47.350578], "type": "Point"}, "properties": {"address": "Bellerivestrasse 245", "electric": 7, "id": "pb_450", "manual": 8, "name": "Bahnhof Tiefenbrunnen", "provider": "publibike", "timeStamp": "02/11/2020, 10:19:08", "zip": 8008}, "type": "Feature"}, {"geometry": {"coordinates": [8.5269416, 47.3563719], "type": "Point"}, "properties": {"address": "Waffenplatzstrasse 89", "electric": 3, "id": "pb_452", "manual": 9, "name": "Rieterplatz", "provider": "publibike", "timeStamp": "02/11/2020, 10:19:08", "zip": 8002}, "type": "Feature"}, {"geometry": {"coordinates": [8.514176, 47.3663708], "type": "Point"}, "properties": {"address": "Talwiesenstrasse 92", "electric": 0, "id": "pb_446", "manual": 3, "name": "Binzallee", "provider": "publibike", "timeStamp": "02/11/2020, 10:19:08", "zip": 8055}, "type": "Feature"}, {"geometry": {"coordinates": [8.5070564, 47.371455], "type": "Point"}, "properties": {"address": "Gutstrasse 87", "electric": 4, "id": "pb_447", "manual": 0, "name": "Gutstrasse", "provider": "publibike", "timeStamp": "02/11/2020, 10:19:08", "zip": 8055}, "type": "Feature"}, {"geometry": {"coordinates": [8.4941268, 47.3836391], "type": "Point"}, "properties": {"address": "Flurstrasse 62", "electric": 1, "id": "pb_453", "manual": 2, "name": "Flurpark", "provider": "publibike", "timeStamp": "02/11/2020, 10:19:08", "zip": 8048}, "type": "Feature"}, {"geometry": {"coordinates": [8.500343, 47.380778], "type": "Point"}, "properties": {"address": "Edelweissstrasse 32", "electric": 5, "id": "pb_448", "manual": 4, "name": "Bl\u00fcemliquartier", "provider": "publibike", "timeStamp": "02/11/2020, 10:19:08", "zip": 8048}, "type": "Feature"}, {"geometry": {"coordinates": [8.528796, 47.383858], "type": "Point"}, "properties": {"address": "Gasometerstrasse 24", "electric": 0, "id": "pb_449", "manual": 0, "name": "Gasometerstrasse", "provider": "publibike", "timeStamp": "02/11/2020, 10:19:08", "zip": 8005}, "type": "Feature"}, {"geometry": {"coordinates": [8.4981964, 47.3859194], "type": "Point"}, "properties": {"address": "Baslerstrasse 57", "electric": 13, "id": "pb_455", "manual": 8, "name": "Letzipark", "provider": "publibike", "timeStamp": "02/11/2020, 10:19:08", "zip": 8048}, "type": "Feature"}, {"geometry": {"coordinates": [8.515252, 47.381915], "type": "Point"}, "properties": {"address": "Sihlfeldstrasse 175", "electric": 0, "id": "pb_451", "manual": 1, "name": "Hardplatz", "provider": "publibike", "timeStamp": "02/11/2020, 10:19:08", "zip": 8004}, "type": "Feature"}, {"geometry": {"coordinates": [8.5064743, 47.4188324], "type": "Point"}, "properties": {"address": "Wehntalerstrasse 541", "electric": 2, "id": "pb_427", "manual": 10, "name": "Zehntenhausplatz", "provider": "publibike", "timeStamp": "02/11/2020, 10:19:08", "zip": 8046}, "type": "Feature"}, {"geometry": {"coordinates": [8.537729, 47.379719], "type": "Point"}, "properties": {"address": "Sihlquai/HB", "electric": 2, "id": "pb_513", "manual": 7, "name": "Sihlquai", "provider": "publibike", "timeStamp": "02/11/2020, 10:19:08", "zip": 8005}, "type": "Feature"}, {"geometry": {"coordinates": [8.596202, 47.397885], "type": "Point"}, "properties": {"address": "Bahnhof Stettbach", "electric": 4, "id": "pb_514", "manual": 5, "name": "Bahnhof Stettbach", "provider": "publibike", "timeStamp": "02/11/2020, 10:19:08", "zip": 8051}, "type": "Feature"}, {"geometry": {"coordinates": [8.5543974, 47.3690153], "type": "Point"}, "properties": {"address": "Kasinostrasse 10", "electric": 1, "id": "pb_515", "manual": 1, "name": "Hottingerplatz", "provider": "publibike", "timeStamp": "02/11/2020, 10:19:08", "zip": 8032}, "type": "Feature"}, {"geometry": {"coordinates": [8.534444, 47.351525], "type": "Point"}, "properties": {"address": "Mobile Station Z\u00fcrich 1", "electric": 0, "id": "pb_282", "manual": 0, "name": "Theaterspektakel", "provider": "publibike", "timeStamp": "02/11/2020, 10:19:08", "zip": 8002}, "type": "Feature"}, {"geometry": {"coordinates": [8.516257, 47.367656], "type": "Point"}, "properties": {"address": "Goldbrunnenstrasse 54", "electric": 3, "id": "pb_538", "manual": 0, "name": "Kirche B\u00fchl", "provider": "publibike", "timeStamp": "02/11/2020, 10:19:08", "zip": 8055}, "type": "Feature"}, {"geometry": {"coordinates": [8.555639, 47.416873], "type": "Point"}, "properties": {"address": "Leutschenbachstrasse 50", "electric": 3, "id": "pb_537", "manual": 5, "name": "Leutschenpark", "provider": "publibike", "timeStamp": "02/11/2020, 10:19:08", "zip": 8050}, "type": "Feature"}, {"geometry": {"coordinates": [8.546464, 47.403822], "type": "Point"}, "properties": {"address": "Berninastrasse 45", "electric": 1, "id": "pb_540", "manual": 1, "name": "Berninaplatz", "provider": "publibike", "timeStamp": "02/11/2020, 10:19:08", "zip": 8057}, "type": "Feature"}, {"geometry": {"coordinates": [8.523134, 47.369004], "type": "Point"}, "properties": {"address": "Erlachstrasse 3", "electric": 0, "id": "pb_385", "manual": 9, "name": "Aegerten", "provider": "publibike", "timeStamp": "02/11/2020, 10:19:08", "zip": 8003}, "type": "Feature"}, {"geometry": {"coordinates": [8.49038, 47.381591], "type": "Point"}, "properties": {"address": "Rautistrasse 60", "electric": 14, "id": "pb_536", "manual": 4, "name": "Freilager", "provider": "publibike", "timeStamp": "02/11/2020, 10:19:08", "zip": 8048}, "type": "Feature"}, {"geometry": {"coordinates": [8.496511, 47.375247], "type": "Point"}, "properties": {"address": "Letzigraben 139", "electric": 4, "id": "pb_444", "manual": 3, "name": "Sackzelg", "provider": "publibike", "timeStamp": "02/11/2020, 10:19:08", "zip": 8047}, "type": "Feature"}, {"geometry": {"coordinates": [8.58131, 47.402801], "type": "Point"}, "properties": {"address": "Altwiesenstrasse 104", "electric": 2, "id": "pb_539", "manual": 1, "name": "Glattwiesen", "provider": "publibike", "timeStamp": "02/11/2020, 10:19:08", "zip": 8051}, "type": "Feature"}, {"geometry": {"coordinates": [8.52689, 47.3767], "type": "Point"}, "properties": {"address": "Molkenstrasse 5", "electric": 1, "id": "pb_560", "manual": 4, "name": "Helvetiaplatz", "provider": "publibike", "timeStamp": "02/11/2020, 10:19:08", "zip": 8004}, "type": "Feature"}, {"geometry": {"coordinates": [8.525602, 47.374241], "type": "Point"}, "properties": {"address": "Badenerstrasse 90", "electric": 5, "id": "pb_559", "manual": 3, "name": "Bezirksgeb\u00e4ude", "provider": "publibike", "timeStamp": "02/11/2020, 10:19:08", "zip": 8004}, "type": "Feature"}, {"geometry": {"coordinates": [8.535082, 47.345248], "type": "Point"}, "properties": {"address": "Bachstrasse 15", "electric": 4, "id": "pb_564", "manual": 5, "name": "GZ Wollishofen", "provider": "publibike", "timeStamp": "02/11/2020, 10:19:08", "zip": 8038}, "type": "Feature"}, {"geometry": {"coordinates": [8.514841, 47.370238], "type": "Point"}, "properties": {"address": "Schrennengasse 37", "electric": 1, "id": "pb_562", "manual": 0, "name": "Goldbrunnenplatz", "provider": "publibike", "timeStamp": "02/11/2020, 10:19:08", "zip": 8003}, "type": "Feature"}, {"geometry": {"coordinates": [8.514138, 47.374206], "type": "Point"}, "properties": {"address": "Idaplatz 4", "electric": 1, "id": "pb_557", "manual": 8, "name": "Idaplatz", "provider": "publibike", "timeStamp": "02/11/2020, 10:19:08", "zip": 8003}, "type": "Feature"}, {"geometry": {"coordinates": [8.518432, 47.369549], "type": "Point"}, "properties": {"address": "Brinerstrasse 2", "electric": 0, "id": "pb_558", "manual": 4, "name": "Schmiede Wiedikon", "provider": "publibike", "timeStamp": "02/11/2020, 10:19:08", "zip": 8003}, "type": "Feature"}, {"geometry": {"coordinates": [8.537546, 47.391289], "type": "Point"}, "properties": {"address": "Rotbuchstrasse 15", "electric": 3, "id": "pb_556", "manual": 3, "name": "Schaffhauserplatz", "provider": "publibike", "timeStamp": "02/11/2020, 10:19:08", "zip": 8006}, "type": "Feature"}, {"geometry": {"coordinates": [8.541541, 47.413733], "type": "Point"}, "properties": {"address": "Therese-Giehse-Strasse 11", "electric": 5, "id": "pb_561", "manual": 0, "name": "Center Eleven", "provider": "publibike", "timeStamp": "02/11/2020, 10:19:08", "zip": 8050}, "type": "Feature"}, {"geometry": {"coordinates": [8.534227, 47.360004], "type": "Point"}, "properties": {"address": "Alfred Escher-Strasse 76", "electric": 12, "id": "pb_563", "manual": 4, "name": "Mythenschloss", "provider": "publibike", "timeStamp": "02/11/2020, 10:19:08", "zip": 8002}, "type": "Feature"}, {"geometry": {"coordinates": [8.50373, 47.396172], "type": "Point"}, "properties": {"address": "Hardeggstrasse 6", "electric": 8, "id": "pb_566", "manual": 6, "name": "Am Wasser", "provider": "publibike", "timeStamp": "02/11/2020, 10:19:08", "zip": 8049}, "type": "Feature"}, {"geometry": {"coordinates": [8.532432, 47.381174], "type": "Point"}, "properties": {"address": "Klingenstrasse 9", "electric": 2, "id": "pb_565", "manual": 5, "name": "Zollstrasse", "provider": "publibike", "timeStamp": "02/11/2020, 10:19:08", "zip": 8005}, "type": "Feature"}, {"geometry": {"coordinates": [8.497982, 47.381447], "type": "Point"}, "properties": {"address": "Dennlerstrasse 23", "electric": 5, "id": "pb_567", "manual": 2, "name": "Dennlerstrasse", "provider": "publibike", "timeStamp": "02/11/2020, 10:19:08", "zip": 8047}, "type": "Feature"}, {"geometry": {"coordinates": [8.528049, 47.347701], "type": "Point"}, "properties": {"address": "Mutschellenstrasse 114", "electric": 8, "id": "pb_568", "manual": 0, "name": "Jugendherberge", "provider": "publibike", "timeStamp": "02/11/2020, 10:19:08", "zip": 8038}, "type": "Feature"}, {"geometry": {"coordinates": [8.539016, 47.405751], "type": "Point"}, "properties": {"address": "Ringstrasse 82", "electric": 1, "id": "pb_569", "manual": 4, "name": "Freibad Allenmoos", "provider": "publibike", "timeStamp": "02/11/2020, 10:19:08", "zip": 8057}, "type": "Feature"}, {"geometry": {"coordinates": [8.534974, 47.402164], "type": "Point"}, "properties": {"address": "Brache Guggach", "electric": 3, "id": "pb_572", "manual": 2, "name": "Radiostudio", "provider": "publibike", "timeStamp": "02/11/2020, 10:19:08", "zip": 8057}, "type": "Feature"}, {"geometry": {"coordinates": [8.547901, 47.375556], "type": "Point"}, "properties": {"address": "Karl-Schmid-Strasse 4", "electric": 3, "id": "pb_571", "manual": 0, "name": "ETH/Zoologisches Museum", "provider": "publibike", "timeStamp": "02/11/2020, 10:19:08", "zip": 8006}, "type": "Feature"}, {"geometry": {"coordinates": [8.562806, 47.382261], "type": "Point"}, "properties": {"charge": 60, "id": "smide_2901", "name": "ZH 267278", "provider": "smide", "range": 30.0, "size": 20, "time": "02/11/2020, 10:18:41"}, "type": "Feature"}, {"geometry": {"coordinates": [8.501668, 47.424468], "type": "Point"}, "properties": {"charge": 52, "id": "smide_2895", "name": "ZH 267279", "provider": "smide", "range": 26.0, "size": 20, "time": "02/11/2020, 10:18:41"}, "type": "Feature"}, {"geometry": {"coordinates": [8.546446, 47.409326], "type": "Point"}, "properties": {"charge": 63, "id": "smide_2880", "name": "ZH267289", "provider": "smide", "range": 31.0, "size": 17, "time": "02/11/2020, 10:18:41"}, "type": "Feature"}, {"geometry": {"coordinates": [8.559163, 47.359736], "type": "Point"}, "properties": {"charge": 91, "id": "smide_2874", "name": "ZH 267288", "provider": "smide", "range": 45.0, "size": 17, "time": "02/11/2020, 10:18:41"}, "type": "Feature"}, {"geometry": {"coordinates": [8.55846, 47.357055], "type": "Point"}, "properties": {"charge": 98, "id": "smide_2871", "name": "ZH 267086", "provider": "smide", "range": 49.0, "size": 20, "time": "02/11/2020, 10:18:41"}, "type": "Feature"}, {"geometry": {"coordinates": [8.515776, 47.428695], "type": "Point"}, "properties": {"charge": 24, "id": "smide_2867", "name": "ZH 267090", "provider": "smide", "range": 12.0, "size": 20, "time": "02/11/2020, 10:18:41"}, "type": "Feature"}, {"geometry": {"coordinates": [8.51276, 47.381571], "type": "Point"}, "properties": {"charge": 60, "id": "smide_2861", "name": "ZH 267096", "provider": "smide", "range": 30.0, "size": 17, "time": "02/11/2020, 10:18:41"}, "type": "Feature"}, {"geometry": {"coordinates": [8.554155, 47.369001], "type": "Point"}, "properties": {"charge": 88, "id": "smide_2859", "name": "ZH 267098", "provider": "smide", "range": 44.0, "size": 17, "time": "02/11/2020, 10:18:41"}, "type": "Feature"}, {"geometry": {"coordinates": [8.542638, 47.37254], "type": "Point"}, "properties": {"charge": 50, "id": "smide_2856", "name": "ZH 267101", "provider": "smide", "range": 25.0, "size": 17, "time": "02/11/2020, 10:18:41"}, "type": "Feature"}, {"geometry": {"coordinates": [8.525238, 47.397953], "type": "Point"}, "properties": {"charge": 57, "id": "smide_2855", "name": "ZH 267102", "provider": "smide", "range": 28.0, "size": 17, "time": "02/11/2020, 10:18:41"}, "type": "Feature"}, {"geometry": {"coordinates": [8.517126, 47.361316], "type": "Point"}, "properties": {"charge": 83, "id": "smide_2854", "name": "ZH 267103", "provider": "smide", "range": 41.0, "size": 17, "time": "02/11/2020, 10:18:41"}, "type": "Feature"}, {"geometry": {"coordinates": [8.555576, 47.38448], "type": "Point"}, "properties": {"charge": 93, "id": "smide_2833", "name": "ZH 267182", "provider": "smide", "range": 46.0, "size": 20, "time": "02/11/2020, 10:18:41"}, "type": "Feature"}, {"geometry": {"coordinates": [8.558345, 47.371066], "type": "Point"}, "properties": {"charge": 17, "id": "smide_2831", "name": "ZH 267180", "provider": "smide", "range": 8.0, "size": 20, "time": "02/11/2020, 10:18:41"}, "type": "Feature"}, {"geometry": {"coordinates": [8.574241, 47.348248], "type": "Point"}, "properties": {"charge": 60, "id": "smide_2804", "name": "ZH266903", "provider": "smide", "range": 30.0, "size": 20, "time": "02/11/2020, 10:18:41"}, "type": "Feature"}, {"geometry": {"coordinates": [8.494571, 47.368228], "type": "Point"}, "properties": {"charge": 98, "id": "smide_2793", "name": "ZH266883", "provider": "smide", "range": 49.0, "size": 17, "time": "02/11/2020, 10:18:41"}, "type": "Feature"}, {"geometry": {"coordinates": [8.513856, 47.365136], "type": "Point"}, "properties": {"charge": 74, "id": "smide_2790", "name": "ZH266880", "provider": "smide", "range": 37.0, "size": 17, "time": "02/11/2020, 10:18:41"}, "type": "Feature"}, {"geometry": {"coordinates": [8.5463, 47.398313], "type": "Point"}, "properties": {"charge": 83, "id": "smide_2785", "name": "ZH266875", "provider": "smide", "range": 41.0, "size": 17, "time": "02/11/2020, 10:18:41"}, "type": "Feature"}, {"geometry": {"coordinates": [8.539178, 47.376045], "type": "Point"}, "properties": {"charge": 93, "id": "smide_2780", "name": "ST1 X #1", "provider": "smide", "range": 46.0, "size": 17, "time": "02/11/2020, 10:18:41"}, "type": "Feature"}, {"geometry": {"coordinates": [8.498735, 47.38804], "type": "Point"}, "properties": {"charge": 32, "id": "smide_2773", "name": "ZH266561", "provider": "smide", "range": 16.0, "size": 17, "time": "02/11/2020, 10:18:41"}, "type": "Feature"}, {"geometry": {"coordinates": [8.503883, 47.399104], "type": "Point"}, "properties": {"charge": 14, "id": "smide_2771", "name": "ZH266559", "provider": "smide", "range": 7.0, "size": 17, "time": "02/11/2020, 10:18:41"}, "type": "Feature"}, {"geometry": {"coordinates": [8.501911, 47.398072], "type": "Point"}, "properties": {"charge": 24, "id": "smide_2763", "name": "ZH266641", "provider": "smide", "range": 12.0, "size": 17, "time": "02/11/2020, 10:18:41"}, "type": "Feature"}, {"geometry": {"coordinates": [8.555715, 47.384248], "type": "Point"}, "properties": {"charge": 87, "id": "smide_2761", "name": "ZH266642", "provider": "smide", "range": 43.0, "size": 20, "time": "02/11/2020, 10:18:41"}, "type": "Feature"}, {"geometry": {"coordinates": [8.543758, 47.382836], "type": "Point"}, "properties": {"charge": 64, "id": "smide_2759", "name": "ZH266639", "provider": "smide", "range": 32.0, "size": 17, "time": "02/11/2020, 10:18:41"}, "type": "Feature"}, {"geometry": {"coordinates": [8.574222, 47.348196], "type": "Point"}, "properties": {"charge": 100, "id": "smide_2758", "name": "ZH266638 M", "provider": "smide", "range": 50.0, "size": 17, "time": "02/11/2020, 10:18:41"}, "type": "Feature"}, {"geometry": {"coordinates": [8.55095, 47.359524], "type": "Point"}, "properties": {"charge": 36, "id": "smide_2752", "name": "BE343856", "provider": "smide", "range": 18.0, "size": 17, "time": "02/11/2020, 10:18:41"}, "type": "Feature"}, {"geometry": {"coordinates": [8.503383, 47.3967], "type": "Point"}, "properties": {"charge": 93, "id": "smide_2751", "name": "BE343857", "provider": "smide", "range": 46.0, "size": 17, "time": "02/11/2020, 10:18:41"}, "type": "Feature"}, {"geometry": {"coordinates": [8.513151, 47.366288], "type": "Point"}, "properties": {"charge": 92, "id": "smide_2749", "name": "BE343867", "provider": "smide", "range": 46.0, "size": 17, "time": "02/11/2020, 10:18:41"}, "type": "Feature"}, {"geometry": {"coordinates": [8.474979, 47.385392], "type": "Point"}, "properties": {"charge": 57, "id": "smide_2748", "name": "BE335758", "provider": "smide", "range": 28.0, "size": 17, "time": "02/11/2020, 10:18:41"}, "type": "Feature"}, {"geometry": {"coordinates": [8.568111, 47.382204], "type": "Point"}, "properties": {"charge": 44, "id": "smide_2746", "name": "BE335817", "provider": "smide", "range": 22.0, "size": 17, "time": "02/11/2020, 10:18:41"}, "type": "Feature"}, {"geometry": {"coordinates": [8.501998, 47.399368], "type": "Point"}, "properties": {"charge": 21, "id": "smide_2747", "name": "BE335820", "provider": "smide", "range": 10.0, "size": 17, "time": "02/11/2020, 10:18:41"}, "type": "Feature"}, {"geometry": {"coordinates": [8.524454, 47.363008], "type": "Point"}, "properties": {"charge": 58, "id": "smide_2745", "name": "BE335818", "provider": "smide", "range": 28.0, "size": 17, "time": "02/11/2020, 10:18:41"}, "type": "Feature"}, {"geometry": {"coordinates": [8.488737, 47.38056], "type": "Point"}, "properties": {"charge": 26, "id": "smide_2743", "name": "BE343864", "provider": "smide", "range": 13.0, "size": 17, "time": "02/11/2020, 10:18:41"}, "type": "Feature"}, {"geometry": {"coordinates": [8.572536, 47.380764], "type": "Point"}, "properties": {"charge": 79, "id": "smide_2742", "name": "BE343866", "provider": "smide", "range": 39.0, "size": 17, "time": "02/11/2020, 10:18:41"}, "type": "Feature"}, {"geometry": {"coordinates": [8.571868, 47.38194], "type": "Point"}, "properties": {"charge": 55, "id": "smide_2741", "name": "BE343874", "provider": "smide", "range": 27.0, "size": 17, "time": "02/11/2020, 10:18:41"}, "type": "Feature"}, {"geometry": {"coordinates": [8.530203, 47.338524], "type": "Point"}, "properties": {"charge": 99, "id": "smide_2740", "name": "BE343875", "provider": "smide", "range": 49.0, "size": 17, "time": "02/11/2020, 10:18:41"}, "type": "Feature"}, {"geometry": {"coordinates": [8.564638, 47.3599], "type": "Point"}, "properties": {"charge": 49, "id": "smide_2738", "name": "BE343865", "provider": "smide", "range": 24.0, "size": 17, "time": "02/11/2020, 10:18:41"}, "type": "Feature"}, {"geometry": {"coordinates": [8.540144, 47.378952], "type": "Point"}, "properties": {"charge": 57, "id": "smide_2737", "name": "BE336149", "provider": "smide", "range": 28.0, "size": 17, "time": "02/11/2020, 10:18:41"}, "type": "Feature"}, {"geometry": {"coordinates": [8.507595, 47.382508], "type": "Point"}, "properties": {"charge": 48, "id": "smide_2734", "name": "BE343876", "provider": "smide", "range": 24.0, "size": 17, "time": "02/11/2020, 10:18:41"}, "type": "Feature"}, {"geometry": {"coordinates": [8.576404, 47.351172], "type": "Point"}, "properties": {"charge": 63, "id": "smide_2729", "name": "BE343878", "provider": "smide", "range": 31.0, "size": 17, "time": "02/11/2020, 10:18:41"}, "type": "Feature"}, {"geometry": {"coordinates": [8.544865, 47.37492], "type": "Point"}, "properties": {"charge": 23, "id": "smide_2725", "name": "ZH261545", "provider": "smide", "range": 11.0, "size": 0, "time": "02/11/2020, 10:18:41"}, "type": "Feature"}, {"geometry": {"coordinates": [8.513061, 47.36624], "type": "Point"}, "properties": {"charge": 98, "id": "smide_2717", "name": "ZH263287", "provider": "smide", "range": 49.0, "size": 17, "time": "02/11/2020, 10:18:41"}, "type": "Feature"}, {"geometry": {"coordinates": [8.543315, 47.391096], "type": "Point"}, "properties": {"charge": 80, "id": "smide_2716", "name": "ZH254606", "provider": "smide", "range": 40.0, "size": 17, "time": "02/11/2020, 10:18:41"}, "type": "Feature"}, {"geometry": {"coordinates": [8.501013, 47.36868], "type": "Point"}, "properties": {"charge": 94, "id": "smide_2714", "name": "ZH256461", "provider": "smide", "range": 47.0, "size": 17, "time": "02/11/2020, 10:18:41"}, "type": "Feature"}, {"geometry": {"coordinates": [8.514231, 47.386956], "type": "Point"}, "properties": {"charge": 49, "id": "smide_2710", "name": "ZH256460", "provider": "smide", "range": 24.0, "size": 17, "time": "02/11/2020, 10:18:41"}, "type": "Feature"}, {"geometry": {"coordinates": [8.564467, 47.371732], "type": "Point"}, "properties": {"charge": 33, "id": "smide_2711", "name": "ZH256463", "provider": "smide", "range": 16.0, "size": 17, "time": "02/11/2020, 10:18:41"}, "type": "Feature"}, {"geometry": {"coordinates": [8.564675, 47.36331], "type": "Point"}, "properties": {"charge": 70, "id": "smide_2709", "name": "ZH256466", "provider": "smide", "range": 35.0, "size": 20, "time": "02/11/2020, 10:18:41"}, "type": "Feature"}, {"geometry": {"coordinates": [8.567114, 47.362288], "type": "Point"}, "properties": {"charge": 71, "id": "smide_2707", "name": "ZH256467", "provider": "smide", "range": 35.0, "size": 20, "time": "02/11/2020, 10:18:41"}, "type": "Feature"}, {"geometry": {"coordinates": [8.48745, 47.367812], "type": "Point"}, "properties": {"charge": 80, "id": "smide_2708", "name": "ZH256464", "provider": "smide", "range": 40.0, "size": 17, "time": "02/11/2020, 10:18:41"}, "type": "Feature"}, {"geometry": {"coordinates": [8.510604, 47.395908], "type": "Point"}, "properties": {"charge": 10, "id": "smide_2701", "name": "ZH256468", "provider": "smide", "range": 5.0, "size": 20, "time": "02/11/2020, 10:18:41"}, "type": "Feature"}, {"geometry": {"coordinates": [8.525454, 47.389556], "type": "Point"}, "properties": {"charge": 89, "id": "smide_2699", "name": "ZH254611", "provider": "smide", "range": 44.0, "size": 20, "time": "02/11/2020, 10:18:41"}, "type": "Feature"}, {"geometry": {"coordinates": [8.484198, 47.39716], "type": "Point"}, "properties": {"charge": 87, "id": "smide_2697", "name": "ZH254629", "provider": "smide", "range": 43.0, "size": 20, "time": "02/11/2020, 10:18:41"}, "type": "Feature"}, {"geometry": {"coordinates": [8.545442, 47.423536], "type": "Point"}, "properties": {"charge": 33, "id": "smide_2696", "name": "ZH254616", "provider": "smide", "range": 16.0, "size": 20, "time": "02/11/2020, 10:18:41"}, "type": "Feature"}, {"geometry": {"coordinates": [8.576427, 47.351152], "type": "Point"}, "properties": {"charge": 30, "id": "smide_2694", "name": "ZH254610", "provider": "smide", "range": 15.0, "size": 20, "time": "02/11/2020, 10:18:41"}, "type": "Feature"}, {"geometry": {"coordinates": [8.572495, 47.380848], "type": "Point"}, "properties": {"charge": 100, "id": "smide_2691", "name": "ZH254622", "provider": "smide", "range": 50.0, "size": 20, "time": "02/11/2020, 10:18:41"}, "type": "Feature"}, {"geometry": {"coordinates": [8.5359, 47.39978], "type": "Point"}, "properties": {"charge": 73, "id": "smide_2690", "name": "ZH254625", "provider": "smide", "range": 36.0, "size": 20, "time": "02/11/2020, 10:18:41"}, "type": "Feature"}, {"geometry": {"coordinates": [8.527236, 47.386736], "type": "Point"}, "properties": {"charge": 81, "id": "smide_2689", "name": "ZH254623", "provider": "smide", "range": 40.0, "size": 20, "time": "02/11/2020, 10:18:41"}, "type": "Feature"}, {"geometry": {"coordinates": [8.532198, 47.381088], "type": "Point"}, "properties": {"charge": 93, "id": "smide_2687", "name": "ZH263529", "provider": "smide", "range": 46.0, "size": 20, "time": "02/11/2020, 10:18:41"}, "type": "Feature"}, {"geometry": {"coordinates": [8.550034, 47.392608], "type": "Point"}, "properties": {"charge": 57, "id": "smide_2686", "name": "ZH263288", "provider": "smide", "range": 28.0, "size": 20, "time": "02/11/2020, 10:18:41"}, "type": "Feature"}, {"geometry": {"coordinates": [8.506862, 47.407732], "type": "Point"}, "properties": {"charge": 74, "id": "smide_2684", "name": "ZH254626", "provider": "smide", "range": 37.0, "size": 20, "time": "02/11/2020, 10:18:41"}, "type": "Feature"}, {"geometry": {"coordinates": [8.521816, 47.359166], "type": "Point"}, "properties": {"charge": 92, "id": "smide_2683", "name": "ZH254620", "provider": "smide", "range": 46.0, "size": 20, "time": "02/11/2020, 10:18:41"}, "type": "Feature"}, {"geometry": {"coordinates": [8.561783, 47.362808], "type": "Point"}, "properties": {"charge": 97, "id": "smide_2680", "name": "ZH254619", "provider": "smide", "range": 48.0, "size": 20, "time": "02/11/2020, 10:18:41"}, "type": "Feature"}, {"geometry": {"coordinates": [8.569555, 47.35206], "type": "Point"}, "properties": {"charge": 87, "id": "smide_2679", "name": "ZH258489", "provider": "smide", "range": 43.0, "size": 17, "time": "02/11/2020, 10:18:41"}, "type": "Feature"}, {"geometry": {"coordinates": [8.514953, 47.36796], "type": "Point"}, "properties": {"charge": 58, "id": "smide_2677", "name": "ZH258487", "provider": "smide", "range": 28.0, "size": 17, "time": "02/11/2020, 10:18:41"}, "type": "Feature"}, {"geometry": {"coordinates": [8.560858, 47.384224], "type": "Point"}, "properties": {"charge": 100, "id": "smide_2674", "name": "ZH258654", "provider": "smide", "range": 50.0, "size": 17, "time": "02/11/2020, 10:18:41"}, "type": "Feature"}, {"geometry": {"coordinates": [8.539581, 47.399744], "type": "Point"}, "properties": {"charge": 75, "id": "smide_2671", "name": "ZH258645", "provider": "smide", "range": 37.0, "size": 17, "time": "02/11/2020, 10:18:41"}, "type": "Feature"}, {"geometry": {"coordinates": [8.5446, 47.413752], "type": "Point"}, "properties": {"charge": 36, "id": "smide_2669", "name": "ZH263294", "provider": "smide", "range": 18.0, "size": 17, "time": "02/11/2020, 10:18:41"}, "type": "Feature"}, {"geometry": {"coordinates": [8.572842, 47.352872], "type": "Point"}, "properties": {"charge": 100, "id": "smide_2665", "name": "ZH258644", "provider": "smide", "range": 50.0, "size": 17, "time": "02/11/2020, 10:18:41"}, "type": "Feature"}, {"geometry": {"coordinates": [8.516208, 47.3944], "type": "Point"}, "properties": {"charge": 52, "id": "smide_2663", "name": "ZH258649", "provider": "smide", "range": 26.0, "size": 17, "time": "02/11/2020, 10:18:41"}, "type": "Feature"}, {"geometry": {"coordinates": [8.528939, 47.383032], "type": "Point"}, "properties": {"charge": 100, "id": "smide_2662", "name": "ZH258643", "provider": "smide", "range": 50.0, "size": 17, "time": "02/11/2020, 10:18:41"}, "type": "Feature"}, {"geometry": {"coordinates": [8.553734, 47.374864], "type": "Point"}, "properties": {"charge": 79, "id": "smide_2660", "name": "ZH258647", "provider": "smide", "range": 39.0, "size": 17, "time": "02/11/2020, 10:18:41"}, "type": "Feature"}, {"geometry": {"coordinates": [8.544648, 47.366508], "type": "Point"}, "properties": {"charge": 70, "id": "smide_2648", "name": "ZH257930", "provider": "smide", "range": 35.0, "size": 20, "time": "02/11/2020, 10:18:41"}, "type": "Feature"}, {"geometry": {"coordinates": [8.557649, 47.406848], "type": "Point"}, "properties": {"charge": 62, "id": "smide_2647", "name": "ZH257932", "provider": "smide", "range": 31.0, "size": 20, "time": "02/11/2020, 10:18:41"}, "type": "Feature"}, {"geometry": {"coordinates": [8.553763, 47.381908], "type": "Point"}, "properties": {"charge": 100, "id": "smide_2645", "name": "ZH257933", "provider": "smide", "range": 50.0, "size": 20, "time": "02/11/2020, 10:18:41"}, "type": "Feature"}, {"geometry": {"coordinates": [8.525978, 47.388012], "type": "Point"}, "properties": {"charge": 37, "id": "smide_186", "name": "ZH253751", "provider": "smide", "range": 18.0, "size": 20, "time": "02/11/2020, 10:18:41"}, "type": "Feature"}, {"geometry": {"coordinates": [8.559208, 47.406008], "type": "Point"}, "properties": {"charge": 93, "id": "smide_77", "name": "ZH261548", "provider": "smide", "range": 46.0, "size": 20, "time": "02/11/2020, 10:18:41"}, "type": "Feature"}, {"geometry": {"coordinates": [8.501216, 47.369556], "type": "Point"}, "properties": {"charge": 100, "id": "smide_197", "name": "ZH253864", "provider": "smide", "range": 50.0, "size": 20, "time": "02/11/2020, 10:18:41"}, "type": "Feature"}, {"geometry": {"coordinates": [8.532075, 47.371965], "type": "Point"}, "properties": {"charge": 91, "id": "smide_199", "name": "ZH253766", "provider": "smide", "range": 45.0, "size": 20, "time": "02/11/2020, 10:18:41"}, "type": "Feature"}, {"geometry": {"coordinates": [8.535924, 47.377476], "type": "Point"}, "properties": {"charge": 97, "id": "smide_8", "name": "ZH253861", "provider": "smide", "range": 48.0, "size": 17, "time": "02/11/2020, 10:18:41"}, "type": "Feature"}, {"geometry": {"coordinates": [8.502121, 47.369253], "type": "Point"}, "properties": {"charge": 100, "id": "smide_201", "name": "ZH253698", "provider": "smide", "range": 50.0, "size": 17, "time": "02/11/2020, 10:18:41"}, "type": "Feature"}, {"geometry": {"coordinates": [8.554789, 47.363592], "type": "Point"}, "properties": {"charge": 80, "id": "smide_188", "name": "ZH261543", "provider": "smide", "range": 40.0, "size": 20, "time": "02/11/2020, 10:18:41"}, "type": "Feature"}, {"geometry": {"coordinates": [8.535622, 47.363972], "type": "Point"}, "properties": {"charge": 34, "id": "smide_71", "name": "ZH253742", "provider": "smide", "range": 17.0, "size": 20, "time": "02/11/2020, 10:18:41"}, "type": "Feature"}, {"geometry": {"coordinates": [8.496881, 47.368508], "type": "Point"}, "properties": {"charge": 75, "id": "smide_101", "name": "ZH253814", "provider": "smide", "range": 37.0, "size": 17, "time": "02/11/2020, 10:18:41"}, "type": "Feature"}, {"geometry": {"coordinates": [8.514369, 47.386792], "type": "Point"}, "properties": {"charge": 64, "id": "smide_9", "name": "ZH253796", "provider": "smide", "range": 32.0, "size": 17, "time": "02/11/2020, 10:18:41"}, "type": "Feature"}, {"geometry": {"coordinates": [8.576478, 47.351281], "type": "Point"}, "properties": {"charge": 74, "id": "smide_180", "name": "ZH253824", "provider": "smide", "range": 37.0, "size": 20, "time": "02/11/2020, 10:18:41"}, "type": "Feature"}, {"geometry": {"coordinates": [8.532451, 47.364692], "type": "Point"}, "properties": {"charge": 18, "id": "smide_20", "name": "ZH253770", "provider": "smide", "range": 9.0, "size": 20, "time": "02/11/2020, 10:18:41"}, "type": "Feature"}, {"geometry": {"coordinates": [8.535991, 47.377552], "type": "Point"}, "properties": {"charge": 47, "id": "smide_50", "name": "ZH253853", "provider": "smide", "range": 23.0, "size": 17, "time": "02/11/2020, 10:18:41"}, "type": "Feature"}, {"geometry": {"coordinates": [8.535908, 47.378111], "type": "Point"}, "properties": {"charge": 60, "id": "smide_30", "name": "ZH253813", "provider": "smide", "range": 30.0, "size": 20, "time": "02/11/2020, 10:18:41"}, "type": "Feature"}, {"geometry": {"coordinates": [8.507486, 47.398432], "type": "Point"}, "properties": {"charge": 33, "id": "smide_179", "name": "ZH253687", "provider": "smide", "range": 16.0, "size": 20, "time": "02/11/2020, 10:18:41"}, "type": "Feature"}, {"geometry": {"coordinates": [8.563135, 47.372104], "type": "Point"}, "properties": {"charge": 22, "id": "smide_84", "name": "ZH253733", "provider": "smide", "range": 11.0, "size": 17, "time": "02/11/2020, 10:18:41"}, "type": "Feature"}, {"geometry": {"coordinates": [8.521757, 47.366732], "type": "Point"}, "properties": {"charge": 80, "id": "smide_35", "name": "ZH253755", "provider": "smide", "range": 40.0, "size": 20, "time": "02/11/2020, 10:18:41"}, "type": "Feature"}, {"geometry": {"coordinates": [8.537639, 47.37758], "type": "Point"}, "properties": {"charge": 20, "id": "smide_119", "name": "ZH253686", "provider": "smide", "range": 10.0, "size": 20, "time": "02/11/2020, 10:18:41"}, "type": "Feature"}, {"geometry": {"coordinates": [8.51677, 47.39832], "type": "Point"}, "properties": {"charge": 100, "id": "smide_76", "name": "ZH253764", "provider": "smide", "range": 50.0, "size": 17, "time": "02/11/2020, 10:18:41"}, "type": "Feature"}, {"geometry": {"coordinates": [8.563404, 47.372664], "type": "Point"}, "properties": {"charge": 71, "id": "smide_129", "name": "ZH261378", "provider": "smide", "range": 35.0, "size": 17, "time": "02/11/2020, 10:18:41"}, "type": "Feature"}, {"geometry": {"coordinates": [8.566716, 47.364021], "type": "Point"}, "properties": {"charge": 74, "id": "smide_49", "name": "ZH253873", "provider": "smide", "range": 37.0, "size": 17, "time": "02/11/2020, 10:18:41"}, "type": "Feature"}, {"geometry": {"coordinates": [8.50158, 47.422592], "type": "Point"}, "properties": {"charge": 27, "id": "smide_37", "name": "ZH261377", "provider": "smide", "range": 13.0, "size": 20, "time": "02/11/2020, 10:18:41"}, "type": "Feature"}, {"geometry": {"coordinates": [8.505461, 47.377606], "type": "Point"}, "properties": {"charge": 69, "id": "smide_202", "name": "ZH253830", "provider": "smide", "range": 34.0, "size": 17, "time": "02/11/2020, 10:18:41"}, "type": "Feature"}, {"geometry": {"coordinates": [8.553815, 47.374558], "type": "Point"}, "properties": {"charge": 65, "id": "smide_47", "name": "ZH253858", "provider": "smide", "range": 32.0, "size": 17, "time": "02/11/2020, 10:18:41"}, "type": "Feature"}, {"geometry": {"coordinates": [8.478396, 47.389616], "type": "Point"}, "properties": {"charge": 92, "id": "smide_66", "name": "ZH253818", "provider": "smide", "range": 46.0, "size": 20, "time": "02/11/2020, 10:18:41"}, "type": "Feature"}, {"geometry": {"coordinates": [8.496746, 47.362811], "type": "Point"}, "properties": {"charge": 89, "id": "smide_17", "name": "ZH253793", "provider": "smide", "range": 44.0, "size": 17, "time": "02/11/2020, 10:18:41"}, "type": "Feature"}, {"geometry": {"coordinates": [8.531276, 47.379253], "type": "Point"}, "properties": {"charge": 80, "id": "smide_145", "name": "ZH253780", "provider": "smide", "range": 40.0, "size": 20, "time": "02/11/2020, 10:18:41"}, "type": "Feature"}, {"geometry": {"coordinates": [8.545909, 47.410212], "type": "Point"}, "properties": {"charge": 50, "id": "smide_114", "name": "ZH253878", "provider": "smide", "range": 25.0, "size": 20, "time": "02/11/2020, 10:18:41"}, "type": "Feature"}, {"geometry": {"coordinates": [8.533199, 47.417156], "type": "Point"}, "properties": {"charge": 26, "id": "smide_203", "name": "ZH261547", "provider": "smide", "range": 13.0, "size": 17, "time": "02/11/2020, 10:18:41"}, "type": "Feature"}, {"geometry": {"coordinates": [8.5197, 47.337208], "type": "Point"}, "properties": {"charge": 93, "id": "smide_21", "name": "ZH253841", "provider": "smide", "range": 46.0, "size": 17, "time": "02/11/2020, 10:18:41"}, "type": "Feature"}, {"geometry": {"coordinates": [8.476823, 47.387408], "type": "Point"}, "properties": {"charge": 93, "id": "smide_164", "name": "ZH253775", "provider": "smide", "range": 46.0, "size": 17, "time": "02/11/2020, 10:18:41"}, "type": "Feature"}, {"geometry": {"coordinates": [8.542355, 47.410692], "type": "Point"}, "properties": {"charge": 14, "id": "smide_189", "name": "ZH253845", "provider": "smide", "range": 7.0, "size": 20, "time": "02/11/2020, 10:18:41"}, "type": "Feature"}, {"geometry": {"coordinates": [8.502963, 47.38088], "type": "Point"}, "properties": {"charge": 84, "id": "smide_81", "name": "ZH253753", "provider": "smide", "range": 42.0, "size": 17, "time": "02/11/2020, 10:18:41"}, "type": "Feature"}, {"geometry": {"coordinates": [8.575786, 47.353096], "type": "Point"}, "properties": {"charge": 65, "id": "smide_171", "name": "ZH253689", "provider": "smide", "range": 32.0, "size": 20, "time": "02/11/2020, 10:18:41"}, "type": "Feature"}, {"geometry": {"coordinates": [8.540069, 47.379056], "type": "Point"}, "properties": {"charge": 84, "id": "smide_93", "name": "ZH253681", "provider": "smide", "range": 42.0, "size": 17, "time": "02/11/2020, 10:18:41"}, "type": "Feature"}, {"geometry": {"coordinates": [8.522203, 47.386448], "type": "Point"}, "properties": {"charge": 28, "id": "smide_67", "name": "ZH253779", "provider": "smide", "range": 14.0, "size": 17, "time": "02/11/2020, 10:18:41"}, "type": "Feature"}, {"geometry": {"coordinates": [8.546096, 47.36642], "type": "Point"}, "properties": {"charge": 100, "id": "smide_133", "name": "ZH253848", "provider": "smide", "range": 50.0, "size": 20, "time": "02/11/2020, 10:18:41"}, "type": "Feature"}, {"geometry": {"coordinates": [8.480923, 47.384298], "type": "Point"}, "properties": {"charge": 86, "id": "smide_118", "name": "ZH253759", "provider": "smide", "range": 43.0, "size": 20, "time": "02/11/2020, 10:18:41"}, "type": "Feature"}, {"geometry": {"coordinates": [8.540185, 47.407558], "type": "Point"}, "properties": {"charge": 84, "id": "smide_166", "name": "ZH253728", "provider": "smide", "range": 42.0, "size": 17, "time": "02/11/2020, 10:18:41"}, "type": "Feature"}, {"geometry": {"coordinates": [8.524723, 47.341145], "type": "Point"}, "properties": {"charge": 99, "id": "smide_44", "name": "ZH253837", "provider": "smide", "range": 49.0, "size": 17, "time": "02/11/2020, 10:18:41"}, "type": "Feature"}, {"geometry": {"coordinates": [8.506563, 47.422972], "type": "Point"}, "properties": {"charge": 33, "id": "smide_154", "name": "ZH253744", "provider": "smide", "range": 16.0, "size": 20, "time": "02/11/2020, 10:18:41"}, "type": "Feature"}, {"geometry": {"coordinates": [8.5301, 47.38336], "type": "Point"}, "properties": {"charge": 91, "id": "smide_7", "name": "ZH256289", "provider": "smide", "range": 45.0, "size": 20, "time": "02/11/2020, 10:18:41"}, "type": "Feature"}, {"geometry": {"coordinates": [8.553548, 47.397632], "type": "Point"}, "properties": {"charge": 52, "id": "smide_65", "name": "ZH253810", "provider": "smide", "range": 26.0, "size": 17, "time": "02/11/2020, 10:18:41"}, "type": "Feature"}, {"geometry": {"coordinates": [8.536115, 47.37752], "type": "Point"}, "properties": {"charge": 95, "id": "smide_111", "name": "ZH253763", "provider": "smide", "range": 47.0, "size": 17, "time": "02/11/2020, 10:18:41"}, "type": "Feature"}, {"geometry": {"coordinates": [8.575784, 47.34888], "type": "Point"}, "properties": {"charge": 24, "id": "smide_40", "name": "ZH253690", "provider": "smide", "range": 12.0, "size": 20, "time": "02/11/2020, 10:18:41"}, "type": "Feature"}, {"geometry": {"coordinates": [8.520008, 47.340183], "type": "Point"}, "properties": {"charge": 84, "id": "smide_14", "name": "ZH253749", "provider": "smide", "range": 42.0, "size": 20, "time": "02/11/2020, 10:18:41"}, "type": "Feature"}, {"geometry": {"coordinates": [8.499804, 47.3711], "type": "Point"}, "properties": {"charge": 86, "id": "smide_130", "name": "ZH253847", "provider": "smide", "range": 43.0, "size": 20, "time": "02/11/2020, 10:18:41"}, "type": "Feature"}, {"geometry": {"coordinates": [8.52223, 47.357372], "type": "Point"}, "properties": {"charge": 80, "id": "smide_107", "name": "ZH253819", "provider": "smide", "range": 40.0, "size": 17, "time": "02/11/2020, 10:18:41"}, "type": "Feature"}, {"geometry": {"coordinates": [8.524993, 47.343648], "type": "Point"}, "properties": {"charge": 100, "id": "smide_136", "name": "ZH253682", "provider": "smide", "range": 50.0, "size": 17, "time": "02/11/2020, 10:18:41"}, "type": "Feature"}, {"geometry": {"coordinates": [8.582244, 47.351904], "type": "Point"}, "properties": {"charge": 71, "id": "smide_83", "name": "ZH253869", "provider": "smide", "range": 35.0, "size": 20, "time": "02/11/2020, 10:18:41"}, "type": "Feature"}, {"geometry": {"coordinates": [8.529797, 47.376176], "type": "Point"}, "properties": {"charge": 72, "id": "smide_205", "name": "ZH253805", "provider": "smide", "range": 36.0, "size": 17, "time": "02/11/2020, 10:18:41"}, "type": "Feature"}, {"geometry": {"coordinates": [8.496614, 47.378412], "type": "Point"}, "properties": {"charge": 17, "id": "smide_100", "name": "ZH253862", "provider": "smide", "range": 8.0, "size": 20, "time": "02/11/2020, 10:18:41"}, "type": "Feature"}, {"geometry": {"coordinates": [8.502028, 47.379131], "type": "Point"}, "properties": {"charge": 64, "id": "smide_134", "name": "ZH253741", "provider": "smide", "range": 32.0, "size": 20, "time": "02/11/2020, 10:18:41"}, "type": "Feature"}, {"geometry": {"coordinates": [8.557818, 47.352725], "type": "Point"}, "properties": {"charge": 46, "id": "smide_141", "name": "ZH253800", "provider": "smide", "range": 23.0, "size": 20, "time": "02/11/2020, 10:18:41"}, "type": "Feature"}, {"geometry": {"coordinates": [8.573115, 47.351504], "type": "Point"}, "properties": {"charge": 62, "id": "smide_16", "name": "ZH253713", "provider": "smide", "range": 31.0, "size": 20, "time": "02/11/2020, 10:18:41"}, "type": "Feature"}, {"geometry": {"coordinates": [8.513945, 47.387332], "type": "Point"}, "properties": {"charge": 92, "id": "smide_161", "name": "ZH253691", "provider": "smide", "range": 46.0, "size": 20, "time": "02/11/2020, 10:18:41"}, "type": "Feature"}, {"geometry": {"coordinates": [8.54539, 47.370704], "type": "Point"}, "properties": {"charge": 36, "id": "smide_42", "name": "ZH253846", "provider": "smide", "range": 18.0, "size": 20, "time": "02/11/2020, 10:18:41"}, "type": "Feature"}, {"geometry": {"coordinates": [8.54204, 47.424568], "type": "Point"}, "properties": {"charge": 27, "id": "smide_4", "name": "ZH253740", "provider": "smide", "range": 13.0, "size": 20, "time": "02/11/2020, 10:18:41"}, "type": "Feature"}, {"geometry": {"coordinates": [8.563, 47.382308], "type": "Point"}, "properties": {"charge": 34, "id": "smide_137", "name": "ZH258502", "provider": "smide", "range": 17.0, "size": 17, "time": "02/11/2020, 10:18:41"}, "type": "Feature"}, {"geometry": {"coordinates": [8.520566, 47.373584], "type": "Point"}, "properties": {"charge": 81, "id": "smide_178", "name": "ZH253803", "provider": "smide", "range": 40.0, "size": 17, "time": "02/11/2020, 10:18:41"}, "type": "Feature"}, {"geometry": {"coordinates": [8.55362, 47.397621], "type": "Point"}, "properties": {"charge": 55, "id": "smide_55", "name": "ZH253875", "provider": "smide", "range": 27.0, "size": 17, "time": "02/11/2020, 10:18:41"}, "type": "Feature"}, {"geometry": {"coordinates": [8.542383, 47.408468], "type": "Point"}, "properties": {"charge": 55, "id": "smide_96", "name": "ZH256146", "provider": "smide", "range": 27.0, "size": 20, "time": "02/11/2020, 10:18:41"}, "type": "Feature"}, {"geometry": {"coordinates": [8.531642, 47.395948], "type": "Point"}, "properties": {"charge": 75, "id": "smide_58", "name": "ZH259246", "provider": "smide", "range": 37.0, "size": 20, "time": "02/11/2020, 10:18:41"}, "type": "Feature"}, {"geometry": {"coordinates": [8.489594, 47.39094], "type": "Point"}, "properties": {"charge": 88, "id": "smide_54", "name": "ZH253874", "provider": "smide", "range": 44.0, "size": 20, "time": "02/11/2020, 10:18:41"}, "type": "Feature"}, {"geometry": {"coordinates": [8.523019, 47.394308], "type": "Point"}, "properties": {"charge": 43, "id": "smide_175", "name": "ZH253730", "provider": "smide", "range": 21.0, "size": 17, "time": "02/11/2020, 10:18:41"}, "type": "Feature"}, {"geometry": {"coordinates": [8.469198, 47.408133], "type": "Point"}, "properties": {"charge": 61, "id": "smide_162", "name": "ZH253760", "provider": "smide", "range": 30.0, "size": 17, "time": "02/11/2020, 10:18:41"}, "type": "Feature"}, {"geometry": {"coordinates": [8.544212, 47.401708], "type": "Point"}, "properties": {"charge": 90, "id": "smide_95", "name": "ZH253773", "provider": "smide", "range": 45.0, "size": 17, "time": "02/11/2020, 10:18:41"}, "type": "Feature"}, {"geometry": {"coordinates": [8.534689, 47.344572], "type": "Point"}, "properties": {"charge": 100, "id": "smide_163", "name": "ZH256147", "provider": "smide", "range": 50.0, "size": 20, "time": "02/11/2020, 10:18:41"}, "type": "Feature"}, {"geometry": {"coordinates": [8.528102, 47.413744], "type": "Point"}, "properties": {"charge": 58, "id": "smide_112", "name": "ZH263530", "provider": "smide", "range": 28.0, "size": 20, "time": "02/11/2020, 10:18:41"}, "type": "Feature"}, {"geometry": {"coordinates": [8.540974, 47.381916], "type": "Point"}, "properties": {"charge": 10, "id": "smide_122", "name": "ZH253850", "provider": "smide", "range": 5.0, "size": 20, "time": "02/11/2020, 10:18:41"}, "type": "Feature"}, {"geometry": {"coordinates": [8.559763, 47.415318], "type": "Point"}, "properties": {"charge": 15, "id": "smide_38", "name": "ZH253851", "provider": "smide", "range": 7.0, "size": 20, "time": "02/11/2020, 10:18:41"}, "type": "Feature"}, {"geometry": {"coordinates": [8.557735, 47.40444], "type": "Point"}, "properties": {"charge": 67, "id": "smide_6", "name": "ZH253787", "provider": "smide", "range": 33.0, "size": 17, "time": "02/11/2020, 10:18:41"}, "type": "Feature"}, {"geometry": {"coordinates": [8.551274, 47.385512], "type": "Point"}, "properties": {"charge": 60, "id": "smide_18", "name": "ZH253859", "provider": "smide", "range": 30.0, "size": 17, "time": "02/11/2020, 10:18:41"}, "type": "Feature"}, {"geometry": {"coordinates": [8.508809, 47.352688], "type": "Point"}, "properties": {"charge": 71, "id": "smide_12", "name": "ZH253685", "provider": "smide", "range": 35.0, "size": 17, "time": "02/11/2020, 10:18:41"}, "type": "Feature"}, {"geometry": {"coordinates": [8.502191, 47.370264], "type": "Point"}, "properties": {"charge": 17, "id": "smide_192", "name": "ZH253706", "provider": "smide", "range": 8.0, "size": 20, "time": "02/11/2020, 10:18:41"}, "type": "Feature"}, {"geometry": {"coordinates": [8.533111, 47.368336], "type": "Point"}, "properties": {"charge": 85, "id": "smide_39", "name": "ZH253714", "provider": "smide", "range": 42.0, "size": 20, "time": "02/11/2020, 10:18:41"}, "type": "Feature"}, {"geometry": {"coordinates": [8.508411, 47.420876], "type": "Point"}, "properties": {"charge": 24, "id": "smide_5", "name": "ZH261443", "provider": "smide", "range": 12.0, "size": 20, "time": "02/11/2020, 10:18:41"}, "type": "Feature"}, {"geometry": {"coordinates": [8.540278, 47.378876], "type": "Point"}, "properties": {"charge": 91, "id": "smide_29", "name": "ZH253723", "provider": "smide", "range": 45.0, "size": 17, "time": "02/11/2020, 10:18:41"}, "type": "Feature"}, {"geometry": {"coordinates": [8.560391, 47.405704], "type": "Point"}, "properties": {"charge": 40, "id": "smide_46", "name": "ZH253843", "provider": "smide", "range": 20.0, "size": 20, "time": "02/11/2020, 10:18:41"}, "type": "Feature"}, {"geometry": {"coordinates": [8.51498833333333, 47.3730466666667], "type": "Point"}, "properties": {"charge": 74, "id": "bird_5c61a0f0-d8cd-41c9-ba53-dfeafca99354", "provider": "bird", "timeStamp": "02/11/2020, 10:18:40"}, "type": "Feature"}, {"geometry": {"coordinates": [8.51938333333333, 47.3700183333333], "type": "Point"}, "properties": {"charge": 91, "id": "bird_7073f685-94dd-43fd-ae17-3fe3f364e09b", "provider": "bird", "timeStamp": "02/11/2020, 10:18:40"}, "type": "Feature"}, {"geometry": {"coordinates": [8.51942, 47.370025], "type": "Point"}, "properties": {"charge": 85, "id": "bird_9706fda6-731c-4f6f-a3c2-f7946d4ad1be", "provider": "bird", "timeStamp": "02/11/2020, 10:18:40"}, "type": "Feature"}, {"geometry": {"coordinates": [8.54557833333333, 47.3737266666667], "type": "Point"}, "properties": {"charge": 16, "id": "bird_122eb6b4-69f2-4904-a8fa-9fd480605126", "provider": "bird", "timeStamp": "02/11/2020, 10:18:40"}, "type": "Feature"}, {"geometry": {"coordinates": [8.54449333333333, 47.3873066666667], "type": "Point"}, "properties": {"charge": 19, "id": "bird_f12b8819-9123-49ae-8040-f148ca5ae488", "provider": "bird", "timeStamp": "02/11/2020, 10:18:40"}, "type": "Feature"}, {"geometry": {"coordinates": [8.51343, 47.3751366666667], "type": "Point"}, "properties": {"charge": 35, "id": "bird_29686fc0-1b1c-446c-a14c-de9274b789da", "provider": "bird", "timeStamp": "02/11/2020, 10:18:40"}, "type": "Feature"}, {"geometry": {"coordinates": [8.53386666666667, 47.3919216666667], "type": "Point"}, "properties": {"charge": 16, "id": "bird_30aadb47-400b-44af-99a0-d3f552f17b65", "provider": "bird", "timeStamp": "02/11/2020, 10:18:40"}, "type": "Feature"}, {"geometry": {"coordinates": [8.54581833333333, 47.3858116666667], "type": "Point"}, "properties": {"charge": 29, "id": "bird_c9a7c4c7-70cb-42d3-b09f-a0eff39f4764", "provider": "bird", "timeStamp": "02/11/2020, 10:18:40"}, "type": "Feature"}, {"geometry": {"coordinates": [8.53010333333333, 47.3678633333333], "type": "Point"}, "properties": {"charge": 80, "id": "bird_ec835154-55de-47da-9c55-a6e3bac875ae", "provider": "bird", "timeStamp": "02/11/2020, 10:18:40"}, "type": "Feature"}, {"geometry": {"coordinates": [8.53853333333333, 47.3693316666667], "type": "Point"}, "properties": {"charge": 69, "id": "bird_cc31f985-0a59-411e-8f50-8a9ce522549c", "provider": "bird", "timeStamp": "02/11/2020, 10:18:40"}, "type": "Feature"}, {"geometry": {"coordinates": [8.5173, 47.371475], "type": "Point"}, "properties": {"charge": 21, "id": "bird_7e345870-5490-40cd-b8ec-0e34cd2a6040", "provider": "bird", "timeStamp": "02/11/2020, 10:18:40"}, "type": "Feature"}, {"geometry": {"coordinates": [8.53645333333333, 47.3912933333333], "type": "Point"}, "properties": {"charge": 53, "id": "bird_178edeb3-cee5-40cd-9e26-34f82cddb981", "provider": "bird", "timeStamp": "02/11/2020, 10:18:40"}, "type": "Feature"}, {"geometry": {"coordinates": [8.52031166666667, 47.3698533333333], "type": "Point"}, "properties": {"charge": 100, "id": "bird_154a7965-9298-491e-9587-6ae5b5499365", "provider": "bird", "timeStamp": "02/11/2020, 10:18:40"}, "type": "Feature"}, {"geometry": {"coordinates": [8.536455, 47.3912466666667], "type": "Point"}, "properties": {"charge": 48, "id": "bird_465e8cb9-de27-4c1a-a886-0c46cfbd7b51", "provider": "bird", "timeStamp": "02/11/2020, 10:18:40"}, "type": "Feature"}, {"geometry": {"coordinates": [8.520285, 47.369915], "type": "Point"}, "properties": {"charge": 98, "id": "bird_0d07aa71-2e64-4fe8-9dec-349e64c36258", "provider": "bird", "timeStamp": "02/11/2020, 10:18:40"}, "type": "Feature"}, {"geometry": {"coordinates": [8.51961833333333, 47.3702583333333], "type": "Point"}, "properties": {"charge": 35, "id": "bird_8b6a61ca-683d-4d48-9d51-4e3e71176547", "provider": "bird", "timeStamp": "02/11/2020, 10:18:40"}, "type": "Feature"}, {"geometry": {"coordinates": [8.512525, 47.3779866666667], "type": "Point"}, "properties": {"charge": 67, "id": "bird_d812f073-0bb4-4a96-8af1-daa95bf4e83b", "provider": "bird", "timeStamp": "02/11/2020, 10:18:40"}, "type": "Feature"}, {"geometry": {"coordinates": [8.535725, 47.3913233333333], "type": "Point"}, "properties": {"charge": 18, "id": "bird_51913dfd-0f34-4d2e-b75f-997410f2dbfc", "provider": "bird", "timeStamp": "02/11/2020, 10:18:40"}, "type": "Feature"}, {"geometry": {"coordinates": [8.54499166666667, 47.3736833333333], "type": "Point"}, "properties": {"charge": 80, "id": "bird_7c87cada-3ccb-48ce-bffe-a5f929457ad2", "provider": "bird", "timeStamp": "02/11/2020, 10:18:40"}, "type": "Feature"}, {"geometry": {"coordinates": [8.53685, 47.3690116666667], "type": "Point"}, "properties": {"charge": 47, "id": "bird_1f4555a3-282b-4443-bb2e-ea2f298d6426", "provider": "bird", "timeStamp": "02/11/2020, 10:18:40"}, "type": "Feature"}, {"geometry": {"coordinates": [8.53562333333333, 47.3913033333333], "type": "Point"}, "properties": {"charge": 31, "id": "bird_dd51efbc-62fb-4e24-b6e4-f3d2312283d0", "provider": "bird", "timeStamp": "02/11/2020, 10:18:40"}, "type": "Feature"}, {"geometry": {"coordinates": [8.521705, 47.3695416666667], "type": "Point"}, "properties": {"charge": 87, "id": "bird_5bdcbc88-66d2-4ae2-a247-51802ac7b44d", "provider": "bird", "timeStamp": "02/11/2020, 10:18:40"}, "type": "Feature"}, {"geometry": {"coordinates": [8.53834, 47.3697316666667], "type": "Point"}, "properties": {"charge": 82, "id": "bird_faffb6f0-fadc-478c-98c7-e847bad0955b", "provider": "bird", "timeStamp": "02/11/2020, 10:18:40"}, "type": "Feature"}, {"geometry": {"coordinates": [8.53825166666667, 47.36972], "type": "Point"}, "properties": {"charge": 80, "id": "bird_d9795514-fe9b-4b9d-ae41-a33029c87702", "provider": "bird", "timeStamp": "02/11/2020, 10:18:40"}, "type": "Feature"}, {"geometry": {"coordinates": [8.51638833333333, 47.3729283333333], "type": "Point"}, "properties": {"charge": 60, "id": "bird_414b79a2-a287-4346-a3b2-16a8c5b6da36", "provider": "bird", "timeStamp": "02/11/2020, 10:18:40"}, "type": "Feature"}, {"geometry": {"coordinates": [8.54156833333333, 47.3714516666667], "type": "Point"}, "properties": {"charge": 20, "id": "bird_9399b3af-5fce-4dbe-beea-825c537b3d1b", "provider": "bird", "timeStamp": "02/11/2020, 10:18:40"}, "type": "Feature"}, {"geometry": {"coordinates": [8.53389666666667, 47.391235], "type": "Point"}, "properties": {"charge": 70, "id": "bird_0f76d9db-45e6-429f-a41a-125bdce6bd97", "provider": "bird", "timeStamp": "02/11/2020, 10:18:40"}, "type": "Feature"}, {"geometry": {"coordinates": [8.54386333333333, 47.3733783333333], "type": "Point"}, "properties": {"charge": 42, "id": "bird_cdd5c8eb-a6f9-4a9b-96a5-962119bdd0b7", "provider": "bird", "timeStamp": "02/11/2020, 10:18:40"}, "type": "Feature"}, {"geometry": {"coordinates": [8.52108333333333, 47.3703583333333], "type": "Point"}, "properties": {"charge": 21, "id": "bird_d299d6eb-3d95-48d5-b68d-c654916c3452", "provider": "bird", "timeStamp": "02/11/2020, 10:18:40"}, "type": "Feature"}, {"geometry": {"coordinates": [8.53753166666667, 47.36987], "type": "Point"}, "properties": {"charge": 87, "id": "bird_b7ad87e7-029d-46de-a306-b7cf0b5ce7ef", "provider": "bird", "timeStamp": "02/11/2020, 10:18:40"}, "type": "Feature"}, {"geometry": {"coordinates": [8.51792666666667, 47.3878283333333], "type": "Point"}, "properties": {"charge": 17, "id": "bird_b8d4ea17-0f06-4f54-960b-b68d60e5eb57", "provider": "bird", "timeStamp": "02/11/2020, 10:18:40"}, "type": "Feature"}, {"geometry": {"coordinates": [8.523285, 47.3697283333333], "type": "Point"}, "properties": {"charge": 51, "id": "bird_5d8ccc00-57bb-46d3-90db-e116201193bb", "provider": "bird", "timeStamp": "02/11/2020, 10:18:40"}, "type": "Feature"}, {"geometry": {"coordinates": [8.51953333333333, 47.3886066666667], "type": "Point"}, "properties": {"charge": 24, "id": "bird_feae6e85-9271-48d6-876b-2232319a65b6", "provider": "bird", "timeStamp": "02/11/2020, 10:18:40"}, "type": "Feature"}, {"geometry": {"coordinates": [8.5377, 47.37017], "type": "Point"}, "properties": {"charge": 80, "id": "bird_a2d7cede-6cbd-4ef3-b7fd-dd49fbcd6d8e", "provider": "bird", "timeStamp": "02/11/2020, 10:18:40"}, "type": "Feature"}, {"geometry": {"coordinates": [8.53756, 47.3701816666667], "type": "Point"}, "properties": {"charge": 84, "id": "bird_4a038a08-4e74-4189-b25c-a05c9f127c48", "provider": "bird", "timeStamp": "02/11/2020, 10:18:40"}, "type": "Feature"}, {"geometry": {"coordinates": [8.51996833333333, 47.3887333333333], "type": "Point"}, "properties": {"charge": 91, "id": "bird_feaa967a-a38d-45b1-8cff-6c08cd53c22d", "provider": "bird", "timeStamp": "02/11/2020, 10:18:40"}, "type": "Feature"}, {"geometry": {"coordinates": [8.514985, 47.3756833333333], "type": "Point"}, "properties": {"charge": 80, "id": "bird_23a38011-d256-4a65-bba5-fd26a71ef33b", "provider": "bird", "timeStamp": "02/11/2020, 10:18:40"}, "type": "Feature"}, {"geometry": {"coordinates": [8.53651333333333, 47.3698733333333], "type": "Point"}, "properties": {"charge": 91, "id": "bird_3ac5ff9b-caba-4239-8137-a39c1510acf9", "provider": "bird", "timeStamp": "02/11/2020, 10:18:40"}, "type": "Feature"}, {"geometry": {"coordinates": [8.528, 47.3690383333333], "type": "Point"}, "properties": {"charge": 10, "id": "bird_127178de-b308-49a8-9379-1c9313721a57", "provider": "bird", "timeStamp": "02/11/2020, 10:18:40"}, "type": "Feature"}, {"geometry": {"coordinates": [8.53656666666667, 47.3698916666667], "type": "Point"}, "properties": {"charge": 82, "id": "bird_d4032e5e-f6f9-41ad-931a-85cf642d211e", "provider": "bird", "timeStamp": "02/11/2020, 10:18:40"}, "type": "Feature"}, {"geometry": {"coordinates": [8.519635, 47.3884816666667], "type": "Point"}, "properties": {"charge": 36, "id": "bird_2954c5ef-922c-4eac-8f06-b9ffc9debf11", "provider": "bird", "timeStamp": "02/11/2020, 10:18:40"}, "type": "Feature"}, {"geometry": {"coordinates": [8.51993333333333, 47.3886266666667], "type": "Point"}, "properties": {"charge": 99, "id": "bird_b1ff54f5-8be3-4aa5-ba5c-b6ef903fae8b", "provider": "bird", "timeStamp": "02/11/2020, 10:18:40"}, "type": "Feature"}, {"geometry": {"coordinates": [8.53636, 47.3698883333333], "type": "Point"}, "properties": {"charge": 84, "id": "bird_7d1b4e69-9682-48a6-8657-fd728f90a15e", "provider": "bird", "timeStamp": "02/11/2020, 10:18:40"}, "type": "Feature"}, {"geometry": {"coordinates": [8.51834166666667, 47.372455], "type": "Point"}, "properties": {"charge": 15, "id": "bird_3d07e07c-4f84-4a89-93cd-8ddfdbe6cb83", "provider": "bird", "timeStamp": "02/11/2020, 10:18:40"}, "type": "Feature"}, {"geometry": {"coordinates": [8.53630333333333, 47.369965], "type": "Point"}, "properties": {"charge": 89, "id": "bird_cdfafd23-3aff-448e-9658-f5ae6ed971dd", "provider": "bird", "timeStamp": "02/11/2020, 10:18:40"}, "type": "Feature"}, {"geometry": {"coordinates": [8.540835, 47.372005], "type": "Point"}, "properties": {"charge": 39, "id": "bird_de410d05-2b92-47dc-bb1a-23e587e79002", "provider": "bird", "timeStamp": "02/11/2020, 10:18:40"}, "type": "Feature"}, {"geometry": {"coordinates": [8.54371333333333, 47.3855966666667], "type": "Point"}, "properties": {"charge": 39, "id": "bird_19838b78-da42-4269-9ded-3cf123b234b2", "provider": "bird", "timeStamp": "02/11/2020, 10:18:40"}, "type": "Feature"}, {"geometry": {"coordinates": [8.51823333333333, 47.3727183333333], "type": "Point"}, "properties": {"charge": 61, "id": "bird_047235f6-1000-43f6-9b67-208ffadcab4c", "provider": "bird", "timeStamp": "02/11/2020, 10:18:40"}, "type": "Feature"}, {"geometry": {"coordinates": [8.51581166666667, 47.3751983333333], "type": "Point"}, "properties": {"charge": 34, "id": "bird_6b44f314-cbf0-4d37-8d57-e03c1324e6f3", "provider": "bird", "timeStamp": "02/11/2020, 10:18:40"}, "type": "Feature"}, {"geometry": {"coordinates": [8.53562666666667, 47.3699983333333], "type": "Point"}, "properties": {"charge": 20, "id": "bird_b002a320-c46e-4a79-8834-579ccc561a8b", "provider": "bird", "timeStamp": "02/11/2020, 10:18:40"}, "type": "Feature"}, {"geometry": {"coordinates": [8.54384, 47.3748366666667], "type": "Point"}, "properties": {"charge": 24, "id": "bird_2f10b19c-914c-4f4e-8468-a3dc7ae1f38c", "provider": "bird", "timeStamp": "02/11/2020, 10:18:40"}, "type": "Feature"}, {"geometry": {"coordinates": [8.539185, 47.3885766666667], "type": "Point"}, "properties": {"charge": 70, "id": "bird_bc5fa63b-2cf7-4222-9852-c2fd9a523389", "provider": "bird", "timeStamp": "02/11/2020, 10:18:40"}, "type": "Feature"}, {"geometry": {"coordinates": [8.51735166666667, 47.3861233333333], "type": "Point"}, "properties": {"charge": 60, "id": "bird_519bf26f-19c5-4674-984e-09ff5a5cbef0", "provider": "bird", "timeStamp": "02/11/2020, 10:18:40"}, "type": "Feature"}, {"geometry": {"coordinates": [8.53987833333333, 47.3718716666667], "type": "Point"}, "properties": {"charge": 63, "id": "bird_9503b20e-5091-43eb-b836-92198a2518cf", "provider": "bird", "timeStamp": "02/11/2020, 10:18:40"}, "type": "Feature"}, {"geometry": {"coordinates": [8.53820666666667, 47.3711083333333], "type": "Point"}, "properties": {"charge": 27, "id": "bird_6f12b216-e48f-4195-9346-666123a10fbc", "provider": "bird", "timeStamp": "02/11/2020, 10:18:40"}, "type": "Feature"}, {"geometry": {"coordinates": [8.51493666666667, 47.3775833333333], "type": "Point"}, "properties": {"charge": 42, "id": "bird_a756599c-8c1d-4098-b2c1-c86e591c3cea", "provider": "bird", "timeStamp": "02/11/2020, 10:18:40"}, "type": "Feature"}, {"geometry": {"coordinates": [8.52044, 47.3882033333333], "type": "Point"}, "properties": {"charge": 100, "id": "bird_4a2db676-58fc-4050-9f5a-956f6f7eb554", "provider": "bird", "timeStamp": "02/11/2020, 10:18:40"}, "type": "Feature"}, {"geometry": {"coordinates": [8.51523166666667, 47.377045], "type": "Point"}, "properties": {"charge": 79, "id": "bird_ee570700-1039-4089-9daf-988ebb4e0c04", "provider": "bird", "timeStamp": "02/11/2020, 10:18:40"}, "type": "Feature"}, {"geometry": {"coordinates": [8.51543, 47.37669], "type": "Point"}, "properties": {"charge": 69, "id": "bird_86ea8b1a-a0a0-45d0-97ec-309b02c6e469", "provider": "bird", "timeStamp": "02/11/2020, 10:18:40"}, "type": "Feature"}, {"geometry": {"coordinates": [8.52028333333333, 47.38805], "type": "Point"}, "properties": {"charge": 100, "id": "bird_6ecd08ab-ac63-4087-a8b8-8c76480987d7", "provider": "bird", "timeStamp": "02/11/2020, 10:18:40"}, "type": "Feature"}, {"geometry": {"coordinates": [8.520345, 47.3880683333333], "type": "Point"}, "properties": {"charge": 100, "id": "bird_a7c71d4a-54d4-495e-b54f-aa29f7307d35", "provider": "bird", "timeStamp": "02/11/2020, 10:18:40"}, "type": "Feature"}, {"geometry": {"coordinates": [8.51544666666667, 47.3767316666667], "type": "Point"}, "properties": {"charge": 80, "id": "bird_bc02d478-b66a-4f01-8832-e2d13a780311", "provider": "bird", "timeStamp": "02/11/2020, 10:18:40"}, "type": "Feature"}, {"geometry": {"coordinates": [8.53493333333333, 47.3702316666667], "type": "Point"}, "properties": {"charge": 35, "id": "bird_7fab84f4-0527-4696-9fd0-1df9f2226f02", "provider": "bird", "timeStamp": "02/11/2020, 10:18:40"}, "type": "Feature"}, {"geometry": {"coordinates": [8.53751666666667, 47.3710283333333], "type": "Point"}, "properties": {"charge": 56, "id": "bird_23b5f769-2367-4c9c-8e19-c4bc41bfa931", "provider": "bird", "timeStamp": "02/11/2020, 10:18:40"}, "type": "Feature"}, {"geometry": {"coordinates": [8.515935, 47.3761183333333], "type": "Point"}, "properties": {"charge": 21, "id": "bird_f263755b-36cc-45aa-9bc1-bde9224f968f", "provider": "bird", "timeStamp": "02/11/2020, 10:18:40"}, "type": "Feature"}, {"geometry": {"coordinates": [8.517945, 47.3862033333333], "type": "Point"}, "properties": {"charge": 99, "id": "bird_64a08ea8-7c46-412d-8c31-b9c102f04d51", "provider": "bird", "timeStamp": "02/11/2020, 10:18:40"}, "type": "Feature"}, {"geometry": {"coordinates": [8.51808333333333, 47.3862533333333], "type": "Point"}, "properties": {"charge": 54, "id": "bird_936228a7-42e9-4ad5-829a-2bc69bc09a12", "provider": "bird", "timeStamp": "02/11/2020, 10:18:40"}, "type": "Feature"}, {"geometry": {"coordinates": [8.539575, 47.3878783333333], "type": "Point"}, "properties": {"charge": 78, "id": "bird_3f1d0d3c-f435-40f4-a703-b00b11fd2864", "provider": "bird", "timeStamp": "02/11/2020, 10:18:40"}, "type": "Feature"}, {"geometry": {"coordinates": [8.51800666666667, 47.38617], "type": "Point"}, "properties": {"charge": 100, "id": "bird_0e6ae13f-afdf-436c-84e1-327f748d19f6", "provider": "bird", "timeStamp": "02/11/2020, 10:18:40"}, "type": "Feature"}, {"geometry": {"coordinates": [8.54351666666667, 47.3755066666667], "type": "Point"}, "properties": {"charge": 45, "id": "bird_e1e5d6c2-496c-4e5f-bc30-c540899d54d5", "provider": "bird", "timeStamp": "02/11/2020, 10:18:40"}, "type": "Feature"}, {"geometry": {"coordinates": [8.51739666666667, 47.3854983333333], "type": "Point"}, "properties": {"charge": 100, "id": "bird_86974c34-d253-46bc-9505-259c91716d3a", "provider": "bird", "timeStamp": "02/11/2020, 10:18:40"}, "type": "Feature"}, {"geometry": {"coordinates": [8.51653333333333, 47.375545], "type": "Point"}, "properties": {"charge": 89, "id": "bird_fdcab07b-a2d4-434e-9a67-bd02c3341421", "provider": "bird", "timeStamp": "02/11/2020, 10:18:40"}, "type": "Feature"}, {"geometry": {"coordinates": [8.5165, 47.375595], "type": "Point"}, "properties": {"charge": 78, "id": "bird_490c5d55-21d8-4bd8-a28d-a9a9ce8536b8", "provider": "bird", "timeStamp": "02/11/2020, 10:18:40"}, "type": "Feature"}, {"geometry": {"coordinates": [8.51722, 47.3852916666667], "type": "Point"}, "properties": {"charge": 100, "id": "bird_bceed4e9-4fb0-4c8c-a0ab-32faa5fdad20", "provider": "bird", "timeStamp": "02/11/2020, 10:18:40"}, "type": "Feature"}, {"geometry": {"coordinates": [8.518055, 47.3861083333333], "type": "Point"}, "properties": {"charge": 100, "id": "bird_790cb139-7760-4a15-92aa-ec93eb41c8a2", "provider": "bird", "timeStamp": "02/11/2020, 10:18:40"}, "type": "Feature"}, {"geometry": {"coordinates": [8.51810666666667, 47.37386], "type": "Point"}, "properties": {"charge": 29, "id": "bird_f04b764d-fae7-4c72-a44f-9c3cbc583f2a", "provider": "bird", "timeStamp": "02/11/2020, 10:18:40"}, "type": "Feature"}, {"geometry": {"coordinates": [8.54383166666667, 47.3762816666667], "type": "Point"}, "properties": {"charge": 16, "id": "bird_1d9a3452-fd45-4a32-a2df-038d1ad7de93", "provider": "bird", "timeStamp": "02/11/2020, 10:18:40"}, "type": "Feature"}, {"geometry": {"coordinates": [8.53543333333333, 47.3706283333333], "type": "Point"}, "properties": {"charge": 24, "id": "bird_757a4525-97f1-49d9-bdaa-473f4e0fb4f8", "provider": "bird", "timeStamp": "02/11/2020, 10:18:40"}, "type": "Feature"}, {"geometry": {"coordinates": [8.51797833333333, 47.385925], "type": "Point"}, "properties": {"charge": 100, "id": "bird_a98ed895-7bb2-459d-b928-1f70d3a28f38", "provider": "bird", "timeStamp": "02/11/2020, 10:18:40"}, "type": "Feature"}, {"geometry": {"coordinates": [8.51671, 47.3755566666667], "type": "Point"}, "properties": {"charge": 78, "id": "bird_185519a3-7b29-4c67-8159-d4f877d2a994", "provider": "bird", "timeStamp": "02/11/2020, 10:18:40"}, "type": "Feature"}, {"geometry": {"coordinates": [8.52135833333333, 47.3881533333333], "type": "Point"}, "properties": {"charge": 72, "id": "bird_bb545144-8992-4855-9327-18cff28e78d9", "provider": "bird", "timeStamp": "02/11/2020, 10:18:40"}, "type": "Feature"}, {"geometry": {"coordinates": [8.516705, 47.3755983333333], "type": "Point"}, "properties": {"charge": 99, "id": "bird_4e81d654-0e2c-4ef7-9c37-89be79a5e081", "provider": "bird", "timeStamp": "02/11/2020, 10:18:40"}, "type": "Feature"}, {"geometry": {"coordinates": [8.52351333333333, 47.3710133333333], "type": "Point"}, "properties": {"charge": 84, "id": "bird_b6604fc8-e81a-4011-ab26-736747bc4071", "provider": "bird", "timeStamp": "02/11/2020, 10:18:40"}, "type": "Feature"}, {"geometry": {"coordinates": [8.523465, 47.3710333333333], "type": "Point"}, "properties": {"charge": 100, "id": "bird_94d382fc-b228-4e74-9422-8c4659cfcb6a", "provider": "bird", "timeStamp": "02/11/2020, 10:18:40"}, "type": "Feature"}, {"geometry": {"coordinates": [8.52324333333333, 47.3711433333333], "type": "Point"}, "properties": {"charge": 80, "id": "bird_ebc0dd80-b4b6-49a5-93e7-aabe9c4d70f0", "provider": "bird", "timeStamp": "02/11/2020, 10:18:40"}, "type": "Feature"}, {"geometry": {"coordinates": [8.517675, 47.3854516666667], "type": "Point"}, "properties": {"charge": 100, "id": "bird_cf419708-056a-4688-b646-3f6a40c2c54d", "provider": "bird", "timeStamp": "02/11/2020, 10:18:40"}, "type": "Feature"}, {"geometry": {"coordinates": [8.517955, 47.38572], "type": "Point"}, "properties": {"charge": 84, "id": "bird_823208e0-241e-4487-b256-4dc60db3fa1a", "provider": "bird", "timeStamp": "02/11/2020, 10:18:40"}, "type": "Feature"}, {"geometry": {"coordinates": [8.51671833333333, 47.3757666666667], "type": "Point"},