{"features": [{"geometry": {"coordinates": [8.540062, 47.374392], "type": "Point"}, "properties": {"address": "Uraniastrasse 7", "electric": 6, "id": "pb_60", "manual": 7, "name": "Demo Station Werdm\u00fchleplatz", "provider": "publibike", "timeStamp": "02/06/2020, 10:39:38", "zip": 8001}, "type": "Feature"}, {"geometry": {"coordinates": [8.5452956, 47.4099615], "type": "Point"}, "properties": {"address": "Querstrasse 8", "electric": 0, "id": "pb_61", "manual": 3, "name": "Marktplatz", "provider": "publibike", "timeStamp": "02/06/2020, 10:39:38", "zip": 8050}, "type": "Feature"}, {"geometry": {"coordinates": [8.5156327, 47.3795837], "type": "Point"}, "properties": {"address": "Bullingerstrasse 5", "electric": 0, "id": "pb_80", "manual": 8, "name": "Bullingerplatz", "provider": "publibike", "timeStamp": "02/06/2020, 10:39:38", "zip": 8004}, "type": "Feature"}, {"geometry": {"coordinates": [8.5104051, 47.3899342], "type": "Point"}, "properties": {"address": "Pfingstweidstrasse 96e", "electric": 1, "id": "pb_81", "manual": 9, "name": "Herdern", "provider": "publibike", "timeStamp": "02/06/2020, 10:39:38", "zip": 8001}, "type": "Feature"}, {"geometry": {"coordinates": [8.535718, 47.359675], "type": "Point"}, "properties": {"address": "Mythenquai 50", "electric": 21, "id": "pb_82", "manual": 6, "name": "Hafen Enge", "provider": "publibike", "timeStamp": "02/06/2020, 10:39:38", "zip": 8002}, "type": "Feature"}, {"geometry": {"coordinates": [8.520370505, 47.358663827], "type": "Point"}, "properties": {"address": "Bubenbergstrasse 1", "electric": 0, "id": "pb_83", "manual": 6, "name": "Comerge", "provider": "publibike", "timeStamp": "02/06/2020, 10:39:38", "zip": 8045}, "type": "Feature"}, {"geometry": {"coordinates": [8.5412505, 47.3789825], "type": "Point"}, "properties": {"address": "Museumstrasse 2", "electric": 2, "id": "pb_84", "manual": 16, "name": "Landesmuseum", "provider": "publibike", "timeStamp": "02/06/2020, 10:39:38", "zip": 8001}, "type": "Feature"}, {"geometry": {"coordinates": [8.5235479, 47.3716661], "type": "Point"}, "properties": {"address": "Birmensdorferstrasse 80", "electric": 0, "id": "pb_85", "manual": 5, "name": "Bahnhof Wiedikon", "provider": "publibike", "timeStamp": "02/06/2020, 10:39:38", "zip": 8003}, "type": "Feature"}, {"geometry": {"coordinates": [8.506822854, 47.40781197], "type": "Point"}, "properties": {"address": "Stefano-Franscini-Platz 5", "electric": 7, "id": "pb_86", "manual": 0, "name": "ETH H\u00f6nggerberg", "provider": "publibike", "timeStamp": "02/06/2020, 10:39:38", "zip": 8093}, "type": "Feature"}, {"geometry": {"coordinates": [8.536101, 47.371083], "type": "Point"}, "properties": {"address": "Pelikanplatz 5", "electric": 6, "id": "pb_87", "manual": 13, "name": "Pelikanplatz", "provider": "publibike", "timeStamp": "02/06/2020, 10:39:38", "zip": 8001}, "type": "Feature"}, {"geometry": {"coordinates": [8.5257822, 47.3651936], "type": "Point"}, "properties": {"address": "H\u00fcrlimannplatz 90", "electric": 44, "id": "pb_88", "manual": 4, "name": "H\u00fcrlimannplatz", "provider": "publibike", "timeStamp": "02/06/2020, 10:39:38", "zip": 8002}, "type": "Feature"}, {"geometry": {"coordinates": [8.5313344, 47.3713591], "type": "Point"}, "properties": {"address": "Selnaustrasse 32", "electric": 1, "id": "pb_89", "manual": 4, "name": "Stauffacherbr\u00fccke", "provider": "publibike", "timeStamp": "02/06/2020, 10:39:38", "zip": 8001}, "type": "Feature"}, {"geometry": {"coordinates": [8.5056978, 47.3917964], "type": "Point"}, "properties": {"address": "Sportweg 25", "electric": 1, "id": "pb_90", "manual": 6, "name": "Sportweg", "provider": "publibike", "timeStamp": "02/06/2020, 10:39:38", "zip": 8005}, "type": "Feature"}, {"geometry": {"coordinates": [8.5181701, 47.3917837], "type": "Point"}, "properties": {"address": "Hardturmstrasse 11", "electric": 3, "id": "pb_91", "manual": 5, "name": "Puls 5", "provider": "publibike", "timeStamp": "02/06/2020, 10:39:38", "zip": 8005}, "type": "Feature"}, {"geometry": {"coordinates": [8.5286468, 47.3820827], "type": "Point"}, "properties": {"address": "R\u00f6ntgenstrasse 6", "electric": 1, "id": "pb_92", "manual": 4, "name": "R\u00f6ntgenstrasse", "provider": "publibike", "timeStamp": "02/06/2020, 10:39:38", "zip": 8005}, "type": "Feature"}, {"geometry": {"coordinates": [8.531935, 47.384918], "type": "Point"}, "properties": {"address": "Kornhausbr\u00fccke 1", "electric": 4, "id": "pb_93", "manual": 2, "name": "Limmatplatz", "provider": "publibike", "timeStamp": "02/06/2020, 10:39:38", "zip": 8005}, "type": "Feature"}, {"geometry": {"coordinates": [8.5354006, 47.3758639], "type": "Point"}, "properties": {"address": "Gessnerallee 15", "electric": 1, "id": "pb_94", "manual": 0, "name": "Gessnerallee", "provider": "publibike", "timeStamp": "02/06/2020, 10:39:38", "zip": 8001}, "type": "Feature"}, {"geometry": {"coordinates": [8.523818, 47.377148], "type": "Point"}, "properties": {"address": "Stauffacherstrasse 127", "electric": 3, "id": "pb_95", "manual": 8, "name": "B\u00e4ckeranlage", "provider": "publibike", "timeStamp": "02/06/2020, 10:39:38", "zip": 8004}, "type": "Feature"}, {"geometry": {"coordinates": [8.531836, 47.378548], "type": "Point"}, "properties": {"address": "Lagerstrasse 44", "electric": 13, "id": "pb_96", "manual": 6, "name": "Gustav-Gull-Platz", "provider": "publibike", "timeStamp": "02/06/2020, 10:39:38", "zip": 8004}, "type": "Feature"}, {"geometry": {"coordinates": [8.5104883, 47.3771535], "type": "Point"}, "properties": {"address": "Zurlindenstrasse 291", "electric": 2, "id": "pb_97", "manual": 2, "name": "Zurlindenstrasse", "provider": "publibike", "timeStamp": "02/06/2020, 10:39:38", "zip": 8003}, "type": "Feature"}, {"geometry": {"coordinates": [8.5333139, 47.3731102], "type": "Point"}, "properties": {"address": "Sihlstrasse 81", "electric": 2, "id": "pb_98", "manual": 2, "name": "Sihlstrasse", "provider": "publibike", "timeStamp": "02/06/2020, 10:39:38", "zip": 8001}, "type": "Feature"}, {"geometry": {"coordinates": [8.520532, 47.374951], "type": "Point"}, "properties": {"address": "Feldstrasse 24", "electric": 1, "id": "pb_99", "manual": 9, "name": "Kalkbreite", "provider": "publibike", "timeStamp": "02/06/2020, 10:39:38", "zip": 8004}, "type": "Feature"}, {"geometry": {"coordinates": [8.539046, 47.368064], "type": "Point"}, "properties": {"address": "Talstrasse 12", "electric": 6, "id": "pb_100", "manual": 6, "name": "Z\u00fcrcher Kantonalbank", "provider": "publibike", "timeStamp": "02/06/2020, 10:39:38", "zip": 8001}, "type": "Feature"}, {"geometry": {"coordinates": [8.5348427, 47.3625938], "type": "Point"}, "properties": {"address": "Breitingerstrasse 5", "electric": 2, "id": "pb_101", "manual": 2, "name": "Rentenanstalt", "provider": "publibike", "timeStamp": "02/06/2020, 10:39:38", "zip": 8002}, "type": "Feature"}, {"geometry": {"coordinates": [8.5166922, 47.3897772], "type": "Point"}, "properties": {"address": "Technoparkstrasse 4", "electric": 5, "id": "pb_102", "manual": 4, "name": "Turbinenplatz", "provider": "publibike", "timeStamp": "02/06/2020, 10:39:38", "zip": 8005}, "type": "Feature"}, {"geometry": {"coordinates": [8.539312, 47.3739964], "type": "Point"}, "properties": {"address": "Oetenbachgasse 14", "electric": 0, "id": "pb_104", "manual": 1, "name": "Rennweg", "provider": "publibike", "timeStamp": "02/06/2020, 10:39:38", "zip": 8001}, "type": "Feature"}, {"geometry": {"coordinates": [8.5360685, 47.3775022], "type": "Point"}, "properties": {"address": "Kasernenstrasse 101", "electric": 6, "id": "pb_105", "manual": 18, "name": "Sihlpost", "provider": "publibike", "timeStamp": "02/06/2020, 10:39:38", "zip": 8004}, "type": "Feature"}, {"geometry": {"coordinates": [8.53545, 47.382798], "type": "Point"}, "properties": {"address": "Ausstellungsstrasse 44", "electric": 6, "id": "pb_106", "manual": 4, "name": "Museum f\u00fcr Gestaltung", "provider": "publibike", "timeStamp": "02/06/2020, 10:39:38", "zip": 8005}, "type": "Feature"}, {"geometry": {"coordinates": [8.5306155, 47.3647902], "type": "Point"}, "properties": {"address": "Gutenbergstrasse 1", "electric": 6, "id": "pb_107", "manual": 1, "name": "Bederbr\u00fccke", "provider": "publibike", "timeStamp": "02/06/2020, 10:39:38", "zip": 8002}, "type": "Feature"}, {"geometry": {"coordinates": [8.518982, 47.386741], "type": "Point"}, "properties": {"address": "Geroldstrasse 4", "electric": 2, "id": "pb_108", "manual": 10, "name": "Bahnhof Hardbr\u00fccke", "provider": "publibike", "timeStamp": "02/06/2020, 10:39:38", "zip": 8005}, "type": "Feature"}, {"geometry": {"coordinates": [8.53001018, 47.37247535], "type": "Point"}, "properties": {"address": "Werdstrasse 21", "electric": 12, "id": "pb_109", "manual": 2, "name": "Tamedia", "provider": "publibike", "timeStamp": "02/06/2020, 10:39:38", "zip": 8004}, "type": "Feature"}, {"geometry": {"coordinates": [8.4860017, 47.396401], "type": "Point"}, "properties": {"address": "Gr\u00fcnauring 37", "electric": 4, "id": "pb_110", "manual": 5, "name": "Gr\u00fcnau", "provider": "publibike", "timeStamp": "02/06/2020, 10:39:38", "zip": 8064}, "type": "Feature"}, {"geometry": {"coordinates": [8.548519, 47.376756], "type": "Point"}, "properties": {"address": "R\u00e4mistrasse 101", "electric": 32, "id": "pb_111", "manual": 0, "name": "ETH Zentrum", "provider": "publibike", "timeStamp": "02/06/2020, 10:39:38", "zip": 8006}, "type": "Feature"}, {"geometry": {"coordinates": [8.520449, 47.388151], "type": "Point"}, "properties": {"address": "Josefstrasse 224", "electric": 2, "id": "pb_112", "manual": 3, "name": "Steinfelsareal", "provider": "publibike", "timeStamp": "02/06/2020, 10:39:38", "zip": 8005}, "type": "Feature"}, {"geometry": {"coordinates": [8.520482, 47.37209], "type": "Point"}, "properties": {"address": "Weststrasse 115", "electric": 0, "id": "pb_124", "manual": 0, "name": "Weststrasse", "provider": "publibike", "timeStamp": "02/06/2020, 10:39:38", "zip": 8003}, "type": "Feature"}, {"geometry": {"coordinates": [8.496727, 47.378521], "type": "Point"}, "properties": {"address": "Albisriederstrasse 200", "electric": 3, "id": "pb_125", "manual": 2, "name": "Utogrund", "provider": "publibike", "timeStamp": "02/06/2020, 10:39:38", "zip": 8047}, "type": "Feature"}, {"geometry": {"coordinates": [8.510418, 47.381356], "type": "Point"}, "properties": {"address": "Bullingerstrasse 73", "electric": 0, "id": "pb_126", "manual": 9, "name": "Hardau", "provider": "publibike", "timeStamp": "02/06/2020, 10:39:38", "zip": 8004}, "type": "Feature"}, {"geometry": {"coordinates": [8.525525, 47.361567], "type": "Point"}, "properties": {"address": "Klopstockstrasse 23", "electric": 1, "id": "pb_127", "manual": 3, "name": "Klopstockwiese", "provider": "publibike", "timeStamp": "02/06/2020, 10:39:38", "zip": 8002}, "type": "Feature"}, {"geometry": {"coordinates": [8.518143, 47.363148], "type": "Point"}, "properties": {"address": "Haldenstrasse 8", "electric": 1, "id": "pb_128", "manual": 9, "name": "Binz", "provider": "publibike", "timeStamp": "02/06/2020, 10:39:38", "zip": 8045}, "type": "Feature"}, {"geometry": {"coordinates": [8.542726, 47.379952], "type": "Point"}, "properties": {"address": "Walchestrasse 11", "electric": 3, "id": "pb_129", "manual": 2, "name": "Stampfenbachplatz", "provider": "publibike", "timeStamp": "02/06/2020, 10:39:38", "zip": 8006}, "type": "Feature"}, {"geometry": {"coordinates": [8.488108, 47.391366], "type": "Point"}, "properties": {"address": "Altstetterplatz 1", "electric": 4, "id": "pb_130", "manual": 3, "name": "Bahnhof Altstetten", "provider": "publibike", "timeStamp": "02/06/2020, 10:39:38", "zip": 8048}, "type": "Feature"}, {"geometry": {"coordinates": [8.554114, 47.365119], "type": "Point"}, "properties": {"address": "Kreuzplatz 2", "electric": 3, "id": "pb_131", "manual": 2, "name": "Kreuzplatz", "provider": "publibike", "timeStamp": "02/06/2020, 10:39:38", "zip": 8032}, "type": "Feature"}, {"geometry": {"coordinates": [8.549852, 47.35594], "type": "Point"}, "properties": {"address": "H\u00f6schgasse 3", "electric": 4, "id": "pb_132", "manual": 8, "name": "Blatterwiese", "provider": "publibike", "timeStamp": "02/06/2020, 10:39:38", "zip": 8008}, "type": "Feature"}, {"geometry": {"coordinates": [8.554501, 47.36162], "type": "Point"}, "properties": {"address": "Feldeggstrasse 80", "electric": 2, "id": "pb_133", "manual": 4, "name": "Villa Bleuler", "provider": "publibike", "timeStamp": "02/06/2020, 10:39:38", "zip": 8008}, "type": "Feature"}, {"geometry": {"coordinates": [8.557088, 47.358557], "type": "Point"}, "properties": {"address": "M\u00fchlebachstrasse 131", "electric": 3, "id": "pb_134", "manual": 2, "name": "M\u00fchlebachstrasse", "provider": "publibike", "timeStamp": "02/06/2020, 10:39:38", "zip": 8008}, "type": "Feature"}, {"geometry": {"coordinates": [8.547639, 47.361266], "type": "Point"}, "properties": {"address": "Utoquai 50", "electric": 6, "id": "pb_135", "manual": 8, "name": "Seebad Utoquai", "provider": "publibike", "timeStamp": "02/06/2020, 10:39:38", "zip": 8008}, "type": "Feature"}, {"geometry": {"coordinates": [8.548045, 47.370869], "type": "Point"}, "properties": {"address": "Heimplatz 1", "electric": 11, "id": "pb_137", "manual": 3, "name": "Kunsthaus", "provider": "publibike", "timeStamp": "02/06/2020, 10:39:38", "zip": 8001}, "type": "Feature"}, {"geometry": {"coordinates": [8.543447, 47.375933], "type": "Point"}, "properties": {"address": "Limmatquai 138", "electric": 1, "id": "pb_138", "manual": 2, "name": "Central", "provider": "publibike", "timeStamp": "02/06/2020, 10:39:38", "zip": 8001}, "type": "Feature"}, {"geometry": {"coordinates": [8.549356, 47.408827], "type": "Point"}, "properties": {"address": "Tramstrasse 35", "electric": 5, "id": "pb_139", "manual": 3, "name": "ewz Tramstrasse", "provider": "publibike", "timeStamp": "02/06/2020, 10:39:38", "zip": 8050}, "type": "Feature"}, {"geometry": {"coordinates": [8.533736, 47.366904], "type": "Point"}, "properties": {"address": "Bleicherweg 33", "electric": 1, "id": "pb_140", "manual": 7, "name": "Bleicherweg", "provider": "publibike", "timeStamp": "02/06/2020, 10:39:38", "zip": 8002}, "type": "Feature"}, {"geometry": {"coordinates": [8.544935, 47.366752], "type": "Point"}, "properties": {"address": "Bellevueplatz 2", "electric": 4, "id": "pb_141", "manual": 12, "name": "Bellevue", "provider": "publibike", "timeStamp": "02/06/2020, 10:39:38", "zip": 8001}, "type": "Feature"}, {"geometry": {"coordinates": [8.5285533, 47.3742296], "type": "Point"}, "properties": {"address": "Stauffacherstrasse 41", "electric": 6, "id": "pb_142", "manual": 2, "name": "Stauffacher", "provider": "publibike", "timeStamp": "02/06/2020, 10:39:38", "zip": 8004}, "type": "Feature"}, {"geometry": {"coordinates": [8.523722, 47.3899], "type": "Point"}, "properties": {"address": "Limmatstrasse 310", "electric": 1, "id": "pb_143", "manual": 3, "name": "Escher-Wyss-Platz", "provider": "publibike", "timeStamp": "02/06/2020, 10:39:38", "zip": 8005}, "type": "Feature"}, {"geometry": {"coordinates": [8.491061, 47.392336], "type": "Point"}, "properties": {"address": "Vulkanplatz 1", "electric": 2, "id": "pb_149", "manual": 8, "name": "Vulkanplatz", "provider": "publibike", "timeStamp": "02/06/2020, 10:39:38", "zip": 8048}, "type": "Feature"}, {"geometry": {"coordinates": [8.52306, 47.359872], "type": "Point"}, "properties": {"address": "Giessh\u00fcbelstrasse 15", "electric": 8, "id": "pb_150", "manual": 5, "name": "Utoplatz", "provider": "publibike", "timeStamp": "02/06/2020, 10:39:38", "zip": 8045}, "type": "Feature"}, {"geometry": {"coordinates": [8.486284, 47.387685], "type": "Point"}, "properties": {"address": "Lindenplatz 1", "electric": 6, "id": "pb_151", "manual": 11, "name": "Lindenplatz", "provider": "publibike", "timeStamp": "02/06/2020, 10:39:38", "zip": 8048}, "type": "Feature"}, {"geometry": {"coordinates": [8.49163, 47.389823], "type": "Point"}, "properties": {"address": "Hohlstrasse 563", "electric": 0, "id": "pb_152", "manual": 3, "name": "Luggweg", "provider": "publibike", "timeStamp": "02/06/2020, 10:39:38", "zip": 8048}, "type": "Feature"}, {"geometry": {"coordinates": [8.52174, 47.365272], "type": "Point"}, "properties": {"address": "Manessestrasse 87", "electric": 0, "id": "pb_153", "manual": 3, "name": "Manesseplatz", "provider": "publibike", "timeStamp": "02/06/2020, 10:39:38", "zip": 8045}, "type": "Feature"}, {"geometry": {"coordinates": [8.52714, 47.372329], "type": "Point"}, "properties": {"address": "Werdstrasse 75", "electric": 1, "id": "pb_154", "manual": 5, "name": "Werd", "provider": "publibike", "timeStamp": "02/06/2020, 10:39:38", "zip": 8004}, "type": "Feature"}, {"geometry": {"coordinates": [8.543042, 47.374711], "type": "Point"}, "properties": {"address": "Limmatquai 100", "electric": 0, "id": "pb_155", "manual": 0, "name": "Rudolf-Brun-Br\u00fccke", "provider": "publibike", "timeStamp": "02/06/2020, 10:39:38", "zip": 8001}, "type": "Feature"}, {"geometry": {"coordinates": [8.490837, 47.386596], "type": "Point"}, "properties": {"address": "Badenerstrasse 627", "electric": 6, "id": "pb_156", "manual": 7, "name": "Luggwegstrasse VBZ", "provider": "publibike", "timeStamp": "02/06/2020, 10:39:38", "zip": 8048}, "type": "Feature"}, {"geometry": {"coordinates": [8.535119, 47.355189], "type": "Point"}, "properties": {"address": "Mythenquai 95", "electric": 0, "id": "pb_157", "manual": 5, "name": "Strandbad Mythenquai", "provider": "publibike", "timeStamp": "02/06/2020, 10:39:38", "zip": 8002}, "type": "Feature"}, {"geometry": {"coordinates": [8.545505, 47.373675], "type": "Point"}, "properties": {"address": "Predigerpatz 21", "electric": 2, "id": "pb_158", "manual": 4, "name": "Predigerplatz", "provider": "publibike", "timeStamp": "02/06/2020, 10:39:38", "zip": 8001}, "type": "Feature"}, {"geometry": {"coordinates": [8.515558, 47.371868], "type": "Point"}, "properties": {"address": "Aemtlerstrasse 23", "electric": 3, "id": "pb_159", "manual": 2, "name": "Zwinglihaus", "provider": "publibike", "timeStamp": "02/06/2020, 10:39:38", "zip": 8003}, "type": "Feature"}, {"geometry": {"coordinates": [8.524629, 47.386072], "type": "Point"}, "properties": {"address": "Josefstrasse 188", "electric": 1, "id": "pb_160", "manual": 1, "name": "Josefwiese", "provider": "publibike", "timeStamp": "02/06/2020, 10:39:38", "zip": 8005}, "type": "Feature"}, {"geometry": {"coordinates": [8.527138, 47.387531], "type": "Point"}, "properties": {"address": "R\u00f6ntgenstrasse 87", "electric": 4, "id": "pb_164", "manual": 11, "name": "Markthalle", "provider": "publibike", "timeStamp": "02/06/2020, 10:39:38", "zip": 8005}, "type": "Feature"}, {"geometry": {"coordinates": [8.552717, 47.359978], "type": "Point"}, "properties": {"address": "Seefeldstrasse 96", "electric": 2, "id": "pb_263", "manual": 22, "name": "Feldeggstrasse", "provider": "publibike", "timeStamp": "02/06/2020, 10:39:38", "zip": 8008}, "type": "Feature"}, {"geometry": {"coordinates": [8.553189, 47.353198], "type": "Point"}, "properties": {"address": "Bellerivestrasse 170", "electric": 9, "id": "pb_264", "manual": 0, "name": "Lake Side", "provider": "publibike", "timeStamp": "02/06/2020, 10:39:38", "zip": 8008}, "type": "Feature"}, {"geometry": {"coordinates": [8.543437, 47.369256], "type": "Point"}, "properties": {"address": "Limmatquai 18", "electric": 0, "id": "pb_265", "manual": 0, "name": "Helmhaus", "provider": "publibike", "timeStamp": "02/06/2020, 10:39:38", "zip": 8032}, "type": "Feature"}, {"geometry": {"coordinates": [8.516676, 47.375819], "type": "Point"}, "properties": {"address": "Badenerstrasse 246", "electric": 1, "id": "pb_266", "manual": 2, "name": "Lochergut", "provider": "publibike", "timeStamp": "02/06/2020, 10:39:38", "zip": 8004}, "type": "Feature"}, {"geometry": {"coordinates": [8.514605, 47.389862], "type": "Point"}, "properties": {"address": "Pfingstweidstrasse 60", "electric": 8, "id": "pb_273", "manual": 6, "name": "Westpark", "provider": "publibike", "timeStamp": "02/06/2020, 10:39:38", "zip": 8005}, "type": "Feature"}, {"geometry": {"coordinates": [8.541239126, 47.375991201], "type": "Point"}, "properties": {"address": "Beatenplatz 1", "electric": 3, "id": "pb_274", "manual": 9, "name": "Beatenplatz", "provider": "publibike", "timeStamp": "02/06/2020, 10:39:38", "zip": 8001}, "type": "Feature"}, {"geometry": {"coordinates": [8.5417135, 47.3942197], "type": "Point"}, "properties": {"address": "Scheuchzerstrasse 181", "electric": 2, "id": "pb_275", "manual": 0, "name": "Pauluskirche", "provider": "publibike", "timeStamp": "02/06/2020, 10:39:38", "zip": 8057}, "type": "Feature"}, {"geometry": {"coordinates": [8.5528182, 47.414558], "type": "Point"}, "properties": {"address": "Hagenholzstrasse 51", "electric": 4, "id": "pb_276", "manual": 7, "name": "Airgate", "provider": "publibike", "timeStamp": "02/06/2020, 10:39:38", "zip": 8050}, "type": "Feature"}, {"geometry": {"coordinates": [8.537816, 47.413514], "type": "Point"}, "properties": {"address": "Birchstrasse 183", "electric": 7, "id": "pb_277", "manual": 2, "name": "Lamprechtweg", "provider": "publibike", "timeStamp": "02/06/2020, 10:39:38", "zip": 8050}, "type": "Feature"}, {"geometry": {"coordinates": [8.545602, 47.417701], "type": "Point"}, "properties": {"address": "Felsenrainstrasse 2", "electric": 5, "id": "pb_278", "manual": 4, "name": "Emil-Oberh\u00e4nsli", "provider": "publibike", "timeStamp": "02/06/2020, 10:39:38", "zip": 8050}, "type": "Feature"}, {"geometry": {"coordinates": [8.533647, 47.39808], "type": "Point"}, "properties": {"address": "Bucheggplatz 2", "electric": 1, "id": "pb_279", "manual": 1, "name": "Bucheggplatz", "provider": "publibike", "timeStamp": "02/06/2020, 10:39:38", "zip": 8057}, "type": "Feature"}, {"geometry": {"coordinates": [8.523549, 47.392347], "type": "Point"}, "properties": {"address": "Wipkingerplatz 4", "electric": 3, "id": "pb_280", "manual": 5, "name": "Wipkingerplatz", "provider": "publibike", "timeStamp": "02/06/2020, 10:39:38", "zip": 8037}, "type": "Feature"}, {"geometry": {"coordinates": [8.548562, 47.36691], "type": "Point"}, "properties": {"address": "Galerie \u00fcber Gleis 2/3", "electric": 4, "id": "pb_285", "manual": 1, "name": "Bahnhof Stadelhofen", "provider": "publibike", "timeStamp": "02/06/2020, 10:39:38", "zip": 8001}, "type": "Feature"}, {"geometry": {"coordinates": [8.493822, 47.3985553], "type": "Point"}, "properties": {"address": "Meierwiesenstrasse 12-4", "electric": 3, "id": "pb_286", "manual": 0, "name": "T\u00fcffenwies", "provider": "publibike", "timeStamp": "02/06/2020, 10:39:38", "zip": 8064}, "type": "Feature"}, {"geometry": {"coordinates": [8.552432, 47.3801757], "type": "Point"}, "properties": {"address": "Hochstrasse 34", "electric": 2, "id": "pb_356", "manual": 0, "name": "Siriuswiese", "provider": "publibike", "timeStamp": "02/06/2020, 10:39:38", "zip": 8044}, "type": "Feature"}, {"geometry": {"coordinates": [8.527298, 47.370141], "type": "Point"}, "properties": {"address": "Hallwylstrasse 71", "electric": 0, "id": "pb_357", "manual": 0, "name": "Hallwylstrasse", "provider": "publibike", "timeStamp": "02/06/2020, 10:39:38", "zip": 8004}, "type": "Feature"}, {"geometry": {"coordinates": [8.5414185, 47.3972455], "type": "Point"}, "properties": {"address": "Schaffhauserstrasse 137", "electric": 2, "id": "pb_358", "manual": 0, "name": "Milchbuck", "provider": "publibike", "timeStamp": "02/06/2020, 10:39:38", "zip": 8057}, "type": "Feature"}, {"geometry": {"coordinates": [8.512381, 47.393409], "type": "Point"}, "properties": {"address": "Hardturmstrasse 161", "electric": 3, "id": "pb_359", "manual": 2, "name": "Fischerweg", "provider": "publibike", "timeStamp": "02/06/2020, 10:39:38", "zip": 8005}, "type": "Feature"}, {"geometry": {"coordinates": [8.5421457, 47.3876979], "type": "Point"}, "properties": {"address": "Turnerstrasse 47", "electric": 2, "id": "pb_360", "manual": 1, "name": "Kirche Unterstrass", "provider": "publibike", "timeStamp": "02/06/2020, 10:39:38", "zip": 8006}, "type": "Feature"}, {"geometry": {"coordinates": [8.522117, 47.394554], "type": "Point"}, "properties": {"address": "Dorfstrasse 40", "electric": 7, "id": "pb_361", "manual": 1, "name": "Dorfstrasse", "provider": "publibike", "timeStamp": "02/06/2020, 10:39:38", "zip": 8037}, "type": "Feature"}, {"geometry": {"coordinates": [8.530437, 47.37271], "type": "Point"}, "properties": {"address": "Werdstrasse 25", "electric": 5, "id": "pb_362", "manual": 8, "name": "Stauffachertor", "provider": "publibike", "timeStamp": "02/06/2020, 10:39:38", "zip": 8004}, "type": "Feature"}, {"geometry": {"coordinates": [8.541712, 47.416155], "type": "Point"}, "properties": {"address": "Eggb\u00fchlstrasse 21", "electric": 7, "id": "pb_363", "manual": 1, "name": "Wahlenpark", "provider": "publibike", "timeStamp": "02/06/2020, 10:39:38", "zip": 8050}, "type": "Feature"}, {"geometry": {"coordinates": [8.5595335, 47.3708387], "type": "Point"}, "properties": {"address": "Dolderstrasse 32", "electric": 0, "id": "pb_364", "manual": 0, "name": "Kinderspital", "provider": "publibike", "timeStamp": "02/06/2020, 10:39:38", "zip": 8032}, "type": "Feature"}, {"geometry": {"coordinates": [8.536433, 47.388689], "type": "Point"}, "properties": {"address": "Kornhausstrasse 30", "electric": 0, "id": "pb_365", "manual": 0, "name": "Kornhausstrasse", "provider": "publibike", "timeStamp": "02/06/2020, 10:39:38", "zip": 8006}, "type": "Feature"}, {"geometry": {"coordinates": [8.55033, 47.407098], "type": "Point"}, "properties": {"address": "Schwamendingenstrasse 41", "electric": 2, "id": "pb_366", "manual": 9, "name": "Dorflinde", "provider": "publibike", "timeStamp": "02/06/2020, 10:39:38", "zip": 8050}, "type": "Feature"}, {"geometry": {"coordinates": [8.560476, 47.368199], "type": "Point"}, "properties": {"address": "R\u00f6merhofplatz 5", "electric": 3, "id": "pb_367", "manual": 2, "name": "R\u00f6merhof", "provider": "publibike", "timeStamp": "02/06/2020, 10:39:38", "zip": 8032}, "type": "Feature"}, {"geometry": {"coordinates": [8.5609218, 47.3619068], "type": "Point"}, "properties": {"address": "Forchstrasse 99", "electric": 12, "id": "pb_368", "manual": 0, "name": "Hegibachplatz", "provider": "publibike", "timeStamp": "02/06/2020, 10:39:38", "zip": 8032}, "type": "Feature"}, {"geometry": {"coordinates": [8.5721264, 47.4039985], "type": "Point"}, "properties": {"address": "Winterthurerstrasse 519", "electric": 3, "id": "pb_370", "manual": 3, "name": "Schwamendingerplatz", "provider": "publibike", "timeStamp": "02/06/2020, 10:39:38", "zip": 8051}, "type": "Feature"}, {"geometry": {"coordinates": [8.520168, 47.378556], "type": "Point"}, "properties": {"address": "Herman-Greulich-Strasse 56", "electric": 7, "id": "pb_384", "manual": 8, "name": "Hermann-Greulich-Weg", "provider": "publibike", "timeStamp": "02/06/2020, 10:39:38", "zip": 8004}, "type": "Feature"}, {"geometry": {"coordinates": [8.547912, 47.384923], "type": "Point"}, "properties": {"address": "Culmannstrasse", "electric": 2, "id": "pb_386", "manual": 2, "name": "Rigiplatz", "provider": "publibike", "timeStamp": "02/06/2020, 10:39:38", "zip": 8006}, "type": "Feature"}, {"geometry": {"coordinates": [8.543768, 47.411057], "type": "Point"}, "properties": {"address": "Hofwiesenstrasse 369", "electric": 1, "id": "pb_387", "manual": 1, "name": "Bahnhof Oerlikon S\u00fcd", "provider": "publibike", "timeStamp": "02/06/2020, 10:39:38", "zip": 8050}, "type": "Feature"}, {"geometry": {"coordinates": [8.544185, 47.412732], "type": "Point"}, "properties": {"address": "Jungholzstrasse 6", "electric": 2, "id": "pb_388", "manual": 0, "name": "Max-Frisch-Platz", "provider": "publibike", "timeStamp": "02/06/2020, 10:39:38", "zip": 8050}, "type": "Feature"}, {"geometry": {"coordinates": [8.558096, 47.413032], "type": "Point"}, "properties": {"address": "Andreasstrasse", "electric": 4, "id": "pb_389", "manual": 8, "name": "Hunziker-Areal", "provider": "publibike", "timeStamp": "02/06/2020, 10:39:38", "zip": 8050}, "type": "Feature"}, {"geometry": {"coordinates": [8.533265, 47.412873], "type": "Point"}, "properties": {"address": "Regina-K\u00e4gi-Strasse 1", "electric": 5, "id": "pb_390", "manual": 5, "name": "Luis-H\u00e4fliger-Park", "provider": "publibike", "timeStamp": "02/06/2020, 10:39:38", "zip": 8050}, "type": "Feature"}, {"geometry": {"coordinates": [8.499265, 47.401852], "type": "Point"}, "properties": {"address": "Limmattalstrasse 177", "electric": 7, "id": "pb_391", "manual": 1, "name": "Meierhofplatz", "provider": "publibike", "timeStamp": "02/06/2020, 10:39:38", "zip": 8049}, "type": "Feature"}, {"geometry": {"coordinates": [8.528356, 47.393255], "type": "Point"}, "properties": {"address": "R\u00f6schibachstrasse 73", "electric": 2, "id": "pb_392", "manual": 7, "name": "R\u00f6schibachplatz", "provider": "publibike", "timeStamp": "02/06/2020, 10:39:38", "zip": 8037}, "type": "Feature"}, {"geometry": {"coordinates": [8.538067, 47.415721], "type": "Point"}, "properties": {"address": "Birchstrasse 191", "electric": 6, "id": "pb_393", "manual": 1, "name": "Oerliker Park", "provider": "publibike", "timeStamp": "02/06/2020, 10:39:38", "zip": 8050}, "type": "Feature"}, {"geometry": {"coordinates": [8.5420304, 47.3669233], "type": "Point"}, "properties": {"address": "Stadthausquai 1", "electric": 4, "id": "pb_395", "manual": 4, "name": "B\u00fcrkliplatz", "provider": "publibike", "timeStamp": "02/06/2020, 10:39:38", "zip": 8001}, "type": "Feature"}, {"geometry": {"coordinates": [8.535767, 47.409881], "type": "Point"}, "properties": {"address": "Regensbergstrasse 195", "electric": 2, "id": "pb_396", "manual": 3, "name": "Holunderhof", "provider": "publibike", "timeStamp": "02/06/2020, 10:39:38", "zip": 8050}, "type": "Feature"}, {"geometry": {"coordinates": [8.5116245, 47.3616199], "type": "Point"}, "properties": {"address": "Grubenstrasse 42", "electric": 4, "id": "pb_431", "manual": 2, "name": "Binz Center", "provider": "publibike", "timeStamp": "02/06/2020, 10:39:38", "zip": 8045}, "type": "Feature"}, {"geometry": {"coordinates": [8.547195, 47.382089], "type": "Point"}, "properties": {"address": "Nelkenstrasse 24", "electric": 0, "id": "pb_430", "manual": 1, "name": "Stapferstube", "provider": "publibike", "timeStamp": "02/06/2020, 10:39:38", "zip": 8006}, "type": "Feature"}, {"geometry": {"coordinates": [8.5787183, 47.4039845], "type": "Point"}, "properties": {"address": "Kronwiesenstrasse 35", "electric": 1, "id": "pb_426", "manual": 3, "name": "Kronwiesen", "provider": "publibike", "timeStamp": "02/06/2020, 10:39:38", "zip": 8051}, "type": "Feature"}, {"geometry": {"coordinates": [8.508131, 47.420757], "type": "Point"}, "properties": {"address": "Riedenhaldenstrasse 20-18", "electric": 15, "id": "pb_425", "manual": 1, "name": "Bahnhof Affoltern", "provider": "publibike", "timeStamp": "02/06/2020, 10:39:38", "zip": 8046}, "type": "Feature"}, {"geometry": {"coordinates": [8.532464, 47.406988], "type": "Point"}, "properties": {"address": "K\u00fcnzlistrasse 41", "electric": 3, "id": "pb_424", "manual": 1, "name": "Birchd\u00f6rfli", "provider": "publibike", "timeStamp": "02/06/2020, 10:39:38", "zip": 8057}, "type": "Feature"}, {"geometry": {"coordinates": [8.5777038, 47.4080095], "type": "Point"}, "properties": {"address": "Luegislandstrasse 412", "electric": 8, "id": "pb_429", "manual": 3, "name": "Luegisland", "provider": "publibike", "timeStamp": "02/06/2020, 10:39:38", "zip": 8051}, "type": "Feature"}, {"geometry": {"coordinates": [8.58841, 47.40158], "type": "Point"}, "properties": {"address": "Hirzenbachstrasse 2-4", "electric": 0, "id": "pb_428", "manual": 0, "name": "Hirzenbachstrasse", "provider": "publibike", "timeStamp": "02/06/2020, 10:39:38", "zip": 8051}, "type": "Feature"}, {"geometry": {"coordinates": [8.5563463, 47.4095467], "type": "Point"}, "properties": {"address": "K\u00fchriedweg", "electric": 0, "id": "pb_445", "manual": 3, "name": "Hallenbad Oerlikon", "provider": "publibike", "timeStamp": "02/06/2020, 10:39:38", "zip": 8050}, "type": "Feature"}, {"geometry": {"coordinates": [8.537971, 47.364871], "type": "Point"}, "properties": {"address": "General-Guisan-Quai 17", "electric": 1, "id": "pb_454", "manual": 4, "name": "General-Guisan-Quai", "provider": "publibike", "timeStamp": "02/06/2020, 10:39:38", "zip": 8002}, "type": "Feature"}, {"geometry": {"coordinates": [8.560587, 47.350578], "type": "Point"}, "properties": {"address": "Bellerivestrasse 245", "electric": 8, "id": "pb_450", "manual": 5, "name": "Bahnhof Tiefenbrunnen", "provider": "publibike", "timeStamp": "02/06/2020, 10:39:38", "zip": 8008}, "type": "Feature"}, {"geometry": {"coordinates": [8.5269416, 47.3563719], "type": "Point"}, "properties": {"address": "Waffenplatzstrasse 89", "electric": 3, "id": "pb_452", "manual": 7, "name": "Rieterplatz", "provider": "publibike", "timeStamp": "02/06/2020, 10:39:38", "zip": 8002}, "type": "Feature"}, {"geometry": {"coordinates": [8.514176, 47.3663708], "type": "Point"}, "properties": {"address": "Talwiesenstrasse 92", "electric": 3, "id": "pb_446", "manual": 2, "name": "Binzallee", "provider": "publibike", "timeStamp": "02/06/2020, 10:39:38", "zip": 8055}, "type": "Feature"}, {"geometry": {"coordinates": [8.5070564, 47.371455], "type": "Point"}, "properties": {"address": "Gutstrasse 87", "electric": 5, "id": "pb_447", "manual": 2, "name": "Gutstrasse", "provider": "publibike", "timeStamp": "02/06/2020, 10:39:38", "zip": 8055}, "type": "Feature"}, {"geometry": {"coordinates": [8.4941268, 47.3836391], "type": "Point"}, "properties": {"address": "Flurstrasse 62", "electric": 4, "id": "pb_453", "manual": 9, "name": "Flurpark", "provider": "publibike", "timeStamp": "02/06/2020, 10:39:38", "zip": 8048}, "type": "Feature"}, {"geometry": {"coordinates": [8.500343, 47.380778], "type": "Point"}, "properties": {"address": "Edelweissstrasse 32", "electric": 7, "id": "pb_448", "manual": 0, "name": "Bl\u00fcemliquartier", "provider": "publibike", "timeStamp": "02/06/2020, 10:39:38", "zip": 8048}, "type": "Feature"}, {"geometry": {"coordinates": [8.528796, 47.383858], "type": "Point"}, "properties": {"address": "Gasometerstrasse 24", "electric": 1, "id": "pb_449", "manual": 5, "name": "Gasometerstrasse", "provider": "publibike", "timeStamp": "02/06/2020, 10:39:38", "zip": 8005}, "type": "Feature"}, {"geometry": {"coordinates": [8.4981964, 47.3859194], "type": "Point"}, "properties": {"address": "Baslerstrasse 57", "electric": 8, "id": "pb_455", "manual": 5, "name": "Letzipark", "provider": "publibike", "timeStamp": "02/06/2020, 10:39:38", "zip": 8048}, "type": "Feature"}, {"geometry": {"coordinates": [8.515252, 47.381915], "type": "Point"}, "properties": {"address": "Sihlfeldstrasse 175", "electric": 0, "id": "pb_451", "manual": 1, "name": "Hardplatz", "provider": "publibike", "timeStamp": "02/06/2020, 10:39:38", "zip": 8004}, "type": "Feature"}, {"geometry": {"coordinates": [8.5064743, 47.4188324], "type": "Point"}, "properties": {"address": "Wehntalerstrasse 541", "electric": 5, "id": "pb_427", "manual": 5, "name": "Zehntenhausplatz", "provider": "publibike", "timeStamp": "02/06/2020, 10:39:38", "zip": 8046}, "type": "Feature"}, {"geometry": {"coordinates": [8.537729, 47.379719], "type": "Point"}, "properties": {"address": "Sihlquai/HB", "electric": 1, "id": "pb_513", "manual": 8, "name": "Sihlquai", "provider": "publibike", "timeStamp": "02/06/2020, 10:39:38", "zip": 8005}, "type": "Feature"}, {"geometry": {"coordinates": [8.596202, 47.397885], "type": "Point"}, "properties": {"address": "Bahnhof Stettbach", "electric": 1, "id": "pb_514", "manual": 3, "name": "Bahnhof Stettbach", "provider": "publibike", "timeStamp": "02/06/2020, 10:39:38", "zip": 8051}, "type": "Feature"}, {"geometry": {"coordinates": [8.5543974, 47.3690153], "type": "Point"}, "properties": {"address": "Kasinostrasse 10", "electric": 10, "id": "pb_515", "manual": 4, "name": "Hottingerplatz", "provider": "publibike", "timeStamp": "02/06/2020, 10:39:38", "zip": 8032}, "type": "Feature"}, {"geometry": {"coordinates": [8.534444, 47.351525], "type": "Point"}, "properties": {"address": "Mobile Station Z\u00fcrich 1", "electric": 0, "id": "pb_282", "manual": 0, "name": "Theaterspektakel", "provider": "publibike", "timeStamp": "02/06/2020, 10:39:38", "zip": 8002}, "type": "Feature"}, {"geometry": {"coordinates": [8.516257, 47.367656], "type": "Point"}, "properties": {"address": "Goldbrunnenstrasse 54", "electric": 2, "id": "pb_538", "manual": 0, "name": "Kirche B\u00fchl", "provider": "publibike", "timeStamp": "02/06/2020, 10:39:38", "zip": 8055}, "type": "Feature"}, {"geometry": {"coordinates": [8.555639, 47.416873], "type": "Point"}, "properties": {"address": "Leutschenbachstrasse 50", "electric": 1, "id": "pb_537", "manual": 4, "name": "Leutschenpark", "provider": "publibike", "timeStamp": "02/06/2020, 10:39:38", "zip": 8050}, "type": "Feature"}, {"geometry": {"coordinates": [8.546464, 47.403822], "type": "Point"}, "properties": {"address": "Berninastrasse 45", "electric": 8, "id": "pb_540", "manual": 2, "name": "Berninaplatz", "provider": "publibike", "timeStamp": "02/06/2020, 10:39:38", "zip": 8057}, "type": "Feature"}, {"geometry": {"coordinates": [8.523134, 47.369004], "type": "Point"}, "properties": {"address": "Erlachstrasse 3", "electric": 0, "id": "pb_385", "manual": 0, "name": "Aegerten", "provider": "publibike", "timeStamp": "02/06/2020, 10:39:38", "zip": 8003}, "type": "Feature"}, {"geometry": {"coordinates": [8.49038, 47.381591], "type": "Point"}, "properties": {"address": "Rautistrasse 60", "electric": 8, "id": "pb_536", "manual": 8, "name": "Freilager", "provider": "publibike", "timeStamp": "02/06/2020, 10:39:38", "zip": 8048}, "type": "Feature"}, {"geometry": {"coordinates": [8.496511, 47.375247], "type": "Point"}, "properties": {"address": "Letzigraben 139", "electric": 7, "id": "pb_444", "manual": 0, "name": "Sackzelg", "provider": "publibike", "timeStamp": "02/06/2020, 10:39:38", "zip": 8047}, "type": "Feature"}, {"geometry": {"coordinates": [8.58131, 47.402801], "type": "Point"}, "properties": {"address": "Altwiesenstrasse 104", "electric": 0, "id": "pb_539", "manual": 5, "name": "Glattwiesen", "provider": "publibike", "timeStamp": "02/06/2020, 10:39:38", "zip": 8051}, "type": "Feature"}, {"geometry": {"coordinates": [8.52689, 47.3767], "type": "Point"}, "properties": {"address": "Molkenstrasse 5", "electric": 0, "id": "pb_560", "manual": 9, "name": "Helvetiaplatz", "provider": "publibike", "timeStamp": "02/06/2020, 10:39:38", "zip": 8004}, "type": "Feature"}, {"geometry": {"coordinates": [8.525602, 47.374241], "type": "Point"}, "properties": {"address": "Badenerstrasse 90", "electric": 0, "id": "pb_559", "manual": 4, "name": "Bezirksgeb\u00e4ude", "provider": "publibike", "timeStamp": "02/06/2020, 10:39:38", "zip": 8004}, "type": "Feature"}, {"geometry": {"coordinates": [8.535082, 47.345248], "type": "Point"}, "properties": {"address": "Bachstrasse 15", "electric": 5, "id": "pb_564", "manual": 3, "name": "GZ Wollishofen", "provider": "publibike", "timeStamp": "02/06/2020, 10:39:38", "zip": 8038}, "type": "Feature"}, {"geometry": {"coordinates": [8.514841, 47.370238], "type": "Point"}, "properties": {"address": "Schrennengasse 37", "electric": 0, "id": "pb_562", "manual": 1, "name": "Goldbrunnenplatz", "provider": "publibike", "timeStamp": "02/06/2020, 10:39:38", "zip": 8003}, "type": "Feature"}, {"geometry": {"coordinates": [8.514138, 47.374206], "type": "Point"}, "properties": {"address": "Idaplatz 4", "electric": 0, "id": "pb_557", "manual": 0, "name": "Idaplatz", "provider": "publibike", "timeStamp": "02/06/2020, 10:39:38", "zip": 8003}, "type": "Feature"}, {"geometry": {"coordinates": [8.518432, 47.369549], "type": "Point"}, "properties": {"address": "Brinerstrasse 2", "electric": 8, "id": "pb_558", "manual": 13, "name": "Schmiede Wiedikon", "provider": "publibike", "timeStamp": "02/06/2020, 10:39:38", "zip": 8003}, "type": "Feature"}, {"geometry": {"coordinates": [8.537546, 47.391289], "type": "Point"}, "properties": {"address": "Rotbuchstrasse 15", "electric": 1, "id": "pb_556", "manual": 0, "name": "Schaffhauserplatz", "provider": "publibike", "timeStamp": "02/06/2020, 10:39:38", "zip": 8006}, "type": "Feature"}, {"geometry": {"coordinates": [8.541541, 47.413733], "type": "Point"}, "properties": {"address": "Therese-Giehse-Strasse 11", "electric": 5, "id": "pb_561", "manual": 1, "name": "Center Eleven", "provider": "publibike", "timeStamp": "02/06/2020, 10:39:38", "zip": 8050}, "type": "Feature"}, {"geometry": {"coordinates": [8.534227, 47.360004], "type": "Point"}, "properties": {"address": "Alfred Escher-Strasse 76", "electric": 12, "id": "pb_563", "manual": 5, "name": "Mythenschloss", "provider": "publibike", "timeStamp": "02/06/2020, 10:39:38", "zip": 8002}, "type": "Feature"}, {"geometry": {"coordinates": [8.50373, 47.396172], "type": "Point"}, "properties": {"address": "Hardeggstrasse 6", "electric": 4, "id": "pb_566", "manual": 4, "name": "Am Wasser", "provider": "publibike", "timeStamp": "02/06/2020, 10:39:38", "zip": 8049}, "type": "Feature"}, {"geometry": {"coordinates": [8.532432, 47.381174], "type": "Point"}, "properties": {"address": "Klingenstrasse 9", "electric": 1, "id": "pb_565", "manual": 6, "name": "Zollstrasse", "provider": "publibike", "timeStamp": "02/06/2020, 10:39:38", "zip": 8005}, "type": "Feature"}, {"geometry": {"coordinates": [8.497982, 47.381447], "type": "Point"}, "properties": {"address": "Dennlerstrasse 23", "electric": 6, "id": "pb_567", "manual": 5, "name": "Dennlerstrasse", "provider": "publibike", "timeStamp": "02/06/2020, 10:39:38", "zip": 8047}, "type": "Feature"}, {"geometry": {"coordinates": [8.528049, 47.347701], "type": "Point"}, "properties": {"address": "Mutschellenstrasse 114", "electric": 6, "id": "pb_568", "manual": 2, "name": "Jugendherberge", "provider": "publibike", "timeStamp": "02/06/2020, 10:39:38", "zip": 8038}, "type": "Feature"}, {"geometry": {"coordinates": [8.539016, 47.405751], "type": "Point"}, "properties": {"address": "Ringstrasse 82", "electric": 1, "id": "pb_569", "manual": 3, "name": "Freibad Allenmoos", "provider": "publibike", "timeStamp": "02/06/2020, 10:39:38", "zip": 8057}, "type": "Feature"}, {"geometry": {"coordinates": [8.534974, 47.402164], "type": "Point"}, "properties": {"address": "Brache Guggach", "electric": 3, "id": "pb_572", "manual": 1, "name": "Radiostudio", "provider": "publibike", "timeStamp": "02/06/2020, 10:39:38", "zip": 8057}, "type": "Feature"}, {"geometry": {"coordinates": [8.547901, 47.375556], "type": "Point"}, "properties": {"address": "Karl-Schmid-Strasse 4", "electric": 6, "id": "pb_571", "manual": 1, "name": "ETH/Zoologisches Museum", "provider": "publibike", "timeStamp": "02/06/2020, 10:39:38", "zip": 8006}, "type": "Feature"}, {"geometry": {"coordinates": [8.544755, 47.366955], "type": "Point"}, "properties": {"charge": 42, "id": "smide_2901", "name": "ZH 267278", "provider": "smide", "range": 21.0, "size": 20, "time": "02/06/2020, 10:39:11"}, "type": "Feature"}, {"geometry": {"coordinates": [8.498623, 47.377355], "type": "Point"}, "properties": {"charge": 73, "id": "smide_2895", "name": "ZH 267279", "provider": "smide", "range": 36.0, "size": 20, "time": "02/06/2020, 10:39:11"}, "type": "Feature"}, {"geometry": {"coordinates": [8.554088, 47.401995], "type": "Point"}, "properties": {"charge": 37, "id": "smide_2880", "name": "ZH267289", "provider": "smide", "range": 18.0, "size": 17, "time": "02/06/2020, 10:39:11"}, "type": "Feature"}, {"geometry": {"coordinates": [8.526898, 47.387706], "type": "Point"}, "properties": {"charge": 73, "id": "smide_2874", "name": "ZH 267288", "provider": "smide", "range": 36.0, "size": 17, "time": "02/06/2020, 10:39:11"}, "type": "Feature"}, {"geometry": {"coordinates": [8.515828, 47.42888], "type": "Point"}, "properties": {"charge": 87, "id": "smide_2871", "name": "ZH 267086", "provider": "smide", "range": 43.0, "size": 20, "time": "02/06/2020, 10:39:11"}, "type": "Feature"}, {"geometry": {"coordinates": [8.515791, 47.4288], "type": "Point"}, "properties": {"charge": 58, "id": "smide_2867", "name": "ZH 267090", "provider": "smide", "range": 28.0, "size": 20, "time": "02/06/2020, 10:39:11"}, "type": "Feature"}, {"geometry": {"coordinates": [8.523036, 47.371098], "type": "Point"}, "properties": {"charge": 23, "id": "smide_2859", "name": "ZH 267098", "provider": "smide", "range": 11.0, "size": 17, "time": "02/06/2020, 10:39:11"}, "type": "Feature"}, {"geometry": {"coordinates": [8.535898, 47.364385], "type": "Point"}, "properties": {"charge": 94, "id": "smide_2856", "name": "ZH 267101", "provider": "smide", "range": 47.0, "size": 17, "time": "02/06/2020, 10:39:11"}, "type": "Feature"}, {"geometry": {"coordinates": [8.524333, 47.398018], "type": "Point"}, "properties": {"charge": 87, "id": "smide_2855", "name": "ZH 267102", "provider": "smide", "range": 43.0, "size": 17, "time": "02/06/2020, 10:39:11"}, "type": "Feature"}, {"geometry": {"coordinates": [8.508425, 47.408418], "type": "Point"}, "properties": {"charge": 92, "id": "smide_2854", "name": "ZH 267103", "provider": "smide", "range": 46.0, "size": 17, "time": "02/06/2020, 10:39:11"}, "type": "Feature"}, {"geometry": {"coordinates": [8.530221, 47.352075], "type": "Point"}, "properties": {"charge": 69, "id": "smide_2833", "name": "ZH 267182", "provider": "smide", "range": 34.0, "size": 20, "time": "02/06/2020, 10:39:11"}, "type": "Feature"}, {"geometry": {"coordinates": [8.521578, 47.35803], "type": "Point"}, "properties": {"charge": 70, "id": "smide_2831", "name": "ZH 267180", "provider": "smide", "range": 35.0, "size": 20, "time": "02/06/2020, 10:39:11"}, "type": "Feature"}, {"geometry": {"coordinates": [8.55365, 47.417101], "type": "Point"}, "properties": {"charge": 100, "id": "smide_2804", "name": "ZH266903", "provider": "smide", "range": 50.0, "size": 20, "time": "02/06/2020, 10:39:11"}, "type": "Feature"}, {"geometry": {"coordinates": [8.540041, 47.378443], "type": "Point"}, "properties": {"charge": 100, "id": "smide_2798", "name": "ZH266888", "provider": "smide", "range": 50.0, "size": 17, "time": "02/06/2020, 10:39:11"}, "type": "Feature"}, {"geometry": {"coordinates": [8.519675, 47.340006], "type": "Point"}, "properties": {"charge": 66, "id": "smide_2793", "name": "ZH266883", "provider": "smide", "range": 33.0, "size": 17, "time": "02/06/2020, 10:39:11"}, "type": "Feature"}, {"geometry": {"coordinates": [8.529996, 47.371161], "type": "Point"}, "properties": {"charge": 66, "id": "smide_2790", "name": "ZH266880", "provider": "smide", "range": 33.0, "size": 17, "time": "02/06/2020, 10:39:11"}, "type": "Feature"}, {"geometry": {"coordinates": [8.507841, 47.393845], "type": "Point"}, "properties": {"charge": 75, "id": "smide_2785", "name": "ZH266875", "provider": "smide", "range": 37.0, "size": 17, "time": "02/06/2020, 10:39:11"}, "type": "Feature"}, {"geometry": {"coordinates": [8.502091, 47.368843], "type": "Point"}, "properties": {"charge": 100, "id": "smide_2780", "name": "ST1 X #1", "provider": "smide", "range": 50.0, "size": 17, "time": "02/06/2020, 10:39:11"}, "type": "Feature"}, {"geometry": {"coordinates": [8.568817, 47.410556], "type": "Point"}, "properties": {"charge": 100, "id": "smide_2773", "name": "ZH266561", "provider": "smide", "range": 50.0, "size": 17, "time": "02/06/2020, 10:39:11"}, "type": "Feature"}, {"geometry": {"coordinates": [8.555678, 47.384418], "type": "Point"}, "properties": {"charge": 71, "id": "smide_2761", "name": "ZH266642", "provider": "smide", "range": 35.0, "size": 20, "time": "02/06/2020, 10:39:11"}, "type": "Feature"}, {"geometry": {"coordinates": [8.517605, 47.367516], "type": "Point"}, "properties": {"charge": 95, "id": "smide_2752", "name": "BE343856", "provider": "smide", "range": 47.0, "size": 17, "time": "02/06/2020, 10:39:11"}, "type": "Feature"}, {"geometry": {"coordinates": [8.510764, 47.362272], "type": "Point"}, "properties": {"charge": 87, "id": "smide_2751", "name": "BE343857", "provider": "smide", "range": 43.0, "size": 17, "time": "02/06/2020, 10:39:11"}, "type": "Feature"}, {"geometry": {"coordinates": [8.509303, 47.3615], "type": "Point"}, "properties": {"charge": 87, "id": "smide_2749", "name": "BE343867", "provider": "smide", "range": 43.0, "size": 17, "time": "02/06/2020, 10:39:11"}, "type": "Feature"}, {"geometry": {"coordinates": [8.475321, 47.385316], "type": "Point"}, "properties": {"charge": 59, "id": "smide_2748", "name": "BE335758", "provider": "smide", "range": 29.0, "size": 17, "time": "02/06/2020, 10:39:11"}, "type": "Feature"}, {"geometry": {"coordinates": [8.562466, 47.382948], "type": "Point"}, "properties": {"charge": 100, "id": "smide_2746", "name": "BE335817", "provider": "smide", "range": 50.0, "size": 17, "time": "02/06/2020, 10:39:11"}, "type": "Feature"}, {"geometry": {"coordinates": [8.513635, 47.377892], "type": "Point"}, "properties": {"charge": 75, "id": "smide_2745", "name": "BE335818", "provider": "smide", "range": 37.0, "size": 17, "time": "02/06/2020, 10:39:11"}, "type": "Feature"}, {"geometry": {"coordinates": [8.493228, 47.382844], "type": "Point"}, "properties": {"charge": 78, "id": "smide_2743", "name": "BE343864", "provider": "smide", "range": 39.0, "size": 17, "time": "02/06/2020, 10:39:11"}, "type": "Feature"}, {"geometry": {"coordinates": [8.519541, 47.337264], "type": "Point"}, "properties": {"charge": 90, "id": "smide_2742", "name": "BE343866", "provider": "smide", "range": 45.0, "size": 17, "time": "02/06/2020, 10:39:11"}, "type": "Feature"}, {"geometry": {"coordinates": [8.494235, 47.424272], "type": "Point"}, "properties": {"charge": 27, "id": "smide_2741", "name": "BE343874", "provider": "smide", "range": 13.0, "size": 17, "time": "02/06/2020, 10:39:11"}, "type": "Feature"}, {"geometry": {"coordinates": [8.547416, 47.365056], "type": "Point"}, "properties": {"charge": 23, "id": "smide_2738", "name": "BE343865", "provider": "smide", "range": 11.0, "size": 17, "time": "02/06/2020, 10:39:11"}, "type": "Feature"}, {"geometry": {"coordinates": [8.568287, 47.367776], "type": "Point"}, "properties": {"charge": 41, "id": "smide_2737", "name": "BE336149", "provider": "smide", "range": 20.0, "size": 17, "time": "02/06/2020, 10:39:11"}, "type": "Feature"}, {"geometry": {"coordinates": [8.557773, 47.356732], "type": "Point"}, "properties": {"charge": 56, "id": "smide_2736", "name": "BE346639", "provider": "smide", "range": 28.0, "size": 17, "time": "02/06/2020, 10:39:11"}, "type": "Feature"}, {"geometry": {"coordinates": [8.514886, 47.389716], "type": "Point"}, "properties": {"charge": 77, "id": "smide_2734", "name": "BE343876", "provider": "smide", "range": 38.0, "size": 17, "time": "02/06/2020, 10:39:11"}, "type": "Feature"}, {"geometry": {"coordinates": [8.49715, 47.383176], "type": "Point"}, "properties": {"charge": 41, "id": "smide_2732", "name": "BE343870", "provider": "smide", "range": 20.0, "size": 17, "time": "02/06/2020, 10:39:11"}, "type": "Feature"}, {"geometry": {"coordinates": [8.535844, 47.3563], "type": "Point"}, "properties": {"charge": 89, "id": "smide_2729", "name": "BE343878", "provider": "smide", "range": 44.0, "size": 17, "time": "02/06/2020, 10:39:11"}, "type": "Feature"}, {"geometry": {"coordinates": [8.510575, 47.398503], "type": "Point"}, "properties": {"charge": 48, "id": "smide_2725", "name": "ZH261545", "provider": "smide", "range": 24.0, "size": 0, "time": "02/06/2020, 10:39:11"}, "type": "Feature"}, {"geometry": {"coordinates": [8.516401, 47.38988], "type": "Point"}, "properties": {"charge": 60, "id": "smide_2718", "name": "ZH259019", "provider": "smide", "range": 30.0, "size": 20, "time": "02/06/2020, 10:39:11"}, "type": "Feature"}, {"geometry": {"coordinates": [8.551931, 47.389328], "type": "Point"}, "properties": {"charge": 70, "id": "smide_2717", "name": "ZH263287", "provider": "smide", "range": 35.0, "size": 17, "time": "02/06/2020, 10:39:11"}, "type": "Feature"}, {"geometry": {"coordinates": [8.533706, 47.391361], "type": "Point"}, "properties": {"charge": 48, "id": "smide_2716", "name": "ZH254606", "provider": "smide", "range": 24.0, "size": 17, "time": "02/06/2020, 10:39:11"}, "type": "Feature"}, {"geometry": {"coordinates": [8.526781, 47.368864], "type": "Point"}, "properties": {"charge": 27, "id": "smide_2715", "name": "ZH254605", "provider": "smide", "range": 13.0, "size": 17, "time": "02/06/2020, 10:39:11"}, "type": "Feature"}, {"geometry": {"coordinates": [8.537028, 47.403092], "type": "Point"}, "properties": {"charge": 30, "id": "smide_2710", "name": "ZH256460", "provider": "smide", "range": 15.0, "size": 17, "time": "02/06/2020, 10:39:11"}, "type": "Feature"}, {"geometry": {"coordinates": [8.518945, 47.391768], "type": "Point"}, "properties": {"charge": 71, "id": "smide_2712", "name": "ZH256462", "provider": "smide", "range": 35.0, "size": 17, "time": "02/06/2020, 10:39:11"}, "type": "Feature"}, {"geometry": {"coordinates": [8.56469, 47.372876], "type": "Point"}, "properties": {"charge": 65, "id": "smide_2711", "name": "ZH256463", "provider": "smide", "range": 32.0, "size": 17, "time": "02/06/2020, 10:39:11"}, "type": "Feature"}, {"geometry": {"coordinates": [8.563925, 47.348013], "type": "Point"}, "properties": {"charge": 98, "id": "smide_2709", "name": "ZH256466", "provider": "smide", "range": 49.0, "size": 20, "time": "02/06/2020, 10:39:11"}, "type": "Feature"}, {"geometry": {"coordinates": [8.559585, 47.415736], "type": "Point"}, "properties": {"charge": 45, "id": "smide_2707", "name": "ZH256467", "provider": "smide", "range": 22.0, "size": 20, "time": "02/06/2020, 10:39:11"}, "type": "Feature"}, {"geometry": {"coordinates": [8.524645, 47.36088], "type": "Point"}, "properties": {"charge": 56, "id": "smide_2708", "name": "ZH256464", "provider": "smide", "range": 28.0, "size": 17, "time": "02/06/2020, 10:39:11"}, "type": "Feature"}, {"geometry": {"coordinates": [8.542223, 47.41172], "type": "Point"}, "properties": {"charge": 37, "id": "smide_2701", "name": "ZH256468", "provider": "smide", "range": 18.0, "size": 20, "time": "02/06/2020, 10:39:11"}, "type": "Feature"}, {"geometry": {"coordinates": [8.553563, 47.387308], "type": "Point"}, "properties": {"charge": 83, "id": "smide_2699", "name": "ZH254611", "provider": "smide", "range": 41.0, "size": 20, "time": "02/06/2020, 10:39:11"}, "type": "Feature"}, {"geometry": {"coordinates": [8.536859, 47.373224], "type": "Point"}, "properties": {"charge": 53, "id": "smide_2697", "name": "ZH254629", "provider": "smide", "range": 26.0, "size": 20, "time": "02/06/2020, 10:39:11"}, "type": "Feature"}, {"geometry": {"coordinates": [8.556762, 47.420048], "type": "Point"}, "properties": {"charge": 100, "id": "smide_2696", "name": "ZH254616", "provider": "smide", "range": 50.0, "size": 20, "time": "02/06/2020, 10:39:11"}, "type": "Feature"}, {"geometry": {"coordinates": [8.518508, 47.386564], "type": "Point"}, "properties": {"charge": 61, "id": "smide_2694", "name": "ZH254610", "provider": "smide", "range": 30.0, "size": 20, "time": "02/06/2020, 10:39:11"}, "type": "Feature"}, {"geometry": {"coordinates": [8.558546, 47.403825], "type": "Point"}, "properties": {"charge": 100, "id": "smide_2691", "name": "ZH254622", "provider": "smide", "range": 50.0, "size": 20, "time": "02/06/2020, 10:39:11"}, "type": "Feature"}, {"geometry": {"coordinates": [8.519846, 47.369688], "type": "Point"}, "properties": {"charge": 56, "id": "smide_2690", "name": "ZH254625", "provider": "smide", "range": 28.0, "size": 20, "time": "02/06/2020, 10:39:11"}, "type": "Feature"}, {"geometry": {"coordinates": [8.55562, 47.384428], "type": "Point"}, "properties": {"charge": 100, "id": "smide_2689", "name": "ZH254623", "provider": "smide", "range": 50.0, "size": 20, "time": "02/06/2020, 10:39:11"}, "type": "Feature"}, {"geometry": {"coordinates": [8.550873, 47.414484], "type": "Point"}, "properties": {"charge": 67, "id": "smide_2687", "name": "ZH263529", "provider": "smide", "range": 33.0, "size": 20, "time": "02/06/2020, 10:39:11"}, "type": "Feature"}, {"geometry": {"coordinates": [8.531737, 47.36162], "type": "Point"}, "properties": {"charge": 13, "id": "smide_2684", "name": "ZH254626", "provider": "smide", "range": 6.0, "size": 20, "time": "02/06/2020, 10:39:11"}, "type": "Feature"}, {"geometry": {"coordinates": [8.539129, 47.373888], "type": "Point"}, "properties": {"charge": 95, "id": "smide_2680", "name": "ZH254619", "provider": "smide", "range": 47.0, "size": 20, "time": "02/06/2020, 10:39:11"}, "type": "Feature"}, {"geometry": {"coordinates": [8.576451, 47.351304], "type": "Point"}, "properties": {"charge": 66, "id": "smide_2679", "name": "ZH258489", "provider": "smide", "range": 33.0, "size": 17, "time": "02/06/2020, 10:39:11"}, "type": "Feature"}, {"geometry": {"coordinates": [8.510821, 47.36702], "type": "Point"}, "properties": {"charge": 42, "id": "smide_2674", "name": "ZH258654", "provider": "smide", "range": 21.0, "size": 17, "time": "02/06/2020, 10:39:11"}, "type": "Feature"}, {"geometry": {"coordinates": [8.550203, 47.397332], "type": "Point"}, "properties": {"charge": 86, "id": "smide_2669", "name": "ZH263294", "provider": "smide", "range": 43.0, "size": 17, "time": "02/06/2020, 10:39:11"}, "type": "Feature"}, {"geometry": {"coordinates": [8.519546, 47.337264], "type": "Point"}, "properties": {"charge": 84, "id": "smide_2666", "name": "ZH258653", "provider": "smide", "range": 42.0, "size": 17, "time": "02/06/2020, 10:39:11"}, "type": "Feature"}, {"geometry": {"coordinates": [8.534808, 47.373336], "type": "Point"}, "properties": {"charge": 78, "id": "smide_2665", "name": "ZH258644", "provider": "smide", "range": 39.0, "size": 17, "time": "02/06/2020, 10:39:11"}, "type": "Feature"}, {"geometry": {"coordinates": [8.511611, 47.3987], "type": "Point"}, "properties": {"charge": 100, "id": "smide_2664", "name": "ZH258652", "provider": "smide", "range": 50.0, "size": 17, "time": "02/06/2020, 10:39:11"}, "type": "Feature"}, {"geometry": {"coordinates": [8.548313, 47.377896], "type": "Point"}, "properties": {"charge": 20, "id": "smide_2663", "name": "ZH258649", "provider": "smide", "range": 10.0, "size": 17, "time": "02/06/2020, 10:39:11"}, "type": "Feature"}, {"geometry": {"coordinates": [8.57278, 47.38056], "type": "Point"}, "properties": {"charge": 79, "id": "smide_2662", "name": "ZH258643", "provider": "smide", "range": 39.0, "size": 17, "time": "02/06/2020, 10:39:11"}, "type": "Feature"}, {"geometry": {"coordinates": [8.494768, 47.383352], "type": "Point"}, "properties": {"charge": 44, "id": "smide_2648", "name": "ZH257930", "provider": "smide", "range": 22.0, "size": 20, "time": "02/06/2020, 10:39:11"}, "type": "Feature"}, {"geometry": {"coordinates": [8.56988, 47.352475], "type": "Point"}, "properties": {"charge": 100, "id": "smide_2657", "name": "ZH257936", "provider": "smide", "range": 50.0, "size": 17, "time": "02/06/2020, 10:39:11"}, "type": "Feature"}, {"geometry": {"coordinates": [8.540115, 47.378944], "type": "Point"}, "properties": {"charge": 66, "id": "smide_2647", "name": "ZH257932", "provider": "smide", "range": 33.0, "size": 20, "time": "02/06/2020, 10:39:11"}, "type": "Feature"}, {"geometry": {"coordinates": [8.544333, 47.369776], "type": "Point"}, "properties": {"charge": 53, "id": "smide_2645", "name": "ZH257933", "provider": "smide", "range": 26.0, "size": 20, "time": "02/06/2020, 10:39:11"}, "type": "Feature"}, {"geometry": {"coordinates": [8.550298, 47.384443], "type": "Point"}, "properties": {"charge": 80, "id": "smide_3", "name": "ZH253765", "provider": "smide", "range": 40.0, "size": 20, "time": "02/06/2020, 10:39:11"}, "type": "Feature"}, {"geometry": {"coordinates": [8.526043, 47.408438], "type": "Point"}, "properties": {"charge": 60, "id": "smide_105", "name": "ZH253804", "provider": "smide", "range": 30.0, "size": 17, "time": "02/06/2020, 10:39:11"}, "type": "Feature"}, {"geometry": {"coordinates": [8.542305, 47.407568], "type": "Point"}, "properties": {"charge": 84, "id": "smide_186", "name": "ZH253751", "provider": "smide", "range": 42.0, "size": 20, "time": "02/06/2020, 10:39:11"}, "type": "Feature"}, {"geometry": {"coordinates": [8.573776, 47.353012], "type": "Point"}, "properties": {"charge": 73, "id": "smide_173", "name": "ZH258501", "provider": "smide", "range": 36.0, "size": 17, "time": "02/06/2020, 10:39:11"}, "type": "Feature"}, {"geometry": {"coordinates": [8.55928, 47.406028], "type": "Point"}, "properties": {"charge": 73, "id": "smide_77", "name": "ZH261548", "provider": "smide", "range": 36.0, "size": 20, "time": "02/06/2020, 10:39:11"}, "type": "Feature"}, {"geometry": {"coordinates": [8.528693, 47.37002], "type": "Point"}, "properties": {"charge": 81, "id": "smide_200", "name": "ZH253801", "provider": "smide", "range": 40.0, "size": 20, "time": "02/06/2020, 10:39:11"}, "type": "Feature"}, {"geometry": {"coordinates": [8.52437, 47.374965], "type": "Point"}, "properties": {"charge": 59, "id": "smide_197", "name": "ZH253864", "provider": "smide", "range": 29.0, "size": 20, "time": "02/06/2020, 10:39:11"}, "type": "Feature"}, {"geometry": {"coordinates": [8.489461, 47.376436], "type": "Point"}, "properties": {"charge": 64, "id": "smide_199", "name": "ZH253766", "provider": "smide", "range": 32.0, "size": 20, "time": "02/06/2020, 10:39:11"}, "type": "Feature"}, {"geometry": {"coordinates": [8.494593, 47.398204], "type": "Point"}, "properties": {"charge": 98, "id": "smide_8", "name": "ZH253861", "provider": "smide", "range": 49.0, "size": 17, "time": "02/06/2020, 10:39:11"}, "type": "Feature"}, {"geometry": {"coordinates": [8.55489, 47.357145], "type": "Point"}, "properties": {"charge": 100, "id": "smide_45", "name": "ZH253716", "provider": "smide", "range": 50.0, "size": 17, "time": "02/06/2020, 10:39:11"}, "type": "Feature"}, {"geometry": {"coordinates": [8.540145, 47.379116], "type": "Point"}, "properties": {"charge": 37, "id": "smide_71", "name": "ZH253742", "provider": "smide", "range": 18.0, "size": 20, "time": "02/06/2020, 10:39:11"}, "type": "Feature"}, {"geometry": {"coordinates": [8.520983, 47.388592], "type": "Point"}, "properties": {"charge": 27, "id": "smide_101", "name": "ZH253814", "provider": "smide", "range": 13.0, "size": 17, "time": "02/06/2020, 10:39:11"}, "type": "Feature"}, {"geometry": {"coordinates": [8.557644, 47.406056], "type": "Point"}, "properties": {"charge": 100, "id": "smide_143", "name": "ZH253778", "provider": "smide", "range": 50.0, "size": 17, "time": "02/06/2020, 10:39:11"}, "type": "Feature"}, {"geometry": {"coordinates": [8.548356, 47.377858], "type": "Point"}, "properties": {"charge": 60, "id": "smide_180", "name": "ZH253824", "provider": "smide", "range": 30.0, "size": 20, "time": "02/06/2020, 10:39:11"}, "type": "Feature"}, {"geometry": {"coordinates": [8.567295, 47.382646], "type": "Point"}, "properties": {"charge": 22, "id": "smide_30", "name": "ZH253813", "provider": "smide", "range": 11.0, "size": 20, "time": "02/06/2020, 10:39:11"}, "type": "Feature"}, {"geometry": {"coordinates": [8.529926, 47.373476], "type": "Point"}, "properties": {"charge": 84, "id": "smide_84", "name": "ZH253733", "provider": "smide", "range": 42.0, "size": 17, "time": "02/06/2020, 10:39:11"}, "type": "Feature"}, {"geometry": {"coordinates": [8.548058, 47.368852], "type": "Point"}, "properties": {"charge": 61, "id": "smide_165", "name": "ZH253752", "provider": "smide", "range": 30.0, "size": 17, "time": "02/06/2020, 10:39:11"}, "type": "Feature"}, {"geometry": {"coordinates": [8.502059, 47.368852], "type": "Point"}, "properties": {"charge": 100, "id": "smide_119", "name": "ZH253686", "provider": "smide", "range": 50.0, "size": 20, "time": "02/06/2020, 10:39:11"}, "type": "Feature"}, {"geometry": {"coordinates": [8.48796, 47.367833], "type": "Point"}, "properties": {"charge": 51, "id": "smide_49", "name": "ZH253873", "provider": "smide", "range": 25.0, "size": 17, "time": "02/06/2020, 10:39:11"}, "type": "Feature"}, {"geometry": {"coordinates": [8.53803, 47.367692], "type": "Point"}, "properties": {"charge": 50, "id": "smide_37", "name": "ZH261377", "provider": "smide", "range": 25.0, "size": 20, "time": "02/06/2020, 10:39:11"}, "type": "Feature"}, {"geometry": {"coordinates": [8.53348, 47.36116], "type": "Point"}, "properties": {"charge": 88, "id": "smide_191", "name": "ZH253762", "provider": "smide", "range": 44.0, "size": 17, "time": "02/06/2020, 10:39:11"}, "type": "Feature"}, {"geometry": {"coordinates": [8.511266, 47.40916], "type": "Point"}, "properties": {"charge": 89, "id": "smide_202", "name": "ZH253830", "provider": "smide", "range": 44.0, "size": 17, "time": "02/06/2020, 10:39:11"}, "type": "Feature"}, {"geometry": {"coordinates": [8.531724, 47.378292], "type": "Point"}, "properties": {"charge": 86, "id": "smide_56", "name": "ZH261442", "provider": "smide", "range": 43.0, "size": 20, "time": "02/06/2020, 10:39:11"}, "type": "Feature"}, {"geometry": {"coordinates": [8.499365, 47.402421], "type": "Point"}, "properties": {"charge": 27, "id": "smide_47", "name": "ZH253858", "provider": "smide", "range": 13.0, "size": 17, "time": "02/06/2020, 10:39:11"}, "type": "Feature"}, {"geometry": {"coordinates": [8.55971, 47.41776], "type": "Point"}, "properties": {"charge": 90, "id": "smide_23", "name": "ZH253704", "provider": "smide", "range": 45.0, "size": 17, "time": "02/06/2020, 10:39:11"}, "type": "Feature"}, {"geometry": {"coordinates": [8.558478, 47.403968], "type": "Point"}, "properties": {"charge": 90, "id": "smide_66", "name": "ZH253818", "provider": "smide", "range": 45.0, "size": 20, "time": "02/06/2020, 10:39:11"}, "type": "Feature"}, {"geometry": {"coordinates": [8.512863, 47.39326], "type": "Point"}, "properties": {"charge": 36, "id": "smide_17", "name": "ZH253793", "provider": "smide", "range": 18.0, "size": 17, "time": "02/06/2020, 10:39:11"}, "type": "Feature"}, {"geometry": {"coordinates": [8.546736, 47.407816], "type": "Point"}, "properties": {"charge": 41, "id": "smide_145", "name": "ZH253780", "provider": "smide", "range": 20.0, "size": 20, "time": "02/06/2020, 10:39:11"}, "type": "Feature"}, {"geometry": {"coordinates": [8.540316, 47.371696], "type": "Point"}, "properties": {"charge": 84, "id": "smide_114", "name": "ZH253878", "provider": "smide", "range": 42.0, "size": 20, "time": "02/06/2020, 10:39:11"}, "type": "Feature"}, {"geometry": {"coordinates": [8.514338, 47.357264], "type": "Point"}, "properties": {"charge": 66, "id": "smide_203", "name": "ZH261547", "provider": "smide", "range": 33.0, "size": 17, "time": "02/06/2020, 10:39:11"}, "type": "Feature"}, {"geometry": {"coordinates": [8.519876, 47.337112], "type": "Point"}, "properties": {"charge": 100, "id": "smide_21", "name": "ZH253841", "provider": "smide", "range": 50.0, "size": 17, "time": "02/06/2020, 10:39:11"}, "type": "Feature"}, {"geometry": {"coordinates": [8.517518, 47.358676], "type": "Point"}, "properties": {"charge": 67, "id": "smide_164", "name": "ZH253775", "provider": "smide", "range": 33.0, "size": 17, "time": "02/06/2020, 10:39:11"}, "type": "Feature"}, {"geometry": {"coordinates": [8.563412, 47.40938], "type": "Point"}, "properties": {"charge": 91, "id": "smide_189", "name": "ZH253845", "provider": "smide", "range": 45.0, "size": 20, "time": "02/06/2020, 10:39:11"}, "type": "Feature"}, {"geometry": {"coordinates": [8.494993, 47.381056], "type": "Point"}, "properties": {"charge": 35, "id": "smide_81", "name": "ZH253753", "provider": "smide", "range": 17.0, "size": 17, "time": "02/06/2020, 10:39:11"}, "type": "Feature"}, {"geometry": {"coordinates": [8.523804, 47.3907], "type": "Point"}, "properties": {"charge": 27, "id": "smide_171", "name": "ZH253689", "provider": "smide", "range": 13.0, "size": 20, "time": "02/06/2020, 10:39:11"}, "type": "Feature"}, {"geometry": {"coordinates": [8.5569, 47.403964], "type": "Point"}, "properties": {"charge": 70, "id": "smide_93", "name": "ZH253681", "provider": "smide", "range": 35.0, "size": 17, "time": "02/06/2020, 10:39:11"}, "type": "Feature"}, {"geometry": {"coordinates": [8.573435, 47.352644], "type": "Point"}, "properties": {"charge": 75, "id": "smide_67", "name": "ZH253779", "provider": "smide", "range": 37.0, "size": 17, "time": "02/06/2020, 10:39:11"}, "type": "Feature"}, {"geometry": {"coordinates": [8.482435, 47.385743], "type": "Point"}, "properties": {"charge": 79, "id": "smide_118", "name": "ZH253759", "provider": "smide", "range": 39.0, "size": 20, "time": "02/06/2020, 10:39:11"}, "type": "Feature"}, {"geometry": {"coordinates": [8.523288, 47.385252], "type": "Point"}, "properties": {"charge": 40, "id": "smide_142", "name": "ZH258745", "provider": "smide", "range": 20.0, "size": 17, "time": "02/06/2020, 10:39:11"}, "type": "Feature"}, {"geometry": {"coordinates": [8.545068, 47.386508], "type": "Point"}, "properties": {"charge": 92, "id": "smide_166", "name": "ZH253728", "provider": "smide", "range": 46.0, "size": 17, "time": "02/06/2020, 10:39:11"}, "type": "Feature"}, {"geometry": {"coordinates": [8.515625, 47.392596], "type": "Point"}, "properties": {"charge": 74, "id": "smide_126", "name": "ZH268400", "provider": "smide", "range": 37.0, "size": 17, "time": "02/06/2020, 10:39:11"}, "type": "Feature"}, {"geometry": {"coordinates": [8.53067, 47.344718], "type": "Point"}, "properties": {"charge": 100, "id": "smide_44", "name": "ZH253837", "provider": "smide", "range": 50.0, "size": 17, "time": "02/06/2020, 10:39:11"}, "type": "Feature"}, {"geometry": {"coordinates": [8.54705, 47.407858], "type": "Point"}, "properties": {"charge": 63, "id": "smide_98", "name": "ZH256321", "provider": "smide", "range": 31.0, "size": 17, "time": "02/06/2020, 10:39:11"}, "type": "Feature"}, {"geometry": {"coordinates": [8.528528, 47.382948], "type": "Point"}, "properties": {"charge": 89, "id": "smide_154", "name": "ZH253744", "provider": "smide", "range": 44.0, "size": 20, "time": "02/06/2020, 10:39:11"}, "type": "Feature"}, {"geometry": {"coordinates": [8.509727, 47.413856], "type": "Point"}, "properties": {"charge": 45, "id": "smide_92", "name": "ZH253798", "provider": "smide", "range": 22.0, "size": 17, "time": "02/06/2020, 10:39:11"}, "type": "Feature"}, {"geometry": {"coordinates": [8.544131, 47.379876], "type": "Point"}, "properties": {"charge": 52, "id": "smide_65", "name": "ZH253810", "provider": "smide", "range": 26.0, "size": 17, "time": "02/06/2020, 10:39:11"}, "type": "Feature"}, {"geometry": {"coordinates": [8.556275, 47.41062], "type": "Point"}, "properties": {"charge": 100, "id": "smide_40", "name": "ZH253690", "provider": "smide", "range": 50.0, "size": 20, "time": "02/06/2020, 10:39:11"}, "type": "Feature"}, {"geometry": {"coordinates": [8.525729, 47.392496], "type": "Point"}, "properties": {"charge": 27, "id": "smide_1", "name": "ZH253776", "provider": "smide", "range": 13.0, "size": 17, "time": "02/06/2020, 10:39:11"}, "type": "Feature"}, {"geometry": {"coordinates": [8.519795, 47.340258], "type": "Point"}, "properties": {"charge": 59, "id": "smide_14", "name": "ZH253749", "provider": "smide", "range": 29.0, "size": 20, "time": "02/06/2020, 10:39:11"}, "type": "Feature"}, {"geometry": {"coordinates": [8.496543, 47.3785], "type": "Point"}, "properties": {"charge": 20, "id": "smide_130", "name": "ZH253847", "provider": "smide", "range": 10.0, "size": 20, "time": "02/06/2020, 10:39:11"}, "type": "Feature"}, {"geometry": {"coordinates": [8.550847, 47.413476], "type": "Point"}, "properties": {"charge": 44, "id": "smide_24", "name": "ZH253696", "provider": "smide", "range": 22.0, "size": 20, "time": "02/06/2020, 10:39:11"}, "type": "Feature"}, {"geometry": {"coordinates": [8.512802, 47.39194], "type": "Point"}, "properties": {"charge": 33, "id": "smide_107", "name": "ZH253819", "provider": "smide", "range": 16.0, "size": 17, "time": "02/06/2020, 10:39:11"}, "type": "Feature"}, {"geometry": {"coordinates": [8.540628, 47.372868], "type": "Point"}, "properties": {"charge": 55, "id": "smide_136", "name": "ZH253682", "provider": "smide", "range": 27.0, "size": 17, "time": "02/06/2020, 10:39:11"}, "type": "Feature"}, {"geometry": {"coordinates": [8.545051, 47.390924], "type": "Point"}, "properties": {"charge": 27, "id": "smide_83", "name": "ZH253869", "provider": "smide", "range": 13.0, "size": 20, "time": "02/06/2020, 10:39:11"}, "type": "Feature"}, {"geometry": {"coordinates": [8.528741, 47.37002], "type": "Point"}, "properties": {"charge": 79, "id": "smide_193", "name": "ZH253738", "provider": "smide", "range": 39.0, "size": 20, "time": "02/06/2020, 10:39:11"}, "type": "Feature"}, {"geometry": {"coordinates": [8.533557, 47.412096], "type": "Point"}, "properties": {"charge": 52, "id": "smide_100", "name": "ZH253862", "provider": "smide", "range": 26.0, "size": 20, "time": "02/06/2020, 10:39:11"}, "type": "Feature"}, {"geometry": {"coordinates": [8.533935, 47.405468], "type": "Point"}, "properties": {"charge": 69, "id": "smide_134", "name": "ZH253741", "provider": "smide", "range": 34.0, "size": 20, "time": "02/06/2020, 10:39:11"}, "type": "Feature"}, {"geometry": {"coordinates": [8.490755, 47.380076], "type": "Point"}, "properties": {"charge": 43, "id": "smide_141", "name": "ZH253800", "provider": "smide", "range": 21.0, "size": 20, "time": "02/06/2020, 10:39:11"}, "type": "Feature"}, {"geometry": {"coordinates": [8.572775, 47.351536], "type": "Point"}, "properties": {"charge": 75, "id": "smide_16", "name": "ZH253713", "provider": "smide", "range": 37.0, "size": 20, "time": "02/06/2020, 10:39:11"}, "type": "Feature"}, {"geometry": {"coordinates": [8.558441, 47.352041], "type": "Point"}, "properties": {"charge": 20, "id": "smide_33", "name": "ZH253782", "provider": "smide", "range": 10.0, "size": 20, "time": "02/06/2020, 10:39:11"}, "type": "Feature"}, {"geometry": {"coordinates": [8.550606, 47.392572], "type": "Point"}, "properties": {"charge": 100, "id": "smide_161", "name": "ZH253691", "provider": "smide", "range": 50.0, "size": 20, "time": "02/06/2020, 10:39:11"}, "type": "Feature"}, {"geometry": {"coordinates": [8.56842, 47.36764], "type": "Point"}, "properties": {"charge": 97, "id": "smide_42", "name": "ZH253846", "provider": "smide", "range": 48.0, "size": 20, "time": "02/06/2020, 10:39:11"}, "type": "Feature"}, {"geometry": {"coordinates": [8.545478, 47.41236], "type": "Point"}, "properties": {"charge": 85, "id": "smide_4", "name": "ZH253740", "provider": "smide", "range": 42.0, "size": 20, "time": "02/06/2020, 10:39:11"}, "type": "Feature"}, {"geometry": {"coordinates": [8.540072, 47.37882], "type": "Point"}, "properties": {"charge": 44, "id": "smide_160", "name": "ZH253722", "provider": "smide", "range": 22.0, "size": 17, "time": "02/06/2020, 10:39:11"}, "type": "Feature"}, {"geometry": {"coordinates": [8.575121, 47.349016], "type": "Point"}, "properties": {"charge": 79, "id": "smide_137", "name": "ZH258502", "provider": "smide", "range": 39.0, "size": 17, "time": "02/06/2020, 10:39:11"}, "type": "Feature"}, {"geometry": {"coordinates": [8.564847, 47.349552], "type": "Point"}, "properties": {"charge": 86, "id": "smide_178", "name": "ZH253803", "provider": "smide", "range": 43.0, "size": 17, "time": "02/06/2020, 10:39:11"}, "type": "Feature"}, {"geometry": {"coordinates": [8.536621, 47.366146], "type": "Point"}, "properties": {"charge": 94, "id": "smide_55", "name": "ZH253875", "provider": "smide", "range": 47.0, "size": 17, "time": "02/06/2020, 10:39:11"}, "type": "Feature"}, {"geometry": {"coordinates": [8.540479, 47.39386], "type": "Point"}, "properties": {"charge": 35, "id": "smide_96", "name": "ZH256146", "provider": "smide", "range": 17.0, "size": 20, "time": "02/06/2020, 10:39:11"}, "type": "Feature"}, {"geometry": {"coordinates": [8.548141, 47.403664], "type": "Point"}, "properties": {"charge": 69, "id": "smide_58", "name": "ZH259246", "provider": "smide", "range": 34.0, "size": 20, "time": "02/06/2020, 10:39:11"}, "type": "Feature"}, {"geometry": {"coordinates": [8.484581, 47.394088], "type": "Point"}, "properties": {"charge": 69, "id": "smide_54", "name": "ZH253874", "provider": "smide", "range": 34.0, "size": 20, "time": "02/06/2020, 10:39:11"}, "type": "Feature"}, {"geometry": {"coordinates": [8.514725, 47.355492], "type": "Point"}, "properties": {"charge": 22, "id": "smide_175", "name": "ZH253730", "provider": "smide", "range": 11.0, "size": 17, "time": "02/06/2020, 10:39:11"}, "type": "Feature"}, {"geometry": {"coordinates": [8.510819, 47.367076], "type": "Point"}, "properties": {"charge": 65, "id": "smide_95", "name": "ZH253773", "provider": "smide", "range": 32.0, "size": 17, "time": "02/06/2020, 10:39:11"}, "type": "Feature"}, {"geometry": {"coordinates": [8.55027, 47.397252], "type": "Point"}, "properties": {"charge": 90, "id": "smide_163", "name": "ZH256147", "provider": "smide", "range": 45.0, "size": 20, "time": "02/06/2020, 10:39:11"}, "type": "Feature"}, {"geometry": {"coordinates": [8.548112, 47.379316], "type": "Point"}, "properties": {"charge": 57, "id": "smide_112", "name": "ZH263530", "provider": "smide", "range": 28.0, "size": 20, "time": "02/06/2020, 10:39:11"}, "type": "Feature"}, {"geometry": {"coordinates": [8.517518, 47.358632], "type": "Point"}, "properties": {"charge": 86, "id": "smide_122", "name": "ZH253850", "provider": "smide", "range": 43.0, "size": 20, "time": "02/06/2020, 10:39:11"}, "type": "Feature"}, {"geometry": {"coordinates": [8.524201, 47.371283], "type": "Point"}, "properties": {"charge": 84, "id": "smide_38", "name": "ZH253851", "provider": "smide", "range": 42.0, "size": 20, "time": "02/06/2020, 10:39:11"}, "type": "Feature"}, {"geometry": {"coordinates": [8.557739, 47.404452], "type": "Point"}, "properties": {"charge": 77, "id": "smide_6", "name": "ZH253787", "provider": "smide", "range": 38.0, "size": 17, "time": "02/06/2020, 10:39:11"}, "type": "Feature"}, {"geometry": {"coordinates": [8.556862, 47.403784], "type": "Point"}, "properties": {"charge": 59, "id": "smide_18", "name": "ZH253859", "provider": "smide", "range": 29.0, "size": 17, "time": "02/06/2020, 10:39:11"}, "type": "Feature"}, {"geometry": {"coordinates": [8.515038, 47.414568], "type": "Point"}, "properties": {"charge": 22, "id": "smide_12", "name": "ZH253685", "provider": "smide", "range": 11.0, "size": 17, "time": "02/06/2020, 10:39:11"}, "type": "Feature"}, {"geometry": {"coordinates": [8.576345, 47.348804], "type": "Point"}, "properties": {"charge": 89, "id": "smide_192", "name": "ZH253706", "provider": "smide", "range": 44.0, "size": 20, "time": "02/06/2020, 10:39:11"}, "type": "Feature"}, {"geometry": {"coordinates": [8.50958, 47.39374], "type": "Point"}, "properties": {"charge": 90, "id": "smide_39", "name": "ZH253714", "provider": "smide", "range": 45.0, "size": 20, "time": "02/06/2020, 10:39:11"}, "type": "Feature"}, {"geometry": {"coordinates": [8.53534, 47.367975], "type": "Point"}, "properties": {"charge": 87, "id": "smide_5", "name": "ZH261443", "provider": "smide", "range": 43.0, "size": 20, "time": "02/06/2020, 10:39:11"}, "type": "Feature"}, {"geometry": {"coordinates": [8.51634, 47.390075], "type": "Point"}, "properties": {"charge": 71, "id": "smide_85", "name": "ZH253729", "provider": "smide", "range": 35.0, "size": 17, "time": "02/06/2020, 10:39:11"}, "type": "Feature"}, {"geometry": {"coordinates": [8.494988, 47.398236], "type": "Point"}, "properties": {"charge": 100, "id": "smide_29", "name": "ZH253723", "provider": "smide", "range": 50.0, "size": 17, "time": "02/06/2020, 10:39:11"}, "type": "Feature"}, {"geometry": {"coordinates": [8.561841, 47.35034], "type": "Point"}, "properties": {"charge": 32, "id": "smide_46", "name": "ZH253843", "provider": "smide", "range": 16.0, "size": 20, "time": "02/06/2020, 10:39:11"}, "type": "Feature"}, {"geometry": {"coordinates": [8.53354833333333, 47.3670616666667], "type": "Point"}, "properties": {"charge": 87, "id": "bird_9bf1a473-9e62-4ba3-8784-d8a911ec5a1c", "provider": "bird", "timeStamp": "02/06/2020, 10:39:11"}, "type": "Feature"}, {"geometry": {"coordinates": [8.51307, 47.3735966666667], "type": "Point"}, "properties": {"charge": 21, "id": "bird_f9c7de13-cf8b-48ac-8e67-d7046d913153", "provider": "bird", "timeStamp": "02/06/2020, 10:39:11"}, "type": "Feature"}, {"geometry": {"coordinates": [8.51075333333333, 47.3784183333333], "type": "Point"}, "properties": {"charge": 100, "id": "bird_22fec2fa-f3ac-475e-92e3-50ec5edab0c0", "provider": "bird", "timeStamp": "02/06/2020, 10:39:11"}, "type": "Feature"}, {"geometry": {"coordinates": [8.53402666666667, 47.3673166666667], "type": "Point"}, "properties": {"charge": 82, "id": "bird_f439d1bb-a997-4d70-8317-38afbbf54469", "provider": "bird", "timeStamp": "02/06/2020, 10:39:11"}, "type": "Feature"}, {"geometry": {"coordinates": [8.52548666666667, 47.39243], "type": "Point"}, "properties": {"charge": 26, "id": "bird_1b988910-e478-4678-b5bf-5c5eda0e5b91", "provider": "bird", "timeStamp": "02/06/2020, 10:39:11"}, "type": "Feature"}, {"geometry": {"coordinates": [8.54689166666667, 47.3857466666667], "type": "Point"}, "properties": {"charge": 26, "id": "bird_20075318-0504-4d8c-8521-80cb08be83e3", "provider": "bird", "timeStamp": "02/06/2020, 10:39:11"}, "type": "Feature"}, {"geometry": {"coordinates": [8.54444166666667, 47.371785], "type": "Point"}, "properties": {"charge": 26, "id": "bird_bd693085-e45b-4865-a70b-41371c952e23", "provider": "bird", "timeStamp": "02/06/2020, 10:39:11"}, "type": "Feature"}, {"geometry": {"coordinates": [8.53808, 47.3912166666667], "type": "Point"}, "properties": {"charge": 75, "id": "bird_a21e3e6a-6dc8-4d60-9e7c-e4e55f4e7a6a", "provider": "bird", "timeStamp": "02/06/2020, 10:39:11"}, "type": "Feature"}, {"geometry": {"coordinates": [8.52785666666667, 47.392285], "type": "Point"}, "properties": {"charge": 56, "id": "bird_af60b997-4467-4603-9e04-90c2e1116714", "provider": "bird", "timeStamp": "02/06/2020, 10:39:11"}, "type": "Feature"}, {"geometry": {"coordinates": [8.51496333333333, 47.3730166666667], "type": "Point"}, "properties": {"charge": 76, "id": "bird_60dd8a6b-c961-4426-b826-05eff22e9285", "provider": "bird", "timeStamp": "02/06/2020, 10:39:11"}, "type": "Feature"}, {"geometry": {"coordinates": [8.51447333333333, 47.3737983333333], "type": "Point"}, "properties": {"charge": 69, "id": "bird_3b1f6026-6e18-4e39-99d9-b1a0830eddd2", "provider": "bird", "timeStamp": "02/06/2020, 10:39:11"}, "type": "Feature"}, {"geometry": {"coordinates": [8.51693, 47.3717], "type": "Point"}, "properties": {"charge": 17, "id": "bird_19571189-208a-4068-916b-8002824b3c16", "provider": "bird", "timeStamp": "02/06/2020, 10:39:11"}, "type": "Feature"}, {"geometry": {"coordinates": [8.53462333333333, 47.368305], "type": "Point"}, "properties": {"charge": 63, "id": "bird_1c49cd0f-1d68-49f8-9de2-e4e8b622258a", "provider": "bird", "timeStamp": "02/06/2020, 10:39:11"}, "type": "Feature"}, {"geometry": {"coordinates": [8.54646333333333, 47.3846783333333], "type": "Point"}, "properties": {"charge": 93, "id": "bird_2884fc09-8fdf-41f2-906b-e590aa4d10d0", "provider": "bird", "timeStamp": "02/06/2020, 10:39:11"}, "type": "Feature"}, {"geometry": {"coordinates": [8.51497666666667, 47.3734783333333], "type": "Point"}, "properties": {"charge": 88, "id": "bird_19eac986-8d7c-457a-893f-c4872f1dc18c", "provider": "bird", "timeStamp": "02/06/2020, 10:39:11"}, "type": "Feature"}, {"geometry": {"coordinates": [8.54639666666667, 47.3847233333333], "type": "Point"}, "properties": {"charge": 18, "id": "bird_17238741-3036-424e-9561-b39322a11186", "provider": "bird", "timeStamp": "02/06/2020, 10:39:11"}, "type": "Feature"}, {"geometry": {"coordinates": [8.51476166666667, 47.3739166666667], "type": "Point"}, "properties": {"charge": 33, "id": "bird_20a29c23-57f7-4a0c-9ba7-7fedddcfb1f1", "provider": "bird", "timeStamp": "02/06/2020, 10:39:11"}, "type": "Feature"}, {"geometry": {"coordinates": [8.52316333333333, 47.39096], "type": "Point"}, "properties": {"charge": 36, "id": "bird_7613150f-4e64-47f4-960c-fc7cf2e08aa0", "provider": "bird", "timeStamp": "02/06/2020, 10:39:11"}, "type": "Feature"}, {"geometry": {"coordinates": [8.54514666666667, 47.3859716666667], "type": "Point"}, "properties": {"charge": 45, "id": "bird_4baf6432-87b3-4063-9972-ff4cf7ff82bf", "provider": "bird", "timeStamp": "02/06/2020, 10:39:11"}, "type": "Feature"}, {"geometry": {"coordinates": [8.54707, 47.37738], "type": "Point"}, "properties": {"charge": 30, "id": "bird_26934ae3-6e31-4d93-9a26-098f05f7c8c0", "provider": "bird", "timeStamp": "02/06/2020, 10:39:11"}, "type": "Feature"}, {"geometry": {"coordinates": [8.534185, 47.3685416666667], "type": "Point"}, "properties": {"charge": 75, "id": "bird_14c04621-ee94-464d-90fb-27c9101e0ed4", "provider": "bird", "timeStamp": "02/06/2020, 10:39:11"}, "type": "Feature"}, {"geometry": {"coordinates": [8.53424166666667, 47.3685716666667], "type": "Point"}, "properties": {"charge": 40, "id": "bird_79b801e4-cee9-41ef-9c00-1960a8ea50e3", "provider": "bird", "timeStamp": "02/06/2020, 10:39:11"}, "type": "Feature"}, {"geometry": {"coordinates": [8.53979, 47.38974], "type": "Point"}, "properties": {"charge": 62, "id": "bird_baaa8d5b-45d4-4046-94b5-9d068ea65049", "provider": "bird", "timeStamp": "02/06/2020, 10:39:11"}, "type": "Feature"}, {"geometry": {"coordinates": [8.51734833333333, 47.3720733333333], "type": "Point"}, "properties": {"charge": 11, "id": "bird_354d56fa-2540-4954-a080-11c3e770f6d1", "provider": "bird", "timeStamp": "02/06/2020, 10:39:11"}, "type": "Feature"}, {"geometry": {"coordinates": [8.54646833333333, 47.3834116666667], "type": "Point"}, "properties": {"charge": 60, "id": "bird_52aff257-a53f-456d-a5cf-ae74225532f6", "provider": "bird", "timeStamp": "02/06/2020, 10:39:11"}, "type": "Feature"}, {"geometry": {"coordinates": [8.54041166666667, 47.37072], "type": "Point"}, "properties": {"charge": 36, "id": "bird_a62967f5-6666-4ec5-aa95-806e0fefb226", "provider": "bird", "timeStamp": "02/06/2020, 10:39:11"}, "type": "Feature"}, {"geometry": {"coordinates": [8.53770833333333, 47.3902016666667], "type": "Point"}, "properties": {"charge": 18, "id": "bird_b5b241c9-c697-44e0-a4b6-334146d679e6", "provider": "bird", "timeStamp": "02/06/2020, 10:39:11"}, "type": "Feature"}, {"geometry": {"coordinates": [8.52221, 47.3901183333333], "type": "Point"}, "properties": {"charge": 84, "id": "bird_bf749641-f8d8-43be-9d51-f45be4b50b0d", "provider": "bird", "timeStamp": "02/06/2020, 10:39:11"}, "type": "Feature"}, {"geometry": {"coordinates": [8.521705, 47.38992], "type": "Point"}, "properties": {"charge": 91, "id": "bird_18b26021-b810-499c-a862-ee38369bfcfb", "provider": "bird", "timeStamp": "02/06/2020, 10:39:11"}, "type": "Feature"}, {"geometry": {"coordinates": [8.52184333333333, 47.3899383333333], "type": "Point"}, "properties": {"charge": 89, "id": "bird_7e892bd2-9844-44f4-9246-a22cbc938ae8", "provider": "bird", "timeStamp": "02/06/2020, 10:39:11"}, "type": "Feature"}, {"geometry": {"coordinates": [8.51352, 47.3780016666667], "type": "Point"}, "properties": {"charge": 72, "id": "bird_fd8bcbd0-95bb-473f-8d2e-f39029ab0e2e", "provider": "bird", "timeStamp": "02/06/2020, 10:39:11"}, "type": "Feature"}, {"geometry": {"coordinates": [8.521695, 47.3898433333333], "type": "Point"}, "properties": {"charge": 90, "id": "bird_9bb01c7d-559e-4e09-9205-7e74cfb855aa", "provider": "bird", "timeStamp": "02/06/2020, 10:39:11"}, "type": "Feature"}, {"geometry": {"coordinates": [8.51355166666667, 47.3779566666667], "type": "Point"}, "properties": {"charge": 53, "id": "bird_24c213e3-ad57-4f00-81c1-dfef87310739", "provider": "bird", "timeStamp": "02/06/2020, 10:39:11"}, "type": "Feature"}, {"geometry": {"coordinates": [8.519045, 47.3715433333333], "type": "Point"}, "properties": {"charge": 66, "id": "bird_4f38d25a-4391-4993-9319-078d071cc0a1", "provider": "bird", "timeStamp": "02/06/2020, 10:39:11"}, "type": "Feature"}, {"geometry": {"coordinates": [8.515835, 47.3741833333333], "type": "Point"}, "properties": {"charge": 25, "id": "bird_3c5655fc-8cc2-444a-b77c-85fc85a4d38c", "provider": "bird", "timeStamp": "02/06/2020, 10:39:11"}, "type": "Feature"}, {"geometry": {"coordinates": [8.52205333333333, 47.3898433333333], "type": "Point"}, "properties": {"charge": 93, "id": "bird_09c16c8d-2bc3-49de-bd2a-20a2ca686e6f", "provider": "bird", "timeStamp": "02/06/2020, 10:39:11"}, "type": "Feature"}, {"geometry": {"coordinates": [8.52337666666667, 47.3901666666667], "type": "Point"}, "properties": {"charge": 15, "id": "bird_1791ded2-63ac-4f5f-8d6b-e3dd1bbab9aa", "provider": "bird", "timeStamp": "02/06/2020, 10:39:11"}, "type": "Feature"}, {"geometry": {"coordinates": [8.52167166666667, 47.389545], "type": "Point"}, "properties": {"charge": 91, "id": "bird_7fb5bb07-aa53-499d-ad8b-9384b8078211", "provider": "bird", "timeStamp": "02/06/2020, 10:39:11"}, "type": "Feature"}, {"geometry": {"coordinates": [8.53739666666667, 47.3701216666667], "type": "Point"}, "properties": {"charge": 72, "id": "bird_4f0ec214-a3e0-4e5e-bef1-823936579c8d", "provider": "bird", "timeStamp": "02/06/2020, 10:39:11"}, "type": "Feature"}, {"geometry": {"coordinates": [8.53768833333333, 47.3702283333333], "type": "Point"}, "properties": {"charge": 69, "id": "bird_a52424c6-6a98-4010-8168-514513104c88", "provider": "bird", "timeStamp": "02/06/2020, 10:39:11"}, "type": "Feature"}, {"geometry": {"coordinates": [8.53678166666667, 47.369965], "type": "Point"}, "properties": {"charge": 25, "id": "bird_76e6134a-e000-432a-8430-d2eca8f4fee0", "provider": "bird", "timeStamp": "02/06/2020, 10:39:11"}, "type": "Feature"}, {"geometry": {"coordinates": [8.532445, 47.36916], "type": "Point"}, "properties": {"charge": 92, "id": "bird_69111ccf-a91e-4b77-b5cf-a8d485678438", "provider": "bird", "timeStamp": "02/06/2020, 10:39:11"}, "type": "Feature"}, {"geometry": {"coordinates": [8.51876666666667, 47.3723], "type": "Point"}, "properties": {"charge": 42, "id": "bird_e25d36fd-c771-4244-bc71-25471a0faa22", "provider": "bird", "timeStamp": "02/06/2020, 10:39:11"}, "type": "Feature"}, {"geometry": {"coordinates": [8.515285, 47.3758433333333], "type": "Point"}, "properties": {"charge": 43, "id": "bird_1f39ee85-69d1-4ff3-82aa-60b9de22eb6b", "provider": "bird", "timeStamp": "02/06/2020, 10:39:11"}, "type": "Feature"}, {"geometry": {"coordinates": [8.541325, 47.3724483333333], "type": "Point"}, "properties": {"charge": 83, "id": "bird_9e75f4c7-6954-46bd-97a4-6ece45351cb6", "provider": "bird", "timeStamp": "02/06/2020, 10:39:11"}, "type": "Feature"}, {"geometry": {"coordinates": [8.51536833333333, 47.3760033333333], "type": "Point"}, "properties": {"charge": 36, "id": "bird_e0d8669c-bd85-45e2-ab53-f7fec04d8dcf", "provider": "bird", "timeStamp": "02/06/2020, 10:39:11"}, "type": "Feature"}, {"geometry": {"coordinates": [8.54006166666667, 47.3881833333333], "type": "Point"}, "properties": {"charge": 88, "id": "bird_d86f30ac-e913-4c84-9a32-c9cd60b24cc4", "provider": "bird", "timeStamp": "02/06/2020, 10:39:11"}, "type": "Feature"}, {"geometry": {"coordinates": [8.52507833333333, 47.3699983333333], "type": "Point"}, "properties": {"charge": 35, "id": "bird_abb31544-4d9d-427e-b455-ab26e08c2db4", "provider": "bird", "timeStamp": "02/06/2020, 10:39:11"}, "type": "Feature"}, {"geometry": {"coordinates": [8.52303, 47.3705783333333], "type": "Point"}, "properties": {"charge": 22, "id": "bird_81e453d2-e134-4d27-a3c1-5d6b9a7c4ee4", "provider": "bird", "timeStamp": "02/06/2020, 10:39:11"}, "type": "Feature"}, {"geometry": {"coordinates": [8.52131, 47.38874], "type": "Point"}, "properties": {"charge": 57, "id": "bird_bb292995-ece3-4c08-8c61-46afd06e8f59", "provider": "bird", "timeStamp": "02/06/2020, 10:39:11"}, "type": "Feature"}, {"geometry": {"coordinates": [8.51918833333333, 47.3875733333333], "type": "Point"}, "properties": {"charge": 49, "id": "bird_60dd0867-a321-4ae3-8451-080874916d89", "provider": "bird", "timeStamp": "02/06/2020, 10:39:11"}, "type": "Feature"}, {"geometry": {"coordinates": [8.54049833333333, 47.3877333333333], "type": "Point"}, "properties": {"charge": 19, "id": "bird_f48b4fc2-7379-4dcc-9698-ab301a2c7d61", "provider": "bird", "timeStamp": "02/06/2020, 10:39:11"}, "type": "Feature"}, {"geometry": {"coordinates": [8.53949333333333, 47.3882866666667], "type": "Point"}, "properties": {"charge": 75, "id": "bird_1c9c676d-754d-48cf-a974-f8d6d01e3933", "provider": "bird", "timeStamp": "02/06/2020, 10:39:11"}, "type": "Feature"}, {"geometry": {"coordinates": [8.51512, 47.382755], "type": "Point"}, "properties": {"charge": 82, "id": "bird_b6ff11b8-91e2-4dc7-92f0-6e863d3163a2", "provider": "bird", "timeStamp": "02/06/2020, 10:39:11"}, "type": "Feature"}, {"geometry": {"coordinates": [8.52179166666667, 47.38879], "type": "Point"}, "properties": {"charge": 85, "id": "bird_be331961-ce60-4ad6-970c-6872ef0683b6", "provider": "bird", "timeStamp": "02/06/2020, 10:39:11"}, "type": "Feature"}, {"geometry": {"coordinates": [8.51652166666667, 47.38485], "type": "Point"}, "properties": {"charge": 76, "id": "bird_5dc5aadf-f7bb-4486-92a7-5dba9b8319ed", "provider": "bird", "timeStamp": "02/06/2020, 10:39:11"}, "type": "Feature"}, {"geometry": {"coordinates": [8.51742, 47.3858066666667], "type": "Point"}, "properties": {"charge": 56, "id": "bird_e53c4dbe-dd60-4165-9ee7-81ceb62f43b3", "provider": "bird", "timeStamp": "02/06/2020, 10:39:11"}, "type": "Feature"}, {"geometry": {"coordinates": [8.515125, 47.3821866666667], "type": "Point"}, "properties": {"charge": 80, "id": "bird_5c011926-c349-4615-9695-5d7f05f4f1e6", "provider": "bird", "timeStamp": "02/06/2020, 10:39:11"}, "type": "Feature"}, {"geometry": {"coordinates": [8.51518666666667, 47.3821866666667], "type": "Point"}, "properties": {"charge": 15, "id": "bird_f29f1ea7-0d65-4e96-be62-67c320c924e7", "provider": "bird", "timeStamp": "02/06/2020, 10:39:11"}, "type": "Feature"}, {"geometry": {"coordinates": [8.517835, 47.3861166666667], "type": "Point"}, "properties": {"charge": 74, "id": "bird_ba650d1b-cbbf-447f-9b3e-01e0d2766844", "provider": "bird", "timeStamp": "02/06/2020, 10:39:11"}, "type": "Feature"}, {"geometry": {"coordinates": [8.54402333333333, 47.37619], "type": "Point"}, "properties": {"charge": 44, "id": "bird_b8487cad-c54b-4397-add5-15fc448be980", "provider": "bird", "timeStamp": "02/06/2020, 10:39:11"}, "type": "Feature"}, {"geometry": {"coordinates": [8.51777, 47.3859366666667], "type": "Point"}, "properties": {"charge": 91, "id": "bird_337c60da-e05d-4e15-9806-1c1da5e698bf", "provider": "bird", "timeStamp": "02/06/2020, 10:39:11"}, "type": "Feature"}, {"geometry": {"coordinates": [8.51778, 47.385875], "type": "Point"}, "properties": {"charge": 91, "id": "bird_6e0d590f-ffd5-4f4c-ad9d-c6aec690274d", "provider": "bird", "timeStamp": "02/06/2020, 10:39:11"}, "type": "Feature"}, {"geometry": {"coordinates": [8.516525, 47.3755766666667], "type": "Point"}, "properties": {"charge": 98, "id": "bird_17be87b1-08c2-4c89-ac00-33d637547799", "provider": "bird", "timeStamp": "02/06/2020, 10:39:11"}, "type": "Feature"}, {"geometry": {"coordinates": [8.51651333333333, 47.3756066666667], "type": "Point"}, "properties": {"charge": 100, "id": "bird_f9ead91f-5059-447d-88e0-5883bc8eb4a7", "provider": "bird", "timeStamp": "02/06/2020, 10:39:11"}, "type": "Feature"}, {"geometry": {"coordinates": [8.517335, 47.374615], "type": "Point"}, "properties": {"charge": 19, "id": "bird_92f3eb85-f275-40e5-9fb6-890bfec6cb24", "provider": "bird", "timeStamp": "02/06/2020, 10:39:11"}, "type": "Feature"}, {"geometry": {"coordinates": [8.535235, 47.3705483333333], "type": "Point"}, "properties": {"charge": 91, "id": "bird_cbfc6496-ef18-467f-a30d-3c636a6bd79d", "provider": "bird", "timeStamp": "02/06/2020, 10:39:11"}, "type": "Feature"}, {"geometry": {"coordinates": [8.51670333333333, 47.3755716666667], "type": "Point"}, "properties": {"charge": 100, "id": "bird_db071bab-4334-4230-82dd-f0d6f603297e", "provider": "bird", "timeStamp": "02/06/2020, 10:39:11"}, "type": "Feature"}, {"geometry": {"coordinates": [8.51836333333333, 47.3862083333333], "type": "Point"}, "properties": {"charge": 48, "id": "bird_94250a10-a892-40eb-8095-de35264ef031", "provider": "bird", "timeStamp": "02/06/2020, 10:39:11"}, "type": "Feature"}, {"geometry": {"coordinates": [8.52314333333333, 47.3711283333333], "type": "Point"}, "properties": {"charge": 93, "id": "bird_0f43ed75-c364-4524-b764-fa37134ef3db", "provider": "bird", "timeStamp": "02/06/2020, 10:39:11"}, "type": "Feature"}, {"geometry": {"coordinates": [8.53979166666667, 47.3725016666667], "type": "Point"}, "properties": {"charge": 83, "id": "bird_0a3fc0e7-c438-4d9e-ab92-12d63c7c8904", "provider": "bird", "timeStamp": "02/06/2020, 10:39:11"}, "type": "Feature"}, {"geometry": {"coordinates": [8.52353, 47.371025], "type": "Point"}, "properties": {"charge": 100, "id": "bird_b132db95-04f2-406e-8923-13e495f96545", "provider": "bird", "timeStamp": "02/06/2020, 10:39:11"}, "type": "Feature"}, {"geometry": {"coordinates": [8.51666333333333, 47.37579], "type": "Point"}, "properties": {"charge": 97, "id": "bird_e4b5dc6b-3c50-4d91-90b8-c9b398fbb374", "provider": "bird", "timeStamp": "02/06/2020, 10:39:11"}, "type": "Feature"}, {"geometry": {"coordinates": [8.52316833333333, 47.3711783333333], "type": "Point"}, "properties": {"charge": 99, "id": "bird_ed495f74-adf0-47c3-9527-933f4d8e299d", "provider": "bird", "timeStamp": "02/06/2020, 10:39:11"}, "type": "Feature"}, {"geometry": {"coordinates": [8.51667166666667, 47.3758166666667], "type": "Point"}, "properties": {"charge": 100, "id": "bird_9dd3cc4d-89fd-48e4-962e-10ba12ce43a3", "provider": "bird", "timeStamp": "02/06/2020, 10:39:11"}, "type": "Feature"}, {"geometry": {"coordinates": [8.54343833333333, 47.3759883333333], "type": "Point"}, "properties": {"charge": 48, "id": "bird_1a639d8c-6e66-4537-af5a-d15c31812b6e", "provider": "bird", "timeStamp": "02/06/2020, 10:39:11"}, "type": "Feature"}, {"geometry": {"coordinates": [8.51668333333333, 47.375835], "type": "Point"}, "properties": {"charge": 100, "id": "bird_59b1e802-370b-4006-9998-54fa71f179cb", "provider": "bird", "timeStamp": "02/06/2020, 10:39:11"}, "type": "Feature"}, {"geometry": {"coordinates": [8.51673833333333, 47.375775], "type": "Point"}, "properties": {"charge": 100, "id": "bird_7e293343-b50d-43b1-8726-8dc1fe960b96", "provider": "bird", "timeStamp": "02/06/2020, 10:39:11"}, "type": "Feature"}, {"geometry": {"coordinates": [8.53792666666667, 47.388325], "type": "Point"}, "properties": {"charge": 40, "id": "bird_faae51e6-c6a2-413b-90c3-651f714d8eae", "provider": "bird", "timeStamp": "02/06/2020, 10:39:11"}, "type": "Feature"}, {"geometry": {"coordinates": [8.51832666666667, 47.3859333333333], "type": "Point"}, "properties": {"charge": 91, "id": "bird_22ba3525-9009-4caa-afe9-1e4233a4fa1f", "provider": "bird", "timeStamp": "02/06/2020, 10:39:11"}, "type": "Feature"}, {"geometry": {"coordinates": [8.516645, 47.376065], "type": "Point"}, "properties": {"charge": 75, "id": "bird_683114e8-4352-4971-9b47-b7dac5e3fee1", "provider": "bird", "timeStamp": "02/06/2020, 10:39:11"}, "type": "Feature"}, {"geometry": {"coordinates": [8.52354, 47.3711666666667], "type": "Point"}, "properties": {"charge": 100, "id": "bird_48e93300-8559-4f8e-8c77-0f0fa437d088", "provider": "bird", "timeStamp": "02/06/2020, 10:39:11"}, "type": "Feature"}, {"geometry": {"coordinates": [8.53813833333333, 47.38808], "type": "Point"}, "properties": {"charge": 17, "id": "bird_43a66c3d-7fef-477c-af31-6ef428968c3d", "provider": "bird", "timeStamp": "02/06/2020, 10:39:11"}, "type": "Feature"}, {"geometry": {"coordinates": [8.51576666666667, 47.3801733333333], "type": "Point"}, "properties": {"charge": 25, "id": "bird_c5294c77-d7b6-44a5-949c-7710bd1166ac", "provider": "bird", "timeStamp": "02/06/2020, 10:39:11"}, "type": "Feature"}, {"geometry": {"coordinates": [8.518055, 47.37489], "type": "Point"}, "properties": {"charge": 34, "id": "bird_4af1559f-cc56-4104-b9ad-cc3cdd8d0851", "provider": "bird", "timeStamp": "02/06/2020, 10:39:11"}, "type": "Feature"}, {"geometry": {"coordinates": [8.52419166666667, 47.3713266666667], "type": "Point"},