{"features": [{"geometry": {"coordinates": [8.540062, 47.374392], "type": "Point"}, "properties": {"address": "Uraniastrasse 7", "electric": 3, "id": "pb_60", "manual": 6, "name": "Demo Station Werdm\u00fchleplatz", "provider": "publibike", "timeStamp": "02/10/2020, 12:49:27", "zip": 8001}, "type": "Feature"}, {"geometry": {"coordinates": [8.5452956, 47.4099615], "type": "Point"}, "properties": {"address": "Querstrasse 8", "electric": 1, "id": "pb_61", "manual": 0, "name": "Marktplatz", "provider": "publibike", "timeStamp": "02/10/2020, 12:49:27", "zip": 8050}, "type": "Feature"}, {"geometry": {"coordinates": [8.5156327, 47.3795837], "type": "Point"}, "properties": {"address": "Bullingerstrasse 5", "electric": 4, "id": "pb_80", "manual": 0, "name": "Bullingerplatz", "provider": "publibike", "timeStamp": "02/10/2020, 12:49:27", "zip": 8004}, "type": "Feature"}, {"geometry": {"coordinates": [8.5104051, 47.3899342], "type": "Point"}, "properties": {"address": "Pfingstweidstrasse 96e", "electric": 4, "id": "pb_81", "manual": 1, "name": "Herdern", "provider": "publibike", "timeStamp": "02/10/2020, 12:49:27", "zip": 8001}, "type": "Feature"}, {"geometry": {"coordinates": [8.535718, 47.359675], "type": "Point"}, "properties": {"address": "Mythenquai 50", "electric": 22, "id": "pb_82", "manual": 7, "name": "Hafen Enge", "provider": "publibike", "timeStamp": "02/10/2020, 12:49:27", "zip": 8002}, "type": "Feature"}, {"geometry": {"coordinates": [8.520370505, 47.358663827], "type": "Point"}, "properties": {"address": "Bubenbergstrasse 1", "electric": 1, "id": "pb_83", "manual": 3, "name": "Comerge", "provider": "publibike", "timeStamp": "02/10/2020, 12:49:27", "zip": 8045}, "type": "Feature"}, {"geometry": {"coordinates": [8.5412505, 47.3789825], "type": "Point"}, "properties": {"address": "Museumstrasse 2", "electric": 0, "id": "pb_84", "manual": 21, "name": "Landesmuseum", "provider": "publibike", "timeStamp": "02/10/2020, 12:49:27", "zip": 8001}, "type": "Feature"}, {"geometry": {"coordinates": [8.5235479, 47.3716661], "type": "Point"}, "properties": {"address": "Birmensdorferstrasse 80", "electric": 0, "id": "pb_85", "manual": 2, "name": "Bahnhof Wiedikon", "provider": "publibike", "timeStamp": "02/10/2020, 12:49:27", "zip": 8003}, "type": "Feature"}, {"geometry": {"coordinates": [8.506822854, 47.40781197], "type": "Point"}, "properties": {"address": "Stefano-Franscini-Platz 5", "electric": 8, "id": "pb_86", "manual": 0, "name": "ETH H\u00f6nggerberg", "provider": "publibike", "timeStamp": "02/10/2020, 12:49:27", "zip": 8093}, "type": "Feature"}, {"geometry": {"coordinates": [8.536101, 47.371083], "type": "Point"}, "properties": {"address": "Pelikanplatz 5", "electric": 3, "id": "pb_87", "manual": 14, "name": "Pelikanplatz", "provider": "publibike", "timeStamp": "02/10/2020, 12:49:27", "zip": 8001}, "type": "Feature"}, {"geometry": {"coordinates": [8.5257822, 47.3651936], "type": "Point"}, "properties": {"address": "H\u00fcrlimannplatz 90", "electric": 40, "id": "pb_88", "manual": 8, "name": "H\u00fcrlimannplatz", "provider": "publibike", "timeStamp": "02/10/2020, 12:49:27", "zip": 8002}, "type": "Feature"}, {"geometry": {"coordinates": [8.5313344, 47.3713591], "type": "Point"}, "properties": {"address": "Selnaustrasse 32", "electric": 10, "id": "pb_89", "manual": 3, "name": "Stauffacherbr\u00fccke", "provider": "publibike", "timeStamp": "02/10/2020, 12:49:27", "zip": 8001}, "type": "Feature"}, {"geometry": {"coordinates": [8.5056978, 47.3917964], "type": "Point"}, "properties": {"address": "Sportweg 25", "electric": 3, "id": "pb_90", "manual": 5, "name": "Sportweg", "provider": "publibike", "timeStamp": "02/10/2020, 12:49:27", "zip": 8005}, "type": "Feature"}, {"geometry": {"coordinates": [8.5181701, 47.3917837], "type": "Point"}, "properties": {"address": "Hardturmstrasse 11", "electric": 3, "id": "pb_91", "manual": 4, "name": "Puls 5", "provider": "publibike", "timeStamp": "02/10/2020, 12:49:27", "zip": 8005}, "type": "Feature"}, {"geometry": {"coordinates": [8.5286468, 47.3820827], "type": "Point"}, "properties": {"address": "R\u00f6ntgenstrasse 6", "electric": 2, "id": "pb_92", "manual": 6, "name": "R\u00f6ntgenstrasse", "provider": "publibike", "timeStamp": "02/10/2020, 12:49:27", "zip": 8005}, "type": "Feature"}, {"geometry": {"coordinates": [8.531935, 47.384918], "type": "Point"}, "properties": {"address": "Kornhausbr\u00fccke 1", "electric": 1, "id": "pb_93", "manual": 3, "name": "Limmatplatz", "provider": "publibike", "timeStamp": "02/10/2020, 12:49:27", "zip": 8005}, "type": "Feature"}, {"geometry": {"coordinates": [8.5354006, 47.3758639], "type": "Point"}, "properties": {"address": "Gessnerallee 15", "electric": 6, "id": "pb_94", "manual": 2, "name": "Gessnerallee", "provider": "publibike", "timeStamp": "02/10/2020, 12:49:27", "zip": 8001}, "type": "Feature"}, {"geometry": {"coordinates": [8.523818, 47.377148], "type": "Point"}, "properties": {"address": "Stauffacherstrasse 127", "electric": 3, "id": "pb_95", "manual": 9, "name": "B\u00e4ckeranlage", "provider": "publibike", "timeStamp": "02/10/2020, 12:49:27", "zip": 8004}, "type": "Feature"}, {"geometry": {"coordinates": [8.531836, 47.378548], "type": "Point"}, "properties": {"address": "Lagerstrasse 44", "electric": 15, "id": "pb_96", "manual": 5, "name": "Gustav-Gull-Platz", "provider": "publibike", "timeStamp": "02/10/2020, 12:49:27", "zip": 8004}, "type": "Feature"}, {"geometry": {"coordinates": [8.5104883, 47.3771535], "type": "Point"}, "properties": {"address": "Zurlindenstrasse 291", "electric": 1, "id": "pb_97", "manual": 6, "name": "Zurlindenstrasse", "provider": "publibike", "timeStamp": "02/10/2020, 12:49:27", "zip": 8003}, "type": "Feature"}, {"geometry": {"coordinates": [8.5333139, 47.3731102], "type": "Point"}, "properties": {"address": "Sihlstrasse 81", "electric": 1, "id": "pb_98", "manual": 9, "name": "Sihlstrasse", "provider": "publibike", "timeStamp": "02/10/2020, 12:49:27", "zip": 8001}, "type": "Feature"}, {"geometry": {"coordinates": [8.520532, 47.374951], "type": "Point"}, "properties": {"address": "Feldstrasse 24", "electric": 0, "id": "pb_99", "manual": 1, "name": "Kalkbreite", "provider": "publibike", "timeStamp": "02/10/2020, 12:49:27", "zip": 8004}, "type": "Feature"}, {"geometry": {"coordinates": [8.539046, 47.368064], "type": "Point"}, "properties": {"address": "Talstrasse 12", "electric": 3, "id": "pb_100", "manual": 7, "name": "Z\u00fcrcher Kantonalbank", "provider": "publibike", "timeStamp": "02/10/2020, 12:49:27", "zip": 8001}, "type": "Feature"}, {"geometry": {"coordinates": [8.5348427, 47.3625938], "type": "Point"}, "properties": {"address": "Breitingerstrasse 5", "electric": 2, "id": "pb_101", "manual": 4, "name": "Rentenanstalt", "provider": "publibike", "timeStamp": "02/10/2020, 12:49:27", "zip": 8002}, "type": "Feature"}, {"geometry": {"coordinates": [8.5166922, 47.3897772], "type": "Point"}, "properties": {"address": "Technoparkstrasse 4", "electric": 4, "id": "pb_102", "manual": 13, "name": "Turbinenplatz", "provider": "publibike", "timeStamp": "02/10/2020, 12:49:27", "zip": 8005}, "type": "Feature"}, {"geometry": {"coordinates": [8.539312, 47.3739964], "type": "Point"}, "properties": {"address": "Oetenbachgasse 14", "electric": 0, "id": "pb_104", "manual": 5, "name": "Rennweg", "provider": "publibike", "timeStamp": "02/10/2020, 12:49:27", "zip": 8001}, "type": "Feature"}, {"geometry": {"coordinates": [8.5360685, 47.3775022], "type": "Point"}, "properties": {"address": "Kasernenstrasse 101", "electric": 2, "id": "pb_105", "manual": 25, "name": "Sihlpost", "provider": "publibike", "timeStamp": "02/10/2020, 12:49:27", "zip": 8004}, "type": "Feature"}, {"geometry": {"coordinates": [8.53545, 47.382798], "type": "Point"}, "properties": {"address": "Ausstellungsstrasse 44", "electric": 6, "id": "pb_106", "manual": 11, "name": "Museum f\u00fcr Gestaltung", "provider": "publibike", "timeStamp": "02/10/2020, 12:49:27", "zip": 8005}, "type": "Feature"}, {"geometry": {"coordinates": [8.5306155, 47.3647902], "type": "Point"}, "properties": {"address": "Gutenbergstrasse 1", "electric": 2, "id": "pb_107", "manual": 5, "name": "Bederbr\u00fccke", "provider": "publibike", "timeStamp": "02/10/2020, 12:49:27", "zip": 8002}, "type": "Feature"}, {"geometry": {"coordinates": [8.518982, 47.386741], "type": "Point"}, "properties": {"address": "Geroldstrasse 4", "electric": 1, "id": "pb_108", "manual": 8, "name": "Bahnhof Hardbr\u00fccke", "provider": "publibike", "timeStamp": "02/10/2020, 12:49:27", "zip": 8005}, "type": "Feature"}, {"geometry": {"coordinates": [8.53001018, 47.37247535], "type": "Point"}, "properties": {"address": "Werdstrasse 21", "electric": 5, "id": "pb_109", "manual": 3, "name": "Tamedia", "provider": "publibike", "timeStamp": "02/10/2020, 12:49:27", "zip": 8004}, "type": "Feature"}, {"geometry": {"coordinates": [8.4860017, 47.396401], "type": "Point"}, "properties": {"address": "Gr\u00fcnauring 37", "electric": 9, "id": "pb_110", "manual": 7, "name": "Gr\u00fcnau", "provider": "publibike", "timeStamp": "02/10/2020, 12:49:27", "zip": 8064}, "type": "Feature"}, {"geometry": {"coordinates": [8.548519, 47.376756], "type": "Point"}, "properties": {"address": "R\u00e4mistrasse 101", "electric": 24, "id": "pb_111", "manual": 1, "name": "ETH Zentrum", "provider": "publibike", "timeStamp": "02/10/2020, 12:49:27", "zip": 8006}, "type": "Feature"}, {"geometry": {"coordinates": [8.520449, 47.388151], "type": "Point"}, "properties": {"address": "Josefstrasse 224", "electric": 2, "id": "pb_112", "manual": 2, "name": "Steinfelsareal", "provider": "publibike", "timeStamp": "02/10/2020, 12:49:27", "zip": 8005}, "type": "Feature"}, {"geometry": {"coordinates": [8.520482, 47.37209], "type": "Point"}, "properties": {"address": "Weststrasse 115", "electric": 0, "id": "pb_124", "manual": 4, "name": "Weststrasse", "provider": "publibike", "timeStamp": "02/10/2020, 12:49:27", "zip": 8003}, "type": "Feature"}, {"geometry": {"coordinates": [8.496727, 47.378521], "type": "Point"}, "properties": {"address": "Albisriederstrasse 200", "electric": 4, "id": "pb_125", "manual": 2, "name": "Utogrund", "provider": "publibike", "timeStamp": "02/10/2020, 12:49:27", "zip": 8047}, "type": "Feature"}, {"geometry": {"coordinates": [8.510418, 47.381356], "type": "Point"}, "properties": {"address": "Bullingerstrasse 73", "electric": 0, "id": "pb_126", "manual": 4, "name": "Hardau", "provider": "publibike", "timeStamp": "02/10/2020, 12:49:27", "zip": 8004}, "type": "Feature"}, {"geometry": {"coordinates": [8.525525, 47.361567], "type": "Point"}, "properties": {"address": "Klopstockstrasse 23", "electric": 4, "id": "pb_127", "manual": 2, "name": "Klopstockwiese", "provider": "publibike", "timeStamp": "02/10/2020, 12:49:27", "zip": 8002}, "type": "Feature"}, {"geometry": {"coordinates": [8.518143, 47.363148], "type": "Point"}, "properties": {"address": "Haldenstrasse 8", "electric": 4, "id": "pb_128", "manual": 4, "name": "Binz", "provider": "publibike", "timeStamp": "02/10/2020, 12:49:27", "zip": 8045}, "type": "Feature"}, {"geometry": {"coordinates": [8.542726, 47.379952], "type": "Point"}, "properties": {"address": "Walchestrasse 11", "electric": 3, "id": "pb_129", "manual": 2, "name": "Stampfenbachplatz", "provider": "publibike", "timeStamp": "02/10/2020, 12:49:27", "zip": 8006}, "type": "Feature"}, {"geometry": {"coordinates": [8.488108, 47.391366], "type": "Point"}, "properties": {"address": "Altstetterplatz 1", "electric": 8, "id": "pb_130", "manual": 4, "name": "Bahnhof Altstetten", "provider": "publibike", "timeStamp": "02/10/2020, 12:49:27", "zip": 8048}, "type": "Feature"}, {"geometry": {"coordinates": [8.554114, 47.365119], "type": "Point"}, "properties": {"address": "Kreuzplatz 2", "electric": 5, "id": "pb_131", "manual": 1, "name": "Kreuzplatz", "provider": "publibike", "timeStamp": "02/10/2020, 12:49:27", "zip": 8032}, "type": "Feature"}, {"geometry": {"coordinates": [8.549852, 47.35594], "type": "Point"}, "properties": {"address": "H\u00f6schgasse 3", "electric": 4, "id": "pb_132", "manual": 10, "name": "Blatterwiese", "provider": "publibike", "timeStamp": "02/10/2020, 12:49:27", "zip": 8008}, "type": "Feature"}, {"geometry": {"coordinates": [8.554501, 47.36162], "type": "Point"}, "properties": {"address": "Feldeggstrasse 80", "electric": 6, "id": "pb_133", "manual": 2, "name": "Villa Bleuler", "provider": "publibike", "timeStamp": "02/10/2020, 12:49:27", "zip": 8008}, "type": "Feature"}, {"geometry": {"coordinates": [8.557088, 47.358557], "type": "Point"}, "properties": {"address": "M\u00fchlebachstrasse 131", "electric": 2, "id": "pb_134", "manual": 1, "name": "M\u00fchlebachstrasse", "provider": "publibike", "timeStamp": "02/10/2020, 12:49:27", "zip": 8008}, "type": "Feature"}, {"geometry": {"coordinates": [8.547639, 47.361266], "type": "Point"}, "properties": {"address": "Utoquai 50", "electric": 9, "id": "pb_135", "manual": 16, "name": "Seebad Utoquai", "provider": "publibike", "timeStamp": "02/10/2020, 12:49:27", "zip": 8008}, "type": "Feature"}, {"geometry": {"coordinates": [8.548045, 47.370869], "type": "Point"}, "properties": {"address": "Heimplatz 1", "electric": 1, "id": "pb_137", "manual": 2, "name": "Kunsthaus", "provider": "publibike", "timeStamp": "02/10/2020, 12:49:27", "zip": 8001}, "type": "Feature"}, {"geometry": {"coordinates": [8.543447, 47.375933], "type": "Point"}, "properties": {"address": "Limmatquai 138", "electric": 5, "id": "pb_138", "manual": 8, "name": "Central", "provider": "publibike", "timeStamp": "02/10/2020, 12:49:27", "zip": 8001}, "type": "Feature"}, {"geometry": {"coordinates": [8.549356, 47.408827], "type": "Point"}, "properties": {"address": "Tramstrasse 35", "electric": 2, "id": "pb_139", "manual": 3, "name": "ewz Tramstrasse", "provider": "publibike", "timeStamp": "02/10/2020, 12:49:27", "zip": 8050}, "type": "Feature"}, {"geometry": {"coordinates": [8.533736, 47.366904], "type": "Point"}, "properties": {"address": "Bleicherweg 33", "electric": 0, "id": "pb_140", "manual": 6, "name": "Bleicherweg", "provider": "publibike", "timeStamp": "02/10/2020, 12:49:27", "zip": 8002}, "type": "Feature"}, {"geometry": {"coordinates": [8.544935, 47.366752], "type": "Point"}, "properties": {"address": "Bellevueplatz 2", "electric": 13, "id": "pb_141", "manual": 30, "name": "Bellevue", "provider": "publibike", "timeStamp": "02/10/2020, 12:49:27", "zip": 8001}, "type": "Feature"}, {"geometry": {"coordinates": [8.5285533, 47.3742296], "type": "Point"}, "properties": {"address": "Stauffacherstrasse 41", "electric": 3, "id": "pb_142", "manual": 3, "name": "Stauffacher", "provider": "publibike", "timeStamp": "02/10/2020, 12:49:27", "zip": 8004}, "type": "Feature"}, {"geometry": {"coordinates": [8.523722, 47.3899], "type": "Point"}, "properties": {"address": "Limmatstrasse 310", "electric": 4, "id": "pb_143", "manual": 4, "name": "Escher-Wyss-Platz", "provider": "publibike", "timeStamp": "02/10/2020, 12:49:27", "zip": 8005}, "type": "Feature"}, {"geometry": {"coordinates": [8.491061, 47.392336], "type": "Point"}, "properties": {"address": "Vulkanplatz 1", "electric": 10, "id": "pb_149", "manual": 8, "name": "Vulkanplatz", "provider": "publibike", "timeStamp": "02/10/2020, 12:49:27", "zip": 8048}, "type": "Feature"}, {"geometry": {"coordinates": [8.52306, 47.359872], "type": "Point"}, "properties": {"address": "Giessh\u00fcbelstrasse 15", "electric": 5, "id": "pb_150", "manual": 2, "name": "Utoplatz", "provider": "publibike", "timeStamp": "02/10/2020, 12:49:27", "zip": 8045}, "type": "Feature"}, {"geometry": {"coordinates": [8.486284, 47.387685], "type": "Point"}, "properties": {"address": "Lindenplatz 1", "electric": 3, "id": "pb_151", "manual": 5, "name": "Lindenplatz", "provider": "publibike", "timeStamp": "02/10/2020, 12:49:27", "zip": 8048}, "type": "Feature"}, {"geometry": {"coordinates": [8.49163, 47.389823], "type": "Point"}, "properties": {"address": "Hohlstrasse 563", "electric": 3, "id": "pb_152", "manual": 0, "name": "Luggweg", "provider": "publibike", "timeStamp": "02/10/2020, 12:49:27", "zip": 8048}, "type": "Feature"}, {"geometry": {"coordinates": [8.52174, 47.365272], "type": "Point"}, "properties": {"address": "Manessestrasse 87", "electric": 0, "id": "pb_153", "manual": 6, "name": "Manesseplatz", "provider": "publibike", "timeStamp": "02/10/2020, 12:49:27", "zip": 8045}, "type": "Feature"}, {"geometry": {"coordinates": [8.52714, 47.372329], "type": "Point"}, "properties": {"address": "Werdstrasse 75", "electric": 1, "id": "pb_154", "manual": 4, "name": "Werd", "provider": "publibike", "timeStamp": "02/10/2020, 12:49:27", "zip": 8004}, "type": "Feature"}, {"geometry": {"coordinates": [8.543042, 47.374711], "type": "Point"}, "properties": {"address": "Limmatquai 100", "electric": 0, "id": "pb_155", "manual": 0, "name": "Rudolf-Brun-Br\u00fccke", "provider": "publibike", "timeStamp": "02/10/2020, 12:49:27", "zip": 8001}, "type": "Feature"}, {"geometry": {"coordinates": [8.490837, 47.386596], "type": "Point"}, "properties": {"address": "Badenerstrasse 627", "electric": 8, "id": "pb_156", "manual": 0, "name": "Luggwegstrasse VBZ", "provider": "publibike", "timeStamp": "02/10/2020, 12:49:27", "zip": 8048}, "type": "Feature"}, {"geometry": {"coordinates": [8.535119, 47.355189], "type": "Point"}, "properties": {"address": "Mythenquai 95", "electric": 0, "id": "pb_157", "manual": 5, "name": "Strandbad Mythenquai", "provider": "publibike", "timeStamp": "02/10/2020, 12:49:27", "zip": 8002}, "type": "Feature"}, {"geometry": {"coordinates": [8.545505, 47.373675], "type": "Point"}, "properties": {"address": "Predigerpatz 21", "electric": 5, "id": "pb_158", "manual": 6, "name": "Predigerplatz", "provider": "publibike", "timeStamp": "02/10/2020, 12:49:27", "zip": 8001}, "type": "Feature"}, {"geometry": {"coordinates": [8.515558, 47.371868], "type": "Point"}, "properties": {"address": "Aemtlerstrasse 23", "electric": 0, "id": "pb_159", "manual": 5, "name": "Zwinglihaus", "provider": "publibike", "timeStamp": "02/10/2020, 12:49:27", "zip": 8003}, "type": "Feature"}, {"geometry": {"coordinates": [8.524629, 47.386072], "type": "Point"}, "properties": {"address": "Josefstrasse 188", "electric": 2, "id": "pb_160", "manual": 0, "name": "Josefwiese", "provider": "publibike", "timeStamp": "02/10/2020, 12:49:27", "zip": 8005}, "type": "Feature"}, {"geometry": {"coordinates": [8.527138, 47.387531], "type": "Point"}, "properties": {"address": "R\u00f6ntgenstrasse 87", "electric": 0, "id": "pb_164", "manual": 4, "name": "Markthalle", "provider": "publibike", "timeStamp": "02/10/2020, 12:49:27", "zip": 8005}, "type": "Feature"}, {"geometry": {"coordinates": [8.552717, 47.359978], "type": "Point"}, "properties": {"address": "Seefeldstrasse 96", "electric": 4, "id": "pb_263", "manual": 8, "name": "Feldeggstrasse", "provider": "publibike", "timeStamp": "02/10/2020, 12:49:27", "zip": 8008}, "type": "Feature"}, {"geometry": {"coordinates": [8.553189, 47.353198], "type": "Point"}, "properties": {"address": "Bellerivestrasse 170", "electric": 5, "id": "pb_264", "manual": 0, "name": "Lake Side", "provider": "publibike", "timeStamp": "02/10/2020, 12:49:27", "zip": 8008}, "type": "Feature"}, {"geometry": {"coordinates": [8.543437, 47.369256], "type": "Point"}, "properties": {"address": "Limmatquai 18", "electric": 0, "id": "pb_265", "manual": 0, "name": "Helmhaus", "provider": "publibike", "timeStamp": "02/10/2020, 12:49:27", "zip": 8032}, "type": "Feature"}, {"geometry": {"coordinates": [8.516676, 47.375819], "type": "Point"}, "properties": {"address": "Badenerstrasse 246", "electric": 1, "id": "pb_266", "manual": 0, "name": "Lochergut", "provider": "publibike", "timeStamp": "02/10/2020, 12:49:27", "zip": 8004}, "type": "Feature"}, {"geometry": {"coordinates": [8.514605, 47.389862], "type": "Point"}, "properties": {"address": "Pfingstweidstrasse 60", "electric": 3, "id": "pb_273", "manual": 2, "name": "Westpark", "provider": "publibike", "timeStamp": "02/10/2020, 12:49:27", "zip": 8005}, "type": "Feature"}, {"geometry": {"coordinates": [8.541239126, 47.375991201], "type": "Point"}, "properties": {"address": "Beatenplatz 1", "electric": 6, "id": "pb_274", "manual": 3, "name": "Beatenplatz", "provider": "publibike", "timeStamp": "02/10/2020, 12:49:27", "zip": 8001}, "type": "Feature"}, {"geometry": {"coordinates": [8.5417135, 47.3942197], "type": "Point"}, "properties": {"address": "Scheuchzerstrasse 181", "electric": 2, "id": "pb_275", "manual": 0, "name": "Pauluskirche", "provider": "publibike", "timeStamp": "02/10/2020, 12:49:27", "zip": 8057}, "type": "Feature"}, {"geometry": {"coordinates": [8.5528182, 47.414558], "type": "Point"}, "properties": {"address": "Hagenholzstrasse 51", "electric": 1, "id": "pb_276", "manual": 4, "name": "Airgate", "provider": "publibike", "timeStamp": "02/10/2020, 12:49:27", "zip": 8050}, "type": "Feature"}, {"geometry": {"coordinates": [8.537816, 47.413514], "type": "Point"}, "properties": {"address": "Birchstrasse 183", "electric": 7, "id": "pb_277", "manual": 1, "name": "Lamprechtweg", "provider": "publibike", "timeStamp": "02/10/2020, 12:49:27", "zip": 8050}, "type": "Feature"}, {"geometry": {"coordinates": [8.545602, 47.417701], "type": "Point"}, "properties": {"address": "Felsenrainstrasse 2", "electric": 6, "id": "pb_278", "manual": 4, "name": "Emil-Oberh\u00e4nsli", "provider": "publibike", "timeStamp": "02/10/2020, 12:49:27", "zip": 8050}, "type": "Feature"}, {"geometry": {"coordinates": [8.533647, 47.39808], "type": "Point"}, "properties": {"address": "Bucheggplatz 2", "electric": 2, "id": "pb_279", "manual": 1, "name": "Bucheggplatz", "provider": "publibike", "timeStamp": "02/10/2020, 12:49:27", "zip": 8057}, "type": "Feature"}, {"geometry": {"coordinates": [8.523549, 47.392347], "type": "Point"}, "properties": {"address": "Wipkingerplatz 4", "electric": 2, "id": "pb_280", "manual": 5, "name": "Wipkingerplatz", "provider": "publibike", "timeStamp": "02/10/2020, 12:49:27", "zip": 8037}, "type": "Feature"}, {"geometry": {"coordinates": [8.548562, 47.36691], "type": "Point"}, "properties": {"address": "Galerie \u00fcber Gleis 2/3", "electric": 0, "id": "pb_285", "manual": 5, "name": "Bahnhof Stadelhofen", "provider": "publibike", "timeStamp": "02/10/2020, 12:49:27", "zip": 8001}, "type": "Feature"}, {"geometry": {"coordinates": [8.493822, 47.3985553], "type": "Point"}, "properties": {"address": "Meierwiesenstrasse 12-4", "electric": 2, "id": "pb_286", "manual": 2, "name": "T\u00fcffenwies", "provider": "publibike", "timeStamp": "02/10/2020, 12:49:27", "zip": 8064}, "type": "Feature"}, {"geometry": {"coordinates": [8.552432, 47.3801757], "type": "Point"}, "properties": {"address": "Hochstrasse 34", "electric": 7, "id": "pb_356", "manual": 0, "name": "Siriuswiese", "provider": "publibike", "timeStamp": "02/10/2020, 12:49:27", "zip": 8044}, "type": "Feature"}, {"geometry": {"coordinates": [8.527298, 47.370141], "type": "Point"}, "properties": {"address": "Hallwylstrasse 71", "electric": 1, "id": "pb_357", "manual": 10, "name": "Hallwylstrasse", "provider": "publibike", "timeStamp": "02/10/2020, 12:49:27", "zip": 8004}, "type": "Feature"}, {"geometry": {"coordinates": [8.5414185, 47.3972455], "type": "Point"}, "properties": {"address": "Schaffhauserstrasse 137", "electric": 2, "id": "pb_358", "manual": 1, "name": "Milchbuck", "provider": "publibike", "timeStamp": "02/10/2020, 12:49:27", "zip": 8057}, "type": "Feature"}, {"geometry": {"coordinates": [8.512381, 47.393409], "type": "Point"}, "properties": {"address": "Hardturmstrasse 161", "electric": 1, "id": "pb_359", "manual": 4, "name": "Fischerweg", "provider": "publibike", "timeStamp": "02/10/2020, 12:49:27", "zip": 8005}, "type": "Feature"}, {"geometry": {"coordinates": [8.5421457, 47.3876979], "type": "Point"}, "properties": {"address": "Turnerstrasse 47", "electric": 2, "id": "pb_360", "manual": 0, "name": "Kirche Unterstrass", "provider": "publibike", "timeStamp": "02/10/2020, 12:49:27", "zip": 8006}, "type": "Feature"}, {"geometry": {"coordinates": [8.522117, 47.394554], "type": "Point"}, "properties": {"address": "Dorfstrasse 40", "electric": 5, "id": "pb_361", "manual": 2, "name": "Dorfstrasse", "provider": "publibike", "timeStamp": "02/10/2020, 12:49:27", "zip": 8037}, "type": "Feature"}, {"geometry": {"coordinates": [8.530437, 47.37271], "type": "Point"}, "properties": {"address": "Werdstrasse 25", "electric": 0, "id": "pb_362", "manual": 3, "name": "Stauffachertor", "provider": "publibike", "timeStamp": "02/10/2020, 12:49:27", "zip": 8004}, "type": "Feature"}, {"geometry": {"coordinates": [8.541712, 47.416155], "type": "Point"}, "properties": {"address": "Eggb\u00fchlstrasse 21", "electric": 13, "id": "pb_363", "manual": 1, "name": "Wahlenpark", "provider": "publibike", "timeStamp": "02/10/2020, 12:49:27", "zip": 8050}, "type": "Feature"}, {"geometry": {"coordinates": [8.5595335, 47.3708387], "type": "Point"}, "properties": {"address": "Dolderstrasse 32", "electric": 2, "id": "pb_364", "manual": 0, "name": "Kinderspital", "provider": "publibike", "timeStamp": "02/10/2020, 12:49:27", "zip": 8032}, "type": "Feature"}, {"geometry": {"coordinates": [8.536433, 47.388689], "type": "Point"}, "properties": {"address": "Kornhausstrasse 30", "electric": 1, "id": "pb_365", "manual": 1, "name": "Kornhausstrasse", "provider": "publibike", "timeStamp": "02/10/2020, 12:49:27", "zip": 8006}, "type": "Feature"}, {"geometry": {"coordinates": [8.55033, 47.407098], "type": "Point"}, "properties": {"address": "Schwamendingenstrasse 41", "electric": 4, "id": "pb_366", "manual": 9, "name": "Dorflinde", "provider": "publibike", "timeStamp": "02/10/2020, 12:49:27", "zip": 8050}, "type": "Feature"}, {"geometry": {"coordinates": [8.560476, 47.368199], "type": "Point"}, "properties": {"address": "R\u00f6merhofplatz 5", "electric": 8, "id": "pb_367", "manual": 0, "name": "R\u00f6merhof", "provider": "publibike", "timeStamp": "02/10/2020, 12:49:27", "zip": 8032}, "type": "Feature"}, {"geometry": {"coordinates": [8.5609218, 47.3619068], "type": "Point"}, "properties": {"address": "Forchstrasse 99", "electric": 4, "id": "pb_368", "manual": 0, "name": "Hegibachplatz", "provider": "publibike", "timeStamp": "02/10/2020, 12:49:27", "zip": 8032}, "type": "Feature"}, {"geometry": {"coordinates": [8.5721264, 47.4039985], "type": "Point"}, "properties": {"address": "Winterthurerstrasse 519", "electric": 11, "id": "pb_370", "manual": 6, "name": "Schwamendingerplatz", "provider": "publibike", "timeStamp": "02/10/2020, 12:49:27", "zip": 8051}, "type": "Feature"}, {"geometry": {"coordinates": [8.520168, 47.378556], "type": "Point"}, "properties": {"address": "Herman-Greulich-Strasse 56", "electric": 0, "id": "pb_384", "manual": 6, "name": "Hermann-Greulich-Weg", "provider": "publibike", "timeStamp": "02/10/2020, 12:49:27", "zip": 8004}, "type": "Feature"}, {"geometry": {"coordinates": [8.547912, 47.384923], "type": "Point"}, "properties": {"address": "Culmannstrasse", "electric": 0, "id": "pb_386", "manual": 0, "name": "Rigiplatz", "provider": "publibike", "timeStamp": "02/10/2020, 12:49:27", "zip": 8006}, "type": "Feature"}, {"geometry": {"coordinates": [8.543768, 47.411057], "type": "Point"}, "properties": {"address": "Hofwiesenstrasse 369", "electric": 3, "id": "pb_387", "manual": 6, "name": "Bahnhof Oerlikon S\u00fcd", "provider": "publibike", "timeStamp": "02/10/2020, 12:49:27", "zip": 8050}, "type": "Feature"}, {"geometry": {"coordinates": [8.544185, 47.412732], "type": "Point"}, "properties": {"address": "Jungholzstrasse 6", "electric": 2, "id": "pb_388", "manual": 2, "name": "Max-Frisch-Platz", "provider": "publibike", "timeStamp": "02/10/2020, 12:49:27", "zip": 8050}, "type": "Feature"}, {"geometry": {"coordinates": [8.558096, 47.413032], "type": "Point"}, "properties": {"address": "Andreasstrasse", "electric": 6, "id": "pb_389", "manual": 1, "name": "Hunziker-Areal", "provider": "publibike", "timeStamp": "02/10/2020, 12:49:27", "zip": 8050}, "type": "Feature"}, {"geometry": {"coordinates": [8.533265, 47.412873], "type": "Point"}, "properties": {"address": "Regina-K\u00e4gi-Strasse 1", "electric": 6, "id": "pb_390", "manual": 3, "name": "Luis-H\u00e4fliger-Park", "provider": "publibike", "timeStamp": "02/10/2020, 12:49:27", "zip": 8050}, "type": "Feature"}, {"geometry": {"coordinates": [8.499265, 47.401852], "type": "Point"}, "properties": {"address": "Limmattalstrasse 177", "electric": 4, "id": "pb_391", "manual": 2, "name": "Meierhofplatz", "provider": "publibike", "timeStamp": "02/10/2020, 12:49:27", "zip": 8049}, "type": "Feature"}, {"geometry": {"coordinates": [8.528356, 47.393255], "type": "Point"}, "properties": {"address": "R\u00f6schibachstrasse 73", "electric": 15, "id": "pb_392", "manual": 8, "name": "R\u00f6schibachplatz", "provider": "publibike", "timeStamp": "02/10/2020, 12:49:27", "zip": 8037}, "type": "Feature"}, {"geometry": {"coordinates": [8.538067, 47.415721], "type": "Point"}, "properties": {"address": "Birchstrasse 191", "electric": 6, "id": "pb_393", "manual": 3, "name": "Oerliker Park", "provider": "publibike", "timeStamp": "02/10/2020, 12:49:27", "zip": 8050}, "type": "Feature"}, {"geometry": {"coordinates": [8.5420304, 47.3669233], "type": "Point"}, "properties": {"address": "Stadthausquai 1", "electric": 3, "id": "pb_395", "manual": 5, "name": "B\u00fcrkliplatz", "provider": "publibike", "timeStamp": "02/10/2020, 12:49:27", "zip": 8001}, "type": "Feature"}, {"geometry": {"coordinates": [8.535767, 47.409881], "type": "Point"}, "properties": {"address": "Regensbergstrasse 195", "electric": 0, "id": "pb_396", "manual": 1, "name": "Holunderhof", "provider": "publibike", "timeStamp": "02/10/2020, 12:49:27", "zip": 8050}, "type": "Feature"}, {"geometry": {"coordinates": [8.5116245, 47.3616199], "type": "Point"}, "properties": {"address": "Grubenstrasse 42", "electric": 4, "id": "pb_431", "manual": 2, "name": "Binz Center", "provider": "publibike", "timeStamp": "02/10/2020, 12:49:27", "zip": 8045}, "type": "Feature"}, {"geometry": {"coordinates": [8.547195, 47.382089], "type": "Point"}, "properties": {"address": "Nelkenstrasse 24", "electric": 2, "id": "pb_430", "manual": 3, "name": "Stapferstube", "provider": "publibike", "timeStamp": "02/10/2020, 12:49:27", "zip": 8006}, "type": "Feature"}, {"geometry": {"coordinates": [8.5787183, 47.4039845], "type": "Point"}, "properties": {"address": "Kronwiesenstrasse 35", "electric": 3, "id": "pb_426", "manual": 2, "name": "Kronwiesen", "provider": "publibike", "timeStamp": "02/10/2020, 12:49:27", "zip": 8051}, "type": "Feature"}, {"geometry": {"coordinates": [8.508131, 47.420757], "type": "Point"}, "properties": {"address": "Riedenhaldenstrasse 20-18", "electric": 9, "id": "pb_425", "manual": 2, "name": "Bahnhof Affoltern", "provider": "publibike", "timeStamp": "02/10/2020, 12:49:27", "zip": 8046}, "type": "Feature"}, {"geometry": {"coordinates": [8.532464, 47.406988], "type": "Point"}, "properties": {"address": "K\u00fcnzlistrasse 41", "electric": 1, "id": "pb_424", "manual": 0, "name": "Birchd\u00f6rfli", "provider": "publibike", "timeStamp": "02/10/2020, 12:49:27", "zip": 8057}, "type": "Feature"}, {"geometry": {"coordinates": [8.5777038, 47.4080095], "type": "Point"}, "properties": {"address": "Luegislandstrasse 412", "electric": 3, "id": "pb_429", "manual": 2, "name": "Luegisland", "provider": "publibike", "timeStamp": "02/10/2020, 12:49:27", "zip": 8051}, "type": "Feature"}, {"geometry": {"coordinates": [8.58841, 47.40158], "type": "Point"}, "properties": {"address": "Hirzenbachstrasse 2-4", "electric": 1, "id": "pb_428", "manual": 1, "name": "Hirzenbachstrasse", "provider": "publibike", "timeStamp": "02/10/2020, 12:49:27", "zip": 8051}, "type": "Feature"}, {"geometry": {"coordinates": [8.5563463, 47.4095467], "type": "Point"}, "properties": {"address": "K\u00fchriedweg", "electric": 3, "id": "pb_445", "manual": 9, "name": "Hallenbad Oerlikon", "provider": "publibike", "timeStamp": "02/10/2020, 12:49:27", "zip": 8050}, "type": "Feature"}, {"geometry": {"coordinates": [8.537971, 47.364871], "type": "Point"}, "properties": {"address": "General-Guisan-Quai 17", "electric": 1, "id": "pb_454", "manual": 3, "name": "General-Guisan-Quai", "provider": "publibike", "timeStamp": "02/10/2020, 12:49:27", "zip": 8002}, "type": "Feature"}, {"geometry": {"coordinates": [8.560587, 47.350578], "type": "Point"}, "properties": {"address": "Bellerivestrasse 245", "electric": 5, "id": "pb_450", "manual": 7, "name": "Bahnhof Tiefenbrunnen", "provider": "publibike", "timeStamp": "02/10/2020, 12:49:27", "zip": 8008}, "type": "Feature"}, {"geometry": {"coordinates": [8.5269416, 47.3563719], "type": "Point"}, "properties": {"address": "Waffenplatzstrasse 89", "electric": 4, "id": "pb_452", "manual": 7, "name": "Rieterplatz", "provider": "publibike", "timeStamp": "02/10/2020, 12:49:27", "zip": 8002}, "type": "Feature"}, {"geometry": {"coordinates": [8.514176, 47.3663708], "type": "Point"}, "properties": {"address": "Talwiesenstrasse 92", "electric": 3, "id": "pb_446", "manual": 5, "name": "Binzallee", "provider": "publibike", "timeStamp": "02/10/2020, 12:49:27", "zip": 8055}, "type": "Feature"}, {"geometry": {"coordinates": [8.5070564, 47.371455], "type": "Point"}, "properties": {"address": "Gutstrasse 87", "electric": 1, "id": "pb_447", "manual": 2, "name": "Gutstrasse", "provider": "publibike", "timeStamp": "02/10/2020, 12:49:27", "zip": 8055}, "type": "Feature"}, {"geometry": {"coordinates": [8.4941268, 47.3836391], "type": "Point"}, "properties": {"address": "Flurstrasse 62", "electric": 4, "id": "pb_453", "manual": 4, "name": "Flurpark", "provider": "publibike", "timeStamp": "02/10/2020, 12:49:27", "zip": 8048}, "type": "Feature"}, {"geometry": {"coordinates": [8.500343, 47.380778], "type": "Point"}, "properties": {"address": "Edelweissstrasse 32", "electric": 7, "id": "pb_448", "manual": 6, "name": "Bl\u00fcemliquartier", "provider": "publibike", "timeStamp": "02/10/2020, 12:49:27", "zip": 8048}, "type": "Feature"}, {"geometry": {"coordinates": [8.528796, 47.383858], "type": "Point"}, "properties": {"address": "Gasometerstrasse 24", "electric": 3, "id": "pb_449", "manual": 1, "name": "Gasometerstrasse", "provider": "publibike", "timeStamp": "02/10/2020, 12:49:27", "zip": 8005}, "type": "Feature"}, {"geometry": {"coordinates": [8.4981964, 47.3859194], "type": "Point"}, "properties": {"address": "Baslerstrasse 57", "electric": 7, "id": "pb_455", "manual": 5, "name": "Letzipark", "provider": "publibike", "timeStamp": "02/10/2020, 12:49:27", "zip": 8048}, "type": "Feature"}, {"geometry": {"coordinates": [8.515252, 47.381915], "type": "Point"}, "properties": {"address": "Sihlfeldstrasse 175", "electric": 2, "id": "pb_451", "manual": 3, "name": "Hardplatz", "provider": "publibike", "timeStamp": "02/10/2020, 12:49:27", "zip": 8004}, "type": "Feature"}, {"geometry": {"coordinates": [8.5064743, 47.4188324], "type": "Point"}, "properties": {"address": "Wehntalerstrasse 541", "electric": 1, "id": "pb_427", "manual": 11, "name": "Zehntenhausplatz", "provider": "publibike", "timeStamp": "02/10/2020, 12:49:27", "zip": 8046}, "type": "Feature"}, {"geometry": {"coordinates": [8.537729, 47.379719], "type": "Point"}, "properties": {"address": "Sihlquai/HB", "electric": 0, "id": "pb_513", "manual": 2, "name": "Sihlquai", "provider": "publibike", "timeStamp": "02/10/2020, 12:49:27", "zip": 8005}, "type": "Feature"}, {"geometry": {"coordinates": [8.596202, 47.397885], "type": "Point"}, "properties": {"address": "Bahnhof Stettbach", "electric": 1, "id": "pb_514", "manual": 1, "name": "Bahnhof Stettbach", "provider": "publibike", "timeStamp": "02/10/2020, 12:49:27", "zip": 8051}, "type": "Feature"}, {"geometry": {"coordinates": [8.5543974, 47.3690153], "type": "Point"}, "properties": {"address": "Kasinostrasse 10", "electric": 0, "id": "pb_515", "manual": 0, "name": "Hottingerplatz", "provider": "publibike", "timeStamp": "02/10/2020, 12:49:27", "zip": 8032}, "type": "Feature"}, {"geometry": {"coordinates": [8.534444, 47.351525], "type": "Point"}, "properties": {"address": "Mobile Station Z\u00fcrich 1", "electric": 0, "id": "pb_282", "manual": 0, "name": "Theaterspektakel", "provider": "publibike", "timeStamp": "02/10/2020, 12:49:27", "zip": 8002}, "type": "Feature"}, {"geometry": {"coordinates": [8.516257, 47.367656], "type": "Point"}, "properties": {"address": "Goldbrunnenstrasse 54", "electric": 2, "id": "pb_538", "manual": 4, "name": "Kirche B\u00fchl", "provider": "publibike", "timeStamp": "02/10/2020, 12:49:27", "zip": 8055}, "type": "Feature"}, {"geometry": {"coordinates": [8.555639, 47.416873], "type": "Point"}, "properties": {"address": "Leutschenbachstrasse 50", "electric": 2, "id": "pb_537", "manual": 5, "name": "Leutschenpark", "provider": "publibike", "timeStamp": "02/10/2020, 12:49:27", "zip": 8050}, "type": "Feature"}, {"geometry": {"coordinates": [8.546464, 47.403822], "type": "Point"}, "properties": {"address": "Berninastrasse 45", "electric": 3, "id": "pb_540", "manual": 1, "name": "Berninaplatz", "provider": "publibike", "timeStamp": "02/10/2020, 12:49:27", "zip": 8057}, "type": "Feature"}, {"geometry": {"coordinates": [8.523134, 47.369004], "type": "Point"}, "properties": {"address": "Erlachstrasse 3", "electric": 0, "id": "pb_385", "manual": 8, "name": "Aegerten", "provider": "publibike", "timeStamp": "02/10/2020, 12:49:27", "zip": 8003}, "type": "Feature"}, {"geometry": {"coordinates": [8.49038, 47.381591], "type": "Point"}, "properties": {"address": "Rautistrasse 60", "electric": 10, "id": "pb_536", "manual": 3, "name": "Freilager", "provider": "publibike", "timeStamp": "02/10/2020, 12:49:27", "zip": 8048}, "type": "Feature"}, {"geometry": {"coordinates": [8.496511, 47.375247], "type": "Point"}, "properties": {"address": "Letzigraben 139", "electric": 4, "id": "pb_444", "manual": 2, "name": "Sackzelg", "provider": "publibike", "timeStamp": "02/10/2020, 12:49:27", "zip": 8047}, "type": "Feature"}, {"geometry": {"coordinates": [8.58131, 47.402801], "type": "Point"}, "properties": {"address": "Altwiesenstrasse 104", "electric": 2, "id": "pb_539", "manual": 1, "name": "Glattwiesen", "provider": "publibike", "timeStamp": "02/10/2020, 12:49:27", "zip": 8051}, "type": "Feature"}, {"geometry": {"coordinates": [8.52689, 47.3767], "type": "Point"}, "properties": {"address": "Molkenstrasse 5", "electric": 0, "id": "pb_560", "manual": 4, "name": "Helvetiaplatz", "provider": "publibike", "timeStamp": "02/10/2020, 12:49:27", "zip": 8004}, "type": "Feature"}, {"geometry": {"coordinates": [8.525602, 47.374241], "type": "Point"}, "properties": {"address": "Badenerstrasse 90", "electric": 2, "id": "pb_559", "manual": 4, "name": "Bezirksgeb\u00e4ude", "provider": "publibike", "timeStamp": "02/10/2020, 12:49:27", "zip": 8004}, "type": "Feature"}, {"geometry": {"coordinates": [8.535082, 47.345248], "type": "Point"}, "properties": {"address": "Bachstrasse 15", "electric": 1, "id": "pb_564", "manual": 5, "name": "GZ Wollishofen", "provider": "publibike", "timeStamp": "02/10/2020, 12:49:27", "zip": 8038}, "type": "Feature"}, {"geometry": {"coordinates": [8.514841, 47.370238], "type": "Point"}, "properties": {"address": "Schrennengasse 37", "electric": 1, "id": "pb_562", "manual": 1, "name": "Goldbrunnenplatz", "provider": "publibike", "timeStamp": "02/10/2020, 12:49:27", "zip": 8003}, "type": "Feature"}, {"geometry": {"coordinates": [8.514138, 47.374206], "type": "Point"}, "properties": {"address": "Idaplatz 4", "electric": 2, "id": "pb_557", "manual": 12, "name": "Idaplatz", "provider": "publibike", "timeStamp": "02/10/2020, 12:49:27", "zip": 8003}, "type": "Feature"}, {"geometry": {"coordinates": [8.518432, 47.369549], "type": "Point"}, "properties": {"address": "Brinerstrasse 2", "electric": 0, "id": "pb_558", "manual": 6, "name": "Schmiede Wiedikon", "provider": "publibike", "timeStamp": "02/10/2020, 12:49:27", "zip": 8003}, "type": "Feature"}, {"geometry": {"coordinates": [8.537546, 47.391289], "type": "Point"}, "properties": {"address": "Rotbuchstrasse 15", "electric": 0, "id": "pb_556", "manual": 0, "name": "Schaffhauserplatz", "provider": "publibike", "timeStamp": "02/10/2020, 12:49:27", "zip": 8006}, "type": "Feature"}, {"geometry": {"coordinates": [8.541541, 47.413733], "type": "Point"}, "properties": {"address": "Therese-Giehse-Strasse 11", "electric": 1, "id": "pb_561", "manual": 0, "name": "Center Eleven", "provider": "publibike", "timeStamp": "02/10/2020, 12:49:27", "zip": 8050}, "type": "Feature"}, {"geometry": {"coordinates": [8.534227, 47.360004], "type": "Point"}, "properties": {"address": "Alfred Escher-Strasse 76", "electric": 14, "id": "pb_563", "manual": 1, "name": "Mythenschloss", "provider": "publibike", "timeStamp": "02/10/2020, 12:49:27", "zip": 8002}, "type": "Feature"}, {"geometry": {"coordinates": [8.50373, 47.396172], "type": "Point"}, "properties": {"address": "Hardeggstrasse 6", "electric": 8, "id": "pb_566", "manual": 6, "name": "Am Wasser", "provider": "publibike", "timeStamp": "02/10/2020, 12:49:27", "zip": 8049}, "type": "Feature"}, {"geometry": {"coordinates": [8.532432, 47.381174], "type": "Point"}, "properties": {"address": "Klingenstrasse 9", "electric": 1, "id": "pb_565", "manual": 2, "name": "Zollstrasse", "provider": "publibike", "timeStamp": "02/10/2020, 12:49:27", "zip": 8005}, "type": "Feature"}, {"geometry": {"coordinates": [8.497982, 47.381447], "type": "Point"}, "properties": {"address": "Dennlerstrasse 23", "electric": 0, "id": "pb_567", "manual": 4, "name": "Dennlerstrasse", "provider": "publibike", "timeStamp": "02/10/2020, 12:49:27", "zip": 8047}, "type": "Feature"}, {"geometry": {"coordinates": [8.528049, 47.347701], "type": "Point"}, "properties": {"address": "Mutschellenstrasse 114", "electric": 6, "id": "pb_568", "manual": 1, "name": "Jugendherberge", "provider": "publibike", "timeStamp": "02/10/2020, 12:49:27", "zip": 8038}, "type": "Feature"}, {"geometry": {"coordinates": [8.539016, 47.405751], "type": "Point"}, "properties": {"address": "Ringstrasse 82", "electric": 2, "id": "pb_569", "manual": 4, "name": "Freibad Allenmoos", "provider": "publibike", "timeStamp": "02/10/2020, 12:49:27", "zip": 8057}, "type": "Feature"}, {"geometry": {"coordinates": [8.534974, 47.402164], "type": "Point"}, "properties": {"address": "Brache Guggach", "electric": 0, "id": "pb_572", "manual": 0, "name": "Radiostudio", "provider": "publibike", "timeStamp": "02/10/2020, 12:49:27", "zip": 8057}, "type": "Feature"}, {"geometry": {"coordinates": [8.547901, 47.375556], "type": "Point"}, "properties": {"address": "Karl-Schmid-Strasse 4", "electric": 5, "id": "pb_571", "manual": 0, "name": "ETH/Zoologisches Museum", "provider": "publibike", "timeStamp": "02/10/2020, 12:49:27", "zip": 8006}, "type": "Feature"}, {"geometry": {"coordinates": [8.56254, 47.383031], "type": "Point"}, "properties": {"charge": 10, "id": "smide_2901", "name": "ZH 267278", "provider": "smide", "range": 5.0, "size": 20, "time": "02/10/2020, 12:48:59"}, "type": "Feature"}, {"geometry": {"coordinates": [8.501736, 47.424536], "type": "Point"}, "properties": {"charge": 58, "id": "smide_2895", "name": "ZH 267279", "provider": "smide", "range": 28.0, "size": 20, "time": "02/10/2020, 12:48:59"}, "type": "Feature"}, {"geometry": {"coordinates": [8.546313, 47.40923], "type": "Point"}, "properties": {"charge": 69, "id": "smide_2880", "name": "ZH267289", "provider": "smide", "range": 34.0, "size": 17, "time": "02/10/2020, 12:48:59"}, "type": "Feature"}, {"geometry": {"coordinates": [8.521585, 47.359755], "type": "Point"}, "properties": {"charge": 100, "id": "smide_2874", "name": "ZH 267288", "provider": "smide", "range": 50.0, "size": 17, "time": "02/10/2020, 12:48:59"}, "type": "Feature"}, {"geometry": {"coordinates": [8.558745, 47.356691], "type": "Point"}, "properties": {"charge": 100, "id": "smide_2871", "name": "ZH 267086", "provider": "smide", "range": 50.0, "size": 20, "time": "02/10/2020, 12:48:59"}, "type": "Feature"}, {"geometry": {"coordinates": [8.51542, 47.428673], "type": "Point"}, "properties": {"charge": 31, "id": "smide_2867", "name": "ZH 267090", "provider": "smide", "range": 15.0, "size": 20, "time": "02/10/2020, 12:48:59"}, "type": "Feature"}, {"geometry": {"coordinates": [8.512506, 47.381515], "type": "Point"}, "properties": {"charge": 65, "id": "smide_2861", "name": "ZH 267096", "provider": "smide", "range": 32.0, "size": 17, "time": "02/10/2020, 12:48:59"}, "type": "Feature"}, {"geometry": {"coordinates": [8.554241, 47.36887], "type": "Point"}, "properties": {"charge": 91, "id": "smide_2859", "name": "ZH 267098", "provider": "smide", "range": 45.0, "size": 17, "time": "02/10/2020, 12:48:59"}, "type": "Feature"}, {"geometry": {"coordinates": [8.541603, 47.372148], "type": "Point"}, "properties": {"charge": 57, "id": "smide_2856", "name": "ZH 267101", "provider": "smide", "range": 28.0, "size": 17, "time": "02/10/2020, 12:48:59"}, "type": "Feature"}, {"geometry": {"coordinates": [8.52425, 47.39809], "type": "Point"}, "properties": {"charge": 64, "id": "smide_2855", "name": "ZH 267102", "provider": "smide", "range": 32.0, "size": 17, "time": "02/10/2020, 12:48:59"}, "type": "Feature"}, {"geometry": {"coordinates": [8.517143, 47.361286], "type": "Point"}, "properties": {"charge": 87, "id": "smide_2854", "name": "ZH 267103", "provider": "smide", "range": 43.0, "size": 17, "time": "02/10/2020, 12:48:59"}, "type": "Feature"}, {"geometry": {"coordinates": [8.555643, 47.384298], "type": "Point"}, "properties": {"charge": 97, "id": "smide_2833", "name": "ZH 267182", "provider": "smide", "range": 48.0, "size": 20, "time": "02/10/2020, 12:48:59"}, "type": "Feature"}, {"geometry": {"coordinates": [8.558056, 47.371253], "type": "Point"}, "properties": {"charge": 22, "id": "smide_2831", "name": "ZH 267180", "provider": "smide", "range": 11.0, "size": 20, "time": "02/10/2020, 12:48:59"}, "type": "Feature"}, {"geometry": {"coordinates": [8.574241, 47.348248], "type": "Point"}, "properties": {"charge": 60, "id": "smide_2804", "name": "ZH266903", "provider": "smide", "range": 30.0, "size": 20, "time": "02/10/2020, 12:48:59"}, "type": "Feature"}, {"geometry": {"coordinates": [8.501451, 47.36884], "type": "Point"}, "properties": {"charge": 100, "id": "smide_2793", "name": "ZH266883", "provider": "smide", "range": 50.0, "size": 17, "time": "02/10/2020, 12:48:59"}, "type": "Feature"}, {"geometry": {"coordinates": [8.533193, 47.397483], "type": "Point"}, "properties": {"charge": 95, "id": "smide_2790", "name": "ZH266880", "provider": "smide", "range": 47.0, "size": 17, "time": "02/10/2020, 12:48:59"}, "type": "Feature"}, {"geometry": {"coordinates": [8.550731, 47.375266], "type": "Point"}, "properties": {"charge": 91, "id": "smide_2785", "name": "ZH266875", "provider": "smide", "range": 45.0, "size": 17, "time": "02/10/2020, 12:48:59"}, "type": "Feature"}, {"geometry": {"coordinates": [8.539295, 47.375586], "type": "Point"}, "properties": {"charge": 95, "id": "smide_2780", "name": "ST1 X #1", "provider": "smide", "range": 47.0, "size": 17, "time": "02/10/2020, 12:48:59"}, "type": "Feature"}, {"geometry": {"coordinates": [8.498716, 47.388088], "type": "Point"}, "properties": {"charge": 35, "id": "smide_2773", "name": "ZH266561", "provider": "smide", "range": 17.0, "size": 17, "time": "02/10/2020, 12:48:59"}, "type": "Feature"}, {"geometry": {"coordinates": [8.51061, 47.390388], "type": "Point"}, "properties": {"charge": 45, "id": "smide_2771", "name": "ZH266559", "provider": "smide", "range": 22.0, "size": 17, "time": "02/10/2020, 12:48:59"}, "type": "Feature"}, {"geometry": {"coordinates": [8.539188, 47.373936], "type": "Point"}, "properties": {"charge": 71, "id": "smide_2763", "name": "ZH266641", "provider": "smide", "range": 35.0, "size": 17, "time": "02/10/2020, 12:48:59"}, "type": "Feature"}, {"geometry": {"coordinates": [8.555671, 47.38412], "type": "Point"}, "properties": {"charge": 91, "id": "smide_2761", "name": "ZH266642", "provider": "smide", "range": 45.0, "size": 20, "time": "02/10/2020, 12:48:59"}, "type": "Feature"}, {"geometry": {"coordinates": [8.543892, 47.378596], "type": "Point"}, "properties": {"charge": 73, "id": "smide_2759", "name": "ZH266639", "provider": "smide", "range": 36.0, "size": 17, "time": "02/10/2020, 12:48:59"}, "type": "Feature"}, {"geometry": {"coordinates": [8.574198, 47.348212], "type": "Point"}, "properties": {"charge": 100, "id": "smide_2758", "name": "ZH266638 M", "provider": "smide", "range": 50.0, "size": 17, "time": "02/10/2020, 12:48:59"}, "type": "Feature"}, {"geometry": {"coordinates": [8.551016, 47.359708], "type": "Point"}, "properties": {"charge": 44, "id": "smide_2752", "name": "BE343856", "provider": "smide", "range": 22.0, "size": 17, "time": "02/10/2020, 12:48:59"}, "type": "Feature"}, {"geometry": {"coordinates": [8.503796, 47.396396], "type": "Point"}, "properties": {"charge": 100, "id": "smide_2751", "name": "BE343857", "provider": "smide", "range": 50.0, "size": 17, "time": "02/10/2020, 12:48:59"}, "type": "Feature"}, {"geometry": {"coordinates": [8.513, 47.366172], "type": "Point"}, "properties": {"charge": 92, "id": "smide_2749", "name": "BE343867", "provider": "smide", "range": 46.0, "size": 17, "time": "02/10/2020, 12:48:59"}, "type": "Feature"}, {"geometry": {"coordinates": [8.475195, 47.385448], "type": "Point"}, "properties": {"charge": 58, "id": "smide_2748", "name": "BE335758", "provider": "smide", "range": 28.0, "size": 17, "time": "02/10/2020, 12:48:59"}, "type": "Feature"}, {"geometry": {"coordinates": [8.567901, 47.382372], "type": "Point"}, "properties": {"charge": 45, "id": "smide_2746", "name": "BE335817", "provider": "smide", "range": 22.0, "size": 17, "time": "02/10/2020, 12:48:59"}, "type": "Feature"}, {"geometry": {"coordinates": [8.488588, 47.391084], "type": "Point"}, "properties": {"charge": 47, "id": "smide_2747", "name": "BE335820", "provider": "smide", "range": 23.0, "size": 17, "time": "02/10/2020, 12:48:59"}, "type": "Feature"}, {"geometry": {"coordinates": [8.524528, 47.362976], "type": "Point"}, "properties": {"charge": 59, "id": "smide_2745", "name": "BE335818", "provider": "smide", "range": 29.0, "size": 17, "time": "02/10/2020, 12:48:59"}, "type": "Feature"}, {"geometry": {"coordinates": [8.510387, 47.371996], "type": "Point"}, "properties": {"charge": 46, "id": "smide_2743", "name": "BE343864", "provider": "smide", "range": 23.0, "size": 17, "time": "02/10/2020, 12:48:59"}, "type": "Feature"}, {"geometry": {"coordinates": [8.572701, 47.380624], "type": "Point"}, "properties": {"charge": 91, "id": "smide_2742", "name": "BE343866", "provider": "smide", "range": 45.0, "size": 17, "time": "02/10/2020, 12:48:59"}, "type": "Feature"}, {"geometry": {"coordinates": [8.571904, 47.38194], "type": "Point"}, "properties": {"charge": 58, "id": "smide_2741", "name": "BE343874", "provider": "smide", "range": 28.0, "size": 17, "time": "02/10/2020, 12:48:59"}, "type": "Feature"}, {"geometry": {"coordinates": [8.530212, 47.338376], "type": "Point"}, "properties": {"charge": 19, "id": "smide_2740", "name": "BE343875", "provider": "smide", "range": 9.0, "size": 17, "time": "02/10/2020, 12:48:59"}, "type": "Feature"}, {"geometry": {"coordinates": [8.545203, 47.373466], "type": "Point"}, "properties": {"charge": 62, "id": "smide_2738", "name": "BE343865", "provider": "smide", "range": 31.0, "size": 17, "time": "02/10/2020, 12:48:59"}, "type": "Feature"}, {"geometry": {"coordinates": [8.560182, 47.381376], "type": "Point"}, "properties": {"charge": 89, "id": "smide_2736", "name": "BE346639", "provider": "smide", "range": 44.0, "size": 17, "time": "02/10/2020, 12:48:59"}, "type": "Feature"}, {"geometry": {"coordinates": [8.507612, 47.382424], "type": "Point"}, "properties": {"charge": 50, "id": "smide_2734", "name": "BE343876", "provider": "smide", "range": 25.0, "size": 17, "time": "02/10/2020, 12:48:59"}, "type": "Feature"}, {"geometry": {"coordinates": [8.576446, 47.351212], "type": "Point"}, "properties": {"charge": 76, "id": "smide_2729", "name": "BE343878", "provider": "smide", "range": 38.0, "size": 17, "time": "02/10/2020, 12:48:59"}, "type": "Feature"}, {"geometry": {"coordinates": [8.544913, 47.374321], "type": "Point"}, "properties": {"charge": 28, "id": "smide_2725", "name": "ZH261545", "provider": "smide", "range": 14.0, "size": 0, "time": "02/10/2020, 12:48:59"}, "type": "Feature"}, {"geometry": {"coordinates": [8.51087, 47.359103], "type": "Point"}, "properties": {"charge": 25, "id": "smide_2718", "name": "ZH259019", "provider": "smide", "range": 12.0, "size": 20, "time": "02/10/2020, 12:48:59"}, "type": "Feature"}, {"geometry": {"coordinates": [8.489569, 47.36912], "type": "Point"}, "properties": {"charge": 15, "id": "smide_2717", "name": "ZH263287", "provider": "smide", "range": 7.0, "size": 17, "time": "02/10/2020, 12:48:59"}, "type": "Feature"}, {"geometry": {"coordinates": [8.543076, 47.391116], "type": "Point"}, "properties": {"charge": 86, "id": "smide_2716", "name": "ZH254606", "provider": "smide", "range": 43.0, "size": 17, "time": "02/10/2020, 12:48:59"}, "type": "Feature"}, {"geometry": {"coordinates": [8.520288, 47.369636], "type": "Point"}, "properties": {"charge": 81, "id": "smide_2715", "name": "ZH254605", "provider": "smide", "range": 40.0, "size": 17, "time": "02/10/2020, 12:48:59"}, "type": "Feature"}, {"geometry": {"coordinates": [8.500991, 47.368652], "type": "Point"}, "properties": {"charge": 100, "id": "smide_2714", "name": "ZH256461", "provider": "smide", "range": 50.0, "size": 17, "time": "02/10/2020, 12:48:59"}, "type": "Feature"}, {"geometry": {"coordinates": [8.514147, 47.38676], "type": "Point"}, "properties": {"charge": 55, "id": "smide_2710", "name": "ZH256460", "provider": "smide", "range": 27.0, "size": 17, "time": "02/10/2020, 12:48:59"}, "type": "Feature"}, {"geometry": {"coordinates": [8.556099, 47.386332], "type": "Point"}, "properties": {"charge": 24, "id": "smide_2712", "name": "ZH256462", "provider": "smide", "range": 12.0, "size": 17, "time": "02/10/2020, 12:48:59"}, "type": "Feature"}, {"geometry": {"coordinates": [8.564458, 47.371672], "type": "Point"}, "properties": {"charge": 37, "id": "smide_2711", "name": "ZH256463", "provider": "smide", "range": 18.0, "size": 17, "time": "02/10/2020, 12:48:59"}, "type": "Feature"}, {"geometry": {"coordinates": [8.564731, 47.363155], "type": "Point"}, "properties": {"charge": 76, "id": "smide_2709", "name": "ZH256466", "provider": "smide", "range": 38.0, "size": 20, "time": "02/10/2020, 12:48:59"}, "type": "Feature"}, {"geometry": {"coordinates": [8.567123, 47.362348], "type": "Point"}, "properties": {"charge": 73, "id": "smide_2707", "name": "ZH256467", "provider": "smide", "range": 36.0, "size": 20, "time": "02/10/2020, 12:48:59"}, "type": "Feature"}, {"geometry": {"coordinates": [8.487425, 47.367552], "type": "Point"}, "properties": {"charge": 86, "id": "smide_2708", "name": "ZH256464", "provider": "smide", "range": 43.0, "size": 17, "time": "02/10/2020, 12:48:59"}, "type": "Feature"}, {"geometry": {"coordinates": [8.550833, 47.378392], "type": "Point"}, "properties": {"charge": 34, "id": "smide_2701", "name": "ZH256468", "provider": "smide", "range": 17.0, "size": 20, "time": "02/10/2020, 12:48:59"}, "type": "Feature"}, {"geometry": {"coordinates": [8.52578, 47.389692], "type": "Point"}, "properties": {"charge": 93, "id": "smide_2699", "name": "ZH254611", "provider": "smide", "range": 46.0, "size": 20, "time": "02/10/2020, 12:48:59"}, "type": "Feature"}, {"geometry": {"coordinates": [8.546687, 47.413608], "type": "Point"}, "properties": {"charge": 52, "id": "smide_2696", "name": "ZH254616", "provider": "smide", "range": 26.0, "size": 20, "time": "02/10/2020, 12:48:59"}, "type": "Feature"}, {"geometry": {"coordinates": [8.576498, 47.351212], "type": "Point"}, "properties": {"charge": 33, "id": "smide_2694", "name": "ZH254610", "provider": "smide", "range": 16.0, "size": 20, "time": "02/10/2020, 12:48:59"}, "type": "Feature"}, {"geometry": {"coordinates": [8.535931, 47.399736], "type": "Point"}, "properties": {"charge": 78, "id": "smide_2690", "name": "ZH254625", "provider": "smide", "range": 39.0, "size": 20, "time": "02/10/2020, 12:48:59"}, "type": "Feature"}, {"geometry": {"coordinates": [8.514215, 47.392044], "type": "Point"}, "properties": {"charge": 95, "id": "smide_2689", "name": "ZH254623", "provider": "smide", "range": 47.0, "size": 20, "time": "02/10/2020, 12:48:59"}, "type": "Feature"}, {"geometry": {"coordinates": [8.550151, 47.392608], "type": "Point"}, "properties": {"charge": 62, "id": "smide_2686", "name": "ZH263288", "provider": "smide", "range": 31.0, "size": 20, "time": "02/10/2020, 12:48:59"}, "type": "Feature"}, {"geometry": {"coordinates": [8.568665, 47.373396], "type": "Point"}, "properties": {"charge": 100, "id": "smide_2684", "name": "ZH254626", "provider": "smide", "range": 50.0, "size": 20, "time": "02/10/2020, 12:48:59"}, "type": "Feature"}, {"geometry": {"coordinates": [8.548391, 47.37778], "type": "Point"}, "properties": {"charge": 33, "id": "smide_2680", "name": "ZH254619", "provider": "smide", "range": 16.0, "size": 20, "time": "02/10/2020, 12:48:59"}, "type": "Feature"}, {"geometry": {"coordinates": [8.573773, 47.356128], "type": "Point"}, "properties": {"charge": 92, "id": "smide_2679", "name": "ZH258489", "provider": "smide", "range": 46.0, "size": 17, "time": "02/10/2020, 12:48:59"}, "type": "Feature"}, {"geometry": {"coordinates": [8.515019, 47.367936], "type": "Point"}, "properties": {"charge": 58, "id": "smide_2677", "name": "ZH258487", "provider": "smide", "range": 28.0, "size": 17, "time": "02/10/2020, 12:48:59"}, "type": "Feature"}, {"geometry": {"coordinates": [8.540664, 47.368852], "type": "Point"}, "properties": {"charge": 99, "id": "smide_2671", "name": "ZH258645", "provider": "smide", "range": 49.0, "size": 17, "time": "02/10/2020, 12:48:59"}, "type": "Feature"}, {"geometry": {"coordinates": [8.555873, 47.41074], "type": "Point"}, "properties": {"charge": 49, "id": "smide_2669", "name": "ZH263294", "provider": "smide", "range": 24.0, "size": 17, "time": "02/10/2020, 12:48:59"}, "type": "Feature"}, {"geometry": {"coordinates": [8.484659, 47.393972], "type": "Point"}, "properties": {"charge": 100, "id": "smide_2668", "name": "ZH258640", "provider": "smide", "range": 50.0, "size": 17, "time": "02/10/2020, 12:48:59"}, "type": "Feature"}, {"geometry": {"coordinates": [8.495102, 47.385228], "type": "Point"}, "properties": {"charge": 14, "id": "smide_2666", "name": "ZH258653", "provider": "smide", "range": 7.0, "size": 17, "time": "02/10/2020, 12:48:59"}, "type": "Feature"}, {"geometry": {"coordinates": [8.572885, 47.352908], "type": "Point"}, "properties": {"charge": 100, "id": "smide_2665", "name": "ZH258644", "provider": "smide", "range": 50.0, "size": 17, "time": "02/10/2020, 12:48:59"}, "type": "Feature"}, {"geometry": {"coordinates": [8.513622, 47.377924], "type": "Point"}, "properties": {"charge": 65, "id": "smide_2663", "name": "ZH258649", "provider": "smide", "range": 32.0, "size": 17, "time": "02/10/2020, 12:48:59"}, "type": "Feature"}, {"geometry": {"coordinates": [8.514838, 47.391808], "type": "Point"}, "properties": {"charge": 73, "id": "smide_2660", "name": "ZH258647", "provider": "smide", "range": 36.0, "size": 17, "time": "02/10/2020, 12:48:59"}, "type": "Feature"}, {"geometry": {"coordinates": [8.517914, 47.388088], "type": "Point"}, "properties": {"charge": 80, "id": "smide_2648", "name": "ZH257930", "provider": "smide", "range": 40.0, "size": 20, "time": "02/10/2020, 12:48:59"}, "type": "Feature"}, {"geometry": {"coordinates": [8.501783, 47.369004], "type": "Point"}, "properties": {"charge": 100, "id": "smide_2645", "name": "ZH257933", "provider": "smide", "range": 50.0, "size": 20, "time": "02/10/2020, 12:48:59"}, "type": "Feature"}, {"geometry": {"coordinates": [8.54799, 47.374241], "type": "Point"}, "properties": {"charge": 20, "id": "smide_3", "name": "ZH253765", "provider": "smide", "range": 10.0, "size": 20, "time": "02/10/2020, 12:48:59"}, "type": "Feature"}, {"geometry": {"coordinates": [8.517666, 47.413865], "type": "Point"}, "properties": {"charge": 95, "id": "smide_105", "name": "ZH253804", "provider": "smide", "range": 47.0, "size": 17, "time": "02/10/2020, 12:48:59"}, "type": "Feature"}, {"geometry": {"coordinates": [8.52902, 47.38742], "type": "Point"}, "properties": {"charge": 66, "id": "smide_186", "name": "ZH253751", "provider": "smide", "range": 33.0, "size": 20, "time": "02/10/2020, 12:48:59"}, "type": "Feature"}, {"geometry": {"coordinates": [8.559252, 47.406068], "type": "Point"}, "properties": {"charge": 98, "id": "smide_77", "name": "ZH261548", "provider": "smide", "range": 49.0, "size": 20, "time": "02/10/2020, 12:48:59"}, "type": "Feature"}, {"geometry": {"coordinates": [8.500638, 47.369733], "type": "Point"}, "properties": {"charge": 100, "id": "smide_197", "name": "ZH253864", "provider": "smide", "range": 50.0, "size": 20, "time": "02/10/2020, 12:48:59"}, "type": "Feature"}, {"geometry": {"coordinates": [8.502005, 47.36914], "type": "Point"}, "properties": {"charge": 89, "id": "smide_188", "name": "ZH261543", "provider": "smide", "range": 44.0, "size": 20, "time": "02/10/2020, 12:48:59"}, "type": "Feature"}, {"geometry": {"coordinates": [8.534274, 47.365048], "type": "Point"}, "properties": {"charge": 48, "id": "smide_71", "name": "ZH253742", "provider": "smide", "range": 24.0, "size": 20, "time": "02/10/2020, 12:48:59"}, "type": "Feature"}, {"geometry": {"coordinates": [8.496805, 47.368472], "type": "Point"}, "properties": {"charge": 81, "id": "smide_101", "name": "ZH253814", "provider": "smide", "range": 40.0, "size": 17, "time": "02/10/2020, 12:48:59"}, "type": "Feature"}, {"geometry": {"coordinates": [8.514302, 47.386552], "type": "Point"}, "properties": {"charge": 74, "id": "smide_9", "name": "ZH253796", "provider": "smide", "range": 37.0, "size": 17, "time": "02/10/2020, 12:48:59"}, "type": "Feature"}, {"geometry": {"coordinates": [8.563087, 47.382492], "type": "Point"}, "properties": {"charge": 61, "id": "smide_143", "name": "ZH253778", "provider": "smide", "range": 30.0, "size": 17, "time": "02/10/2020, 12:48:59"}, "type": "Feature"}, {"geometry": {"coordinates": [8.57649, 47.35117], "type": "Point"}, "properties": {"charge": 79, "id": "smide_180", "name": "ZH253824", "provider": "smide", "range": 39.0, "size": 20, "time": "02/10/2020, 12:48:59"}, "type": "Feature"}, {"geometry": {"coordinates": [8.566589, 47.364088], "type": "Point"}, "properties": {"charge": 28, "id": "smide_20", "name": "ZH253770", "provider": "smide", "range": 14.0, "size": 20, "time": "02/10/2020, 12:48:59"}, "type": "Feature"}, {"geometry": {"coordinates": [8.514002, 47.37676], "type": "Point"}, "properties": {"charge": 78, "id": "smide_50", "name": "ZH253853", "provider": "smide", "range": 39.0, "size": 17, "time": "02/10/2020, 12:48:59"}, "type": "Feature"}, {"geometry": {"coordinates": [8.514336, 47.357166], "type": "Point"}, "properties": {"charge": 71, "id": "smide_30", "name": "ZH253813", "provider": "smide", "range": 35.0, "size": 20, "time": "02/10/2020, 12:48:59"}, "type": "Feature"}, {"geometry": {"coordinates": [8.55765, 47.412416], "type": "Point"}, "properties": {"charge": 65, "id": "smide_10", "name": "ZH253855", "provider": "smide", "range": 32.0, "size": 17, "time": "02/10/2020, 12:48:59"}, "type": "Feature"}, {"geometry": {"coordinates": [8.507436, 47.398504], "type": "Point"}, "properties": {"charge": 38, "id": "smide_179", "name": "ZH253687", "provider": "smide", "range": 19.0, "size": 20, "time": "02/10/2020, 12:48:59"}, "type": "Feature"}, {"geometry": {"coordinates": [8.563116, 47.372116], "type": "Point"}, "properties": {"charge": 22, "id": "smide_84", "name": "ZH253733", "provider": "smide", "range": 11.0, "size": 17, "time": "02/10/2020, 12:48:59"}, "type": "Feature"}, {"geometry": {"coordinates": [8.521609, 47.367344], "type": "Point"}, "properties": {"charge": 100, "id": "smide_35", "name": "ZH253755", "provider": "smide", "range": 50.0, "size": 20, "time": "02/10/2020, 12:48:59"}, "type": "Feature"}, {"geometry": {"coordinates": [8.548472, 47.3777], "type": "Point"}, "properties": {"charge": 41, "id": "smide_119", "name": "ZH253686", "provider": "smide", "range": 20.0, "size": 20, "time": "02/10/2020, 12:48:59"}, "type": "Feature"}, {"geometry": {"coordinates": [8.563462, 47.372668], "type": "Point"}, "properties": {"charge": 79, "id": "smide_129", "name": "ZH261378", "provider": "smide", "range": 39.0, "size": 17, "time": "02/10/2020, 12:48:59"}, "type": "Feature"}, {"geometry": {"coordinates": [8.511375, 47.408965], "type": "Point"}, "properties": {"charge": 92, "id": "smide_49", "name": "ZH253873", "provider": "smide", "range": 46.0, "size": 17, "time": "02/10/2020, 12:48:59"}, "type": "Feature"}, {"geometry": {"coordinates": [8.501431, 47.422548], "type": "Point"}, "properties": {"charge": 32, "id": "smide_37", "name": "ZH261377", "provider": "smide", "range": 16.0, "size": 20, "time": "02/10/2020, 12:48:59"}, "type": "Feature"}, {"geometry": {"coordinates": [8.517466, 47.361763], "type": "Point"}, "properties": {"charge": 92, "id": "smide_191", "name": "ZH253762", "provider": "smide", "range": 46.0, "size": 17, "time": "02/10/2020, 12:48:59"}, "type": "Feature"}, {"geometry": {"coordinates": [8.503628, 47.3776], "type": "Point"}, "properties": {"charge": 16, "id": "smide_202", "name": "ZH253830", "provider": "smide", "range": 8.0, "size": 17, "time": "02/10/2020, 12:48:59"}, "type": "Feature"}, {"geometry": {"coordinates": [8.540028, 47.378944], "type": "Point"}, "properties": {"charge": 98, "id": "smide_56", "name": "ZH261442", "provider": "smide", "range": 49.0, "size": 20, "time": "02/10/2020, 12:48:59"}, "type": "Feature"}, {"geometry": {"coordinates": [8.553511, 47.374483], "type": "Point"}, "properties": {"charge": 71, "id": "smide_47", "name": "ZH253858", "provider": "smide", "range": 35.0, "size": 17, "time": "02/10/2020, 12:48:59"}, "type": "Feature"}, {"geometry": {"coordinates": [8.542418, 47.411192], "type": "Point"}, "properties": {"charge": 93, "id": "smide_23", "name": "ZH253704", "provider": "smide", "range": 46.0, "size": 17, "time": "02/10/2020, 12:48:59"}, "type": "Feature"}, {"geometry": {"coordinates": [8.492552, 47.383688], "type": "Point"}, "properties": {"charge": 28, "id": "smide_66", "name": "ZH253818", "provider": "smide", "range": 14.0, "size": 20, "time": "02/10/2020, 12:48:59"}, "type": "Feature"}, {"geometry": {"coordinates": [8.496986, 47.362736], "type": "Point"}, "properties": {"charge": 92, "id": "smide_17", "name": "ZH253793", "provider": "smide", "range": 46.0, "size": 17, "time": "02/10/2020, 12:48:59"}, "type": "Feature"}, {"geometry": {"coordinates": [8.555186, 47.383768], "type": "Point"}, "properties": {"charge": 61, "id": "smide_114", "name": "ZH253878", "provider": "smide", "range": 30.0, "size": 20, "time": "02/10/2020, 12:48:59"}, "type": "Feature"}, {"geometry": {"coordinates": [8.533195, 47.417068], "type": "Point"}, "properties": {"charge": 26, "id": "smide_203", "name": "ZH261547", "provider": "smide", "range": 13.0, "size": 17, "time": "02/10/2020, 12:48:59"}, "type": "Feature"}, {"geometry": {"coordinates": [8.519073, 47.337244], "type": "Point"}, "properties": {"charge": 35, "id": "smide_21", "name": "ZH253841", "provider": "smide", "range": 17.0, "size": 17, "time": "02/10/2020, 12:48:59"}, "type": "Feature"}, {"geometry": {"coordinates": [8.475389, 47.385648], "type": "Point"}, "properties": {"charge": 94, "id": "smide_164", "name": "ZH253775", "provider": "smide", "range": 47.0, "size": 17, "time": "02/10/2020, 12:48:59"}, "type": "Feature"}, {"geometry": {"coordinates": [8.534215, 47.41666], "type": "Point"}, "properties": {"charge": 23, "id": "smide_189", "name": "ZH253845", "provider": "smide", "range": 11.0, "size": 20, "time": "02/10/2020, 12:48:59"}, "type": "Feature"}, {"geometry": {"coordinates": [8.513265, 47.391828], "type": "Point"}, "properties": {"charge": 95, "id": "smide_81", "name": "ZH253753", "provider": "smide", "range": 47.0, "size": 17, "time": "02/10/2020, 12:48:59"}, "type": "Feature"}, {"geometry": {"coordinates": [8.575768, 47.353108], "type": "Point"}, "properties": {"charge": 65, "id": "smide_171", "name": "ZH253689", "provider": "smide", "range": 32.0, "size": 20, "time": "02/10/2020, 12:48:59"}, "type": "Feature"}, {"geometry": {"coordinates": [8.510964, 47.391052], "type": "Point"}, "properties": {"charge": 21, "id": "smide_93", "name": "ZH253681", "provider": "smide", "range": 10.0, "size": 17, "time": "02/10/2020, 12:48:59"}, "type": "Feature"}, {"geometry": {"coordinates": [8.522182, 47.386372], "type": "Point"}, "properties": {"charge": 29, "id": "smide_67", "name": "ZH253779", "provider": "smide", "range": 14.0, "size": 17, "time": "02/10/2020, 12:48:59"}, "type": "Feature"}, {"geometry": {"coordinates": [8.546096, 47.366448], "type": "Point"}, "properties": {"charge": 12, "id": "smide_133", "name": "ZH253848", "provider": "smide", "range": 6.0, "size": 20, "time": "02/10/2020, 12:48:59"}, "type": "Feature"}, {"geometry": {"coordinates": [8.481053, 47.383933], "type": "Point"}, "properties": {"charge": 92, "id": "smide_118", "name": "ZH253759", "provider": "smide", "range": 46.0, "size": 20, "time": "02/10/2020, 12:48:59"}, "type": "Feature"}, {"geometry": {"coordinates": [8.54589, 47.397835], "type": "Point"}, "properties": {"charge": 94, "id": "smide_166", "name": "ZH253728", "provider": "smide", "range": 47.0, "size": 17, "time": "02/10/2020, 12:48:59"}, "type": "Feature"}, {"geometry": {"coordinates": [8.550955, 47.414912], "type": "Point"}, "properties": {"charge": 87, "id": "smide_126", "name": "ZH268400", "provider": "smide", "range": 43.0, "size": 17, "time": "02/10/2020, 12:48:59"}, "type": "Feature"}, {"geometry": {"coordinates": [8.522853, 47.362071], "type": "Point"}, "properties": {"charge": 100, "id": "smide_44", "name": "ZH253837", "provider": "smide", "range": 50.0, "size": 17, "time": "02/10/2020, 12:48:59"}, "type": "Feature"}, {"geometry": {"coordinates": [8.547002, 47.407804], "type": "Point"}, "properties": {"charge": 44, "id": "smide_154", "name": "ZH253744", "provider": "smide", "range": 22.0, "size": 20, "time": "02/10/2020, 12:48:59"}, "type": "Feature"}, {"geometry": {"coordinates": [8.514216, 47.365168], "type": "Point"}, "properties": {"charge": 100, "id": "smide_7", "name": "ZH256289", "provider": "smide", "range": 50.0, "size": 20, "time": "02/10/2020, 12:48:59"}, "type": "Feature"}, {"geometry": {"coordinates": [8.533521, 47.385004], "type": "Point"}, "properties": {"charge": 64, "id": "smide_65", "name": "ZH253810", "provider": "smide", "range": 32.0, "size": 17, "time": "02/10/2020, 12:48:59"}, "type": "Feature"}, {"geometry": {"coordinates": [8.575765, 47.34886], "type": "Point"}, "properties": {"charge": 31, "id": "smide_40", "name": "ZH253690", "provider": "smide", "range": 15.0, "size": 20, "time": "02/10/2020, 12:48:59"}, "type": "Feature"}, {"geometry": {"coordinates": [8.516479, 47.381356], "type": "Point"}, "properties": {"charge": 71, "id": "smide_1", "name": "ZH253776", "provider": "smide", "range": 35.0, "size": 17, "time": "02/10/2020, 12:48:59"}, "type": "Feature"}, {"geometry": {"coordinates": [8.519963, 47.340021], "type": "Point"}, "properties": {"charge": 84, "id": "smide_14", "name": "ZH253749", "provider": "smide", "range": 42.0, "size": 20, "time": "02/10/2020, 12:48:59"}, "type": "Feature"}, {"geometry": {"coordinates": [8.521951, 47.356932], "type": "Point"}, "properties": {"charge": 80, "id": "smide_107", "name": "ZH253819", "provider": "smide", "range": 40.0, "size": 17, "time": "02/10/2020, 12:48:59"}, "type": "Feature"}, {"geometry": {"coordinates": [8.527142, 47.343712], "type": "Point"}, "properties": {"charge": 26, "id": "smide_136", "name": "ZH253682", "provider": "smide", "range": 13.0, "size": 17, "time": "02/10/2020, 12:48:59"}, "type": "Feature"}, {"geometry": {"coordinates": [8.514688, 47.362664], "type": "Point"}, "properties": {"charge": 100, "id": "smide_83", "name": "ZH253869", "provider": "smide", "range": 50.0, "size": 20, "time": "02/10/2020, 12:48:59"}, "type": "Feature"}, {"geometry": {"coordinates": [8.514412, 47.357588], "type": "Point"}, "properties": {"charge": 98, "id": "smide_205", "name": "ZH253805", "provider": "smide", "range": 49.0, "size": 17, "time": "02/10/2020, 12:48:59"}, "type": "Feature"}, {"geometry": {"coordinates": [8.483645, 47.39713], "type": "Point"}, "properties": {"charge": 26, "id": "smide_73", "name": "ZH261379", "provider": "smide", "range": 13.0, "size": 20, "time": "02/10/2020, 12:48:59"}, "type": "Feature"}, {"geometry": {"coordinates": [8.550544, 47.381328], "type": "Point"}, "properties": {"charge": 36, "id": "smide_100", "name": "ZH253862", "provider": "smide", "range": 18.0, "size": 20, "time": "02/10/2020, 12:48:59"}, "type": "Feature"}, {"geometry": {"coordinates": [8.521211, 47.367616], "type": "Point"}, "properties": {"charge": 70, "id": "smide_134", "name": "ZH253741", "provider": "smide", "range": 35.0, "size": 20, "time": "02/10/2020, 12:48:59"}, "type": "Feature"}, {"geometry": {"coordinates": [8.551411, 47.384208], "type": "Point"}, "properties": {"charge": 56, "id": "smide_141", "name": "ZH253800", "provider": "smide", "range": 28.0, "size": 20, "time": "02/10/2020, 12:48:59"}, "type": "Feature"}, {"geometry": {"coordinates": [8.572875, 47.351504], "type": "Point"}, "properties": {"charge": 64, "id": "smide_16", "name": "ZH253713", "provider": "smide", "range": 32.0, "size": 20, "time": "02/10/2020, 12:48:59"}, "type": "Feature"}, {"geometry": {"coordinates": [8.559813, 47.354435], "type": "Point"}, "properties": {"charge": 80, "id": "smide_33", "name": "ZH253782", "provider": "smide", "range": 40.0, "size": 20, "time": "02/10/2020, 12:48:59"}, "type": "Feature"}, {"geometry": {"coordinates": [8.514748, 47.391788], "type": "Point"}, "properties": {"charge": 32, "id": "smide_161", "name": "ZH253691", "provider": "smide", "range": 16.0, "size": 20, "time": "02/10/2020, 12:48:59"}, "type": "Feature"}, {"geometry": {"coordinates": [8.543471, 47.411148], "type": "Point"}, "properties": {"charge": 100, "id": "smide_183", "name": "ZH253868", "provider": "smide", "range": 50.0, "size": 17, "time": "02/10/2020, 12:48:59"}, "type": "Feature"}, {"geometry": {"coordinates": [8.546191, 47.374228], "type": "Point"}, "properties": {"charge": 48, "id": "smide_42", "name": "ZH253846", "provider": "smide", "range": 24.0, "size": 20, "time": "02/10/2020, 12:48:59"}, "type": "Feature"}, {"geometry": {"coordinates": [8.544288, 47.41652], "type": "Point"}, "properties": {"charge": 42, "id": "smide_4", "name": "ZH253740", "provider": "smide", "range": 21.0, "size": 20, "time": "02/10/2020, 12:48:59"}, "type": "Feature"}, {"geometry": {"coordinates": [8.496554, 47.392748], "type": "Point"}, "properties": {"charge": 97, "id": "smide_160", "name": "ZH253722", "provider": "smide", "range": 48.0, "size": 17, "time": "02/10/2020, 12:48:59"}, "type": "Feature"}, {"geometry": {"coordinates": [8.541496, 47.390531], "type": "Point"}, "properties": {"charge": 66, "id": "smide_137", "name": "ZH258502", "provider": "smide", "range": 33.0, "size": 17, "time": "02/10/2020, 12:48:59"}, "type": "Feature"}, {"geometry": {"coordinates": [8.517201, 47.385024], "type": "Point"}, "properties": {"charge": 100, "id": "smide_178", "name": "ZH253803", "provider": "smide", "range": 50.0, "size": 17, "time": "02/10/2020, 12:48:59"}, "type": "Feature"}, {"geometry": {"coordinates": [8.553573, 47.397675], "type": "Point"}, "properties": {"charge": 60, "id": "smide_55", "name": "ZH253875", "provider": "smide", "range": 30.0, "size": 17, "time": "02/10/2020, 12:48:59"}, "type": "Feature"}, {"geometry": {"coordinates": [8.554075, 47.357264], "type": "Point"}, "properties": {"charge": 72, "id": "smide_96", "name": "ZH256146", "provider": "smide", "range": 36.0, "size": 20, "time": "02/10/2020, 12:48:59"}, "type": "Feature"}, {"geometry": {"coordinates": [8.518496, 47.39402], "type": "Point"}, "properties": {"charge": 81, "id": "smide_58", "name": "ZH259246", "provider": "smide", "range": 40.0, "size": 20, "time": "02/10/2020, 12:48:59"}, "type": "Feature"}, {"geometry": {"coordinates": [8.475281, 47.385476], "type": "Point"}, "properties": {"charge": 91, "id": "smide_54", "name": "ZH253874", "provider": "smide", "range": 45.0, "size": 20, "time": "02/10/2020, 12:48:59"}, "type": "Feature"}, {"geometry": {"coordinates": [8.527883, 47.39156], "type": "Point"}, "properties": {"charge": 72, "id": "smide_175", "name": "ZH253730", "provider": "smide", "range": 36.0, "size": 17, "time": "02/10/2020, 12:48:59"}, "type": "Feature"}, {"geometry": {"coordinates": [8.540316, 47.378972], "type": "Point"}, "properties": {"charge": 100, "id": "smide_95", "name": "ZH253773", "provider": "smide", "range": 50.0, "size": 17, "time": "02/10/2020, 12:48:59"}, "type": "Feature"}, {"geometry": {"coordinates": [8.536418, 47.343588], "type": "Point"}, "properties": {"charge": 27, "id": "smide_163", "name": "ZH256147", "provider": "smide", "range": 13.0, "size": 20, "time": "02/10/2020, 12:48:59"}, "type": "Feature"}, {"geometry": {"coordinates": [8.528099, 47.413724], "type": "Point"}, "properties": {"charge": 60, "id": "smide_112", "name": "ZH263530", "provider": "smide", "range": 30.0, "size": 20, "time": "02/10/2020, 12:48:59"}, "type": "Feature"}, {"geometry": {"coordinates": [8.548911, 47.397436], "type": "Point"}, "properties": {"charge": 43, "id": "smide_122", "name": "ZH253850", "provider": "smide", "range": 21.0, "size": 20, "time": "02/10/2020, 12:48:59"}, "type": "Feature"}, {"geometry": {"coordinates": [8.559301, 47.414911], "type": "Point"}, "properties": {"charge": 32, "id": "smide_38", "name": "ZH253851", "provider": "smide", "range": 16.0, "size": 20, "time": "02/10/2020, 12:48:59"}, "type": "Feature"}, {"geometry": {"coordinates": [8.557699, 47.404464], "type": "Point"}, "properties": {"charge": 70, "id": "smide_6", "name": "ZH253787", "provider": "smide", "range": 35.0, "size": 17, "time": "02/10/2020, 12:48:59"}, "type": "Feature"}, {"geometry": {"coordinates": [8.514348, 47.391236], "type": "Point"}, "properties": {"charge": 95, "id": "smide_18", "name": "ZH253859", "provider": "smide", "range": 47.0, "size": 17, "time": "02/10/2020, 12:48:59"}, "type": "Feature"}, {"geometry": {"coordinates": [8.508788, 47.35266], "type": "Point"}, "properties": {"charge": 74, "id": "smide_12", "name": "ZH253685", "provider": "smide", "range": 37.0, "size": 17, "time": "02/10/2020, 12:48:59"}, "type": "Feature"}, {"geometry": {"coordinates": [8.518648, 47.380392], "type": "Point"}, "properties": {"charge": 36, "id": "smide_192", "name": "ZH253706", "provider": "smide", "range": 18.0, "size": 20, "time": "02/10/2020, 12:48:59"}, "type": "Feature"}, {"geometry": {"coordinates": [8.533096, 47.36828], "type": "Point"}, "properties": {"charge": 90, "id": "smide_39", "name": "ZH253714", "provider": "smide", "range": 45.0, "size": 20, "time": "02/10/2020, 12:48:59"}, "type": "Feature"}, {"geometry": {"coordinates": [8.53277, 47.38324], "type": "Point"}, "properties": {"charge": 38, "id": "smide_5", "name": "ZH261443", "provider": "smide", "range": 19.0, "size": 20, "time": "02/10/2020, 12:48:59"}, "type": "Feature"}, {"geometry": {"coordinates": [8.540199, 47.37902], "type": "Point"}, "properties": {"charge": 100, "id": "smide_29", "name": "ZH253723", "provider": "smide", "range": 50.0, "size": 17, "time": "02/10/2020, 12:48:59"}, "type": "Feature"}, {"geometry": {"coordinates": [8.554323, 47.379028], "type": "Point"}, "properties": {"charge": 62, "id": "smide_46", "name": "ZH253843", "provider": "smide", "range": 31.0, "size": 20, "time": "02/10/2020, 12:48:59"}, "type": "Feature"}, {"geometry": {"coordinates": [8.54161166666667, 47.3714066666667], "type": "Point"}, "properties": {"charge": 34, "id": "bird_9399b3af-5fce-4dbe-beea-825c537b3d1b", "provider": "bird", "timeStamp": "02/10/2020, 12:48:58"}, "type": "Feature"}, {"geometry": {"coordinates": [8.54568833333333, 47.3753466666667], "type": "Point"}, "properties": {"charge": 45, "id": "bird_5423b5ac-397d-472d-a32c-64542356c834", "provider": "bird", "timeStamp": "02/10/2020, 12:48:58"}, "type": "Feature"}, {"geometry": {"coordinates": [8.5428, 47.3725433333333], "type": "Point"}, "properties": {"charge": 93, "id": "bird_d3853e85-48c0-4c43-967b-8038bd310707", "provider": "bird", "timeStamp": "02/10/2020, 12:48:58"}, "type": "Feature"}, {"geometry": {"coordinates": [8.517945, 47.3878433333333], "type": "Point"}, "properties": {"charge": 39, "id": "bird_b8d4ea17-0f06-4f54-960b-b68d60e5eb57", "provider": "bird", "timeStamp": "02/10/2020, 12:48:58"}, "type": "Feature"}, {"geometry": {"coordinates": [8.53746666666667, 47.3699383333333], "type": "Point"}, "properties": {"charge": 99, "id": "bird_b1d2bbcb-67dc-4636-b1e5-7bf3b0f7beb1", "provider": "bird", "timeStamp": "02/10/2020, 12:48:58"}, "type": "Feature"}, {"geometry": {"coordinates": [8.53139333333333, 47.3688666666667], "type": "Point"}, "properties": {"charge": 13, "id": "bird_3f38e004-f379-400a-a77e-58eff4b13acf", "provider": "bird", "timeStamp": "02/10/2020, 12:48:58"}, "type": "Feature"}, {"geometry": {"coordinates": [8.53762666666667, 47.370095], "type": "Point"}, "properties": {"charge": 100, "id": "bird_b7ad87e7-029d-46de-a306-b7cf0b5ce7ef", "provider": "bird", "timeStamp": "02/10/2020, 12:48:58"}, "type": "Feature"}, {"geometry": {"coordinates": [8.51948, 47.3885683333333], "type": "Point"}, "properties": {"charge": 52, "id": "bird_2954c5ef-922c-4eac-8f06-b9ffc9debf11", "provider": "bird", "timeStamp": "02/10/2020, 12:48:58"}, "type": "Feature"}, {"geometry": {"coordinates": [8.51954666666667, 47.388595], "type": "Point"}, "properties": {"charge": 37, "id": "bird_feae6e85-9271-48d6-876b-2232319a65b6", "provider": "bird", "timeStamp": "02/10/2020, 12:48:58"}, "type": "Feature"}, {"geometry": {"coordinates": [8.53760833333333, 47.370175], "type": "Point"}, "properties": {"charge": 100, "id": "bird_4a038a08-4e74-4189-b25c-a05c9f127c48", "provider": "bird", "timeStamp": "02/10/2020, 12:48:58"}, "type": "Feature"}, {"geometry": {"coordinates": [8.53764, 47.3701966666667], "type": "Point"}, "properties": {"charge": 100, "id": "bird_a2d7cede-6cbd-4ef3-b7fd-dd49fbcd6d8e", "provider": "bird", "timeStamp": "02/10/2020, 12:48:58"}, "type": "Feature"}, {"geometry": {"coordinates": [8.51999833333333, 47.3887066666667], "type": "Point"}, "properties": {"charge": 81, "id": "bird_beef0d56-7e09-491e-afce-f452cb9c50ce", "provider": "bird", "timeStamp": "02/10/2020, 12:48:58"}, "type": "Feature"}, {"geometry": {"coordinates": [8.52251666666667, 47.38977], "type": "Point"}, "properties": {"charge": 26, "id": "bird_448cb061-b3b6-4fc5-b4d2-047e1b540b39", "provider": "bird", "timeStamp": "02/10/2020, 12:48:58"}, "type": "Feature"}, {"geometry": {"coordinates": [8.53653, 47.3699333333333], "type": "Point"}, "properties": {"charge": 100, "id": "bird_3ac5ff9b-caba-4239-8137-a39c1510acf9", "provider": "bird", "timeStamp": "02/10/2020, 12:48:58"}, "type": "Feature"}, {"geometry": {"coordinates": [8.51832833333333, 47.37238], "type": "Point"}, "properties": {"charge": 30, "id": "bird_3d07e07c-4f84-4a89-93cd-8ddfdbe6cb83", "provider": "bird", "timeStamp": "02/10/2020, 12:48:58"}, "type": "Feature"}, {"geometry": {"coordinates": [8.520005, 47.3886], "type": "Point"}, "properties": {"charge": 100, "id": "bird_f8890e7b-68ec-48cd-82fc-bddafd13a5f6", "provider": "bird", "timeStamp": "02/10/2020, 12:48:58"}, "type": "Feature"}, {"geometry": {"coordinates": [8.53634333333333, 47.369945], "type": "Point"}, "properties": {"charge": 100, "id": "bird_7d1b4e69-9682-48a6-8657-fd728f90a15e", "provider": "bird", "timeStamp": "02/10/2020, 12:48:58"}, "type": "Feature"}, {"geometry": {"coordinates": [8.5363, 47.3700033333333], "type": "Point"}, "properties": {"charge": 100, "id": "bird_cdfafd23-3aff-448e-9658-f5ae6ed971dd", "provider": "bird", "timeStamp": "02/10/2020, 12:48:58"}, "type": "Feature"}, {"geometry": {"coordinates": [8.53417666666667, 47.36953], "type": "Point"}, "properties": {"charge": 47, "id": "bird_01bc309c-e934-45ff-956e-612af90f4e8b", "provider": "bird", "timeStamp": "02/10/2020, 12:48:58"}, "type": "Feature"}, {"geometry": {"coordinates": [8.54086333333333, 47.3720516666667], "type": "Point"}, "properties": {"charge": 64, "id": "bird_de410d05-2b92-47dc-bb1a-23e587e79002", "provider": "bird", "timeStamp": "02/10/2020, 12:48:58"}, "type": "Feature"}, {"geometry": {"coordinates": [8.54367666666667, 47.3855316666667], "type": "Point"}, "properties": {"charge": 53, "id": "bird_19838b78-da42-4269-9ded-3cf123b234b2", "provider": "bird", "timeStamp": "02/10/2020, 12:48:58"}, "type": "Feature"}, {"geometry": {"coordinates": [8.53578166666667, 47.3699866666667], "type": "Point"}, "properties": {"charge": 38, "id": "bird_b002a320-c46e-4a79-8834-579ccc561a8b", "provider": "bird", "timeStamp": "02/10/2020, 12:48:58"}, "type": "Feature"}, {"geometry": {"coordinates": [8.543885, 47.3748583333333], "type": "Point"}, "properties": {"charge": 35, "id": "bird_2f10b19c-914c-4f4e-8468-a3dc7ae1f38c", "provider": "bird", "timeStamp": "02/10/2020, 12:48:58"}, "type": "Feature"}, {"geometry": {"coordinates": [8.51586833333333, 47.3752283333333], "type": "Point"}, "properties": {"charge": 49, "id": "bird_6b44f314-cbf0-4d37-8d57-e03c1324e6f3", "provider": "bird", "timeStamp": "02/10/2020, 12:48:58"}, "type": "Feature"}, {"geometry": {"coordinates": [8.52129, 47.3889116666667], "type": "Point"}, "properties": {"charge": 74, "id": "bird_2e8043b6-3ce9-48d9-b38a-6d9542979f4c", "provider": "bird", "timeStamp": "02/10/2020, 12:48:58"}, "type": "Feature"}, {"geometry": {"coordinates": [8.52023, 47.388305], "type": "Point"}, "properties": {"charge": 100, "id": "bird_820ff137-ed68-4623-970b-54b93710a445", "provider": "bird", "timeStamp": "02/10/2020, 12:48:58"}, "type": "Feature"}, {"geometry": {"coordinates": [8.51746833333333, 47.38636], "type": "Point"}, "properties": {"charge": 26, "id": "bird_0d33683e-75d4-4286-aafa-7f127c7d3bd5", "provider": "bird", "timeStamp": "02/10/2020, 12:48:58"}, "type": "Feature"}, {"geometry": {"coordinates": [8.51949166666667, 47.3877716666667], "type": "Point"}, "properties": {"charge": 26, "id": "bird_b57188ce-1874-425c-85f0-58a875d66e51", "provider": "bird", "timeStamp": "02/10/2020, 12:48:58"}, "type": "Feature"}, {"geometry": {"coordinates": [8.53988166666667, 47.3719216666667], "type": "Point"}, "properties": {"charge": 74, "id": "bird_9503b20e-5091-43eb-b836-92198a2518cf", "provider": "bird", "timeStamp": "02/10/2020, 12:48:58"}, "type": "Feature"}, {"geometry": {"coordinates": [8.5394, 47.3883316666667], "type": "Point"}, "properties": {"charge": 52, "id": "bird_428ae7ef-f859-4f31-a4e6-db5dd484f6a5", "provider": "bird", "timeStamp": "02/10/2020, 12:48:58"}, "type": "Feature"}, {"geometry": {"coordinates": [8.53816166666667, 47.3711083333333], "type": "Point"}, "properties": {"charge": 40, "id": "bird_6f12b216-e48f-4195-9346-666123a10fbc", "provider": "bird", "timeStamp": "02/10/2020, 12:48:58"}, "type": "Feature"}, {"geometry": {"coordinates": [8.520365, 47.3881683333333], "type": "Point"}, "properties": {"charge": 100, "id": "bird_a95aa35b-ef5a-410b-a7c7-74eb1ff62e75", "provider": "bird", "timeStamp": "02/10/2020, 12:48:58"}, "type": "Feature"}, {"geometry": {"coordinates": [8.53936833333333, 47.3882566666667], "type": "Point"}, "properties": {"charge": 17, "id": "bird_1c9c676d-754d-48cf-a974-f8d6d01e3933", "provider": "bird", "timeStamp": "02/10/2020, 12:48:58"}, "type": "Feature"}, {"geometry": {"coordinates": [8.51583166666667, 47.375985], "type": "Point"}, "properties": {"charge": 35, "id": "bird_f263755b-36cc-45aa-9bc1-bde9224f968f", "provider": "bird", "timeStamp": "02/10/2020, 12:48:58"}, "type": "Feature"}, {"geometry": {"coordinates": [8.52189333333333, 47.3888016666667], "type": "Point"}, "properties": {"charge": 37, "id": "bird_2ed39412-3df1-4444-bd29-348266915741", "provider": "bird", "timeStamp": "02/10/2020, 12:48:58"}, "type": "Feature"}, {"geometry": {"coordinates": [8.544555, 47.37677], "type": "Point"}, "properties": {"charge": 56, "id": "bird_cad9d1ec-db93-45cc-af89-84b11a75e1a7", "provider": "bird", "timeStamp": "02/10/2020, 12:48:58"}, "type": "Feature"}, {"geometry": {"coordinates": [8.51785666666667, 47.3861883333333], "type": "Point"}, "properties": {"charge": 20, "id": "bird_c61d01a4-59b4-4d1e-a2b6-50d4dbdba085", "provider": "bird", "timeStamp": "02/10/2020, 12:48:58"}, "type": "Feature"}, {"geometry": {"coordinates": [8.51831166666667, 47.3865083333333], "type": "Point"}, "properties": {"charge": 74, "id": "bird_936228a7-42e9-4ad5-829a-2bc69bc09a12", "provider": "bird", "timeStamp": "02/10/2020, 12:48:58"}, "type": "Feature"}, {"geometry": {"coordinates": [8.53743333333333, 47.3711083333333], "type": "Point"}, "properties": {"charge": 70, "id": "bird_23b5f769-2367-4c9c-8e19-c4bc41bfa931", "provider": "bird", "timeStamp": "02/10/2020, 12:48:58"}, "type": "Feature"}, {"geometry": {"coordinates": [8.51772833333333, 47.38588], "type": "Point"}, "properties": {"charge": 34, "id": "bird_726b5879-c6d2-486b-98b9-ad5256d7fd28", "provider": "bird", "timeStamp": "02/10/2020, 12:48:58"}, "type": "Feature"}, {"geometry": {"coordinates": [8.51635166666667, 47.3757366666667], "type": "Point"}, "properties": {"charge": 100, "id": "bird_fdcab07b-a2d4-434e-9a67-bd02c3341421", "provider": "bird", "timeStamp": "02/10/2020, 12:48:58"}, "type": "Feature"}, {"geometry": {"coordinates": [8.53506333333333, 47.37043], "type": "Point"}, "properties": {"charge": 53, "id": "bird_7fab84f4-0527-4696-9fd0-1df9f2226f02", "provider": "bird", "timeStamp": "02/10/2020, 12:48:58"}, "type": "Feature"}, {"geometry": {"coordinates": [8.51812166666667, 47.3738166666667], "type": "Point"}, "properties": {"charge": 42, "id": "bird_f04b764d-fae7-4c72-a44f-9c3cbc583f2a", "provider": "bird", "timeStamp": "02/10/2020, 12:48:58"}, "type": "Feature"}, {"geometry": {"coordinates": [8.51848333333333, 47.3735166666667], "type": "Point"}, "properties": {"charge": 29, "id": "bird_1c39e829-ca28-4e47-b555-729ceb70fde4", "provider": "bird", "timeStamp": "02/10/2020, 12:48:58"}, "type": "Feature"}, {"geometry": {"coordinates": [8.51642666666667, 47.37584], "type": "Point"}, "properties": {"charge": 98, "id": "bird_490c5d55-21d8-4bd8-a28d-a9a9ce8536b8", "provider": "bird", "timeStamp": "02/10/2020, 12:48:58"}, "type": "Feature"}, {"geometry": {"coordinates": [8.5178, 47.3857566666667], "type": "Point"}, "properties": {"charge": 100, "id": "bird_bcc0e612-ebd8-4da5-a995-abeb0229e449", "provider": "bird", "timeStamp": "02/10/2020, 12:48:58"}, "type": "Feature"}, {"geometry": {"coordinates": [8.51777666666667, 47.38573], "type": "Point"}, "properties": {"charge": 97, "id": "bird_d4b747e2-fcbf-4b65-a368-22cc52ca7568", "provider": "bird", "timeStamp": "02/10/2020, 12:48:58"}, "type": "Feature"}, {"geometry": {"coordinates": [8.5438, 47.37632], "type": "Point"}, "properties": {"charge": 34, "id": "bird_1d9a3452-fd45-4a32-a2df-038d1ad7de93", "provider": "bird", "timeStamp": "02/10/2020, 12:48:58"}, "type": "Feature"}, {"geometry": {"coordinates": [8.51667333333333, 47.3755983333333], "type": "Point"}, "properties": {"charge": 98, "id": "bird_aafb9367-ed4f-4a46-a50d-f0e66ac61a9c", "provider": "bird", "timeStamp": "02/10/2020, 12:48:58"}, "type": "Feature"}, {"geometry": {"coordinates": [8.51665166666667, 47.37563], "type": "Point"}, "properties": {"charge": 98, "id": "bird_185519a3-7b29-4c67-8159-d4f877d2a994", "provider": "bird", "timeStamp": "02/10/2020, 12:48:58"}, "type": "Feature"}, {"geometry": {"coordinates": [8.51788833333333, 47.3857766666667], "type": "Point"}, "properties": {"charge": 98, "id": "bird_76154a04-07dd-4694-bc51-cb29cf4b5568", "provider": "bird", "timeStamp": "02/10/2020, 12:48:58"}, "type": "Feature"}, {"geometry": {"coordinates": [8.51720833333333, 47.3850366666667], "type": "Point"}, "properties": {"charge": 20, "id": "bird_20e7c520-00a3-474f-8cbe-2c4c834df29c", "provider": "bird", "timeStamp": "02/10/2020, 12:48:58"}, "type": "Feature"}, {"geometry": {"coordinates": [8.52317333333333, 47.3711433333333], "type": "Point"}, "properties": {"charge": 98, "id": "bird_ebc0dd80-b4b6-49a5-93e7-aabe9c4d70f0", "provider": "bird", "timeStamp": "02/10/2020, 12:48:58"}, "type": "Feature"}, {"geometry": {"coordinates": [8.52316833333333, 47.3711466666667], "type": "Point"}, "properties": {"charge": 100, "id": "bird_1715b8be-5bb2-47aa-a41f-0261adeea512", "provider": "bird", "timeStamp": "02/10/2020, 12:48:58"}, "type": "Feature"}, {"geometry": {"coordinates": [8.51767666666667, 47.38549], "type": "Point"}, "properties": {"charge": 75, "id": "bird_0ea654f7-a2f2-4bb9-9da8-3aa48fd5d6e0", "provider": "bird", "timeStamp": "02/10/2020, 12:48:58"}, "type": "Feature"}, {"geometry": {"coordinates": [8.51825166666667, 47.38602], "type": "Point"}, "properties": {"charge": 31, "id": "bird_9edaa9eb-c4c4-4194-93c9-82d9de5c122b", "provider": "bird", "timeStamp": "02/10/2020, 12:48:58"}, "type": "Feature"}, {"geometry": {"coordinates": [8.51827833333333, 47.3860433333333], "type": "Point"}, "properties": {"charge": 75, "id": "bird_d6fb0e01-3670-4b7e-8587-8eb29ac78bd5", "provider": "bird", "timeStamp": "02/10/2020, 12:48:58"}, "type": "Feature"}, {"geometry": {"coordinates": [8.52353, 47.37104], "type": "Point"}, "properties": {"charge": 100, "id": "bird_6bb9b41f-8436-4490-9af2-dd3df013929d", "provider": "bird", "timeStamp": "02/10/2020, 12:48:58"}, "type": "Feature"}, {"geometry": {"coordinates": [8.544, 47.37695], "type": "Point"}, "properties": {"charge": 17, "id": "bird_edf811ed-1bd8-49fc-882a-25a70103c1ca", "provider": "bird", "timeStamp": "02/10/2020, 12:48:58"}, "type": "Feature"}, {"geometry": {"coordinates": [8.516705, 47.3757583333333], "type": "Point"}, "properties": {"charge": 100, "id": "bird_6ada8c46-9f65-4701-a3ce-8d87a8fd8b08", "provider": "bird", "timeStamp": "02/10/2020, 12:48:58"}, "type": "Feature"}, {"geometry": {"coordinates": [8.51671833333333, 47.375785], "type": "Point"}, "properties": {"charge": 98, "id": "bird_3a9c7b0c-9672-4558-af53-315d9406e041", "provider": "bird", "timeStamp": "02/10/2020, 12:48:58"}, "type": "Feature"}, {"geometry": {"coordinates": [8.51672, 47.37582], "type": "Point"}, "properties": {"charge": 65, "id": "bird_ec4d3cff-2734-4ac7-9c6d-5efb03437cf8", "provider": "bird", "timeStamp": "02/10/2020, 12:48:58"}, "type": "Feature"}, {"geometry": {"coordinates": [8.51803166666667, 47.385715], "type": "Point"}, "properties": {"charge": 82, "id": "bird_663b36c8-7bf0-42f6-9d1f-1f2a1f7ffe16", "provider": "bird", "timeStamp": "02/10/2020, 12:48:58"}, "type": "Feature"}, {"geometry": {"coordinates": [8.54392666666667, 47.383], "type": "Point"}, "properties": {"charge": 26, "id": "bird_671befec-2fbc-4753-bda8-a0db448928c4", "provider": "bird", "timeStamp": "02/10/2020, 12:48:58"}, "type": "Feature"}, {"geometry": {"coordinates": [8.51678, 47.37582], "type": "Point"}, "properties": {"charge": 99, "id": "bird_7c3ec750-31b6-47dd-990c-f6c5b061a0a2", "provider": "bird", "timeStamp": "02/10/2020, 12:48:58"}, "type": "Feature"}, {"geometry": {"coordinates": [8.52347333333333, 47.3711733333333], "type": "Point"}, "properties": {"charge": 98, "id": "bird_68f7639c-46c6-453a-8b85-39d5f34d9711", "provider": "bird", "timeStamp": "02/10/2020, 12:48:58"}, "type": "Feature"}, {"geometry": {"coordinates": [8.5235, 47.37117], "type": "Point"}, "properties": {"charge": 100, "id": "bird_b6604fc8-e81a-4011-ab26-736747bc4071", "provider": "bird", "timeStamp": "02/10/2020, 12:48:58"}, "type": "Feature"}, {"geometry": {"coordinates": [8.53818166666667, 47.3881066666667], "type": "Point"}, "properties": {"charge": 49, "id": "bird_87068fbc-6ee2-42c1-9798-e9914518d514", "provider": "bird", "timeStamp": "02/10/2020, 12:48:58"}, "type": "Feature"}, {"geometry": {"coordinates": [8.54079166666667, 47.37347], "type": "Point"}, "properties": {"charge": 57, "id": "bird_42bdc7a0-4f45-4e3c-91ea-88e068e2c464", "provider": "bird", "timeStamp": "02/10/2020, 12:48:58"}, "type": "Feature"}, {"geometry": {"coordinates": [8.5182, 47.3856283333333], "type": "Point"}, "properties": {"charge": 82, "id": "bird_37020690-66c6-4b56-80f7-3631c71cf781", "provider": "bird", "timeStamp": "02/10/2020, 12:48:58"}, "type": "Feature"}, {"geometry": {"coordinates": [8.51837833333333, 47.3857683333333], "type": "Point"}, "properties": {"charge": 100, "id": "bird_823208e0-241e-4487-b256-4dc60db3fa1a", "provider": "bird", "timeStamp": "02/10/2020, 12:48:58"}, "type": "Feature"}, {"geometry": {"coordinates": [8.517815, 47.385205], "type": "Point"}, "properties": {"charge": 100, "id": "bird_4354184a-306f-4807-b131-aa8d37947bb3", "provider": "bird", "timeStamp": "02/10/2020, 12:48:58"}, "type": "Feature"}, {"geometry": {"coordinates": [8.52411333333333, 47.3710983333333], "type": "Point"}, "properties": {"charge": 98, "id": "bird_032c8bca-88c1-47f0-bd03-9015f2a27b52", "provider": "bird", "timeStamp": "02/10/2020, 12:48:58"}, "type": "Feature"}, {"geometry": {"coordinates": [8.54385833333333, 47.3774183333333], "type": "Point"}, "properties": {"charge": 20, "id": "bird_689b7167-a3c6-4989-a052-467107d8ef60", "provider": "bird", "timeStamp": "02/10/2020, 12:48:58"}, "type": "Feature"}, {"geometry": {"coordinates": [8.51847, 47.385795], "type": "Point"}, "properties": {"charge": 11, "id": "bird_b44f8d56-b3ad-4ef8-af5d-6ac825f4a97a", "provider": "bird", "timeStamp": "02/10/2020, 12:48:58"}, "type": "Feature"}, {"geometry": {"coordinates": [8.523885, 47.3713116666667], "type": "Point"}, "properties": {"charge": 39, "id": "bird_bac6f975-2d96-4bee-bc5b-7b81f22e3fab", "provider": "bird", "timeStamp": "02/10/2020, 12:48:58"}, "type": "Feature"}, {"geometry": {"coordinates": [8.53601666666667, 47.371315], "type": "Point"}, "properties": {"charge": 100, "id": "bird_926acb04-f3e3-4f94-ad8e-20ff04463dc9", "provider": "bird", "timeStamp": "02/10/2020, 12:48:58"}, "type": "Feature"}, {"geometry": {"coordinates": [8.54069, 47.37376], "type": "Point"}, "properties": {"charge": 19, "id": "bird_5e6e3ba6-8c14-4579-8ddc-305aa03d39c7", "provider": "bird", "timeStamp": "02/10/2020, 12:48:58"}, "type": "Feature"}, {"geometry": {"coordinates": [8.52187333333333, 47.3878133333333], "type": "Point"}, "properties": {"charge": 58, "id": "bird_4d9be8f1-5ec3-4dda-984f-e32c26f0bc1b", "provider": "bird", "timeStamp": "02/10/2020, 12:48:58"}, "type": "Feature"}, {"geometry": {"coordinates": [8.51832833333333, 47.3746416666667], "type": "Point"}, "properties": {"charge": 38, "id": "bird_e3991921-d925-4e6c-ab8a-c0e6cd4f9952", "provider": "bird", "timeStamp": "02/10/2020, 12:48:58"}, "type": "Feature"}, {"geometry": {"coordinates": [8.53647333333333, 47.37157], "type": "Point"}, "properties": {"charge": 99, "id": "bird_5a05344a-9ad4-4267-9111-36618f11ec2f", "provider": "bird", "timeStamp": "02/10/2020, 12:48:58"}, "type": "Feature"}, {"geometry": {"coordinates": [8.51846833333333, 47.385395], "type": "Point"}, "properties": {"charge": 55, "id": "bird_8b5f36d7-e397-4492-a40d-2b18891d7956", "provider": "bird", "timeStamp": "02/10/2020, 12:48:58"}, "type": "Feature"}, {"geometry": {"coordinates": [8.536735, 47.37178], "type": "Point"}, "properties": {"charge": 100, "id": "bird_b9ab561b-2cc6-4f93-b1ae-8ad19e15fb6d", "provider": "bird", "timeStamp": "02/10/2020, 12:48:58"}, "type": "Feature"}, {"geometry": {"coordinates": [8.51632166666667, 47.38139], "type": "Point"}, "properties": {"charge": 11, "id": "bird_7fc4a2a1-525b-4696-b7b1-1b240c8b23f3", "provider": "bird", "timeStamp": "02/10/2020, 12:48:58"}, "type": "Feature"}, {"geometry": {"coordinates": [8.54290833333333, 47.3832666666667], "type": "Point"}, "properties": {"charge": 30, "id": "bird_22b95e65-0857-4864-9b53-c4b7e86e27fa", "provider": "bird", "timeStamp": "02/10/2020, 12:48:58"},