{"features": [{"geometry": {"coordinates": [8.540062, 47.374392], "type": "Point"}, "properties": {"address": "Uraniastrasse 7", "electric": 7, "id": "pb_60", "manual": 8, "name": "Demo Station Werdm\u00fchleplatz", "provider": "publibike", "timeStamp": "01/29/2020, 20:39:14", "zip": 8001}, "type": "Feature"}, {"geometry": {"coordinates": [8.5452956, 47.4099615], "type": "Point"}, "properties": {"address": "Querstrasse 8", "electric": 3, "id": "pb_61", "manual": 1, "name": "Marktplatz", "provider": "publibike", "timeStamp": "01/29/2020, 20:39:14", "zip": 8050}, "type": "Feature"}, {"geometry": {"coordinates": [8.5156327, 47.3795837], "type": "Point"}, "properties": {"address": "Bullingerstrasse 5", "electric": 2, "id": "pb_80", "manual": 9, "name": "Bullingerplatz", "provider": "publibike", "timeStamp": "01/29/2020, 20:39:14", "zip": 8004}, "type": "Feature"}, {"geometry": {"coordinates": [8.5104051, 47.3899342], "type": "Point"}, "properties": {"address": "Pfingstweidstrasse 96e", "electric": 1, "id": "pb_81", "manual": 0, "name": "Herdern", "provider": "publibike", "timeStamp": "01/29/2020, 20:39:14", "zip": 8001}, "type": "Feature"}, {"geometry": {"coordinates": [8.535718, 47.359675], "type": "Point"}, "properties": {"address": "Mythenquai 50", "electric": 0, "id": "pb_82", "manual": 0, "name": "Hafen Enge", "provider": "publibike", "timeStamp": "01/29/2020, 20:39:14", "zip": 8002}, "type": "Feature"}, {"geometry": {"coordinates": [8.520370505, 47.358663827], "type": "Point"}, "properties": {"address": "Bubenbergstrasse 1", "electric": 4, "id": "pb_83", "manual": 2, "name": "Comerge", "provider": "publibike", "timeStamp": "01/29/2020, 20:39:14", "zip": 8045}, "type": "Feature"}, {"geometry": {"coordinates": [8.5412505, 47.3789825], "type": "Point"}, "properties": {"address": "Museumstrasse 2", "electric": 3, "id": "pb_84", "manual": 7, "name": "Landesmuseum", "provider": "publibike", "timeStamp": "01/29/2020, 20:39:14", "zip": 8001}, "type": "Feature"}, {"geometry": {"coordinates": [8.5235479, 47.3716661], "type": "Point"}, "properties": {"address": "Birmensdorferstrasse 80", "electric": 4, "id": "pb_85", "manual": 4, "name": "Bahnhof Wiedikon", "provider": "publibike", "timeStamp": "01/29/2020, 20:39:14", "zip": 8003}, "type": "Feature"}, {"geometry": {"coordinates": [8.506822854, 47.40781197], "type": "Point"}, "properties": {"address": "Stefano-Franscini-Platz 5", "electric": 1, "id": "pb_86", "manual": 1, "name": "ETH H\u00f6nggerberg", "provider": "publibike", "timeStamp": "01/29/2020, 20:39:14", "zip": 8093}, "type": "Feature"}, {"geometry": {"coordinates": [8.536101, 47.371083], "type": "Point"}, "properties": {"address": "Pelikanplatz 5", "electric": 3, "id": "pb_87", "manual": 0, "name": "Pelikanplatz", "provider": "publibike", "timeStamp": "01/29/2020, 20:39:14", "zip": 8001}, "type": "Feature"}, {"geometry": {"coordinates": [8.5257822, 47.3651936], "type": "Point"}, "properties": {"address": "H\u00fcrlimannplatz 90", "electric": 0, "id": "pb_88", "manual": 6, "name": "H\u00fcrlimannplatz", "provider": "publibike", "timeStamp": "01/29/2020, 20:39:14", "zip": 8002}, "type": "Feature"}, {"geometry": {"coordinates": [8.5313344, 47.3713591], "type": "Point"}, "properties": {"address": "Selnaustrasse 32", "electric": 0, "id": "pb_89", "manual": 1, "name": "Stauffacherbr\u00fccke", "provider": "publibike", "timeStamp": "01/29/2020, 20:39:14", "zip": 8001}, "type": "Feature"}, {"geometry": {"coordinates": [8.5056978, 47.3917964], "type": "Point"}, "properties": {"address": "Sportweg 25", "electric": 5, "id": "pb_90", "manual": 4, "name": "Sportweg", "provider": "publibike", "timeStamp": "01/29/2020, 20:39:14", "zip": 8005}, "type": "Feature"}, {"geometry": {"coordinates": [8.5181701, 47.3917837], "type": "Point"}, "properties": {"address": "Hardturmstrasse 11", "electric": 0, "id": "pb_91", "manual": 3, "name": "Puls 5", "provider": "publibike", "timeStamp": "01/29/2020, 20:39:14", "zip": 8005}, "type": "Feature"}, {"geometry": {"coordinates": [8.5286468, 47.3820827], "type": "Point"}, "properties": {"address": "R\u00f6ntgenstrasse 6", "electric": 2, "id": "pb_92", "manual": 1, "name": "R\u00f6ntgenstrasse", "provider": "publibike", "timeStamp": "01/29/2020, 20:39:14", "zip": 8005}, "type": "Feature"}, {"geometry": {"coordinates": [8.531935, 47.384918], "type": "Point"}, "properties": {"address": "Kornhausbr\u00fccke 1", "electric": 1, "id": "pb_93", "manual": 8, "name": "Limmatplatz", "provider": "publibike", "timeStamp": "01/29/2020, 20:39:14", "zip": 8005}, "type": "Feature"}, {"geometry": {"coordinates": [8.5354006, 47.3758639], "type": "Point"}, "properties": {"address": "Gessnerallee 15", "electric": 1, "id": "pb_94", "manual": 1, "name": "Gessnerallee", "provider": "publibike", "timeStamp": "01/29/2020, 20:39:14", "zip": 8001}, "type": "Feature"}, {"geometry": {"coordinates": [8.523818, 47.377148], "type": "Point"}, "properties": {"address": "Stauffacherstrasse 127", "electric": 9, "id": "pb_95", "manual": 8, "name": "B\u00e4ckeranlage", "provider": "publibike", "timeStamp": "01/29/2020, 20:39:14", "zip": 8004}, "type": "Feature"}, {"geometry": {"coordinates": [8.531836, 47.378548], "type": "Point"}, "properties": {"address": "Lagerstrasse 44", "electric": 1, "id": "pb_96", "manual": 6, "name": "Gustav-Gull-Platz", "provider": "publibike", "timeStamp": "01/29/2020, 20:39:14", "zip": 8004}, "type": "Feature"}, {"geometry": {"coordinates": [8.5104883, 47.3771535], "type": "Point"}, "properties": {"address": "Zurlindenstrasse 291", "electric": 3, "id": "pb_97", "manual": 4, "name": "Zurlindenstrasse", "provider": "publibike", "timeStamp": "01/29/2020, 20:39:14", "zip": 8003}, "type": "Feature"}, {"geometry": {"coordinates": [8.5333139, 47.3731102], "type": "Point"}, "properties": {"address": "Sihlstrasse 81", "electric": 4, "id": "pb_98", "manual": 2, "name": "Sihlstrasse", "provider": "publibike", "timeStamp": "01/29/2020, 20:39:14", "zip": 8001}, "type": "Feature"}, {"geometry": {"coordinates": [8.520532, 47.374951], "type": "Point"}, "properties": {"address": "Feldstrasse 24", "electric": 1, "id": "pb_99", "manual": 9, "name": "Kalkbreite", "provider": "publibike", "timeStamp": "01/29/2020, 20:39:14", "zip": 8004}, "type": "Feature"}, {"geometry": {"coordinates": [8.539046, 47.368064], "type": "Point"}, "properties": {"address": "Talstrasse 12", "electric": 2, "id": "pb_100", "manual": 1, "name": "Z\u00fcrcher Kantonalbank", "provider": "publibike", "timeStamp": "01/29/2020, 20:39:14", "zip": 8001}, "type": "Feature"}, {"geometry": {"coordinates": [8.5348427, 47.3625938], "type": "Point"}, "properties": {"address": "Breitingerstrasse 5", "electric": 0, "id": "pb_101", "manual": 2, "name": "Rentenanstalt", "provider": "publibike", "timeStamp": "01/29/2020, 20:39:14", "zip": 8002}, "type": "Feature"}, {"geometry": {"coordinates": [8.5166922, 47.3897772], "type": "Point"}, "properties": {"address": "Technoparkstrasse 4", "electric": 0, "id": "pb_102", "manual": 0, "name": "Turbinenplatz", "provider": "publibike", "timeStamp": "01/29/2020, 20:39:14", "zip": 8005}, "type": "Feature"}, {"geometry": {"coordinates": [8.539312, 47.3739964], "type": "Point"}, "properties": {"address": "Oetenbachgasse 14", "electric": 6, "id": "pb_104", "manual": 10, "name": "Rennweg", "provider": "publibike", "timeStamp": "01/29/2020, 20:39:14", "zip": 8001}, "type": "Feature"}, {"geometry": {"coordinates": [8.5360685, 47.3775022], "type": "Point"}, "properties": {"address": "Kasernenstrasse 101", "electric": 17, "id": "pb_105", "manual": 25, "name": "Sihlpost", "provider": "publibike", "timeStamp": "01/29/2020, 20:39:14", "zip": 8004}, "type": "Feature"}, {"geometry": {"coordinates": [8.53545, 47.382798], "type": "Point"}, "properties": {"address": "Ausstellungsstrasse 44", "electric": 9, "id": "pb_106", "manual": 8, "name": "Museum f\u00fcr Gestaltung", "provider": "publibike", "timeStamp": "01/29/2020, 20:39:14", "zip": 8005}, "type": "Feature"}, {"geometry": {"coordinates": [8.5306155, 47.3647902], "type": "Point"}, "properties": {"address": "Gutenbergstrasse 1", "electric": 9, "id": "pb_107", "manual": 3, "name": "Bederbr\u00fccke", "provider": "publibike", "timeStamp": "01/29/2020, 20:39:14", "zip": 8002}, "type": "Feature"}, {"geometry": {"coordinates": [8.518982, 47.386741], "type": "Point"}, "properties": {"address": "Geroldstrasse 4", "electric": 4, "id": "pb_108", "manual": 11, "name": "Bahnhof Hardbr\u00fccke", "provider": "publibike", "timeStamp": "01/29/2020, 20:39:14", "zip": 8005}, "type": "Feature"}, {"geometry": {"coordinates": [8.53001018, 47.37247535], "type": "Point"}, "properties": {"address": "Werdstrasse 21", "electric": 0, "id": "pb_109", "manual": 0, "name": "Tamedia", "provider": "publibike", "timeStamp": "01/29/2020, 20:39:14", "zip": 8004}, "type": "Feature"}, {"geometry": {"coordinates": [8.4860017, 47.396401], "type": "Point"}, "properties": {"address": "Gr\u00fcnauring 37", "electric": 7, "id": "pb_110", "manual": 6, "name": "Gr\u00fcnau", "provider": "publibike", "timeStamp": "01/29/2020, 20:39:14", "zip": 8064}, "type": "Feature"}, {"geometry": {"coordinates": [8.548519, 47.376756], "type": "Point"}, "properties": {"address": "R\u00e4mistrasse 101", "electric": 0, "id": "pb_111", "manual": 0, "name": "ETH Zentrum", "provider": "publibike", "timeStamp": "01/29/2020, 20:39:14", "zip": 8006}, "type": "Feature"}, {"geometry": {"coordinates": [8.520449, 47.388151], "type": "Point"}, "properties": {"address": "Josefstrasse 224", "electric": 2, "id": "pb_112", "manual": 0, "name": "Steinfelsareal", "provider": "publibike", "timeStamp": "01/29/2020, 20:39:14", "zip": 8005}, "type": "Feature"}, {"geometry": {"coordinates": [8.520482, 47.37209], "type": "Point"}, "properties": {"address": "Weststrasse 115", "electric": 9, "id": "pb_124", "manual": 6, "name": "Weststrasse", "provider": "publibike", "timeStamp": "01/29/2020, 20:39:14", "zip": 8003}, "type": "Feature"}, {"geometry": {"coordinates": [8.496727, 47.378521], "type": "Point"}, "properties": {"address": "Albisriederstrasse 200", "electric": 3, "id": "pb_125", "manual": 1, "name": "Utogrund", "provider": "publibike", "timeStamp": "01/29/2020, 20:39:14", "zip": 8047}, "type": "Feature"}, {"geometry": {"coordinates": [8.510418, 47.381356], "type": "Point"}, "properties": {"address": "Bullingerstrasse 73", "electric": 9, "id": "pb_126", "manual": 3, "name": "Hardau", "provider": "publibike", "timeStamp": "01/29/2020, 20:39:14", "zip": 8004}, "type": "Feature"}, {"geometry": {"coordinates": [8.525525, 47.361567], "type": "Point"}, "properties": {"address": "Klopstockstrasse 23", "electric": 4, "id": "pb_127", "manual": 0, "name": "Klopstockwiese", "provider": "publibike", "timeStamp": "01/29/2020, 20:39:14", "zip": 8002}, "type": "Feature"}, {"geometry": {"coordinates": [8.518143, 47.363148], "type": "Point"}, "properties": {"address": "Haldenstrasse 8", "electric": 12, "id": "pb_128", "manual": 7, "name": "Binz", "provider": "publibike", "timeStamp": "01/29/2020, 20:39:14", "zip": 8045}, "type": "Feature"}, {"geometry": {"coordinates": [8.542726, 47.379952], "type": "Point"}, "properties": {"address": "Walchestrasse 11", "electric": 0, "id": "pb_129", "manual": 0, "name": "Stampfenbachplatz", "provider": "publibike", "timeStamp": "01/29/2020, 20:39:14", "zip": 8006}, "type": "Feature"}, {"geometry": {"coordinates": [8.488108, 47.391366], "type": "Point"}, "properties": {"address": "Altstetterplatz 1", "electric": 10, "id": "pb_130", "manual": 8, "name": "Bahnhof Altstetten", "provider": "publibike", "timeStamp": "01/29/2020, 20:39:14", "zip": 8048}, "type": "Feature"}, {"geometry": {"coordinates": [8.554114, 47.365119], "type": "Point"}, "properties": {"address": "Kreuzplatz 2", "electric": 7, "id": "pb_131", "manual": 6, "name": "Kreuzplatz", "provider": "publibike", "timeStamp": "01/29/2020, 20:39:14", "zip": 8032}, "type": "Feature"}, {"geometry": {"coordinates": [8.549852, 47.35594], "type": "Point"}, "properties": {"address": "H\u00f6schgasse 3", "electric": 4, "id": "pb_132", "manual": 8, "name": "Blatterwiese", "provider": "publibike", "timeStamp": "01/29/2020, 20:39:14", "zip": 8008}, "type": "Feature"}, {"geometry": {"coordinates": [8.554501, 47.36162], "type": "Point"}, "properties": {"address": "Feldeggstrasse 80", "electric": 2, "id": "pb_133", "manual": 3, "name": "Villa Bleuler", "provider": "publibike", "timeStamp": "01/29/2020, 20:39:14", "zip": 8008}, "type": "Feature"}, {"geometry": {"coordinates": [8.557088, 47.358557], "type": "Point"}, "properties": {"address": "M\u00fchlebachstrasse 131", "electric": 1, "id": "pb_134", "manual": 2, "name": "M\u00fchlebachstrasse", "provider": "publibike", "timeStamp": "01/29/2020, 20:39:14", "zip": 8008}, "type": "Feature"}, {"geometry": {"coordinates": [8.547639, 47.361266], "type": "Point"}, "properties": {"address": "Utoquai 50", "electric": 8, "id": "pb_135", "manual": 11, "name": "Seebad Utoquai", "provider": "publibike", "timeStamp": "01/29/2020, 20:39:14", "zip": 8008}, "type": "Feature"}, {"geometry": {"coordinates": [8.548045, 47.370869], "type": "Point"}, "properties": {"address": "Heimplatz 1", "electric": 5, "id": "pb_137", "manual": 2, "name": "Kunsthaus", "provider": "publibike", "timeStamp": "01/29/2020, 20:39:14", "zip": 8001}, "type": "Feature"}, {"geometry": {"coordinates": [8.543447, 47.375933], "type": "Point"}, "properties": {"address": "Limmatquai 138", "electric": 2, "id": "pb_138", "manual": 12, "name": "Central", "provider": "publibike", "timeStamp": "01/29/2020, 20:39:14", "zip": 8001}, "type": "Feature"}, {"geometry": {"coordinates": [8.549356, 47.408827], "type": "Point"}, "properties": {"address": "Tramstrasse 35", "electric": 2, "id": "pb_139", "manual": 4, "name": "ewz Tramstrasse", "provider": "publibike", "timeStamp": "01/29/2020, 20:39:14", "zip": 8050}, "type": "Feature"}, {"geometry": {"coordinates": [8.533736, 47.366904], "type": "Point"}, "properties": {"address": "Bleicherweg 33", "electric": 5, "id": "pb_140", "manual": 5, "name": "Bleicherweg", "provider": "publibike", "timeStamp": "01/29/2020, 20:39:14", "zip": 8002}, "type": "Feature"}, {"geometry": {"coordinates": [8.544935, 47.366752], "type": "Point"}, "properties": {"address": "Bellevueplatz 2", "electric": 25, "id": "pb_141", "manual": 26, "name": "Bellevue", "provider": "publibike", "timeStamp": "01/29/2020, 20:39:14", "zip": 8001}, "type": "Feature"}, {"geometry": {"coordinates": [8.5285533, 47.3742296], "type": "Point"}, "properties": {"address": "Stauffacherstrasse 41", "electric": 1, "id": "pb_142", "manual": 1, "name": "Stauffacher", "provider": "publibike", "timeStamp": "01/29/2020, 20:39:14", "zip": 8004}, "type": "Feature"}, {"geometry": {"coordinates": [8.523722, 47.3899], "type": "Point"}, "properties": {"address": "Limmatstrasse 310", "electric": 0, "id": "pb_143", "manual": 6, "name": "Escher-Wyss-Platz", "provider": "publibike", "timeStamp": "01/29/2020, 20:39:14", "zip": 8005}, "type": "Feature"}, {"geometry": {"coordinates": [8.491061, 47.392336], "type": "Point"}, "properties": {"address": "Vulkanplatz 1", "electric": 3, "id": "pb_149", "manual": 8, "name": "Vulkanplatz", "provider": "publibike", "timeStamp": "01/29/2020, 20:39:14", "zip": 8048}, "type": "Feature"}, {"geometry": {"coordinates": [8.52306, 47.359872], "type": "Point"}, "properties": {"address": "Giessh\u00fcbelstrasse 15", "electric": 6, "id": "pb_150", "manual": 3, "name": "Utoplatz", "provider": "publibike", "timeStamp": "01/29/2020, 20:39:14", "zip": 8045}, "type": "Feature"}, {"geometry": {"coordinates": [8.486284, 47.387685], "type": "Point"}, "properties": {"address": "Lindenplatz 1", "electric": 14, "id": "pb_151", "manual": 8, "name": "Lindenplatz", "provider": "publibike", "timeStamp": "01/29/2020, 20:39:14", "zip": 8048}, "type": "Feature"}, {"geometry": {"coordinates": [8.49163, 47.389823], "type": "Point"}, "properties": {"address": "Hohlstrasse 563", "electric": 5, "id": "pb_152", "manual": 12, "name": "Luggweg", "provider": "publibike", "timeStamp": "01/29/2020, 20:39:14", "zip": 8048}, "type": "Feature"}, {"geometry": {"coordinates": [8.52174, 47.365272], "type": "Point"}, "properties": {"address": "Manessestrasse 87", "electric": 4, "id": "pb_153", "manual": 9, "name": "Manesseplatz", "provider": "publibike", "timeStamp": "01/29/2020, 20:39:14", "zip": 8045}, "type": "Feature"}, {"geometry": {"coordinates": [8.52714, 47.372329], "type": "Point"}, "properties": {"address": "Werdstrasse 75", "electric": 1, "id": "pb_154", "manual": 3, "name": "Werd", "provider": "publibike", "timeStamp": "01/29/2020, 20:39:14", "zip": 8004}, "type": "Feature"}, {"geometry": {"coordinates": [8.543042, 47.374711], "type": "Point"}, "properties": {"address": "Limmatquai 100", "electric": 0, "id": "pb_155", "manual": 0, "name": "Rudolf-Brun-Br\u00fccke", "provider": "publibike", "timeStamp": "01/29/2020, 20:39:14", "zip": 8001}, "type": "Feature"}, {"geometry": {"coordinates": [8.490837, 47.386596], "type": "Point"}, "properties": {"address": "Badenerstrasse 627", "electric": 3, "id": "pb_156", "manual": 6, "name": "Luggwegstrasse VBZ", "provider": "publibike", "timeStamp": "01/29/2020, 20:39:14", "zip": 8048}, "type": "Feature"}, {"geometry": {"coordinates": [8.535119, 47.355189], "type": "Point"}, "properties": {"address": "Mythenquai 95", "electric": 0, "id": "pb_157", "manual": 2, "name": "Strandbad Mythenquai", "provider": "publibike", "timeStamp": "01/29/2020, 20:39:14", "zip": 8002}, "type": "Feature"}, {"geometry": {"coordinates": [8.545505, 47.373675], "type": "Point"}, "properties": {"address": "Predigerpatz 21", "electric": 1, "id": "pb_158", "manual": 8, "name": "Predigerplatz", "provider": "publibike", "timeStamp": "01/29/2020, 20:39:14", "zip": 8001}, "type": "Feature"}, {"geometry": {"coordinates": [8.515558, 47.371868], "type": "Point"}, "properties": {"address": "Aemtlerstrasse 23", "electric": 4, "id": "pb_159", "manual": 4, "name": "Zwinglihaus", "provider": "publibike", "timeStamp": "01/29/2020, 20:39:14", "zip": 8003}, "type": "Feature"}, {"geometry": {"coordinates": [8.524629, 47.386072], "type": "Point"}, "properties": {"address": "Josefstrasse 188", "electric": 3, "id": "pb_160", "manual": 4, "name": "Josefwiese", "provider": "publibike", "timeStamp": "01/29/2020, 20:39:14", "zip": 8005}, "type": "Feature"}, {"geometry": {"coordinates": [8.527138, 47.387531], "type": "Point"}, "properties": {"address": "R\u00f6ntgenstrasse 87", "electric": 3, "id": "pb_164", "manual": 3, "name": "Markthalle", "provider": "publibike", "timeStamp": "01/29/2020, 20:39:14", "zip": 8005}, "type": "Feature"}, {"geometry": {"coordinates": [8.552717, 47.359978], "type": "Point"}, "properties": {"address": "Seefeldstrasse 96", "electric": 4, "id": "pb_263", "manual": 11, "name": "Feldeggstrasse", "provider": "publibike", "timeStamp": "01/29/2020, 20:39:14", "zip": 8008}, "type": "Feature"}, {"geometry": {"coordinates": [8.553189, 47.353198], "type": "Point"}, "properties": {"address": "Bellerivestrasse 170", "electric": 6, "id": "pb_264", "manual": 1, "name": "Lake Side", "provider": "publibike", "timeStamp": "01/29/2020, 20:39:14", "zip": 8008}, "type": "Feature"}, {"geometry": {"coordinates": [8.543437, 47.369256], "type": "Point"}, "properties": {"address": "Limmatquai 18", "electric": 0, "id": "pb_265", "manual": 0, "name": "Helmhaus", "provider": "publibike", "timeStamp": "01/29/2020, 20:39:14", "zip": 8032}, "type": "Feature"}, {"geometry": {"coordinates": [8.516676, 47.375819], "type": "Point"}, "properties": {"address": "Badenerstrasse 246", "electric": 13, "id": "pb_266", "manual": 10, "name": "Lochergut", "provider": "publibike", "timeStamp": "01/29/2020, 20:39:14", "zip": 8004}, "type": "Feature"}, {"geometry": {"coordinates": [8.514605, 47.389862], "type": "Point"}, "properties": {"address": "Pfingstweidstrasse 60", "electric": 1, "id": "pb_273", "manual": 0, "name": "Westpark", "provider": "publibike", "timeStamp": "01/29/2020, 20:39:14", "zip": 8005}, "type": "Feature"}, {"geometry": {"coordinates": [8.541239126, 47.375991201], "type": "Point"}, "properties": {"address": "Beatenplatz 1", "electric": 5, "id": "pb_274", "manual": 9, "name": "Beatenplatz", "provider": "publibike", "timeStamp": "01/29/2020, 20:39:14", "zip": 8001}, "type": "Feature"}, {"geometry": {"coordinates": [8.5417135, 47.3942197], "type": "Point"}, "properties": {"address": "Scheuchzerstrasse 181", "electric": 7, "id": "pb_275", "manual": 0, "name": "Pauluskirche", "provider": "publibike", "timeStamp": "01/29/2020, 20:39:14", "zip": 8057}, "type": "Feature"}, {"geometry": {"coordinates": [8.5528182, 47.414558], "type": "Point"}, "properties": {"address": "Hagenholzstrasse 51", "electric": 0, "id": "pb_276", "manual": 8, "name": "Airgate", "provider": "publibike", "timeStamp": "01/29/2020, 20:39:14", "zip": 8050}, "type": "Feature"}, {"geometry": {"coordinates": [8.537816, 47.413514], "type": "Point"}, "properties": {"address": "Birchstrasse 183", "electric": 3, "id": "pb_277", "manual": 3, "name": "Lamprechtweg", "provider": "publibike", "timeStamp": "01/29/2020, 20:39:14", "zip": 8050}, "type": "Feature"}, {"geometry": {"coordinates": [8.545602, 47.417701], "type": "Point"}, "properties": {"address": "Felsenrainstrasse 2", "electric": 4, "id": "pb_278", "manual": 7, "name": "Emil-Oberh\u00e4nsli", "provider": "publibike", "timeStamp": "01/29/2020, 20:39:14", "zip": 8050}, "type": "Feature"}, {"geometry": {"coordinates": [8.533647, 47.39808], "type": "Point"}, "properties": {"address": "Bucheggplatz 2", "electric": 4, "id": "pb_279", "manual": 0, "name": "Bucheggplatz", "provider": "publibike", "timeStamp": "01/29/2020, 20:39:14", "zip": 8057}, "type": "Feature"}, {"geometry": {"coordinates": [8.523549, 47.392347], "type": "Point"}, "properties": {"address": "Wipkingerplatz 4", "electric": 4, "id": "pb_280", "manual": 8, "name": "Wipkingerplatz", "provider": "publibike", "timeStamp": "01/29/2020, 20:39:14", "zip": 8037}, "type": "Feature"}, {"geometry": {"coordinates": [8.548562, 47.36691], "type": "Point"}, "properties": {"address": "Galerie \u00fcber Gleis 2/3", "electric": 20, "id": "pb_285", "manual": 6, "name": "Bahnhof Stadelhofen", "provider": "publibike", "timeStamp": "01/29/2020, 20:39:14", "zip": 8001}, "type": "Feature"}, {"geometry": {"coordinates": [8.493822, 47.3985553], "type": "Point"}, "properties": {"address": "Meierwiesenstrasse 12-4", "electric": 4, "id": "pb_286", "manual": 2, "name": "T\u00fcffenwies", "provider": "publibike", "timeStamp": "01/29/2020, 20:39:14", "zip": 8064}, "type": "Feature"}, {"geometry": {"coordinates": [8.552432, 47.3801757], "type": "Point"}, "properties": {"address": "Hochstrasse 34", "electric": 1, "id": "pb_356", "manual": 2, "name": "Siriuswiese", "provider": "publibike", "timeStamp": "01/29/2020, 20:39:14", "zip": 8044}, "type": "Feature"}, {"geometry": {"coordinates": [8.527298, 47.370141], "type": "Point"}, "properties": {"address": "Hallwylstrasse 71", "electric": 0, "id": "pb_357", "manual": 3, "name": "Hallwylstrasse", "provider": "publibike", "timeStamp": "01/29/2020, 20:39:14", "zip": 8004}, "type": "Feature"}, {"geometry": {"coordinates": [8.5414185, 47.3972455], "type": "Point"}, "properties": {"address": "Schaffhauserstrasse 137", "electric": 2, "id": "pb_358", "manual": 0, "name": "Milchbuck", "provider": "publibike", "timeStamp": "01/29/2020, 20:39:14", "zip": 8057}, "type": "Feature"}, {"geometry": {"coordinates": [8.512381, 47.393409], "type": "Point"}, "properties": {"address": "Hardturmstrasse 161", "electric": 5, "id": "pb_359", "manual": 0, "name": "Fischerweg", "provider": "publibike", "timeStamp": "01/29/2020, 20:39:14", "zip": 8005}, "type": "Feature"}, {"geometry": {"coordinates": [8.5421457, 47.3876979], "type": "Point"}, "properties": {"address": "Turnerstrasse 47", "electric": 1, "id": "pb_360", "manual": 5, "name": "Kirche Unterstrass", "provider": "publibike", "timeStamp": "01/29/2020, 20:39:14", "zip": 8006}, "type": "Feature"}, {"geometry": {"coordinates": [8.522117, 47.394554], "type": "Point"}, "properties": {"address": "Dorfstrasse 40", "electric": 1, "id": "pb_361", "manual": 4, "name": "Dorfstrasse", "provider": "publibike", "timeStamp": "01/29/2020, 20:39:14", "zip": 8037}, "type": "Feature"}, {"geometry": {"coordinates": [8.530437, 47.37271], "type": "Point"}, "properties": {"address": "Werdstrasse 25", "electric": 3, "id": "pb_362", "manual": 2, "name": "Stauffachertor", "provider": "publibike", "timeStamp": "01/29/2020, 20:39:14", "zip": 8004}, "type": "Feature"}, {"geometry": {"coordinates": [8.541712, 47.416155], "type": "Point"}, "properties": {"address": "Eggb\u00fchlstrasse 21", "electric": 4, "id": "pb_363", "manual": 4, "name": "Wahlenpark", "provider": "publibike", "timeStamp": "01/29/2020, 20:39:14", "zip": 8050}, "type": "Feature"}, {"geometry": {"coordinates": [8.5595335, 47.3708387], "type": "Point"}, "properties": {"address": "Dolderstrasse 32", "electric": 2, "id": "pb_364", "manual": 1, "name": "Kinderspital", "provider": "publibike", "timeStamp": "01/29/2020, 20:39:14", "zip": 8032}, "type": "Feature"}, {"geometry": {"coordinates": [8.536433, 47.388689], "type": "Point"}, "properties": {"address": "Kornhausstrasse 30", "electric": 5, "id": "pb_365", "manual": 3, "name": "Kornhausstrasse", "provider": "publibike", "timeStamp": "01/29/2020, 20:39:14", "zip": 8006}, "type": "Feature"}, {"geometry": {"coordinates": [8.55033, 47.407098], "type": "Point"}, "properties": {"address": "Schwamendingenstrasse 41", "electric": 6, "id": "pb_366", "manual": 4, "name": "Dorflinde", "provider": "publibike", "timeStamp": "01/29/2020, 20:39:14", "zip": 8050}, "type": "Feature"}, {"geometry": {"coordinates": [8.560476, 47.368199], "type": "Point"}, "properties": {"address": "R\u00f6merhofplatz 5", "electric": 8, "id": "pb_367", "manual": 0, "name": "R\u00f6merhof", "provider": "publibike", "timeStamp": "01/29/2020, 20:39:14", "zip": 8032}, "type": "Feature"}, {"geometry": {"coordinates": [8.5609218, 47.3619068], "type": "Point"}, "properties": {"address": "Forchstrasse 99", "electric": 4, "id": "pb_368", "manual": 3, "name": "Hegibachplatz", "provider": "publibike", "timeStamp": "01/29/2020, 20:39:14", "zip": 8032}, "type": "Feature"}, {"geometry": {"coordinates": [8.5721264, 47.4039985], "type": "Point"}, "properties": {"address": "Winterthurerstrasse 519", "electric": 9, "id": "pb_370", "manual": 5, "name": "Schwamendingerplatz", "provider": "publibike", "timeStamp": "01/29/2020, 20:39:14", "zip": 8051}, "type": "Feature"}, {"geometry": {"coordinates": [8.520168, 47.378556], "type": "Point"}, "properties": {"address": "Herman-Greulich-Strasse 56", "electric": 1, "id": "pb_384", "manual": 6, "name": "Hermann-Greulich-Weg", "provider": "publibike", "timeStamp": "01/29/2020, 20:39:14", "zip": 8004}, "type": "Feature"}, {"geometry": {"coordinates": [8.547912, 47.384923], "type": "Point"}, "properties": {"address": "Culmannstrasse", "electric": 1, "id": "pb_386", "manual": 0, "name": "Rigiplatz", "provider": "publibike", "timeStamp": "01/29/2020, 20:39:14", "zip": 8006}, "type": "Feature"}, {"geometry": {"coordinates": [8.543768, 47.411057], "type": "Point"}, "properties": {"address": "Hofwiesenstrasse 369", "electric": 7, "id": "pb_387", "manual": 2, "name": "Bahnhof Oerlikon S\u00fcd", "provider": "publibike", "timeStamp": "01/29/2020, 20:39:14", "zip": 8050}, "type": "Feature"}, {"geometry": {"coordinates": [8.544185, 47.412732], "type": "Point"}, "properties": {"address": "Jungholzstrasse 6", "electric": 1, "id": "pb_388", "manual": 1, "name": "Max-Frisch-Platz", "provider": "publibike", "timeStamp": "01/29/2020, 20:39:14", "zip": 8050}, "type": "Feature"}, {"geometry": {"coordinates": [8.558096, 47.413032], "type": "Point"}, "properties": {"address": "Andreasstrasse", "electric": 8, "id": "pb_389", "manual": 11, "name": "Hunziker-Areal", "provider": "publibike", "timeStamp": "01/29/2020, 20:39:14", "zip": 8050}, "type": "Feature"}, {"geometry": {"coordinates": [8.533265, 47.412873], "type": "Point"}, "properties": {"address": "Regina-K\u00e4gi-Strasse 1", "electric": 4, "id": "pb_390", "manual": 4, "name": "Luis-H\u00e4fliger-Park", "provider": "publibike", "timeStamp": "01/29/2020, 20:39:14", "zip": 8050}, "type": "Feature"}, {"geometry": {"coordinates": [8.499265, 47.401852], "type": "Point"}, "properties": {"address": "Limmattalstrasse 177", "electric": 2, "id": "pb_391", "manual": 0, "name": "Meierhofplatz", "provider": "publibike", "timeStamp": "01/29/2020, 20:39:14", "zip": 8049}, "type": "Feature"}, {"geometry": {"coordinates": [8.528356, 47.393255], "type": "Point"}, "properties": {"address": "R\u00f6schibachstrasse 73", "electric": 0, "id": "pb_392", "manual": 0, "name": "R\u00f6schibachplatz", "provider": "publibike", "timeStamp": "01/29/2020, 20:39:14", "zip": 8037}, "type": "Feature"}, {"geometry": {"coordinates": [8.538067, 47.415721], "type": "Point"}, "properties": {"address": "Birchstrasse 191", "electric": 5, "id": "pb_393", "manual": 2, "name": "Oerliker Park", "provider": "publibike", "timeStamp": "01/29/2020, 20:39:14", "zip": 8050}, "type": "Feature"}, {"geometry": {"coordinates": [8.5420304, 47.3669233], "type": "Point"}, "properties": {"address": "Stadthausquai 1", "electric": 3, "id": "pb_395", "manual": 8, "name": "B\u00fcrkliplatz", "provider": "publibike", "timeStamp": "01/29/2020, 20:39:14", "zip": 8001}, "type": "Feature"}, {"geometry": {"coordinates": [8.535767, 47.409881], "type": "Point"}, "properties": {"address": "Regensbergstrasse 195", "electric": 3, "id": "pb_396", "manual": 1, "name": "Holunderhof", "provider": "publibike", "timeStamp": "01/29/2020, 20:39:14", "zip": 8050}, "type": "Feature"}, {"geometry": {"coordinates": [8.5116245, 47.3616199], "type": "Point"}, "properties": {"address": "Grubenstrasse 42", "electric": 1, "id": "pb_431", "manual": 1, "name": "Binz Center", "provider": "publibike", "timeStamp": "01/29/2020, 20:39:14", "zip": 8045}, "type": "Feature"}, {"geometry": {"coordinates": [8.547195, 47.382089], "type": "Point"}, "properties": {"address": "Nelkenstrasse 24", "electric": 1, "id": "pb_430", "manual": 0, "name": "Stapferstube", "provider": "publibike", "timeStamp": "01/29/2020, 20:39:14", "zip": 8006}, "type": "Feature"}, {"geometry": {"coordinates": [8.5787183, 47.4039845], "type": "Point"}, "properties": {"address": "Kronwiesenstrasse 35", "electric": 3, "id": "pb_426", "manual": 3, "name": "Kronwiesen", "provider": "publibike", "timeStamp": "01/29/2020, 20:39:14", "zip": 8051}, "type": "Feature"}, {"geometry": {"coordinates": [8.508131, 47.420757], "type": "Point"}, "properties": {"address": "Riedenhaldenstrasse 20-18", "electric": 9, "id": "pb_425", "manual": 5, "name": "Bahnhof Affoltern", "provider": "publibike", "timeStamp": "01/29/2020, 20:39:14", "zip": 8046}, "type": "Feature"}, {"geometry": {"coordinates": [8.532464, 47.406988], "type": "Point"}, "properties": {"address": "K\u00fcnzlistrasse 41", "electric": 4, "id": "pb_424", "manual": 4, "name": "Birchd\u00f6rfli", "provider": "publibike", "timeStamp": "01/29/2020, 20:39:14", "zip": 8057}, "type": "Feature"}, {"geometry": {"coordinates": [8.5777038, 47.4080095], "type": "Point"}, "properties": {"address": "Luegislandstrasse 412", "electric": 6, "id": "pb_429", "manual": 6, "name": "Luegisland", "provider": "publibike", "timeStamp": "01/29/2020, 20:39:14", "zip": 8051}, "type": "Feature"}, {"geometry": {"coordinates": [8.58841, 47.40158], "type": "Point"}, "properties": {"address": "Hirzenbachstrasse 2-4", "electric": 4, "id": "pb_428", "manual": 2, "name": "Hirzenbachstrasse", "provider": "publibike", "timeStamp": "01/29/2020, 20:39:14", "zip": 8051}, "type": "Feature"}, {"geometry": {"coordinates": [8.5563463, 47.4095467], "type": "Point"}, "properties": {"address": "K\u00fchriedweg", "electric": 4, "id": "pb_445", "manual": 4, "name": "Hallenbad Oerlikon", "provider": "publibike", "timeStamp": "01/29/2020, 20:39:14", "zip": 8050}, "type": "Feature"}, {"geometry": {"coordinates": [8.537971, 47.364871], "type": "Point"}, "properties": {"address": "General-Guisan-Quai 17", "electric": 0, "id": "pb_454", "manual": 3, "name": "General-Guisan-Quai", "provider": "publibike", "timeStamp": "01/29/2020, 20:39:14", "zip": 8002}, "type": "Feature"}, {"geometry": {"coordinates": [8.560587, 47.350578], "type": "Point"}, "properties": {"address": "Bellerivestrasse 245", "electric": 8, "id": "pb_450", "manual": 8, "name": "Bahnhof Tiefenbrunnen", "provider": "publibike", "timeStamp": "01/29/2020, 20:39:14", "zip": 8008}, "type": "Feature"}, {"geometry": {"coordinates": [8.5269416, 47.3563719], "type": "Point"}, "properties": {"address": "Waffenplatzstrasse 89", "electric": 6, "id": "pb_452", "manual": 4, "name": "Rieterplatz", "provider": "publibike", "timeStamp": "01/29/2020, 20:39:14", "zip": 8002}, "type": "Feature"}, {"geometry": {"coordinates": [8.514176, 47.3663708], "type": "Point"}, "properties": {"address": "Talwiesenstrasse 92", "electric": 8, "id": "pb_446", "manual": 2, "name": "Binzallee", "provider": "publibike", "timeStamp": "01/29/2020, 20:39:14", "zip": 8055}, "type": "Feature"}, {"geometry": {"coordinates": [8.5070564, 47.371455], "type": "Point"}, "properties": {"address": "Gutstrasse 87", "electric": 11, "id": "pb_447", "manual": 6, "name": "Gutstrasse", "provider": "publibike", "timeStamp": "01/29/2020, 20:39:14", "zip": 8055}, "type": "Feature"}, {"geometry": {"coordinates": [8.4941268, 47.3836391], "type": "Point"}, "properties": {"address": "Flurstrasse 62", "electric": 2, "id": "pb_453", "manual": 1, "name": "Flurpark", "provider": "publibike", "timeStamp": "01/29/2020, 20:39:14", "zip": 8048}, "type": "Feature"}, {"geometry": {"coordinates": [8.500343, 47.380778], "type": "Point"}, "properties": {"address": "Edelweissstrasse 32", "electric": 5, "id": "pb_448", "manual": 2, "name": "Bl\u00fcemliquartier", "provider": "publibike", "timeStamp": "01/29/2020, 20:39:14", "zip": 8048}, "type": "Feature"}, {"geometry": {"coordinates": [8.528796, 47.383858], "type": "Point"}, "properties": {"address": "Gasometerstrasse 24", "electric": 6, "id": "pb_449", "manual": 11, "name": "Gasometerstrasse", "provider": "publibike", "timeStamp": "01/29/2020, 20:39:14", "zip": 8005}, "type": "Feature"}, {"geometry": {"coordinates": [8.4981964, 47.3859194], "type": "Point"}, "properties": {"address": "Baslerstrasse 57", "electric": 9, "id": "pb_455", "manual": 7, "name": "Letzipark", "provider": "publibike", "timeStamp": "01/29/2020, 20:39:14", "zip": 8048}, "type": "Feature"}, {"geometry": {"coordinates": [8.515252, 47.381915], "type": "Point"}, "properties": {"address": "Sihlfeldstrasse 175", "electric": 1, "id": "pb_451", "manual": 3, "name": "Hardplatz", "provider": "publibike", "timeStamp": "01/29/2020, 20:39:14", "zip": 8004}, "type": "Feature"}, {"geometry": {"coordinates": [8.5064743, 47.4188324], "type": "Point"}, "properties": {"address": "Wehntalerstrasse 541", "electric": 8, "id": "pb_427", "manual": 2, "name": "Zehntenhausplatz", "provider": "publibike", "timeStamp": "01/29/2020, 20:39:14", "zip": 8046}, "type": "Feature"}, {"geometry": {"coordinates": [8.537729, 47.379719], "type": "Point"}, "properties": {"address": "Sihlquai/HB", "electric": 7, "id": "pb_513", "manual": 7, "name": "Sihlquai", "provider": "publibike", "timeStamp": "01/29/2020, 20:39:14", "zip": 8005}, "type": "Feature"}, {"geometry": {"coordinates": [8.596202, 47.397885], "type": "Point"}, "properties": {"address": "Bahnhof Stettbach", "electric": 2, "id": "pb_514", "manual": 3, "name": "Bahnhof Stettbach", "provider": "publibike", "timeStamp": "01/29/2020, 20:39:14", "zip": 8051}, "type": "Feature"}, {"geometry": {"coordinates": [8.5543974, 47.3690153], "type": "Point"}, "properties": {"address": "Kasinostrasse 10", "electric": 2, "id": "pb_515", "manual": 1, "name": "Hottingerplatz", "provider": "publibike", "timeStamp": "01/29/2020, 20:39:14", "zip": 8032}, "type": "Feature"}, {"geometry": {"coordinates": [8.534444, 47.351525], "type": "Point"}, "properties": {"address": "Mobile Station Z\u00fcrich 1", "electric": 0, "id": "pb_282", "manual": 0, "name": "Theaterspektakel", "provider": "publibike", "timeStamp": "01/29/2020, 20:39:14", "zip": 8002}, "type": "Feature"}, {"geometry": {"coordinates": [8.516257, 47.367656], "type": "Point"}, "properties": {"address": "Goldbrunnenstrasse 54", "electric": 4, "id": "pb_538", "manual": 1, "name": "Kirche B\u00fchl", "provider": "publibike", "timeStamp": "01/29/2020, 20:39:14", "zip": 8055}, "type": "Feature"}, {"geometry": {"coordinates": [8.555639, 47.416873], "type": "Point"}, "properties": {"address": "Leutschenbachstrasse 50", "electric": 1, "id": "pb_537", "manual": 4, "name": "Leutschenpark", "provider": "publibike", "timeStamp": "01/29/2020, 20:39:14", "zip": 8050}, "type": "Feature"}, {"geometry": {"coordinates": [8.546464, 47.403822], "type": "Point"}, "properties": {"address": "Berninastrasse 45", "electric": 9, "id": "pb_540", "manual": 3, "name": "Berninaplatz", "provider": "publibike", "timeStamp": "01/29/2020, 20:39:14", "zip": 8057}, "type": "Feature"}, {"geometry": {"coordinates": [8.523134, 47.369004], "type": "Point"}, "properties": {"address": "Erlachstrasse 3", "electric": 3, "id": "pb_385", "manual": 5, "name": "Aegerten", "provider": "publibike", "timeStamp": "01/29/2020, 20:39:14", "zip": 8003}, "type": "Feature"}, {"geometry": {"coordinates": [8.49038, 47.381591], "type": "Point"}, "properties": {"address": "Rautistrasse 60", "electric": 5, "id": "pb_536", "manual": 7, "name": "Freilager", "provider": "publibike", "timeStamp": "01/29/2020, 20:39:14", "zip": 8048}, "type": "Feature"}, {"geometry": {"coordinates": [8.496511, 47.375247], "type": "Point"}, "properties": {"address": "Letzigraben 139", "electric": 3, "id": "pb_444", "manual": 2, "name": "Sackzelg", "provider": "publibike", "timeStamp": "01/29/2020, 20:39:14", "zip": 8047}, "type": "Feature"}, {"geometry": {"coordinates": [8.58131, 47.402801], "type": "Point"}, "properties": {"address": "Altwiesenstrasse 104", "electric": 2, "id": "pb_539", "manual": 5, "name": "Glattwiesen", "provider": "publibike", "timeStamp": "01/29/2020, 20:39:14", "zip": 8051}, "type": "Feature"}, {"geometry": {"coordinates": [8.52689, 47.3767], "type": "Point"}, "properties": {"address": "Molkenstrasse 5", "electric": 3, "id": "pb_560", "manual": 7, "name": "Helvetiaplatz", "provider": "publibike", "timeStamp": "01/29/2020, 20:39:14", "zip": 8004}, "type": "Feature"}, {"geometry": {"coordinates": [8.525602, 47.374241], "type": "Point"}, "properties": {"address": "Badenerstrasse 90", "electric": 2, "id": "pb_559", "manual": 6, "name": "Bezirksgeb\u00e4ude", "provider": "publibike", "timeStamp": "01/29/2020, 20:39:14", "zip": 8004}, "type": "Feature"}, {"geometry": {"coordinates": [8.535082, 47.345248], "type": "Point"}, "properties": {"address": "Bachstrasse 15", "electric": 5, "id": "pb_564", "manual": 3, "name": "GZ Wollishofen", "provider": "publibike", "timeStamp": "01/29/2020, 20:39:14", "zip": 8038}, "type": "Feature"}, {"geometry": {"coordinates": [8.514841, 47.370238], "type": "Point"}, "properties": {"address": "Schrennengasse 37", "electric": 1, "id": "pb_562", "manual": 7, "name": "Goldbrunnenplatz", "provider": "publibike", "timeStamp": "01/29/2020, 20:39:14", "zip": 8003}, "type": "Feature"}, {"geometry": {"coordinates": [8.514138, 47.374206], "type": "Point"}, "properties": {"address": "Idaplatz 4", "electric": 8, "id": "pb_557", "manual": 5, "name": "Idaplatz", "provider": "publibike", "timeStamp": "01/29/2020, 20:39:14", "zip": 8003}, "type": "Feature"}, {"geometry": {"coordinates": [8.518432, 47.369549], "type": "Point"}, "properties": {"address": "Brinerstrasse 2", "electric": 2, "id": "pb_558", "manual": 9, "name": "Schmiede Wiedikon", "provider": "publibike", "timeStamp": "01/29/2020, 20:39:14", "zip": 8003}, "type": "Feature"}, {"geometry": {"coordinates": [8.537546, 47.391289], "type": "Point"}, "properties": {"address": "Rotbuchstrasse 15", "electric": 2, "id": "pb_556", "manual": 4, "name": "Schaffhauserplatz", "provider": "publibike", "timeStamp": "01/29/2020, 20:39:14", "zip": 8006}, "type": "Feature"}, {"geometry": {"coordinates": [8.541541, 47.413733], "type": "Point"}, "properties": {"address": "Therese-Giehse-Strasse 11", "electric": 2, "id": "pb_561", "manual": 2, "name": "Center Eleven", "provider": "publibike", "timeStamp": "01/29/2020, 20:39:14", "zip": 8050}, "type": "Feature"}, {"geometry": {"coordinates": [8.534227, 47.360004], "type": "Point"}, "properties": {"address": "Alfred Escher-Strasse 76", "electric": 0, "id": "pb_563", "manual": 0, "name": "Mythenschloss", "provider": "publibike", "timeStamp": "01/29/2020, 20:39:14", "zip": 8002}, "type": "Feature"}, {"geometry": {"coordinates": [8.50373, 47.396172], "type": "Point"}, "properties": {"address": "Hardeggstrasse 6", "electric": 2, "id": "pb_566", "manual": 4, "name": "Am Wasser", "provider": "publibike", "timeStamp": "01/29/2020, 20:39:14", "zip": 8049}, "type": "Feature"}, {"geometry": {"coordinates": [8.532432, 47.381174], "type": "Point"}, "properties": {"address": "Klingenstrasse 9", "electric": 6, "id": "pb_565", "manual": 3, "name": "Zollstrasse", "provider": "publibike", "timeStamp": "01/29/2020, 20:39:14", "zip": 8005}, "type": "Feature"}, {"geometry": {"coordinates": [8.497982, 47.381447], "type": "Point"}, "properties": {"address": "Dennlerstrasse 23", "electric": 3, "id": "pb_567", "manual": 5, "name": "Dennlerstrasse", "provider": "publibike", "timeStamp": "01/29/2020, 20:39:14", "zip": 8047}, "type": "Feature"}, {"geometry": {"coordinates": [8.528049, 47.347701], "type": "Point"}, "properties": {"address": "Mutschellenstrasse 114", "electric": 5, "id": "pb_568", "manual": 3, "name": "Jugendherberge", "provider": "publibike", "timeStamp": "01/29/2020, 20:39:14", "zip": 8038}, "type": "Feature"}, {"geometry": {"coordinates": [8.539016, 47.405751], "type": "Point"}, "properties": {"address": "Ringstrasse 82", "electric": 7, "id": "pb_569", "manual": 2, "name": "Freibad Allenmoos", "provider": "publibike", "timeStamp": "01/29/2020, 20:39:14", "zip": 8057}, "type": "Feature"}, {"geometry": {"coordinates": [8.534974, 47.402164], "type": "Point"}, "properties": {"address": "Brache Guggach", "electric": 2, "id": "pb_572", "manual": 2, "name": "Radiostudio", "provider": "publibike", "timeStamp": "01/29/2020, 20:39:14", "zip": 8057}, "type": "Feature"}, {"geometry": {"coordinates": [8.547901, 47.375556], "type": "Point"}, "properties": {"address": "Karl-Schmid-Strasse 4", "electric": 1, "id": "pb_571", "manual": 0, "name": "ETH/Zoologisches Museum", "provider": "publibike", "timeStamp": "01/29/2020, 20:39:14", "zip": 8006}, "type": "Feature"}, {"geometry": {"coordinates": [8.55202, 47.389323], "type": "Point"}, "properties": {"charge": 100, "id": "smide_2901", "name": "ZH 267278", "provider": "smide", "range": 50.0, "size": 20, "time": "01/29/2020, 20:38:48"}, "type": "Feature"}, {"geometry": {"coordinates": [8.561758, 47.350371], "type": "Point"}, "properties": {"charge": 100, "id": "smide_2895", "name": "ZH 267279", "provider": "smide", "range": 50.0, "size": 20, "time": "01/29/2020, 20:38:48"}, "type": "Feature"}, {"geometry": {"coordinates": [8.518091, 47.373836], "type": "Point"}, "properties": {"charge": 44, "id": "smide_2880", "name": "ZH267289", "provider": "smide", "range": 22.0, "size": 17, "time": "01/29/2020, 20:38:48"}, "type": "Feature"}, {"geometry": {"coordinates": [8.55477, 47.382378], "type": "Point"}, "properties": {"charge": 61, "id": "smide_2874", "name": "ZH 267288", "provider": "smide", "range": 30.0, "size": 17, "time": "01/29/2020, 20:38:48"}, "type": "Feature"}, {"geometry": {"coordinates": [8.522688, 47.390575], "type": "Point"}, "properties": {"charge": 55, "id": "smide_2871", "name": "ZH 267086", "provider": "smide", "range": 27.0, "size": 20, "time": "01/29/2020, 20:38:48"}, "type": "Feature"}, {"geometry": {"coordinates": [8.602253, 47.372483], "type": "Point"}, "properties": {"charge": 89, "id": "smide_2867", "name": "ZH 267090", "provider": "smide", "range": 44.0, "size": 20, "time": "01/29/2020, 20:38:48"}, "type": "Feature"}, {"geometry": {"coordinates": [8.554895, 47.377346], "type": "Point"}, "properties": {"charge": 74, "id": "smide_2861", "name": "ZH 267096", "provider": "smide", "range": 37.0, "size": 17, "time": "01/29/2020, 20:38:48"}, "type": "Feature"}, {"geometry": {"coordinates": [8.528866, 47.382121], "type": "Point"}, "properties": {"charge": 27, "id": "smide_2860", "name": "ZH 267097", "provider": "smide", "range": 13.0, "size": 17, "time": "01/29/2020, 20:38:48"}, "type": "Feature"}, {"geometry": {"coordinates": [8.518283, 47.367883], "type": "Point"}, "properties": {"charge": 91, "id": "smide_2859", "name": "ZH 267098", "provider": "smide", "range": 45.0, "size": 17, "time": "01/29/2020, 20:38:48"}, "type": "Feature"}, {"geometry": {"coordinates": [8.515996, 47.373941], "type": "Point"}, "properties": {"charge": 97, "id": "smide_2856", "name": "ZH 267101", "provider": "smide", "range": 48.0, "size": 17, "time": "01/29/2020, 20:38:48"}, "type": "Feature"}, {"geometry": {"coordinates": [8.582605, 47.350981], "type": "Point"}, "properties": {"charge": 93, "id": "smide_2855", "name": "ZH 267102", "provider": "smide", "range": 46.0, "size": 17, "time": "01/29/2020, 20:38:48"}, "type": "Feature"}, {"geometry": {"coordinates": [8.510558, 47.398485], "type": "Point"}, "properties": {"charge": 91, "id": "smide_2854", "name": "ZH 267103", "provider": "smide", "range": 45.0, "size": 17, "time": "01/29/2020, 20:38:48"}, "type": "Feature"}, {"geometry": {"coordinates": [8.545105, 47.368833], "type": "Point"}, "properties": {"charge": 60, "id": "smide_2833", "name": "ZH 267182", "provider": "smide", "range": 30.0, "size": 20, "time": "01/29/2020, 20:38:48"}, "type": "Feature"}, {"geometry": {"coordinates": [8.570006, 47.352371], "type": "Point"}, "properties": {"charge": 74, "id": "smide_2831", "name": "ZH 267180", "provider": "smide", "range": 37.0, "size": 20, "time": "01/29/2020, 20:38:48"}, "type": "Feature"}, {"geometry": {"coordinates": [8.533068, 47.376421], "type": "Point"}, "properties": {"charge": 93, "id": "smide_2829", "name": "ZH 267049", "provider": "smide", "range": 46.0, "size": 20, "time": "01/29/2020, 20:38:48"}, "type": "Feature"}, {"geometry": {"coordinates": [8.506045, 47.418961], "type": "Point"}, "properties": {"charge": 100, "id": "smide_2804", "name": "ZH266903", "provider": "smide", "range": 50.0, "size": 20, "time": "01/29/2020, 20:38:48"}, "type": "Feature"}, {"geometry": {"coordinates": [8.55291, 47.398376], "type": "Point"}, "properties": {"charge": 88, "id": "smide_2798", "name": "ZH266888", "provider": "smide", "range": 44.0, "size": 17, "time": "01/29/2020, 20:38:48"}, "type": "Feature"}, {"geometry": {"coordinates": [8.52186, 47.395328], "type": "Point"}, "properties": {"charge": 93, "id": "smide_2793", "name": "ZH266883", "provider": "smide", "range": 46.0, "size": 17, "time": "01/29/2020, 20:38:48"}, "type": "Feature"}, {"geometry": {"coordinates": [8.533676, 47.367356], "type": "Point"}, "properties": {"charge": 56, "id": "smide_2790", "name": "ZH266880", "provider": "smide", "range": 28.0, "size": 17, "time": "01/29/2020, 20:38:48"}, "type": "Feature"}, {"geometry": {"coordinates": [8.516288, 47.36989], "type": "Point"}, "properties": {"charge": 87, "id": "smide_2785", "name": "ZH266875", "provider": "smide", "range": 43.0, "size": 17, "time": "01/29/2020, 20:38:48"}, "type": "Feature"}, {"geometry": {"coordinates": [8.555651, 47.384318], "type": "Point"}, "properties": {"charge": 27, "id": "smide_2781", "name": "ZH 266871", "provider": "smide", "range": 13.0, "size": 17, "time": "01/29/2020, 20:38:48"}, "type": "Feature"}, {"geometry": {"coordinates": [8.540765, 47.37841], "type": "Point"}, "properties": {"charge": 53, "id": "smide_2780", "name": "ST1 X #1", "provider": "smide", "range": 26.0, "size": 17, "time": "01/29/2020, 20:38:48"}, "type": "Feature"}, {"geometry": {"coordinates": [8.513657, 47.369968], "type": "Point"}, "properties": {"charge": 100, "id": "smide_2775", "name": "ZH267283", "provider": "smide", "range": 50.0, "size": 20, "time": "01/29/2020, 20:38:48"}, "type": "Feature"}, {"geometry": {"coordinates": [8.545241, 47.423592], "type": "Point"}, "properties": {"charge": 93, "id": "smide_2773", "name": "ZH266561", "provider": "smide", "range": 46.0, "size": 17, "time": "01/29/2020, 20:38:48"}, "type": "Feature"}, {"geometry": {"coordinates": [8.52341, 47.369548], "type": "Point"}, "properties": {"charge": 27, "id": "smide_2763", "name": "ZH266641", "provider": "smide", "range": 13.0, "size": 17, "time": "01/29/2020, 20:38:48"}, "type": "Feature"}, {"geometry": {"coordinates": [8.560208, 47.382121], "type": "Point"}, "properties": {"charge": 56, "id": "smide_2761", "name": "ZH266642", "provider": "smide", "range": 28.0, "size": 20, "time": "01/29/2020, 20:38:48"}, "type": "Feature"}, {"geometry": {"coordinates": [8.56428, 47.369328], "type": "Point"}, "properties": {"charge": 90, "id": "smide_2758", "name": "ZH266638 M", "provider": "smide", "range": 45.0, "size": 17, "time": "01/29/2020, 20:38:48"}, "type": "Feature"}, {"geometry": {"coordinates": [8.524237, 47.371532], "type": "Point"}, "properties": {"charge": 86, "id": "smide_2752", "name": "BE343856", "provider": "smide", "range": 43.0, "size": 17, "time": "01/29/2020, 20:38:48"}, "type": "Feature"}, {"geometry": {"coordinates": [8.552616, 47.38868], "type": "Point"}, "properties": {"charge": 100, "id": "smide_2751", "name": "BE343857", "provider": "smide", "range": 50.0, "size": 17, "time": "01/29/2020, 20:38:48"}, "type": "Feature"}, {"geometry": {"coordinates": [8.491264, 47.391084], "type": "Point"}, "properties": {"charge": 55, "id": "smide_2749", "name": "BE343867", "provider": "smide", "range": 27.0, "size": 17, "time": "01/29/2020, 20:38:48"}, "type": "Feature"}, {"geometry": {"coordinates": [8.510804, 47.366624], "type": "Point"}, "properties": {"charge": 93, "id": "smide_2746", "name": "BE335817", "provider": "smide", "range": 46.0, "size": 17, "time": "01/29/2020, 20:38:48"}, "type": "Feature"}, {"geometry": {"coordinates": [8.551503, 47.420736], "type": "Point"}, "properties": {"charge": 100, "id": "smide_2747", "name": "BE335820", "provider": "smide", "range": 50.0, "size": 17, "time": "01/29/2020, 20:38:48"}, "type": "Feature"}, {"geometry": {"coordinates": [8.515025, 47.368588], "type": "Point"}, "properties": {"charge": 49, "id": "smide_2745", "name": "BE335818", "provider": "smide", "range": 24.0, "size": 17, "time": "01/29/2020, 20:38:48"}, "type": "Feature"}, {"geometry": {"coordinates": [8.560576, 47.368736], "type": "Point"}, "properties": {"charge": 53, "id": "smide_2742", "name": "BE343866", "provider": "smide", "range": 26.0, "size": 17, "time": "01/29/2020, 20:38:48"}, "type": "Feature"}, {"geometry": {"coordinates": [8.54626, 47.375708], "type": "Point"}, "properties": {"charge": 29, "id": "smide_2740", "name": "BE343875", "provider": "smide", "range": 14.0, "size": 17, "time": "01/29/2020, 20:38:48"}, "type": "Feature"}, {"geometry": {"coordinates": [8.544903, 47.419056], "type": "Point"}, "properties": {"charge": 95, "id": "smide_2738", "name": "BE343865", "provider": "smide", "range": 47.0, "size": 17, "time": "01/29/2020, 20:38:48"}, "type": "Feature"}, {"geometry": {"coordinates": [8.565403, 47.37694], "type": "Point"}, "properties": {"charge": 95, "id": "smide_2737", "name": "BE336149", "provider": "smide", "range": 47.0, "size": 17, "time": "01/29/2020, 20:38:48"}, "type": "Feature"}, {"geometry": {"coordinates": [8.560191, 47.381364], "type": "Point"}, "properties": {"charge": 91, "id": "smide_2734", "name": "BE343876", "provider": "smide", "range": 45.0, "size": 17, "time": "01/29/2020, 20:38:48"}, "type": "Feature"}, {"geometry": {"coordinates": [8.539802, 47.37248], "type": "Point"}, "properties": {"charge": 37, "id": "smide_2733", "name": "BE343873", "provider": "smide", "range": 18.0, "size": 17, "time": "01/29/2020, 20:38:48"}, "type": "Feature"}, {"geometry": {"coordinates": [8.494459, 47.3659], "type": "Point"}, "properties": {"charge": 87, "id": "smide_2732", "name": "BE343870", "provider": "smide", "range": 43.0, "size": 17, "time": "01/29/2020, 20:38:48"}, "type": "Feature"}, {"geometry": {"coordinates": [8.564688, 47.372836], "type": "Point"}, "properties": {"charge": 84, "id": "smide_2729", "name": "BE343878", "provider": "smide", "range": 42.0, "size": 17, "time": "01/29/2020, 20:38:48"}, "type": "Feature"}, {"geometry": {"coordinates": [8.528191, 47.394893], "type": "Point"}, "properties": {"charge": 42, "id": "smide_2725", "name": "ZH261545", "provider": "smide", "range": 21.0, "size": 0, "time": "01/29/2020, 20:38:48"}, "type": "Feature"}, {"geometry": {"coordinates": [8.583078, 47.351566], "type": "Point"}, "properties": {"charge": 81, "id": "smide_2718", "name": "ZH259019", "provider": "smide", "range": 40.0, "size": 20, "time": "01/29/2020, 20:38:48"}, "type": "Feature"}, {"geometry": {"coordinates": [8.518343, 47.398032], "type": "Point"}, "properties": {"charge": 57, "id": "smide_2717", "name": "ZH263287", "provider": "smide", "range": 28.0, "size": 17, "time": "01/29/2020, 20:38:48"}, "type": "Feature"}, {"geometry": {"coordinates": [8.532056, 47.382275], "type": "Point"}, "properties": {"charge": 37, "id": "smide_2716", "name": "ZH254606", "provider": "smide", "range": 18.0, "size": 17, "time": "01/29/2020, 20:38:48"}, "type": "Feature"}, {"geometry": {"coordinates": [8.537415, 47.340576], "type": "Point"}, "properties": {"charge": 88, "id": "smide_2715", "name": "ZH254605", "provider": "smide", "range": 44.0, "size": 17, "time": "01/29/2020, 20:38:48"}, "type": "Feature"}, {"geometry": {"coordinates": [8.53058, 47.379124], "type": "Point"}, "properties": {"charge": 73, "id": "smide_2714", "name": "ZH256461", "provider": "smide", "range": 36.0, "size": 17, "time": "01/29/2020, 20:38:48"}, "type": "Feature"}, {"geometry": {"coordinates": [8.553514, 47.402164], "type": "Point"}, "properties": {"charge": 23, "id": "smide_2710", "name": "ZH256460", "provider": "smide", "range": 11.0, "size": 17, "time": "01/29/2020, 20:38:48"}, "type": "Feature"}, {"geometry": {"coordinates": [8.546734, 47.368244], "type": "Point"}, "properties": {"charge": 100, "id": "smide_2712", "name": "ZH256462", "provider": "smide", "range": 50.0, "size": 17, "time": "01/29/2020, 20:38:48"}, "type": "Feature"}, {"geometry": {"coordinates": [8.516712, 47.37574], "type": "Point"}, "properties": {"charge": 84, "id": "smide_2711", "name": "ZH256463", "provider": "smide", "range": 42.0, "size": 17, "time": "01/29/2020, 20:38:48"}, "type": "Feature"}, {"geometry": {"coordinates": [8.563676, 47.348236], "type": "Point"}, "properties": {"charge": 74, "id": "smide_2709", "name": "ZH256466", "provider": "smide", "range": 37.0, "size": 20, "time": "01/29/2020, 20:38:48"}, "type": "Feature"}, {"geometry": {"coordinates": [8.541951, 47.42452], "type": "Point"}, "properties": {"charge": 84, "id": "smide_2707", "name": "ZH256467", "provider": "smide", "range": 42.0, "size": 20, "time": "01/29/2020, 20:38:48"}, "type": "Feature"}, {"geometry": {"coordinates": [8.483163, 47.384644], "type": "Point"}, "properties": {"charge": 53, "id": "smide_2708", "name": "ZH256464", "provider": "smide", "range": 26.0, "size": 17, "time": "01/29/2020, 20:38:48"}, "type": "Feature"}, {"geometry": {"coordinates": [8.538637, 47.379284], "type": "Point"}, "properties": {"charge": 89, "id": "smide_2706", "name": "ZH256322", "provider": "smide", "range": 44.0, "size": 20, "time": "01/29/2020, 20:38:48"}, "type": "Feature"}, {"geometry": {"coordinates": [8.537133, 47.4191], "type": "Point"}, "properties": {"charge": 34, "id": "smide_2705", "name": "ZH256471", "provider": "smide", "range": 17.0, "size": 20, "time": "01/29/2020, 20:38:48"}, "type": "Feature"}, {"geometry": {"coordinates": [8.563319, 47.372352], "type": "Point"}, "properties": {"charge": 100, "id": "smide_2701", "name": "ZH256468", "provider": "smide", "range": 50.0, "size": 20, "time": "01/29/2020, 20:38:48"}, "type": "Feature"}, {"geometry": {"coordinates": [8.51671, 47.398204], "type": "Point"}, "properties": {"charge": 100, "id": "smide_2700", "name": "ZH256470", "provider": "smide", "range": 50.0, "size": 20, "time": "01/29/2020, 20:38:48"}, "type": "Feature"}, {"geometry": {"coordinates": [8.564713, 47.368072], "type": "Point"}, "properties": {"charge": 35, "id": "smide_2699", "name": "ZH254611", "provider": "smide", "range": 17.0, "size": 20, "time": "01/29/2020, 20:38:48"}, "type": "Feature"}, {"geometry": {"coordinates": [8.511353, 47.370856], "type": "Point"}, "properties": {"charge": 43, "id": "smide_2696", "name": "ZH254616", "provider": "smide", "range": 21.0, "size": 20, "time": "01/29/2020, 20:38:48"}, "type": "Feature"}, {"geometry": {"coordinates": [8.539343, 47.387832], "type": "Point"}, "properties": {"charge": 93, "id": "smide_2694", "name": "ZH254610", "provider": "smide", "range": 46.0, "size": 20, "time": "01/29/2020, 20:38:48"}, "type": "Feature"}, {"geometry": {"coordinates": [8.510561, 47.398328], "type": "Point"}, "properties": {"charge": 86, "id": "smide_2691", "name": "ZH254622", "provider": "smide", "range": 43.0, "size": 20, "time": "01/29/2020, 20:38:48"}, "type": "Feature"}, {"geometry": {"coordinates": [8.56521, 47.358035], "type": "Point"}, "properties": {"charge": 66, "id": "smide_2690", "name": "ZH254625", "provider": "smide", "range": 33.0, "size": 20, "time": "01/29/2020, 20:38:48"}, "type": "Feature"}, {"geometry": {"coordinates": [8.495246, 47.4237], "type": "Point"}, "properties": {"charge": 85, "id": "smide_2689", "name": "ZH254623", "provider": "smide", "range": 42.0, "size": 20, "time": "01/29/2020, 20:38:48"}, "type": "Feature"}, {"geometry": {"coordinates": [8.541342, 47.413468], "type": "Point"}, "properties": {"charge": 78, "id": "smide_2687", "name": "ZH263529", "provider": "smide", "range": 39.0, "size": 20, "time": "01/29/2020, 20:38:48"}, "type": "Feature"}, {"geometry": {"coordinates": [8.572767, 47.38056], "type": "Point"}, "properties": {"charge": 81, "id": "smide_2684", "name": "ZH254626", "provider": "smide", "range": 40.0, "size": 20, "time": "01/29/2020, 20:38:48"}, "type": "Feature"}, {"geometry": {"coordinates": [8.5359, 47.368453], "type": "Point"}, "properties": {"charge": 64, "id": "smide_2683", "name": "ZH254620", "provider": "smide", "range": 32.0, "size": 20, "time": "01/29/2020, 20:38:48"}, "type": "Feature"}, {"geometry": {"coordinates": [8.587382, 47.403164], "type": "Point"}, "properties": {"charge": 71, "id": "smide_2680", "name": "ZH254619", "provider": "smide", "range": 35.0, "size": 20, "time": "01/29/2020, 20:38:48"}, "type": "Feature"}, {"geometry": {"coordinates": [8.576496, 47.351156], "type": "Point"}, "properties": {"charge": 89, "id": "smide_2679", "name": "ZH258489", "provider": "smide", "range": 44.0, "size": 17, "time": "01/29/2020, 20:38:48"}, "type": "Feature"}, {"geometry": {"coordinates": [8.52138, 47.367508], "type": "Point"}, "properties": {"charge": 50, "id": "smide_2671", "name": "ZH258645", "provider": "smide", "range": 25.0, "size": 17, "time": "01/29/2020, 20:38:48"}, "type": "Feature"}, {"geometry": {"coordinates": [8.476563, 47.387448], "type": "Point"}, "properties": {"charge": 72, "id": "smide_2669", "name": "ZH263294", "provider": "smide", "range": 36.0, "size": 17, "time": "01/29/2020, 20:38:48"}, "type": "Feature"}, {"geometry": {"coordinates": [8.502055, 47.368948], "type": "Point"}, "properties": {"charge": 81, "id": "smide_2668", "name": "ZH258640", "provider": "smide", "range": 40.0, "size": 17, "time": "01/29/2020, 20:38:48"}, "type": "Feature"}, {"geometry": {"coordinates": [8.564497, 47.369376], "type": "Point"}, "properties": {"charge": 42, "id": "smide_2666", "name": "ZH258653", "provider": "smide", "range": 21.0, "size": 17, "time": "01/29/2020, 20:38:48"}, "type": "Feature"}, {"geometry": {"coordinates": [8.521569, 47.361528], "type": "Point"}, "properties": {"charge": 100, "id": "smide_2665", "name": "ZH258644", "provider": "smide", "range": 50.0, "size": 17, "time": "01/29/2020, 20:38:48"}, "type": "Feature"}, {"geometry": {"coordinates": [8.546887, 47.407664], "type": "Point"}, "properties": {"charge": 100, "id": "smide_2664", "name": "ZH258652", "provider": "smide", "range": 50.0, "size": 17, "time": "01/29/2020, 20:38:48"}, "type": "Feature"}, {"geometry": {"coordinates": [8.508351, 47.353832], "type": "Point"}, "properties": {"charge": 76, "id": "smide_2663", "name": "ZH258649", "provider": "smide", "range": 38.0, "size": 17, "time": "01/29/2020, 20:38:48"}, "type": "Feature"}, {"geometry": {"coordinates": [8.544917, 47.368424], "type": "Point"}, "properties": {"charge": 46, "id": "smide_2662", "name": "ZH258643", "provider": "smide", "range": 23.0, "size": 17, "time": "01/29/2020, 20:38:48"}, "type": "Feature"}, {"geometry": {"coordinates": [8.561006, 47.37278], "type": "Point"}, "properties": {"charge": 99, "id": "smide_2648", "name": "ZH257930", "provider": "smide", "range": 49.0, "size": 20, "time": "01/29/2020, 20:38:48"}, "type": "Feature"}, {"geometry": {"coordinates": [8.569461, 47.352088], "type": "Point"}, "properties": {"charge": 69, "id": "smide_2657", "name": "ZH257936", "provider": "smide", "range": 34.0, "size": 17, "time": "01/29/2020, 20:38:48"}, "type": "Feature"}, {"geometry": {"coordinates": [8.55747, 47.371888], "type": "Point"}, "properties": {"charge": 94, "id": "smide_2647", "name": "ZH257932", "provider": "smide", "range": 47.0, "size": 20, "time": "01/29/2020, 20:38:48"}, "type": "Feature"}, {"geometry": {"coordinates": [8.519755, 47.37054], "type": "Point"}, "properties": {"charge": 72, "id": "smide_2645", "name": "ZH257933", "provider": "smide", "range": 36.0, "size": 20, "time": "01/29/2020, 20:38:48"}, "type": "Feature"}, {"geometry": {"coordinates": [8.537128, 47.37147], "type": "Point"}, "properties": {"charge": 100, "id": "smide_3", "name": "ZH253765", "provider": "smide", "range": 50.0, "size": 20, "time": "01/29/2020, 20:38:48"}, "type": "Feature"}, {"geometry": {"coordinates": [8.511085, 47.371641], "type": "Point"}, "properties": {"charge": 30, "id": "smide_105", "name": "ZH253804", "provider": "smide", "range": 15.0, "size": 17, "time": "01/29/2020, 20:38:48"}, "type": "Feature"}, {"geometry": {"coordinates": [8.48361, 47.381652], "type": "Point"}, "properties": {"charge": 57, "id": "smide_186", "name": "ZH253751", "provider": "smide", "range": 28.0, "size": 20, "time": "01/29/2020, 20:38:48"}, "type": "Feature"}, {"geometry": {"coordinates": [8.571135, 47.352544], "type": "Point"}, "properties": {"charge": 93, "id": "smide_173", "name": "ZH258501", "provider": "smide", "range": 46.0, "size": 17, "time": "01/29/2020, 20:38:48"}, "type": "Feature"}, {"geometry": {"coordinates": [8.559256, 47.405932], "type": "Point"}, "properties": {"charge": 73, "id": "smide_77", "name": "ZH261548", "provider": "smide", "range": 36.0, "size": 20, "time": "01/29/2020, 20:38:48"}, "type": "Feature"}, {"geometry": {"coordinates": [8.508323, 47.400484], "type": "Point"}, "properties": {"charge": 27, "id": "smide_200", "name": "ZH253801", "provider": "smide", "range": 13.0, "size": 20, "time": "01/29/2020, 20:38:48"}, "type": "Feature"}, {"geometry": {"coordinates": [8.538868, 47.33781], "type": "Point"}, "properties": {"charge": 91, "id": "smide_197", "name": "ZH253864", "provider": "smide", "range": 45.0, "size": 20, "time": "01/29/2020, 20:38:48"}, "type": "Feature"}, {"geometry": {"coordinates": [8.514013, 47.366356], "type": "Point"}, "properties": {"charge": 65, "id": "smide_199", "name": "ZH253766", "provider": "smide", "range": 32.0, "size": 20, "time": "01/29/2020, 20:38:48"}, "type": "Feature"}, {"geometry": {"coordinates": [8.544577, 47.370376], "type": "Point"}, "properties": {"charge": 75, "id": "smide_8", "name": "ZH253861", "provider": "smide", "range": 37.0, "size": 17, "time": "01/29/2020, 20:38:48"}, "type": "Feature"}, {"geometry": {"coordinates": [8.525856, 47.36884], "type": "Point"}, "properties": {"charge": 100, "id": "smide_45", "name": "ZH253716", "provider": "smide", "range": 50.0, "size": 17, "time": "01/29/2020, 20:38:48"}, "type": "Feature"}, {"geometry": {"coordinates": [8.522397, 47.398856], "type": "Point"}, "properties": {"charge": 86, "id": "smide_188", "name": "ZH261543", "provider": "smide", "range": 43.0, "size": 20, "time": "01/29/2020, 20:38:48"}, "type": "Feature"}, {"geometry": {"coordinates": [8.542013, 47.424564], "type": "Point"}, "properties": {"charge": 21, "id": "smide_101", "name": "ZH253814", "provider": "smide", "range": 10.0, "size": 17, "time": "01/29/2020, 20:38:48"}, "type": "Feature"}, {"geometry": {"coordinates": [8.555618, 47.3844], "type": "Point"}, "properties": {"charge": 42, "id": "smide_143", "name": "ZH253778", "provider": "smide", "range": 21.0, "size": 17, "time": "01/29/2020, 20:38:48"}, "type": "Feature"}, {"geometry": {"coordinates": [8.541286, 47.413448], "type": "Point"}, "properties": {"charge": 32, "id": "smide_180", "name": "ZH253824", "provider": "smide", "range": 16.0, "size": 20, "time": "01/29/2020, 20:38:48"}, "type": "Feature"}, {"geometry": {"coordinates": [8.549126, 47.399044], "type": "Point"}, "properties": {"charge": 95, "id": "smide_20", "name": "ZH253770", "provider": "smide", "range": 47.0, "size": 20, "time": "01/29/2020, 20:38:48"}, "type": "Feature"}, {"geometry": {"coordinates": [8.509367, 47.354912], "type": "Point"}, "properties": {"charge": 90, "id": "smide_50", "name": "ZH253853", "provider": "smide", "range": 45.0, "size": 17, "time": "01/29/2020, 20:38:48"}, "type": "Feature"}, {"geometry": {"coordinates": [8.490411, 47.380301], "type": "Point"}, "properties": {"charge": 23, "id": "smide_30", "name": "ZH253813", "provider": "smide", "range": 11.0, "size": 20, "time": "01/29/2020, 20:38:48"}, "type": "Feature"}, {"geometry": {"coordinates": [8.544553, 47.382545], "type": "Point"}, "properties": {"charge": 33, "id": "smide_10", "name": "ZH253855", "provider": "smide", "range": 16.0, "size": 17, "time": "01/29/2020, 20:38:48"}, "type": "Feature"}, {"geometry": {"coordinates": [8.549307, 47.365812], "type": "Point"}, "properties": {"charge": 76, "id": "smide_165", "name": "ZH253752", "provider": "smide", "range": 38.0, "size": 17, "time": "01/29/2020, 20:38:48"}, "type": "Feature"}, {"geometry": {"coordinates": [8.546576, 47.412284], "type": "Point"}, "properties": {"charge": 45, "id": "smide_119", "name": "ZH253686", "provider": "smide", "range": 22.0, "size": 20, "time": "01/29/2020, 20:38:48"}, "type": "Feature"}, {"geometry": {"coordinates": [8.532572, 47.416292], "type": "Point"}, "properties": {"charge": 100, "id": "smide_76", "name": "ZH253764", "provider": "smide", "range": 50.0, "size": 17, "time": "01/29/2020, 20:38:48"}, "type": "Feature"}, {"geometry": {"coordinates": [8.541451, 47.37194], "type": "Point"}, "properties": {"charge": 76, "id": "smide_129", "name": "ZH261378", "provider": "smide", "range": 38.0, "size": 17, "time": "01/29/2020, 20:38:48"}, "type": "Feature"}, {"geometry": {"coordinates": [8.522728, 47.386415], "type": "Point"}, "properties": {"charge": 100, "id": "smide_49", "name": "ZH253873", "provider": "smide", "range": 50.0, "size": 17, "time": "01/29/2020, 20:38:48"}, "type": "Feature"}, {"geometry": {"coordinates": [8.550056, 47.397912], "type": "Point"}, "properties": {"charge": 44, "id": "smide_94", "name": "ZH253754", "provider": "smide", "range": 22.0, "size": 17, "time": "01/29/2020, 20:38:48"}, "type": "Feature"}, {"geometry": {"coordinates": [8.529911, 47.344268], "type": "Point"}, "properties": {"charge": 26, "id": "smide_37", "name": "ZH261377", "provider": "smide", "range": 13.0, "size": 20, "time": "01/29/2020, 20:38:48"}, "type": "Feature"}, {"geometry": {"coordinates": [8.533565, 47.367118], "type": "Point"}, "properties": {"charge": 97, "id": "smide_191", "name": "ZH253762", "provider": "smide", "range": 48.0, "size": 17, "time": "01/29/2020, 20:38:48"}, "type": "Feature"}, {"geometry": {"coordinates": [8.562895, 47.382646], "type": "Point"}, "properties": {"charge": 65, "id": "smide_202", "name": "ZH253830", "provider": "smide", "range": 32.0, "size": 17, "time": "01/29/2020, 20:38:48"}, "type": "Feature"}, {"geometry": {"coordinates": [8.561547, 47.369428], "type": "Point"}, "properties": {"charge": 93, "id": "smide_56", "name": "ZH261442", "provider": "smide", "range": 46.0, "size": 20, "time": "01/29/2020, 20:38:48"}, "type": "Feature"}, {"geometry": {"coordinates": [8.54447, 47.377011], "type": "Point"}, "properties": {"charge": 100, "id": "smide_47", "name": "ZH253858", "provider": "smide", "range": 50.0, "size": 17, "time": "01/29/2020, 20:38:48"}, "type": "Feature"}, {"geometry": {"coordinates": [8.551455, 47.379988], "type": "Point"}, "properties": {"charge": 52, "id": "smide_150", "name": "ZH253703", "provider": "smide", "range": 26.0, "size": 20, "time": "01/29/2020, 20:38:48"}, "type": "Feature"}, {"geometry": {"coordinates": [8.520452, 47.358324], "type": "Point"}, "properties": {"charge": 26, "id": "smide_181", "name": "ZH253815", "provider": "smide", "range": 13.0, "size": 17, "time": "01/29/2020, 20:38:48"}, "type": "Feature"}, {"geometry": {"coordinates": [8.540471, 47.393876], "type": "Point"}, "properties": {"charge": 31, "id": "smide_66", "name": "ZH253818", "provider": "smide", "range": 15.0, "size": 20, "time": "01/29/2020, 20:38:48"}, "type": "Feature"}, {"geometry": {"coordinates": [8.5828, 47.350972], "type": "Point"}, "properties": {"charge": 79, "id": "smide_127", "name": "ZH253808", "provider": "smide", "range": 39.0, "size": 20, "time": "01/29/2020, 20:38:48"}, "type": "Feature"}, {"geometry": {"coordinates": [8.53876, 47.416086], "type": "Point"}, "properties": {"charge": 99, "id": "smide_145", "name": "ZH253780", "provider": "smide", "range": 49.0, "size": 20, "time": "01/29/2020, 20:38:48"}, "type": "Feature"}, {"geometry": {"coordinates": [8.567164, 47.361148], "type": "Point"}, "properties": {"charge": 58, "id": "smide_114", "name": "ZH253878", "provider": "smide", "range": 28.0, "size": 20, "time": "01/29/2020, 20:38:48"}, "type": "Feature"}, {"geometry": {"coordinates": [8.559473, 47.359984], "type": "Point"}, "properties": {"charge": 46, "id": "smide_203", "name": "ZH261547", "provider": "smide", "range": 23.0, "size": 17, "time": "01/29/2020, 20:38:48"}, "type": "Feature"}, {"geometry": {"coordinates": [8.533154, 47.417136], "type": "Point"}, "properties": {"charge": 76, "id": "smide_21", "name": "ZH253841", "provider": "smide", "range": 38.0, "size": 17, "time": "01/29/2020, 20:38:48"}, "type": "Feature"}, {"geometry": {"coordinates": [8.585778, 47.400468], "type": "Point"}, "properties": {"charge": 17, "id": "smide_164", "name": "ZH253775", "provider": "smide", "range": 8.0, "size": 17, "time": "01/29/2020, 20:38:48"}, "type": "Feature"}, {"geometry": {"coordinates": [8.524619, 47.33872], "type": "Point"}, "properties": {"charge": 53, "id": "smide_189", "name": "ZH253845", "provider": "smide", "range": 26.0, "size": 20, "time": "01/29/2020, 20:38:48"}, "type": "Feature"}, {"geometry": {"coordinates": [8.546573, 47.376556], "type": "Point"}, "properties": {"charge": 50, "id": "smide_81", "name": "ZH253753", "provider": "smide", "range": 25.0, "size": 17, "time": "01/29/2020, 20:38:48"}, "type": "Feature"}, {"geometry": {"coordinates": [8.531686, 47.38452], "type": "Point"}, "properties": {"charge": 48, "id": "smide_148", "name": "ZH253844", "provider": "smide", "range": 24.0, "size": 20, "time": "01/29/2020, 20:38:48"}, "type": "Feature"}, {"geometry": {"coordinates": [8.497673, 47.401784], "type": "Point"}, "properties": {"charge": 83, "id": "smide_171", "name": "ZH253689", "provider": "smide", "range": 41.0, "size": 20, "time": "01/29/2020, 20:38:48"}, "type": "Feature"}, {"geometry": {"coordinates": [8.524373, 47.39582], "type": "Point"}, "properties": {"charge": 24, "id": "smide_93", "name": "ZH253681", "provider": "smide", "range": 12.0, "size": 17, "time": "01/29/2020, 20:38:48"}, "type": "Feature"}, {"geometry": {"coordinates": [8.57319, 47.352324], "type": "Point"}, "properties": {"charge": 88, "id": "smide_67", "name": "ZH253779", "provider": "smide", "range": 44.0, "size": 17, "time": "01/29/2020, 20:38:48"}, "type": "Feature"}, {"geometry": {"coordinates": [8.567964, 47.36002], "type": "Point"}, "properties": {"charge": 31, "id": "smide_133", "name": "ZH253848", "provider": "smide", "range": 15.0, "size": 20, "time": "01/29/2020, 20:38:48"}, "type": "Feature"}, {"geometry": {"coordinates": [8.480016, 47.385598], "type": "Point"}, "properties": {"charge": 71, "id": "smide_118", "name": "ZH253759", "provider": "smide", "range": 35.0, "size": 20, "time": "01/29/2020, 20:38:48"}, "type": "Feature"}, {"geometry": {"coordinates": [8.540134, 47.379076], "type": "Point"}, "properties": {"charge": 93, "id": "smide_142", "name": "ZH258745", "provider": "smide", "range": 46.0, "size": 17, "time": "01/29/2020, 20:38:48"}, "type": "Feature"}, {"geometry": {"coordinates": [8.539501, 47.388231], "type": "Point"}, "properties": {"charge": 90, "id": "smide_166", "name": "ZH253728", "provider": "smide", "range": 45.0, "size": 17, "time": "01/29/2020, 20:38:48"}, "type": "Feature"}, {"geometry": {"coordinates": [8.487411, 47.367584], "type": "Point"}, "properties": {"charge": 95, "id": "smide_126", "name": "ZH268400", "provider": "smide", "range": 47.0, "size": 17, "time": "01/29/2020, 20:38:48"}, "type": "Feature"}, {"geometry": {"coordinates": [8.491201, 47.371971], "type": "Point"}, "properties": {"charge": 100, "id": "smide_44", "name": "ZH253837", "provider": "smide", "range": 50.0, "size": 17, "time": "01/29/2020, 20:38:48"}, "type": "Feature"}, {"geometry": {"coordinates": [8.530278, 47.390226], "type": "Point"}, "properties": {"charge": 26, "id": "smide_98", "name": "ZH256321", "provider": "smide", "range": 13.0, "size": 17, "time": "01/29/2020, 20:38:48"}, "type": "Feature"}, {"geometry": {"coordinates": [8.571964, 47.355136], "type": "Point"}, "properties": {"charge": 100, "id": "smide_154", "name": "ZH253744", "provider": "smide", "range": 50.0, "size": 20, "time": "01/29/2020, 20:38:48"}, "type": "Feature"}, {"geometry": {"coordinates": [8.512805, 47.398892], "type": "Point"}, "properties": {"charge": 35, "id": "smide_92", "name": "ZH253798", "provider": "smide", "range": 17.0, "size": 17, "time": "01/29/2020, 20:38:48"}, "type": "Feature"}, {"geometry": {"coordinates": [8.48707, 47.384305], "type": "Point"}, "properties": {"charge": 87, "id": "smide_167", "name": "ZH253854", "provider": "smide", "range": 43.0, "size": 17, "time": "01/29/2020, 20:38:48"}, "type": "Feature"}, {"geometry": {"coordinates": [8.560109, 47.372392], "type": "Point"}, "properties": {"charge": 100, "id": "smide_65", "name": "ZH253810", "provider": "smide", "range": 50.0, "size": 17, "time": "01/29/2020, 20:38:48"}, "type": "Feature"}, {"geometry": {"coordinates": [8.517006, 47.375804], "type": "Point"}, "properties": {"charge": 65, "id": "smide_111", "name": "ZH253763", "provider": "smide", "range": 32.0, "size": 17, "time": "01/29/2020, 20:38:48"}, "type": "Feature"}, {"geometry": {"coordinates": [8.498721, 47.402184], "type": "Point"}, "properties": {"charge": 67, "id": "smide_40", "name": "ZH253690", "provider": "smide", "range": 33.0, "size": 20, "time": "01/29/2020, 20:38:48"}, "type": "Feature"}, {"geometry": {"coordinates": [8.563898, 47.348136], "type": "Point"}, "properties": {"charge": 42, "id": "smide_1", "name": "ZH253776", "provider": "smide", "range": 21.0, "size": 17, "time": "01/29/2020, 20:38:48"}, "type": "Feature"}, {"geometry": {"coordinates": [8.556817, 47.353288], "type": "Point"}, "properties": {"charge": 100, "id": "smide_28", "name": "ZH253831", "provider": "smide", "range": 50.0, "size": 17, "time": "01/29/2020, 20:38:48"}, "type": "Feature"}, {"geometry": {"coordinates": [8.516871, 47.398348], "type": "Point"}, "properties": {"charge": 100, "id": "smide_14", "name": "ZH253749", "provider": "smide", "range": 50.0, "size": 20, "time": "01/29/2020, 20:38:48"}, "type": "Feature"}, {"geometry": {"coordinates": [8.554526, 47.402956], "type": "Point"}, "properties": {"charge": 62, "id": "smide_130", "name": "ZH253847", "provider": "smide", "range": 31.0, "size": 20, "time": "01/29/2020, 20:38:48"}, "type": "Feature"}, {"geometry": {"coordinates": [8.549801, 47.41062], "type": "Point"}, "properties": {"charge": 74, "id": "smide_24", "name": "ZH253696", "provider": "smide", "range": 37.0, "size": 20, "time": "01/29/2020, 20:38:48"}, "type": "Feature"}, {"geometry": {"coordinates": [8.562513, 47.371296], "type": "Point"}, "properties": {"charge": 83, "id": "smide_83", "name": "ZH253869", "provider": "smide", "range": 41.0, "size": 20, "time": "01/29/2020, 20:38:48"}, "type": "Feature"}, {"geometry": {"coordinates": [8.51491, 47.370948], "type": "Point"}, "properties": {"charge": 81, "id": "smide_193", "name": "ZH253738", "provider": "smide", "range": 40.0, "size": 20, "time": "01/29/2020, 20:38:48"}, "type": "Feature"}, {"geometry": {"coordinates": [8.510151, 47.42561], "type": "Point"}, "properties": {"charge": 100, "id": "smide_158", "name": "ZH253870", "provider": "smide", "range": 50.0, "size": 20, "time": "01/29/2020, 20:38:48"}, "type": "Feature"}, {"geometry": {"coordinates": [8.494202, 47.42422], "type": "Point"}, "properties": {"charge": 22, "id": "smide_100", "name": "ZH253862", "provider": "smide", "range": 11.0, "size": 20, "time": "01/29/2020, 20:38:48"}, "type": "Feature"}, {"geometry": {"coordinates": [8.530591, 47.348228], "type": "Point"}, "properties": {"charge": 62, "id": "smide_141", "name": "ZH253800", "provider": "smide", "range": 31.0, "size": 20, "time": "01/29/2020, 20:38:48"}, "type": "Feature"}, {"geometry": {"coordinates": [8.560301, 47.37047], "type": "Point"}, "properties": {"charge": 73, "id": "smide_149", "name": "ZH253743", "provider": "smide", "range": 36.0, "size": 20, "time": "01/29/2020, 20:38:48"}, "type": "Feature"}, {"geometry": {"coordinates": [8.536032, 47.40694], "type": "Point"}, "properties": {"charge": 99, "id": "smide_74", "name": "ZH253693", "provider": "smide", "range": 49.0, "size": 20, "time": "01/29/2020, 20:38:48"}, "type": "Feature"}, {"geometry": {"coordinates": [8.54121, 47.377503], "type": "Point"}, "properties": {"charge": 63, "id": "smide_33", "name": "ZH253782", "provider": "smide", "range": 31.0, "size": 20, "time": "01/29/2020, 20:38:48"}, "type": "Feature"}, {"geometry": {"coordinates": [8.518038, 47.340908], "type": "Point"}, "properties": {"charge": 87, "id": "smide_161", "name": "ZH253691", "provider": "smide", "range": 43.0, "size": 20, "time": "01/29/2020, 20:38:48"}, "type": "Feature"}, {"geometry": {"coordinates": [8.517456, 47.367526], "type": "Point"}, "properties": {"charge": 94, "id": "smide_183", "name": "ZH253868", "provider": "smide", "range": 47.0, "size": 17, "time": "01/29/2020, 20:38:48"}, "type": "Feature"}, {"geometry": {"coordinates": [8.48336, 47.374612], "type": "Point"}, "properties": {"charge": 100, "id": "smide_42", "name": "ZH253846", "provider": "smide", "range": 50.0, "size": 20, "time": "01/29/2020, 20:38:48"}, "type": "Feature"}, {"geometry": {"coordinates": [8.53713, 47.419108], "type": "Point"}, "properties": {"charge": 100, "id": "smide_4", "name": "ZH253740", "provider": "smide", "range": 50.0, "size": 20, "time": "01/29/2020, 20:38:48"}, "type": "Feature"}, {"geometry": {"coordinates": [8.563507, 47.409404], "type": "Point"}, "properties": {"charge": 79, "id": "smide_160", "name": "ZH253722", "provider": "smide", "range": 39.0, "size": 17, "time": "01/29/2020, 20:38:48"}, "type": "Feature"}, {"geometry": {"coordinates": [8.542978, 47.374273], "type": "Point"}, "properties": {"charge": 57, "id": "smide_137", "name": "ZH258502", "provider": "smide", "range": 28.0, "size": 17, "time": "01/29/2020, 20:38:48"}, "type": "Feature"}, {"geometry": {"coordinates": [8.518001, 47.369988], "type": "Point"}, "properties": {"charge": 24, "id": "smide_178", "name": "ZH253803", "provider": "smide", "range": 12.0, "size": 17, "time": "01/29/2020, 20:38:48"}, "type": "Feature"}, {"geometry": {"coordinates": [8.48731, 47.384393], "type": "Point"}, "properties": {"charge": 98, "id": "smide_55", "name": "ZH253875", "provider": "smide", "range": 49.0, "size": 17, "time": "01/29/2020, 20:38:48"}, "type": "Feature"}, {"geometry": {"coordinates": [8.543111, 47.37866], "type": "Point"}, "properties": {"charge": 66, "id": "smide_96", "name": "ZH256146", "provider": "smide", "range": 33.0, "size": 20, "time": "01/29/2020, 20:38:48"}, "type": "Feature"}, {"geometry": {"coordinates": [8.527684, 47.410204], "type": "Point"}, "properties": {"charge": 100, "id": "smide_58", "name": "ZH259246", "provider": "smide", "range": 50.0, "size": 20, "time": "01/29/2020, 20:38:48"}, "type": "Feature"}, {"geometry": {"coordinates": [8.548547, 47.370568], "type": "Point"}, "properties": {"charge": 100, "id": "smide_54", "name": "ZH253874", "provider": "smide", "range": 50.0, "size": 20, "time": "01/29/2020, 20:38:48"}, "type": "Feature"}, {"geometry": {"coordinates": [8.550445, 47.379764], "type": "Point"}, "properties": {"charge": 56, "id": "smide_175", "name": "ZH253730", "provider": "smide", "range": 28.0, "size": 17, "time": "01/29/2020, 20:38:48"}, "type": "Feature"}, {"geometry": {"coordinates": [8.564548, 47.369368], "type": "Point"}, "properties": {"charge": 98, "id": "smide_163", "name": "ZH256147", "provider": "smide", "range": 49.0, "size": 20, "time": "01/29/2020, 20:38:48"}, "type": "Feature"}, {"geometry": {"coordinates": [8.513253, 47.374212], "type": "Point"}, "properties": {"charge": 100, "id": "smide_112", "name": "ZH263530", "provider": "smide", "range": 50.0, "size": 20, "time": "01/29/2020, 20:38:48"}, "type": "Feature"}, {"geometry": {"coordinates": [8.55182, 47.389176], "type": "Point"}, "properties": {"charge": 74, "id": "smide_122", "name": "ZH253850", "provider": "smide", "range": 37.0, "size": 20, "time": "01/29/2020, 20:38:48"}, "type": "Feature"}, {"geometry": {"coordinates": [8.561528, 47.349983], "type": "Point"}, "properties": {"charge": 42, "id": "smide_38", "name": "ZH253851", "provider": "smide", "range": 21.0, "size": 20, "time": "01/29/2020, 20:38:48"}, "type": "Feature"}, {"geometry": {"coordinates": [8.553751, 47.412216], "type": "Point"}, "properties": {"charge": 76, "id": "smide_18", "name": "ZH253859", "provider": "smide", "range": 38.0, "size": 17, "time": "01/29/2020, 20:38:48"}, "type": "Feature"}, {"geometry": {"coordinates": [8.520193, 47.372], "type": "Point"}, "properties": {"charge": 24, "id": "smide_12", "name": "ZH253685", "provider": "smide", "range": 12.0, "size": 17, "time": "01/29/2020, 20:38:48"}, "type": "Feature"}, {"geometry": {"coordinates": [8.531966, 47.3526], "type": "Point"}, "properties": {"charge": 24, "id": "smide_192", "name": "ZH253706", "provider": "smide", "range": 12.0, "size": 20, "time": "01/29/2020, 20:38:48"}, "type": "Feature"}, {"geometry": {"coordinates": [8.558912, 47.415992], "type": "Point"}, "properties": {"charge": 100, "id": "smide_39", "name": "ZH253714", "provider": "smide", "range": 50.0, "size": 20, "time": "01/29/2020, 20:38:48"}, "type": "Feature"}, {"geometry": {"coordinates": [8.557791, 47.352513], "type": "Point"}, "properties": {"charge": 100, "id": "smide_5", "name": "ZH261443", "provider": "smide", "range": 50.0, "size": 20, "time": "01/29/2020, 20:38:48"}, "type": "Feature"}, {"geometry": {"coordinates": [8.562386, 47.377651], "type": "Point"}, "properties": {"charge": 24, "id": "smide_85", "name": "ZH253729", "provider": "smide", "range": 12.0, "size": 17, "time": "01/29/2020, 20:38:48"}, "type": "Feature"}, {"geometry": {"coordinates": [8.572985, 47.40406], "type": "Point"}, "properties": {"charge": 77, "id": "smide_29", "name": "ZH253723", "provider": "smide", "range": 38.0, "size": 17, "time": "01/29/2020, 20:38:48"}, "type": "Feature"}, {"geometry": {"coordinates": [8.544483, 47.387372], "type": "Point"}, "properties": {"charge": 86, "id": "smide_48", "name": "ZH253849", "provider": "smide", "range": 43.0, "size": 20, "time": "01/29/2020, 20:38:48"}, "type": "Feature"}, {"geometry": {"coordinates": [8.561889, 47.415144], "type": "Point"}, "properties": {"charge": 51, "id": "smide_46", "name": "ZH253843", "provider": "smide", "range": 25.0, "size": 20, "time": "01/29/2020, 20:38:48"}, "type": "Feature"}, {"geometry": {"coordinates": [8.50949666666667, 47.3914066666667], "type": "Point"}, "properties": {"charge": 66, "id": "bird_881810d1-0ded-4b4b-8f82-bacf221347c1", "provider": "bird", "timeStamp": "01/29/2020, 20:38:48"}, "type": "Feature"}, {"geometry": {"coordinates": [8.50399, 47.3792233333333], "type": "Point"}, "properties": {"charge": 47, "id": "bird_14c04621-ee94-464d-90fb-27c9101e0ed4", "provider": "bird", "timeStamp": "01/29/2020, 20:38:48"}, "type": "Feature"}, {"geometry": {"coordinates": [8.53230833333333, 47.3626216666667], "type": "Point"}, "properties": {"charge": 17, "id": "bird_a780eb31-8c0a-42f0-8e82-c2792df042e5", "provider": "bird", "timeStamp": "01/29/2020, 20:38:48"}, "type": "Feature"}, {"geometry": {"coordinates": [8.54714166666667, 47.3670383333333], "type": "Point"}, "properties": {"charge": 44, "id": "bird_04caa856-419c-4d08-aaad-9864103d3bc2", "provider": "bird", "timeStamp": "01/29/2020, 20:38:48"}, "type": "Feature"}, {"geometry": {"coordinates": [8.547145, 47.367065], "type": "Point"}, "properties": {"charge": 62, "id": "bird_f748a8b4-42c2-4ac5-b384-6d8b4f21fb90", "provider": "bird", "timeStamp": "01/29/2020, 20:38:48"}, "type": "Feature"}, {"geometry": {"coordinates": [8.54725333333333, 47.367225], "type": "Point"}, "properties": {"charge": 46, "id": "bird_472c5515-891c-4230-93bd-9aa9c3d4d4e1", "provider": "bird", "timeStamp": "01/29/2020, 20:38:48"}, "type": "Feature"}, {"geometry": {"coordinates": [8.53256833333333, 47.3627933333333], "type": "Point"}, "properties": {"charge": 48, "id": "bird_165ae50a-7d95-40f2-bba2-04005ced9cbd", "provider": "bird", "timeStamp": "01/29/2020, 20:38:48"}, "type": "Feature"}, {"geometry": {"coordinates": [8.504995, 47.38174], "type": "Point"}, "properties": {"charge": 84, "id": "bird_ed1033b4-4f11-47ed-91db-9d8010ba432f", "provider": "bird", "timeStamp": "01/29/2020, 20:38:48"}, "type": "Feature"}, {"geometry": {"coordinates": [8.51061666666667, 47.3905483333333], "type": "Point"}, "properties": {"charge": 72, "id": "bird_3ba26ab6-9faf-444d-91b1-48920251b108", "provider": "bird", "timeStamp": "01/29/2020, 20:38:48"}, "type": "Feature"}, {"geometry": {"coordinates": [8.50561, 47.3786966666667], "type": "Point"}, "properties": {"charge": 45, "id": "bird_93da11f4-1135-401a-81a2-7cd94d5a4c4c", "provider": "bird", "timeStamp": "01/29/2020, 20:38:48"}, "type": "Feature"}, {"geometry": {"coordinates": [8.51136833333333, 47.390515], "type": "Point"}, "properties": {"charge": 49, "id": "bird_45652e88-53aa-47ac-a17a-fa33acc5d3da", "provider": "bird", "timeStamp": "01/29/2020, 20:38:48"}, "type": "Feature"}, {"geometry": {"coordinates": [8.52347666666667, 47.3641933333333], "type": "Point"}, "properties": {"charge": 10, "id": "bird_19f0554c-4146-46ff-8b32-48ec201a5803", "provider": "bird", "timeStamp": "01/29/2020, 20:38:48"}, "type": "Feature"}, {"geometry": {"coordinates": [8.54428, 47.3668133333333], "type": "Point"}, "properties": {"charge": 53, "id": "bird_da6069ec-9f0a-4518-95b6-c5494632a9e9", "provider": "bird", "timeStamp": "01/29/2020, 20:38:48"}, "type": "Feature"}, {"geometry": {"coordinates": [8.52621333333333, 47.3641283333333], "type": "Point"}, "properties": {"charge": 10, "id": "bird_8b9c23f7-97d8-48eb-9d52-9139eeca7fbb", "provider": "bird", "timeStamp": "01/29/2020, 20:38:48"}, "type": "Feature"}, {"geometry": {"coordinates": [8.526245, 47.3641283333333], "type": "Point"}, "properties": {"charge": 10, "id": "bird_8a97a9ae-d0ff-482d-b845-155553795962", "provider": "bird", "timeStamp": "01/29/2020, 20:38:48"}, "type": "Feature"}, {"geometry": {"coordinates": [8.52623166666667, 47.3641516666667], "type": "Point"}, "properties": {"charge": 11, "id": "bird_96c9f325-461c-44a8-887c-354226effd2e", "provider": "bird", "timeStamp": "01/29/2020, 20:38:48"}, "type": "Feature"}, {"geometry": {"coordinates": [8.53161666666667, 47.3640166666667], "type": "Point"}, "properties": {"charge": 91, "id": "bird_a1fd59ba-acc2-408e-b27e-adac8f65bf4c", "provider": "bird", "timeStamp": "01/29/2020, 20:38:48"}, "type": "Feature"}, {"geometry": {"coordinates": [8.54508833333333, 47.367665], "type": "Point"}, "properties": {"charge": 47, "id": "bird_a56801ec-207d-4bbe-9daa-36679cc482a8", "provider": "bird", "timeStamp": "01/29/2020, 20:38:48"}, "type": "Feature"}, {"geometry": {"coordinates": [8.53156166666667, 47.3640216666667], "type": "Point"}, "properties": {"charge": 80, "id": "bird_ed3619b1-eac8-4b60-93ba-870480b15f87", "provider": "bird", "timeStamp": "01/29/2020, 20:38:48"}, "type": "Feature"}, {"geometry": {"coordinates": [8.53122, 47.3640933333333], "type": "Point"}, "properties": {"charge": 79, "id": "bird_411cc28f-1cb0-403b-a801-8684b316ab20", "provider": "bird", "timeStamp": "01/29/2020, 20:38:48"}, "type": "Feature"}, {"geometry": {"coordinates": [8.531635, 47.36412], "type": "Point"}, "properties": {"charge": 60, "id": "bird_8034e203-521e-4ffa-865a-f3b7bb69d8b5", "provider": "bird", "timeStamp": "01/29/2020, 20:38:48"}, "type": "Feature"}, {"geometry": {"coordinates": [8.531625, 47.364155], "type": "Point"}, "properties": {"charge": 80, "id": "bird_12716bb0-e49b-44b6-af3c-34593d18f8e7", "provider": "bird", "timeStamp": "01/29/2020, 20:38:48"}, "type": "Feature"}, {"geometry": {"coordinates": [8.53165, 47.364265], "type": "Point"}, "properties": {"charge": 87, "id": "bird_3c94ea55-7399-42f1-a165-87ad779b89d7", "provider": "bird", "timeStamp": "01/29/2020, 20:38:48"}, "type": "Feature"}, {"geometry": {"coordinates": [8.53171833333333, 47.3642733333333], "type": "Point"}, "properties": {"charge": 80, "id": "bird_7647c39a-402a-4b27-901c-23313d43c0b6", "provider": "bird", "timeStamp": "01/29/2020, 20:38:48"}, "type": "Feature"}, {"geometry": {"coordinates": [8.53178166666667, 47.364345], "type": "Point"}, "properties": {"charge": 87, "id": "bird_b88778a3-a45e-43dd-a611-1b56ec455b06", "provider": "bird", "timeStamp": "01/29/2020, 20:38:48"}, "type": "Feature"}, {"geometry": {"coordinates": [8.53138333333333, 47.3643533333333], "type": "Point"}, "properties": {"charge": 82, "id": "bird_d1b8508c-db67-47ac-b6c3-7e1b50438a50", "provider": "bird", "timeStamp": "01/29/2020, 20:38:48"}, "type": "Feature"}, {"geometry": {"coordinates": [8.54083, 47.3662383333333], "type": "Point"}, "properties": {"charge": 53, "id": "bird_a1e3cdcb-e228-45b7-95bf-25e326bd1966", "provider": "bird", "timeStamp": "01/29/2020, 20:38:48"}, "type": "Feature"}, {"geometry": {"coordinates": [8.54084333333333, 47.3662483333333], "type": "Point"}, "properties": {"charge": 71, "id": "bird_8debb2d5-a9be-461c-a601-fc13d240eaa7", "provider": "bird", "timeStamp": "01/29/2020, 20:38:48"}, "type": "Feature"}, {"geometry": {"coordinates": [8.51277, 47.3901933333333], "type": "Point"}, "properties": {"charge": 51, "id": "bird_bfeaf1c4-f605-4aa2-bee5-3b01dc688e41", "provider": "bird", "timeStamp": "01/29/2020, 20:38:48"}, "type": "Feature"}, {"geometry": {"coordinates": [8.53093666666667, 47.3645866666667], "type": "Point"}, "properties": {"charge": 83, "id": "bird_3543b2fc-d94d-4673-88b2-34d90c30811d", "provider": "bird", "timeStamp": "01/29/2020, 20:38:48"}, "type": "Feature"}, {"geometry": {"coordinates": [8.53659, 47.3652916666667], "type": "Point"}, "properties": {"charge": 57, "id": "bird_85795aa9-3669-44c0-8851-6e1a7780b9e8", "provider": "bird", "timeStamp": "01/29/2020, 20:38:48"}, "type": "Feature"}, {"geometry": {"coordinates": [8.51054833333333, 47.3721766666667], "type": "Point"}, "properties": {"charge": 79, "id": "bird_71509002-df06-4e48-a5b1-4b57adda0fc4", "provider": "bird", "timeStamp": "01/29/2020, 20:38:48"}, "type": "Feature"}, {"geometry": {"coordinates": [8.531875, 47.3647466666667], "type": "Point"}, "properties": {"charge": 78, "id": "bird_9d0d4605-59ac-440d-b448-19a466103df1", "provider": "bird", "timeStamp": "01/29/2020, 20:38:48"}, "type": "Feature"}, {"geometry": {"coordinates": [8.52166833333333, 47.366035], "type": "Point"}, "properties": {"charge": 73, "id": "bird_e88009d9-b1af-42de-a3d3-2d6b8b3a00de", "provider": "bird", "timeStamp": "01/29/2020, 20:38:48"}, "type": "Feature"}, {"geometry": {"coordinates": [8.52062333333333, 47.3664433333333], "type": "Point"}, "properties": {"charge": 60, "id": "bird_3ee58353-3a48-4737-9542-31c945df83b3", "provider": "bird", "timeStamp": "01/29/2020, 20:38:48"}, "type": "Feature"}, {"geometry": {"coordinates": [8.52539666666667, 47.3945583333333], "type": "Point"}, "properties": {"charge": 37, "id": "bird_34226415-f3c1-4e27-b28a-33d350bd433e", "provider": "bird", "timeStamp": "01/29/2020, 20:38:48"}, "type": "Feature"}, {"geometry": {"coordinates": [8.53171333333333, 47.3651883333333], "type": "Point"}, "properties": {"charge": 38, "id": "bird_1b60946e-5204-450c-a898-9581bb19439f", "provider": "bird", "timeStamp": "01/29/2020, 20:38:48"}, "type": "Feature"}, {"geometry": {"coordinates": [8.521055, 47.3667033333333], "type": "Point"}, "properties": {"charge": 34, "id": "bird_6f783e5e-2bde-463e-8ada-c27c4bf3a2cc", "provider": "bird", "timeStamp": "01/29/2020, 20:38:48"}, "type": "Feature"}, {"geometry": {"coordinates": [8.51302, 47.37101], "type": "Point"}, "properties": {"charge": 62, "id": "bird_ce91d98f-c56f-4103-9154-fcb4e17fc84b", "provider": "bird", "timeStamp": "01/29/2020, 20:38:48"}, "type": "Feature"}, {"geometry": {"coordinates": [8.53199833333333, 47.36552], "type": "Point"}, "properties": {"charge": 60, "id": "bird_8e634515-b1ca-474f-9e02-bed64b6832ce", "provider": "bird", "timeStamp": "01/29/2020, 20:38:48"}, "type": "Feature"}, {"geometry": {"coordinates": [8.53210666666667, 47.3655883333333], "type": "Point"}, "properties": {"charge": 43, "id": "bird_919dd6a9-7e40-4d1e-980d-554890686216", "provider": "bird", "timeStamp": "01/29/2020, 20:38:48"}, "type": "Feature"}, {"geometry": {"coordinates": [8.53667833333333, 47.3663566666667], "type": "Point"}, "properties": {"charge": 82, "id": "bird_88256453-d05c-4333-8651-6a50205b5ba5", "provider": "bird", "timeStamp": "01/29/2020, 20:38:48"}, "type": "Feature"}, {"geometry": {"coordinates": [8.53670833333333, 47.3664316666667], "type": "Point"}, "properties": {"charge": 28, "id": "bird_d059bb1e-3366-4e74-909c-35b51bb507e2", "provider": "bird", "timeStamp": "01/29/2020, 20:38:48"}, "type": "Feature"}, {"geometry": {"coordinates": [8.537845, 47.393165], "type": "Point"}, "properties": {"charge": 70, "id": "bird_244fd5d1-8786-4e2b-926c-438941ad85f7", "provider": "bird", "timeStamp": "01/29/2020, 20:38:48"}, "type": "Feature"}, {"geometry": {"coordinates": [8.52956833333333, 47.3941616666667], "type": "Point"}, "properties": {"charge": 80, "id": "bird_24a5139b-0c9c-4e79-8ce9-d0ad93cefe6b", "provider": "bird", "timeStamp": "01/29/2020, 20:38:48"}, "type": "Feature"}, {"geometry": {"coordinates": [8.53237833333333, 47.39394], "type": "Point"}, "properties": {"charge": 53, "id": "bird_43500f9b-7ec5-44d9-ba78-e2b9e8677dcf", "provider": "bird", "timeStamp": "01/29/2020, 20:38:48"}, "type": "Feature"}, {"geometry": {"coordinates": [8.51024666666667, 47.3759416666667], "type": "Point"}, "properties": {"charge": 66, "id": "bird_60a3f545-4770-4b14-ab7b-2bbd2e5185ee", "provider": "bird", "timeStamp": "01/29/2020, 20:38:48"}, "type": "Feature"}, {"geometry": {"coordinates": [8.54099166666667, 47.3682516666667], "type": "Point"}, "properties": {"charge": 69, "id": "bird_83c72349-9aae-4c61-b0a7-902e754456ef", "provider": "bird", "timeStamp": "01/29/2020, 20:38:48"}, "type": "Feature"}, {"geometry": {"coordinates": [8.53967333333333, 47.3677833333333], "type": "Point"}, "properties": {"charge": 19, "id": "bird_c073e2cd-0f0e-46ab-aa24-7a02d63186a5", "provider": "bird", "timeStamp": "01/29/2020, 20:38:48"}, "type": "Feature"}, {"geometry": {"coordinates": [8.54094666666667, 47.36829], "type": "Point"}, "properties": {"charge": 21, "id": "bird_aed8a4ef-4275-44e7-8e93-5d20f1239bae", "provider": "bird", "timeStamp": "01/29/2020, 20:38:48"}, "type": "Feature"}, {"geometry": {"coordinates": [8.50970666666667, 47.3784333333333], "type": "Point"}, "properties": {"charge": 89, "id": "bird_3e25f1f3-b576-4e93-a84b-e73b4a2791a0", "provider": "bird", "timeStamp": "01/29/2020, 20:38:48"}, "type": "Feature"}, {"geometry": {"coordinates": [8.51890666666667, 47.3915716666667], "type": "Point"}, "properties": {"charge": 88, "id": "bird_d6db83e4-4cfd-482a-8cae-f28079b40f75", "provider": "bird", "timeStamp": "01/29/2020, 20:38:48"}, "type": "Feature"}, {"geometry": {"coordinates": [8.50985333333333, 47.3782383333333], "type": "Point"}, "properties": {"charge": 92, "id": "bird_3e319395-4a33-465f-b01f-ced5b16a9658", "provider": "bird", "timeStamp": "01/29/2020, 20:38:48"}, "type": "Feature"}, {"geometry": {"coordinates": [8.53624, 47.367005], "type": "Point"}, "properties": {"charge": 27, "id": "bird_c79537cd-17c3-4cf8-9344-30d0b1deda6a", "provider": "bird", "timeStamp": "01/29/2020, 20:38:48"}, "type": "Feature"}, {"geometry": {"coordinates": [8.51003, 47.37812], "type": "Point"}, "properties": {"charge": 79, "id": "bird_2e5c91ba-104a-44d5-936f-7c4f033a4134", "provider": "bird", "timeStamp": "01/29/2020, 20:38:48"}, "type": "Feature"}, {"geometry": {"coordinates": [8.510055, 47.3780933333333], "type": "Point"}, "properties": {"charge": 81, "id": "bird_7656c2f7-23ac-4d71-a8f8-e0e0d3749297", "provider": "bird", "timeStamp": "01/29/2020, 20:38:48"}, "type": "Feature"}, {"geometry": {"coordinates": [8.51566, 47.370445], "type": "Point"}, "properties": {"charge": 76, "id": "bird_b03c9824-06c2-43c2-9f93-b3c373df5373", "provider": "bird", "timeStamp": "01/29/2020, 20:38:48"}, "type": "Feature"}, {"geometry": {"coordinates": [8.5135, 47.3876233333333], "type": "Point"}, "properties": {"charge": 83, "id": "bird_daf78aca-b701-49b0-b55c-7cd6d94445f5", "provider": "bird", "timeStamp": "01/29/2020, 20:38:48"}, "type": "Feature"}, {"geometry": {"coordinates": [8.52415833333333, 47.3928], "type": "Point"}, "properties": {"charge": 28, "id": "bird_c9600e90-18b9-4c08-8587-5f5785b49d05", "provider": "bird", "timeStamp": "01/29/2020, 20:38:48"}, "type": "Feature"}, {"geometry": {"coordinates": [8.51074, 47.3769716666667], "type": "Point"}, "properties": {"charge": 54, "id": "bird_1f0fb49e-1e7c-4d45-9e42-d8aeb04bf580", "provider": "bird", "timeStamp": "01/29/2020, 20:38:48"}, "type": "Feature"}, {"geometry": {"coordinates": [8.528135, 47.3667683333333], "type": "Point"}, "properties": {"charge": 39, "id": "bird_987e7f39-9a41-42c0-a977-c3743f9e8ef4", "provider": "bird", "timeStamp": "01/29/2020, 20:38:48"}, "type": "Feature"}, {"geometry": {"coordinates": [8.51815833333333, 47.3694566666667], "type": "Point"}, "properties": {"charge": 37, "id": "bird_12eea7b5-c2bc-489a-9260-52334ce7f974", "provider": "bird", "timeStamp": "01/29/2020, 20:38:48"}, "type": "Feature"}, {"geometry": {"coordinates": [8.51399666666667, 47.3874283333333], "type": "Point"}, "properties": {"charge": 76, "id": "bird_23d4de70-810a-44f7-9b34-f7ed00283825", "provider": "bird", "timeStamp": "01/29/2020, 20:38:48"}, "type": "Feature"}, {"geometry": {"coordinates": [8.546005, 47.3727916666667], "type": "Point"}, "properties": {"charge": 36, "id": "bird_2ca096f2-d941-4152-95ce-8b771a995515", "provider": "bird", "timeStamp": "01/29/2020, 20:38:48"}, "type": "Feature"}, {"geometry": {"coordinates": [8.54334, 47.370685], "type": "Point"},