{"features": [{"geometry": {"coordinates": [8.540062, 47.374392], "type": "Point"}, "properties": {"address": "Uraniastrasse 7", "electric": 0, "id": "pb_60", "manual": 4, "name": "Demo Station Werdm\u00fchleplatz", "provider": "publibike", "timeStamp": "03/14/2020, 01:05:15", "zip": 8001}, "type": "Feature"}, {"geometry": {"coordinates": [8.5452956, 47.4099615], "type": "Point"}, "properties": {"address": "Querstrasse 8", "electric": 5, "id": "pb_61", "manual": 4, "name": "Marktplatz", "provider": "publibike", "timeStamp": "03/14/2020, 01:05:15", "zip": 8050}, "type": "Feature"}, {"geometry": {"coordinates": [8.5156327, 47.3795837], "type": "Point"}, "properties": {"address": "Bullingerstrasse 5", "electric": 9, "id": "pb_80", "manual": 14, "name": "Bullingerplatz", "provider": "publibike", "timeStamp": "03/14/2020, 01:05:15", "zip": 8004}, "type": "Feature"}, {"geometry": {"coordinates": [8.5104051, 47.3899342], "type": "Point"}, "properties": {"address": "Pfingstweidstrasse 96e", "electric": 0, "id": "pb_81", "manual": 2, "name": "Herdern", "provider": "publibike", "timeStamp": "03/14/2020, 01:05:15", "zip": 8001}, "type": "Feature"}, {"geometry": {"coordinates": [8.535718, 47.359675], "type": "Point"}, "properties": {"address": "Mythenquai 50", "electric": 1, "id": "pb_82", "manual": 1, "name": "Hafen Enge", "provider": "publibike", "timeStamp": "03/14/2020, 01:05:15", "zip": 8002}, "type": "Feature"}, {"geometry": {"coordinates": [8.520370505, 47.358663827], "type": "Point"}, "properties": {"address": "Bubenbergstrasse 1", "electric": 5, "id": "pb_83", "manual": 6, "name": "Comerge", "provider": "publibike", "timeStamp": "03/14/2020, 01:05:15", "zip": 8045}, "type": "Feature"}, {"geometry": {"coordinates": [8.5412505, 47.3789825], "type": "Point"}, "properties": {"address": "Museumstrasse 2", "electric": 15, "id": "pb_84", "manual": 20, "name": "Landesmuseum", "provider": "publibike", "timeStamp": "03/14/2020, 01:05:15", "zip": 8001}, "type": "Feature"}, {"geometry": {"coordinates": [8.5235479, 47.3716661], "type": "Point"}, "properties": {"address": "Birmensdorferstrasse 80", "electric": 5, "id": "pb_85", "manual": 6, "name": "Bahnhof Wiedikon", "provider": "publibike", "timeStamp": "03/14/2020, 01:05:15", "zip": 8003}, "type": "Feature"}, {"geometry": {"coordinates": [8.506822854, 47.40781197], "type": "Point"}, "properties": {"address": "Stefano-Franscini-Platz 5", "electric": 1, "id": "pb_86", "manual": 0, "name": "ETH H\u00f6nggerberg", "provider": "publibike", "timeStamp": "03/14/2020, 01:05:15", "zip": 8093}, "type": "Feature"}, {"geometry": {"coordinates": [8.536101, 47.371083], "type": "Point"}, "properties": {"address": "Pelikanplatz 5", "electric": 1, "id": "pb_87", "manual": 7, "name": "Pelikanplatz", "provider": "publibike", "timeStamp": "03/14/2020, 01:05:15", "zip": 8001}, "type": "Feature"}, {"geometry": {"coordinates": [8.5257822, 47.3651936], "type": "Point"}, "properties": {"address": "H\u00fcrlimannplatz 90", "electric": 3, "id": "pb_88", "manual": 7, "name": "H\u00fcrlimannplatz", "provider": "publibike", "timeStamp": "03/14/2020, 01:05:15", "zip": 8002}, "type": "Feature"}, {"geometry": {"coordinates": [8.5313344, 47.3713591], "type": "Point"}, "properties": {"address": "Selnaustrasse 32", "electric": 3, "id": "pb_89", "manual": 5, "name": "Stauffacherbr\u00fccke", "provider": "publibike", "timeStamp": "03/14/2020, 01:05:15", "zip": 8001}, "type": "Feature"}, {"geometry": {"coordinates": [8.5056978, 47.3917964], "type": "Point"}, "properties": {"address": "Sportweg 25", "electric": 0, "id": "pb_90", "manual": 1, "name": "Sportweg", "provider": "publibike", "timeStamp": "03/14/2020, 01:05:15", "zip": 8005}, "type": "Feature"}, {"geometry": {"coordinates": [8.5181701, 47.3917837], "type": "Point"}, "properties": {"address": "Hardturmstrasse 11", "electric": 1, "id": "pb_91", "manual": 1, "name": "Puls 5", "provider": "publibike", "timeStamp": "03/14/2020, 01:05:15", "zip": 8005}, "type": "Feature"}, {"geometry": {"coordinates": [8.5286468, 47.3820827], "type": "Point"}, "properties": {"address": "R\u00f6ntgenstrasse 6", "electric": 1, "id": "pb_92", "manual": 5, "name": "R\u00f6ntgenstrasse", "provider": "publibike", "timeStamp": "03/14/2020, 01:05:15", "zip": 8005}, "type": "Feature"}, {"geometry": {"coordinates": [8.531935, 47.384918], "type": "Point"}, "properties": {"address": "Kornhausbr\u00fccke 1", "electric": 2, "id": "pb_93", "manual": 13, "name": "Limmatplatz", "provider": "publibike", "timeStamp": "03/14/2020, 01:05:15", "zip": 8005}, "type": "Feature"}, {"geometry": {"coordinates": [8.5354006, 47.3758639], "type": "Point"}, "properties": {"address": "Gessnerallee 15", "electric": 1, "id": "pb_94", "manual": 4, "name": "Gessnerallee", "provider": "publibike", "timeStamp": "03/14/2020, 01:05:15", "zip": 8001}, "type": "Feature"}, {"geometry": {"coordinates": [8.523818, 47.377148], "type": "Point"}, "properties": {"address": "Stauffacherstrasse 127", "electric": 1, "id": "pb_95", "manual": 3, "name": "B\u00e4ckeranlage", "provider": "publibike", "timeStamp": "03/14/2020, 01:05:15", "zip": 8004}, "type": "Feature"}, {"geometry": {"coordinates": [8.531836, 47.378548], "type": "Point"}, "properties": {"address": "Lagerstrasse 44", "electric": 0, "id": "pb_96", "manual": 12, "name": "Gustav-Gull-Platz", "provider": "publibike", "timeStamp": "03/14/2020, 01:05:15", "zip": 8004}, "type": "Feature"}, {"geometry": {"coordinates": [8.5104883, 47.3771535], "type": "Point"}, "properties": {"address": "Zurlindenstrasse 291", "electric": 0, "id": "pb_97", "manual": 8, "name": "Zurlindenstrasse", "provider": "publibike", "timeStamp": "03/14/2020, 01:05:15", "zip": 8003}, "type": "Feature"}, {"geometry": {"coordinates": [8.5333139, 47.3731102], "type": "Point"}, "properties": {"address": "Sihlstrasse 81", "electric": 1, "id": "pb_98", "manual": 2, "name": "Sihlstrasse", "provider": "publibike", "timeStamp": "03/14/2020, 01:05:15", "zip": 8001}, "type": "Feature"}, {"geometry": {"coordinates": [8.520532, 47.374951], "type": "Point"}, "properties": {"address": "Feldstrasse 24", "electric": 3, "id": "pb_99", "manual": 4, "name": "Kalkbreite", "provider": "publibike", "timeStamp": "03/14/2020, 01:05:15", "zip": 8004}, "type": "Feature"}, {"geometry": {"coordinates": [8.539046, 47.368064], "type": "Point"}, "properties": {"address": "Talstrasse 12", "electric": 0, "id": "pb_100", "manual": 3, "name": "Z\u00fcrcher Kantonalbank", "provider": "publibike", "timeStamp": "03/14/2020, 01:05:15", "zip": 8001}, "type": "Feature"}, {"geometry": {"coordinates": [8.5348427, 47.3625938], "type": "Point"}, "properties": {"address": "Breitingerstrasse 5", "electric": 0, "id": "pb_101", "manual": 1, "name": "Rentenanstalt", "provider": "publibike", "timeStamp": "03/14/2020, 01:05:15", "zip": 8002}, "type": "Feature"}, {"geometry": {"coordinates": [8.5166922, 47.3897772], "type": "Point"}, "properties": {"address": "Technoparkstrasse 4", "electric": 0, "id": "pb_102", "manual": 0, "name": "Turbinenplatz", "provider": "publibike", "timeStamp": "03/14/2020, 01:05:15", "zip": 8005}, "type": "Feature"}, {"geometry": {"coordinates": [8.539312, 47.3739964], "type": "Point"}, "properties": {"address": "Oetenbachgasse 14", "electric": 2, "id": "pb_104", "manual": 5, "name": "Rennweg", "provider": "publibike", "timeStamp": "03/14/2020, 01:05:15", "zip": 8001}, "type": "Feature"}, {"geometry": {"coordinates": [8.5360685, 47.3775022], "type": "Point"}, "properties": {"address": "Kasernenstrasse 101", "electric": 17, "id": "pb_105", "manual": 32, "name": "Sihlpost", "provider": "publibike", "timeStamp": "03/14/2020, 01:05:15", "zip": 8004}, "type": "Feature"}, {"geometry": {"coordinates": [8.53545, 47.382798], "type": "Point"}, "properties": {"address": "Ausstellungsstrasse 44", "electric": 0, "id": "pb_106", "manual": 6, "name": "Museum f\u00fcr Gestaltung", "provider": "publibike", "timeStamp": "03/14/2020, 01:05:15", "zip": 8005}, "type": "Feature"}, {"geometry": {"coordinates": [8.5306155, 47.3647902], "type": "Point"}, "properties": {"address": "Gutenbergstrasse 1", "electric": 8, "id": "pb_107", "manual": 4, "name": "Bederbr\u00fccke", "provider": "publibike", "timeStamp": "03/14/2020, 01:05:15", "zip": 8002}, "type": "Feature"}, {"geometry": {"coordinates": [8.518982, 47.386741], "type": "Point"}, "properties": {"address": "Geroldstrasse 4", "electric": 2, "id": "pb_108", "manual": 16, "name": "Bahnhof Hardbr\u00fccke", "provider": "publibike", "timeStamp": "03/14/2020, 01:05:15", "zip": 8005}, "type": "Feature"}, {"geometry": {"coordinates": [8.53001018, 47.37247535], "type": "Point"}, "properties": {"address": "Werdstrasse 21", "electric": 0, "id": "pb_109", "manual": 5, "name": "Tamedia", "provider": "publibike", "timeStamp": "03/14/2020, 01:05:15", "zip": 8004}, "type": "Feature"}, {"geometry": {"coordinates": [8.4860017, 47.396401], "type": "Point"}, "properties": {"address": "Gr\u00fcnauring 37", "electric": 11, "id": "pb_110", "manual": 1, "name": "Gr\u00fcnau", "provider": "publibike", "timeStamp": "03/14/2020, 01:05:15", "zip": 8064}, "type": "Feature"}, {"geometry": {"coordinates": [8.548519, 47.376756], "type": "Point"}, "properties": {"address": "R\u00e4mistrasse 101", "electric": 3, "id": "pb_111", "manual": 0, "name": "ETH Zentrum", "provider": "publibike", "timeStamp": "03/14/2020, 01:05:15", "zip": 8006}, "type": "Feature"}, {"geometry": {"coordinates": [8.520449, 47.388151], "type": "Point"}, "properties": {"address": "Josefstrasse 224", "electric": 0, "id": "pb_112", "manual": 2, "name": "Steinfelsareal", "provider": "publibike", "timeStamp": "03/14/2020, 01:05:15", "zip": 8005}, "type": "Feature"}, {"geometry": {"coordinates": [8.520482, 47.37209], "type": "Point"}, "properties": {"address": "Weststrasse 115", "electric": 2, "id": "pb_124", "manual": 4, "name": "Weststrasse", "provider": "publibike", "timeStamp": "03/14/2020, 01:05:15", "zip": 8003}, "type": "Feature"}, {"geometry": {"coordinates": [8.496727, 47.378521], "type": "Point"}, "properties": {"address": "Albisriederstrasse 200", "electric": 2, "id": "pb_125", "manual": 15, "name": "Utogrund", "provider": "publibike", "timeStamp": "03/14/2020, 01:05:15", "zip": 8047}, "type": "Feature"}, {"geometry": {"coordinates": [8.510418, 47.381356], "type": "Point"}, "properties": {"address": "Bullingerstrasse 73", "electric": 5, "id": "pb_126", "manual": 4, "name": "Hardau", "provider": "publibike", "timeStamp": "03/14/2020, 01:05:15", "zip": 8004}, "type": "Feature"}, {"geometry": {"coordinates": [8.525525, 47.361567], "type": "Point"}, "properties": {"address": "Klopstockstrasse 23", "electric": 2, "id": "pb_127", "manual": 8, "name": "Klopstockwiese", "provider": "publibike", "timeStamp": "03/14/2020, 01:05:15", "zip": 8002}, "type": "Feature"}, {"geometry": {"coordinates": [8.518143, 47.363148], "type": "Point"}, "properties": {"address": "Haldenstrasse 8", "electric": 1, "id": "pb_128", "manual": 2, "name": "Binz", "provider": "publibike", "timeStamp": "03/14/2020, 01:05:15", "zip": 8045}, "type": "Feature"}, {"geometry": {"coordinates": [8.542726, 47.379952], "type": "Point"}, "properties": {"address": "Walchestrasse 11", "electric": 6, "id": "pb_129", "manual": 1, "name": "Stampfenbachplatz", "provider": "publibike", "timeStamp": "03/14/2020, 01:05:15", "zip": 8006}, "type": "Feature"}, {"geometry": {"coordinates": [8.488108, 47.391366], "type": "Point"}, "properties": {"address": "Altstetterplatz 1", "electric": 4, "id": "pb_130", "manual": 2, "name": "Bahnhof Altstetten", "provider": "publibike", "timeStamp": "03/14/2020, 01:05:15", "zip": 8048}, "type": "Feature"}, {"geometry": {"coordinates": [8.554114, 47.365119], "type": "Point"}, "properties": {"address": "Kreuzplatz 2", "electric": 16, "id": "pb_131", "manual": 7, "name": "Kreuzplatz", "provider": "publibike", "timeStamp": "03/14/2020, 01:05:15", "zip": 8032}, "type": "Feature"}, {"geometry": {"coordinates": [8.549852, 47.35594], "type": "Point"}, "properties": {"address": "H\u00f6schgasse 3", "electric": 0, "id": "pb_132", "manual": 7, "name": "Blatterwiese", "provider": "publibike", "timeStamp": "03/14/2020, 01:05:15", "zip": 8008}, "type": "Feature"}, {"geometry": {"coordinates": [8.554501, 47.36162], "type": "Point"}, "properties": {"address": "Feldeggstrasse 80", "electric": 7, "id": "pb_133", "manual": 0, "name": "Villa Bleuler", "provider": "publibike", "timeStamp": "03/14/2020, 01:05:15", "zip": 8008}, "type": "Feature"}, {"geometry": {"coordinates": [8.557088, 47.358557], "type": "Point"}, "properties": {"address": "M\u00fchlebachstrasse 131", "electric": 2, "id": "pb_134", "manual": 4, "name": "M\u00fchlebachstrasse", "provider": "publibike", "timeStamp": "03/14/2020, 01:05:15", "zip": 8008}, "type": "Feature"}, {"geometry": {"coordinates": [8.547639, 47.361266], "type": "Point"}, "properties": {"address": "Utoquai 50", "electric": 5, "id": "pb_135", "manual": 2, "name": "Seebad Utoquai", "provider": "publibike", "timeStamp": "03/14/2020, 01:05:15", "zip": 8008}, "type": "Feature"}, {"geometry": {"coordinates": [8.548045, 47.370869], "type": "Point"}, "properties": {"address": "Heimplatz 1", "electric": 6, "id": "pb_137", "manual": 7, "name": "Kunsthaus", "provider": "publibike", "timeStamp": "03/14/2020, 01:05:15", "zip": 8001}, "type": "Feature"}, {"geometry": {"coordinates": [8.543447, 47.375933], "type": "Point"}, "properties": {"address": "Limmatquai 138", "electric": 0, "id": "pb_138", "manual": 0, "name": "Central", "provider": "publibike", "timeStamp": "03/14/2020, 01:05:15", "zip": 8001}, "type": "Feature"}, {"geometry": {"coordinates": [8.549356, 47.408827], "type": "Point"}, "properties": {"address": "Tramstrasse 35", "electric": 4, "id": "pb_139", "manual": 2, "name": "ewz Tramstrasse", "provider": "publibike", "timeStamp": "03/14/2020, 01:05:15", "zip": 8050}, "type": "Feature"}, {"geometry": {"coordinates": [8.533736, 47.366904], "type": "Point"}, "properties": {"address": "Bleicherweg 33", "electric": 2, "id": "pb_140", "manual": 2, "name": "Bleicherweg", "provider": "publibike", "timeStamp": "03/14/2020, 01:05:15", "zip": 8002}, "type": "Feature"}, {"geometry": {"coordinates": [8.544935, 47.366752], "type": "Point"}, "properties": {"address": "Bellevueplatz 2", "electric": 14, "id": "pb_141", "manual": 27, "name": "Bellevue", "provider": "publibike", "timeStamp": "03/14/2020, 01:05:15", "zip": 8001}, "type": "Feature"}, {"geometry": {"coordinates": [8.5285533, 47.3742296], "type": "Point"}, "properties": {"address": "Stauffacherstrasse 41", "electric": 0, "id": "pb_142", "manual": 2, "name": "Stauffacher", "provider": "publibike", "timeStamp": "03/14/2020, 01:05:15", "zip": 8004}, "type": "Feature"}, {"geometry": {"coordinates": [8.523722, 47.3899], "type": "Point"}, "properties": {"address": "Limmatstrasse 310", "electric": 2, "id": "pb_143", "manual": 11, "name": "Escher-Wyss-Platz", "provider": "publibike", "timeStamp": "03/14/2020, 01:05:15", "zip": 8005}, "type": "Feature"}, {"geometry": {"coordinates": [8.491061, 47.392336], "type": "Point"}, "properties": {"address": "Vulkanplatz 1", "electric": 2, "id": "pb_149", "manual": 11, "name": "Vulkanplatz", "provider": "publibike", "timeStamp": "03/14/2020, 01:05:15", "zip": 8048}, "type": "Feature"}, {"geometry": {"coordinates": [8.52306, 47.359872], "type": "Point"}, "properties": {"address": "Giessh\u00fcbelstrasse 15", "electric": 11, "id": "pb_150", "manual": 12, "name": "Utoplatz", "provider": "publibike", "timeStamp": "03/14/2020, 01:05:15", "zip": 8045}, "type": "Feature"}, {"geometry": {"coordinates": [8.486284, 47.387685], "type": "Point"}, "properties": {"address": "Lindenplatz 1", "electric": 11, "id": "pb_151", "manual": 5, "name": "Lindenplatz", "provider": "publibike", "timeStamp": "03/14/2020, 01:05:15", "zip": 8048}, "type": "Feature"}, {"geometry": {"coordinates": [8.49163, 47.389823], "type": "Point"}, "properties": {"address": "Hohlstrasse 563", "electric": 1, "id": "pb_152", "manual": 3, "name": "Luggweg", "provider": "publibike", "timeStamp": "03/14/2020, 01:05:15", "zip": 8048}, "type": "Feature"}, {"geometry": {"coordinates": [8.52174, 47.365272], "type": "Point"}, "properties": {"address": "Manessestrasse 87", "electric": 3, "id": "pb_153", "manual": 1, "name": "Manesseplatz", "provider": "publibike", "timeStamp": "03/14/2020, 01:05:15", "zip": 8045}, "type": "Feature"}, {"geometry": {"coordinates": [8.52714, 47.372329], "type": "Point"}, "properties": {"address": "Werdstrasse 75", "electric": 0, "id": "pb_154", "manual": 0, "name": "Werd", "provider": "publibike", "timeStamp": "03/14/2020, 01:05:15", "zip": 8004}, "type": "Feature"}, {"geometry": {"coordinates": [8.543042, 47.374711], "type": "Point"}, "properties": {"address": "Limmatquai 100", "electric": 0, "id": "pb_155", "manual": 0, "name": "Rudolf-Brun-Br\u00fccke", "provider": "publibike", "timeStamp": "03/14/2020, 01:05:15", "zip": 8001}, "type": "Feature"}, {"geometry": {"coordinates": [8.490837, 47.386596], "type": "Point"}, "properties": {"address": "Badenerstrasse 627", "electric": 4, "id": "pb_156", "manual": 14, "name": "Luggwegstrasse VBZ", "provider": "publibike", "timeStamp": "03/14/2020, 01:05:15", "zip": 8048}, "type": "Feature"}, {"geometry": {"coordinates": [8.535119, 47.355189], "type": "Point"}, "properties": {"address": "Mythenquai 95", "electric": 6, "id": "pb_157", "manual": 7, "name": "Strandbad Mythenquai", "provider": "publibike", "timeStamp": "03/14/2020, 01:05:15", "zip": 8002}, "type": "Feature"}, {"geometry": {"coordinates": [8.545505, 47.373675], "type": "Point"}, "properties": {"address": "Predigerpatz 21", "electric": 0, "id": "pb_158", "manual": 5, "name": "Predigerplatz", "provider": "publibike", "timeStamp": "03/14/2020, 01:05:15", "zip": 8001}, "type": "Feature"}, {"geometry": {"coordinates": [8.515558, 47.371868], "type": "Point"}, "properties": {"address": "Aemtlerstrasse 23", "electric": 5, "id": "pb_159", "manual": 7, "name": "Zwinglihaus", "provider": "publibike", "timeStamp": "03/14/2020, 01:05:15", "zip": 8003}, "type": "Feature"}, {"geometry": {"coordinates": [8.524629, 47.386072], "type": "Point"}, "properties": {"address": "Josefstrasse 188", "electric": 10, "id": "pb_160", "manual": 6, "name": "Josefwiese", "provider": "publibike", "timeStamp": "03/14/2020, 01:05:15", "zip": 8005}, "type": "Feature"}, {"geometry": {"coordinates": [8.527138, 47.387531], "type": "Point"}, "properties": {"address": "R\u00f6ntgenstrasse 87", "electric": 3, "id": "pb_164", "manual": 7, "name": "Markthalle", "provider": "publibike", "timeStamp": "03/14/2020, 01:05:15", "zip": 8005}, "type": "Feature"}, {"geometry": {"coordinates": [8.552717, 47.359978], "type": "Point"}, "properties": {"address": "Seefeldstrasse 96", "electric": 6, "id": "pb_263", "manual": 6, "name": "Feldeggstrasse", "provider": "publibike", "timeStamp": "03/14/2020, 01:05:15", "zip": 8008}, "type": "Feature"}, {"geometry": {"coordinates": [8.553189, 47.353198], "type": "Point"}, "properties": {"address": "Bellerivestrasse 170", "electric": 5, "id": "pb_264", "manual": 3, "name": "Lake Side", "provider": "publibike", "timeStamp": "03/14/2020, 01:05:15", "zip": 8008}, "type": "Feature"}, {"geometry": {"coordinates": [8.543437, 47.369256], "type": "Point"}, "properties": {"address": "Limmatquai 18", "electric": 0, "id": "pb_265", "manual": 0, "name": "Helmhaus", "provider": "publibike", "timeStamp": "03/14/2020, 01:05:15", "zip": 8032}, "type": "Feature"}, {"geometry": {"coordinates": [8.516676, 47.375819], "type": "Point"}, "properties": {"address": "Badenerstrasse 246", "electric": 12, "id": "pb_266", "manual": 7, "name": "Lochergut", "provider": "publibike", "timeStamp": "03/14/2020, 01:05:15", "zip": 8004}, "type": "Feature"}, {"geometry": {"coordinates": [8.514605, 47.389862], "type": "Point"}, "properties": {"address": "Pfingstweidstrasse 60", "electric": 0, "id": "pb_273", "manual": 0, "name": "Westpark", "provider": "publibike", "timeStamp": "03/14/2020, 01:05:15", "zip": 8005}, "type": "Feature"}, {"geometry": {"coordinates": [8.541239126, 47.375991201], "type": "Point"}, "properties": {"address": "Beatenplatz 1", "electric": 0, "id": "pb_274", "manual": 4, "name": "Beatenplatz", "provider": "publibike", "timeStamp": "03/14/2020, 01:05:15", "zip": 8001}, "type": "Feature"}, {"geometry": {"coordinates": [8.5417135, 47.3942197], "type": "Point"}, "properties": {"address": "Scheuchzerstrasse 181", "electric": 7, "id": "pb_275", "manual": 1, "name": "Pauluskirche", "provider": "publibike", "timeStamp": "03/14/2020, 01:05:15", "zip": 8057}, "type": "Feature"}, {"geometry": {"coordinates": [8.5528182, 47.414558], "type": "Point"}, "properties": {"address": "Hagenholzstrasse 51", "electric": 2, "id": "pb_276", "manual": 10, "name": "Airgate", "provider": "publibike", "timeStamp": "03/14/2020, 01:05:15", "zip": 8050}, "type": "Feature"}, {"geometry": {"coordinates": [8.537816, 47.413514], "type": "Point"}, "properties": {"address": "Birchstrasse 183", "electric": 2, "id": "pb_277", "manual": 1, "name": "Lamprechtweg", "provider": "publibike", "timeStamp": "03/14/2020, 01:05:15", "zip": 8050}, "type": "Feature"}, {"geometry": {"coordinates": [8.545602, 47.417701], "type": "Point"}, "properties": {"address": "Felsenrainstrasse 2", "electric": 3, "id": "pb_278", "manual": 5, "name": "Emil-Oberh\u00e4nsli", "provider": "publibike", "timeStamp": "03/14/2020, 01:05:15", "zip": 8050}, "type": "Feature"}, {"geometry": {"coordinates": [8.533647, 47.39808], "type": "Point"}, "properties": {"address": "Bucheggplatz 2", "electric": 5, "id": "pb_279", "manual": 2, "name": "Bucheggplatz", "provider": "publibike", "timeStamp": "03/14/2020, 01:05:15", "zip": 8057}, "type": "Feature"}, {"geometry": {"coordinates": [8.523549, 47.392347], "type": "Point"}, "properties": {"address": "Wipkingerplatz 4", "electric": 1, "id": "pb_280", "manual": 1, "name": "Wipkingerplatz", "provider": "publibike", "timeStamp": "03/14/2020, 01:05:15", "zip": 8037}, "type": "Feature"}, {"geometry": {"coordinates": [8.548562, 47.36691], "type": "Point"}, "properties": {"address": "Galerie \u00fcber Gleis 2/3", "electric": 28, "id": "pb_285", "manual": 7, "name": "Bahnhof Stadelhofen", "provider": "publibike", "timeStamp": "03/14/2020, 01:05:15", "zip": 8001}, "type": "Feature"}, {"geometry": {"coordinates": [8.493822, 47.3985553], "type": "Point"}, "properties": {"address": "Meierwiesenstrasse 12-4", "electric": 3, "id": "pb_286", "manual": 5, "name": "T\u00fcffenwies", "provider": "publibike", "timeStamp": "03/14/2020, 01:05:15", "zip": 8064}, "type": "Feature"}, {"geometry": {"coordinates": [8.552432, 47.3801757], "type": "Point"}, "properties": {"address": "Hochstrasse 34", "electric": 0, "id": "pb_356", "manual": 1, "name": "Siriuswiese", "provider": "publibike", "timeStamp": "03/14/2020, 01:05:15", "zip": 8044}, "type": "Feature"}, {"geometry": {"coordinates": [8.527298, 47.370141], "type": "Point"}, "properties": {"address": "Hallwylstrasse 71", "electric": 0, "id": "pb_357", "manual": 0, "name": "Hallwylstrasse", "provider": "publibike", "timeStamp": "03/14/2020, 01:05:15", "zip": 8004}, "type": "Feature"}, {"geometry": {"coordinates": [8.5414185, 47.3972455], "type": "Point"}, "properties": {"address": "Schaffhauserstrasse 137", "electric": 5, "id": "pb_358", "manual": 1, "name": "Milchbuck", "provider": "publibike", "timeStamp": "03/14/2020, 01:05:15", "zip": 8057}, "type": "Feature"}, {"geometry": {"coordinates": [8.512381, 47.393409], "type": "Point"}, "properties": {"address": "Hardturmstrasse 161", "electric": 4, "id": "pb_359", "manual": 7, "name": "Fischerweg", "provider": "publibike", "timeStamp": "03/14/2020, 01:05:15", "zip": 8005}, "type": "Feature"}, {"geometry": {"coordinates": [8.5421457, 47.3876979], "type": "Point"}, "properties": {"address": "Turnerstrasse 47", "electric": 4, "id": "pb_360", "manual": 1, "name": "Kirche Unterstrass", "provider": "publibike", "timeStamp": "03/14/2020, 01:05:15", "zip": 8006}, "type": "Feature"}, {"geometry": {"coordinates": [8.522117, 47.394554], "type": "Point"}, "properties": {"address": "Dorfstrasse 40", "electric": 8, "id": "pb_361", "manual": 3, "name": "Dorfstrasse", "provider": "publibike", "timeStamp": "03/14/2020, 01:05:15", "zip": 8037}, "type": "Feature"}, {"geometry": {"coordinates": [8.530437, 47.37271], "type": "Point"}, "properties": {"address": "Werdstrasse 25", "electric": 2, "id": "pb_362", "manual": 4, "name": "Stauffachertor", "provider": "publibike", "timeStamp": "03/14/2020, 01:05:15", "zip": 8004}, "type": "Feature"}, {"geometry": {"coordinates": [8.541712, 47.416155], "type": "Point"}, "properties": {"address": "Eggb\u00fchlstrasse 21", "electric": 1, "id": "pb_363", "manual": 5, "name": "Wahlenpark", "provider": "publibike", "timeStamp": "03/14/2020, 01:05:15", "zip": 8050}, "type": "Feature"}, {"geometry": {"coordinates": [8.5595335, 47.3708387], "type": "Point"}, "properties": {"address": "Dolderstrasse 32", "electric": 4, "id": "pb_364", "manual": 3, "name": "Kinderspital", "provider": "publibike", "timeStamp": "03/14/2020, 01:05:15", "zip": 8032}, "type": "Feature"}, {"geometry": {"coordinates": [8.536433, 47.388689], "type": "Point"}, "properties": {"address": "Kornhausstrasse 30", "electric": 0, "id": "pb_365", "manual": 1, "name": "Kornhausstrasse", "provider": "publibike", "timeStamp": "03/14/2020, 01:05:15", "zip": 8006}, "type": "Feature"}, {"geometry": {"coordinates": [8.55033, 47.407098], "type": "Point"}, "properties": {"address": "Schwamendingenstrasse 41", "electric": 5, "id": "pb_366", "manual": 2, "name": "Dorflinde", "provider": "publibike", "timeStamp": "03/14/2020, 01:05:15", "zip": 8050}, "type": "Feature"}, {"geometry": {"coordinates": [8.560476, 47.368199], "type": "Point"}, "properties": {"address": "R\u00f6merhofplatz 5", "electric": 6, "id": "pb_367", "manual": 1, "name": "R\u00f6merhof", "provider": "publibike", "timeStamp": "03/14/2020, 01:05:15", "zip": 8032}, "type": "Feature"}, {"geometry": {"coordinates": [8.5609218, 47.3619068], "type": "Point"}, "properties": {"address": "Forchstrasse 99", "electric": 4, "id": "pb_368", "manual": 5, "name": "Hegibachplatz", "provider": "publibike", "timeStamp": "03/14/2020, 01:05:15", "zip": 8032}, "type": "Feature"}, {"geometry": {"coordinates": [8.5721264, 47.4039985], "type": "Point"}, "properties": {"address": "Winterthurerstrasse 519", "electric": 11, "id": "pb_370", "manual": 0, "name": "Schwamendingerplatz", "provider": "publibike", "timeStamp": "03/14/2020, 01:05:15", "zip": 8051}, "type": "Feature"}, {"geometry": {"coordinates": [8.520168, 47.378556], "type": "Point"}, "properties": {"address": "Herman-Greulich-Strasse 56", "electric": 0, "id": "pb_384", "manual": 0, "name": "Hermann-Greulich-Weg", "provider": "publibike", "timeStamp": "03/14/2020, 01:05:15", "zip": 8004}, "type": "Feature"}, {"geometry": {"coordinates": [8.547912, 47.384923], "type": "Point"}, "properties": {"address": "Culmannstrasse", "electric": 0, "id": "pb_386", "manual": 0, "name": "Rigiplatz", "provider": "publibike", "timeStamp": "03/14/2020, 01:05:15", "zip": 8006}, "type": "Feature"}, {"geometry": {"coordinates": [8.543768, 47.411057], "type": "Point"}, "properties": {"address": "Hofwiesenstrasse 369", "electric": 2, "id": "pb_387", "manual": 3, "name": "Bahnhof Oerlikon S\u00fcd", "provider": "publibike", "timeStamp": "03/14/2020, 01:05:15", "zip": 8050}, "type": "Feature"}, {"geometry": {"coordinates": [8.544185, 47.412732], "type": "Point"}, "properties": {"address": "Jungholzstrasse 6", "electric": 1, "id": "pb_388", "manual": 0, "name": "Max-Frisch-Platz", "provider": "publibike", "timeStamp": "03/14/2020, 01:05:15", "zip": 8050}, "type": "Feature"}, {"geometry": {"coordinates": [8.558096, 47.413032], "type": "Point"}, "properties": {"address": "Andreasstrasse", "electric": 7, "id": "pb_389", "manual": 6, "name": "Hunziker-Areal", "provider": "publibike", "timeStamp": "03/14/2020, 01:05:15", "zip": 8050}, "type": "Feature"}, {"geometry": {"coordinates": [8.533265, 47.412873], "type": "Point"}, "properties": {"address": "Regina-K\u00e4gi-Strasse 1", "electric": 1, "id": "pb_390", "manual": 3, "name": "Luis-H\u00e4fliger-Park", "provider": "publibike", "timeStamp": "03/14/2020, 01:05:15", "zip": 8050}, "type": "Feature"}, {"geometry": {"coordinates": [8.499265, 47.401852], "type": "Point"}, "properties": {"address": "Limmattalstrasse 177", "electric": 6, "id": "pb_391", "manual": 0, "name": "Meierhofplatz", "provider": "publibike", "timeStamp": "03/14/2020, 01:05:15", "zip": 8049}, "type": "Feature"}, {"geometry": {"coordinates": [8.528356, 47.393255], "type": "Point"}, "properties": {"address": "R\u00f6schibachstrasse 73", "electric": 4, "id": "pb_392", "manual": 5, "name": "R\u00f6schibachplatz", "provider": "publibike", "timeStamp": "03/14/2020, 01:05:15", "zip": 8037}, "type": "Feature"}, {"geometry": {"coordinates": [8.538067, 47.415721], "type": "Point"}, "properties": {"address": "Birchstrasse 191", "electric": 7, "id": "pb_393", "manual": 0, "name": "Oerliker Park", "provider": "publibike", "timeStamp": "03/14/2020, 01:05:15", "zip": 8050}, "type": "Feature"}, {"geometry": {"coordinates": [8.5420304, 47.3669233], "type": "Point"}, "properties": {"address": "Stadthausquai 1", "electric": 1, "id": "pb_395", "manual": 11, "name": "B\u00fcrkliplatz", "provider": "publibike", "timeStamp": "03/14/2020, 01:05:15", "zip": 8001}, "type": "Feature"}, {"geometry": {"coordinates": [8.535767, 47.409881], "type": "Point"}, "properties": {"address": "Regensbergstrasse 195", "electric": 1, "id": "pb_396", "manual": 3, "name": "Holunderhof", "provider": "publibike", "timeStamp": "03/14/2020, 01:05:15", "zip": 8050}, "type": "Feature"}, {"geometry": {"coordinates": [8.5116245, 47.3616199], "type": "Point"}, "properties": {"address": "Grubenstrasse 42", "electric": 1, "id": "pb_431", "manual": 0, "name": "Binz Center", "provider": "publibike", "timeStamp": "03/14/2020, 01:05:15", "zip": 8045}, "type": "Feature"}, {"geometry": {"coordinates": [8.547195, 47.382089], "type": "Point"}, "properties": {"address": "Nelkenstrasse 24", "electric": 5, "id": "pb_430", "manual": 1, "name": "Stapferstube", "provider": "publibike", "timeStamp": "03/14/2020, 01:05:15", "zip": 8006}, "type": "Feature"}, {"geometry": {"coordinates": [8.5787183, 47.4039845], "type": "Point"}, "properties": {"address": "Kronwiesenstrasse 35", "electric": 5, "id": "pb_426", "manual": 4, "name": "Kronwiesen", "provider": "publibike", "timeStamp": "03/14/2020, 01:05:15", "zip": 8051}, "type": "Feature"}, {"geometry": {"coordinates": [8.508131, 47.420757], "type": "Point"}, "properties": {"address": "Riedenhaldenstrasse 20-18", "electric": 5, "id": "pb_425", "manual": 4, "name": "Bahnhof Affoltern", "provider": "publibike", "timeStamp": "03/14/2020, 01:05:15", "zip": 8046}, "type": "Feature"}, {"geometry": {"coordinates": [8.532464, 47.406988], "type": "Point"}, "properties": {"address": "K\u00fcnzlistrasse 41", "electric": 7, "id": "pb_424", "manual": 1, "name": "Birchd\u00f6rfli", "provider": "publibike", "timeStamp": "03/14/2020, 01:05:15", "zip": 8057}, "type": "Feature"}, {"geometry": {"coordinates": [8.5777038, 47.4080095], "type": "Point"}, "properties": {"address": "Luegislandstrasse 412", "electric": 5, "id": "pb_429", "manual": 3, "name": "Luegisland", "provider": "publibike", "timeStamp": "03/14/2020, 01:05:15", "zip": 8051}, "type": "Feature"}, {"geometry": {"coordinates": [8.58841, 47.40158], "type": "Point"}, "properties": {"address": "Hirzenbachstrasse 2-4", "electric": 12, "id": "pb_428", "manual": 7, "name": "Hirzenbachstrasse", "provider": "publibike", "timeStamp": "03/14/2020, 01:05:15", "zip": 8051}, "type": "Feature"}, {"geometry": {"coordinates": [8.5563463, 47.4095467], "type": "Point"}, "properties": {"address": "K\u00fchriedweg", "electric": 4, "id": "pb_445", "manual": 4, "name": "Hallenbad Oerlikon", "provider": "publibike", "timeStamp": "03/14/2020, 01:05:15", "zip": 8050}, "type": "Feature"}, {"geometry": {"coordinates": [8.537971, 47.364871], "type": "Point"}, "properties": {"address": "General-Guisan-Quai 17", "electric": 6, "id": "pb_454", "manual": 1, "name": "General-Guisan-Quai", "provider": "publibike", "timeStamp": "03/14/2020, 01:05:15", "zip": 8002}, "type": "Feature"}, {"geometry": {"coordinates": [8.560587, 47.350578], "type": "Point"}, "properties": {"address": "Bellerivestrasse 245", "electric": 7, "id": "pb_450", "manual": 7, "name": "Bahnhof Tiefenbrunnen", "provider": "publibike", "timeStamp": "03/14/2020, 01:05:15", "zip": 8008}, "type": "Feature"}, {"geometry": {"coordinates": [8.5269416, 47.3563719], "type": "Point"}, "properties": {"address": "Waffenplatzstrasse 89", "electric": 2, "id": "pb_452", "manual": 4, "name": "Rieterplatz", "provider": "publibike", "timeStamp": "03/14/2020, 01:05:15", "zip": 8002}, "type": "Feature"}, {"geometry": {"coordinates": [8.514176, 47.3663708], "type": "Point"}, "properties": {"address": "Talwiesenstrasse 92", "electric": 8, "id": "pb_446", "manual": 1, "name": "Binzallee", "provider": "publibike", "timeStamp": "03/14/2020, 01:05:15", "zip": 8055}, "type": "Feature"}, {"geometry": {"coordinates": [8.5070564, 47.371455], "type": "Point"}, "properties": {"address": "Gutstrasse 87", "electric": 9, "id": "pb_447", "manual": 4, "name": "Gutstrasse", "provider": "publibike", "timeStamp": "03/14/2020, 01:05:15", "zip": 8055}, "type": "Feature"}, {"geometry": {"coordinates": [8.4941268, 47.3836391], "type": "Point"}, "properties": {"address": "Flurstrasse 62", "electric": 8, "id": "pb_453", "manual": 2, "name": "Flurpark", "provider": "publibike", "timeStamp": "03/14/2020, 01:05:15", "zip": 8048}, "type": "Feature"}, {"geometry": {"coordinates": [8.500343, 47.380778], "type": "Point"}, "properties": {"address": "Edelweissstrasse 32", "electric": 1, "id": "pb_448", "manual": 5, "name": "Bl\u00fcemliquartier", "provider": "publibike", "timeStamp": "03/14/2020, 01:05:15", "zip": 8048}, "type": "Feature"}, {"geometry": {"coordinates": [8.528796, 47.383858], "type": "Point"}, "properties": {"address": "Gasometerstrasse 24", "electric": 10, "id": "pb_449", "manual": 8, "name": "Gasometerstrasse", "provider": "publibike", "timeStamp": "03/14/2020, 01:05:15", "zip": 8005}, "type": "Feature"}, {"geometry": {"coordinates": [8.4981964, 47.3859194], "type": "Point"}, "properties": {"address": "Baslerstrasse 57", "electric": 13, "id": "pb_455", "manual": 3, "name": "Letzipark", "provider": "publibike", "timeStamp": "03/14/2020, 01:05:15", "zip": 8048}, "type": "Feature"}, {"geometry": {"coordinates": [8.515252, 47.381915], "type": "Point"}, "properties": {"address": "Sihlfeldstrasse 175", "electric": 5, "id": "pb_451", "manual": 14, "name": "Hardplatz", "provider": "publibike", "timeStamp": "03/14/2020, 01:05:15", "zip": 8004}, "type": "Feature"}, {"geometry": {"coordinates": [8.5064743, 47.4188324], "type": "Point"}, "properties": {"address": "Wehntalerstrasse 541", "electric": 5, "id": "pb_427", "manual": 1, "name": "Zehntenhausplatz", "provider": "publibike", "timeStamp": "03/14/2020, 01:05:15", "zip": 8046}, "type": "Feature"}, {"geometry": {"coordinates": [8.537729, 47.379719], "type": "Point"}, "properties": {"address": "Sihlquai/HB", "electric": 0, "id": "pb_513", "manual": 24, "name": "Sihlquai", "provider": "publibike", "timeStamp": "03/14/2020, 01:05:15", "zip": 8005}, "type": "Feature"}, {"geometry": {"coordinates": [8.596202, 47.397885], "type": "Point"}, "properties": {"address": "Bahnhof Stettbach", "electric": 6, "id": "pb_514", "manual": 0, "name": "Bahnhof Stettbach", "provider": "publibike", "timeStamp": "03/14/2020, 01:05:15", "zip": 8051}, "type": "Feature"}, {"geometry": {"coordinates": [8.5543974, 47.3690153], "type": "Point"}, "properties": {"address": "Kasinostrasse 10", "electric": 7, "id": "pb_515", "manual": 1, "name": "Hottingerplatz", "provider": "publibike", "timeStamp": "03/14/2020, 01:05:15", "zip": 8032}, "type": "Feature"}, {"geometry": {"coordinates": [8.534444, 47.351525], "type": "Point"}, "properties": {"address": "Mobile Station Z\u00fcrich 1", "electric": 0, "id": "pb_282", "manual": 0, "name": "Theaterspektakel", "provider": "publibike", "timeStamp": "03/14/2020, 01:05:15", "zip": 8002}, "type": "Feature"}, {"geometry": {"coordinates": [8.516257, 47.367656], "type": "Point"}, "properties": {"address": "Goldbrunnenstrasse 54", "electric": 14, "id": "pb_538", "manual": 0, "name": "Kirche B\u00fchl", "provider": "publibike", "timeStamp": "03/14/2020, 01:05:15", "zip": 8055}, "type": "Feature"}, {"geometry": {"coordinates": [8.555639, 47.416873], "type": "Point"}, "properties": {"address": "Leutschenbachstrasse 50", "electric": 6, "id": "pb_537", "manual": 7, "name": "Leutschenpark", "provider": "publibike", "timeStamp": "03/14/2020, 01:05:15", "zip": 8050}, "type": "Feature"}, {"geometry": {"coordinates": [8.546464, 47.403822], "type": "Point"}, "properties": {"address": "Berninastrasse 45", "electric": 11, "id": "pb_540", "manual": 3, "name": "Berninaplatz", "provider": "publibike", "timeStamp": "03/14/2020, 01:05:15", "zip": 8057}, "type": "Feature"}, {"geometry": {"coordinates": [8.523134, 47.369004], "type": "Point"}, "properties": {"address": "Erlachstrasse 3", "electric": 4, "id": "pb_385", "manual": 5, "name": "Aegerten", "provider": "publibike", "timeStamp": "03/14/2020, 01:05:15", "zip": 8003}, "type": "Feature"}, {"geometry": {"coordinates": [8.49038, 47.381591], "type": "Point"}, "properties": {"address": "Rautistrasse 60", "electric": 15, "id": "pb_536", "manual": 2, "name": "Freilager", "provider": "publibike", "timeStamp": "03/14/2020, 01:05:15", "zip": 8048}, "type": "Feature"}, {"geometry": {"coordinates": [8.496511, 47.375247], "type": "Point"}, "properties": {"address": "Letzigraben 139", "electric": 7, "id": "pb_444", "manual": 6, "name": "Sackzelg", "provider": "publibike", "timeStamp": "03/14/2020, 01:05:15", "zip": 8047}, "type": "Feature"}, {"geometry": {"coordinates": [8.58131, 47.402801], "type": "Point"}, "properties": {"address": "Altwiesenstrasse 104", "electric": 3, "id": "pb_539", "manual": 3, "name": "Glattwiesen", "provider": "publibike", "timeStamp": "03/14/2020, 01:05:15", "zip": 8051}, "type": "Feature"}, {"geometry": {"coordinates": [8.52689, 47.3767], "type": "Point"}, "properties": {"address": "Molkenstrasse 5", "electric": 7, "id": "pb_560", "manual": 11, "name": "Helvetiaplatz", "provider": "publibike", "timeStamp": "03/14/2020, 01:05:15", "zip": 8004}, "type": "Feature"}, {"geometry": {"coordinates": [8.525602, 47.374241], "type": "Point"}, "properties": {"address": "Badenerstrasse 90", "electric": 4, "id": "pb_559", "manual": 3, "name": "Bezirksgeb\u00e4ude", "provider": "publibike", "timeStamp": "03/14/2020, 01:05:15", "zip": 8004}, "type": "Feature"}, {"geometry": {"coordinates": [8.535082, 47.345248], "type": "Point"}, "properties": {"address": "Bachstrasse 15", "electric": 6, "id": "pb_564", "manual": 6, "name": "GZ Wollishofen", "provider": "publibike", "timeStamp": "03/14/2020, 01:05:15", "zip": 8038}, "type": "Feature"}, {"geometry": {"coordinates": [8.514841, 47.370238], "type": "Point"}, "properties": {"address": "Schrennengasse 37", "electric": 2, "id": "pb_562", "manual": 6, "name": "Goldbrunnenplatz", "provider": "publibike", "timeStamp": "03/14/2020, 01:05:15", "zip": 8003}, "type": "Feature"}, {"geometry": {"coordinates": [8.514138, 47.374206], "type": "Point"}, "properties": {"address": "Idaplatz 4", "electric": 2, "id": "pb_557", "manual": 11, "name": "Idaplatz", "provider": "publibike", "timeStamp": "03/14/2020, 01:05:15", "zip": 8003}, "type": "Feature"}, {"geometry": {"coordinates": [8.518432, 47.369549], "type": "Point"}, "properties": {"address": "Brinerstrasse 2", "electric": 0, "id": "pb_558", "manual": 2, "name": "Schmiede Wiedikon", "provider": "publibike", "timeStamp": "03/14/2020, 01:05:15", "zip": 8003}, "type": "Feature"}, {"geometry": {"coordinates": [8.537546, 47.391289], "type": "Point"}, "properties": {"address": "Rotbuchstrasse 15", "electric": 1, "id": "pb_556", "manual": 0, "name": "Schaffhauserplatz", "provider": "publibike", "timeStamp": "03/14/2020, 01:05:15", "zip": 8006}, "type": "Feature"}, {"geometry": {"coordinates": [8.541541, 47.413733], "type": "Point"}, "properties": {"address": "Therese-Giehse-Strasse 11", "electric": 0, "id": "pb_561", "manual": 0, "name": "Center Eleven", "provider": "publibike", "timeStamp": "03/14/2020, 01:05:15", "zip": 8050}, "type": "Feature"}, {"geometry": {"coordinates": [8.534227, 47.360004], "type": "Point"}, "properties": {"address": "Alfred Escher-Strasse 76", "electric": 1, "id": "pb_563", "manual": 1, "name": "Mythenschloss", "provider": "publibike", "timeStamp": "03/14/2020, 01:05:15", "zip": 8002}, "type": "Feature"}, {"geometry": {"coordinates": [8.50373, 47.396172], "type": "Point"}, "properties": {"address": "Hardeggstrasse 6", "electric": 4, "id": "pb_566", "manual": 1, "name": "Am Wasser", "provider": "publibike", "timeStamp": "03/14/2020, 01:05:15", "zip": 8049}, "type": "Feature"}, {"geometry": {"coordinates": [8.532432, 47.381174], "type": "Point"}, "properties": {"address": "Klingenstrasse 9", "electric": 0, "id": "pb_565", "manual": 8, "name": "Zollstrasse", "provider": "publibike", "timeStamp": "03/14/2020, 01:05:15", "zip": 8005}, "type": "Feature"}, {"geometry": {"coordinates": [8.497982, 47.381447], "type": "Point"}, "properties": {"address": "Dennlerstrasse 23", "electric": 2, "id": "pb_567", "manual": 5, "name": "Dennlerstrasse", "provider": "publibike", "timeStamp": "03/14/2020, 01:05:15", "zip": 8047}, "type": "Feature"}, {"geometry": {"coordinates": [8.528049, 47.347701], "type": "Point"}, "properties": {"address": "Mutschellenstrasse 114", "electric": 10, "id": "pb_568", "manual": 2, "name": "Jugendherberge", "provider": "publibike", "timeStamp": "03/14/2020, 01:05:15", "zip": 8038}, "type": "Feature"}, {"geometry": {"coordinates": [8.539016, 47.405751], "type": "Point"}, "properties": {"address": "Ringstrasse 82", "electric": 5, "id": "pb_569", "manual": 3, "name": "Freibad Allenmoos", "provider": "publibike", "timeStamp": "03/14/2020, 01:05:15", "zip": 8057}, "type": "Feature"}, {"geometry": {"coordinates": [8.534974, 47.402164], "type": "Point"}, "properties": {"address": "Brache Guggach", "electric": 0, "id": "pb_572", "manual": 0, "name": "Radiostudio", "provider": "publibike", "timeStamp": "03/14/2020, 01:05:15", "zip": 8057}, "type": "Feature"}, {"geometry": {"coordinates": [8.547901, 47.375556], "type": "Point"}, "properties": {"address": "Karl-Schmid-Strasse 4", "electric": 0, "id": "pb_571", "manual": 0, "name": "ETH/Zoologisches Museum", "provider": "publibike", "timeStamp": "03/14/2020, 01:05:15", "zip": 8006}, "type": "Feature"}, {"geometry": {"coordinates": [8.533776, 47.39278], "type": "Point"}, "properties": {"charge": 63, "id": "smide_2880", "name": "ZH267289", "provider": "smide", "range": 31.0, "size": 17, "time": "03/17/2020, 13:38:25"}, "type": "Feature"}, {"geometry": {"coordinates": [8.537358, 47.366223], "type": "Point"}, "properties": {"charge": 24, "id": "smide_2871", "name": "ZH 267086", "provider": "smide", "range": 12.0, "size": 20, "time": "03/17/2020, 13:38:25"}, "type": "Feature"}, {"geometry": {"coordinates": [8.52636, 47.339071], "type": "Point"}, "properties": {"charge": 37, "id": "smide_2868", "name": "ZH 267089", "provider": "smide", "range": 18.0, "size": 20, "time": "03/17/2020, 13:38:25"}, "type": "Feature"}, {"geometry": {"coordinates": [8.553445, 47.40217], "type": "Point"}, "properties": {"charge": 85, "id": "smide_2856", "name": "ZH 267101", "provider": "smide", "range": 42.0, "size": 17, "time": "03/17/2020, 13:38:25"}, "type": "Feature"}, {"geometry": {"coordinates": [8.531258, 47.415851], "type": "Point"}, "properties": {"charge": 73, "id": "smide_2855", "name": "ZH 267102", "provider": "smide", "range": 36.0, "size": 17, "time": "03/17/2020, 13:38:25"}, "type": "Feature"}, {"geometry": {"coordinates": [8.53785, 47.393168], "type": "Point"}, "properties": {"charge": 70, "id": "smide_2854", "name": "ZH 267103", "provider": "smide", "range": 35.0, "size": 17, "time": "03/17/2020, 13:38:25"}, "type": "Feature"}, {"geometry": {"coordinates": [8.520708, 47.42378], "type": "Point"}, "properties": {"charge": 80, "id": "smide_2819", "name": "ZH266943", "provider": "smide", "range": 40.0, "size": 20, "time": "03/17/2020, 13:38:25"}, "type": "Feature"}, {"geometry": {"coordinates": [8.582218, 47.351945], "type": "Point"}, "properties": {"charge": 100, "id": "smide_2785", "name": "ZH266875", "provider": "smide", "range": 50.0, "size": 17, "time": "03/17/2020, 13:38:25"}, "type": "Feature"}, {"geometry": {"coordinates": [8.520886, 47.356081], "type": "Point"}, "properties": {"charge": 40, "id": "smide_2775", "name": "ZH267283", "provider": "smide", "range": 20.0, "size": 20, "time": "03/17/2020, 13:38:25"}, "type": "Feature"}, {"geometry": {"coordinates": [8.525918, 47.359288], "type": "Point"}, "properties": {"charge": 31, "id": "smide_2773", "name": "ZH266561", "provider": "smide", "range": 15.0, "size": 17, "time": "03/17/2020, 13:38:25"}, "type": "Feature"}, {"geometry": {"coordinates": [8.513112, 47.374992], "type": "Point"}, "properties": {"charge": 16, "id": "smide_2771", "name": "ZH266559", "provider": "smide", "range": 8.0, "size": 17, "time": "03/17/2020, 13:38:25"}, "type": "Feature"}, {"geometry": {"coordinates": [8.574114, 47.352084], "type": "Point"}, "properties": {"charge": 70, "id": "smide_2763", "name": "ZH266641", "provider": "smide", "range": 35.0, "size": 17, "time": "03/17/2020, 13:38:25"}, "type": "Feature"}, {"geometry": {"coordinates": [8.510931, 47.353648], "type": "Point"}, "properties": {"charge": 98, "id": "smide_2759", "name": "ZH266639", "provider": "smide", "range": 49.0, "size": 17, "time": "03/17/2020, 13:38:25"}, "type": "Feature"}, {"geometry": {"coordinates": [8.574045, 47.355288], "type": "Point"}, "properties": {"charge": 100, "id": "smide_2758", "name": "ZH266638 M", "provider": "smide", "range": 50.0, "size": 17, "time": "03/17/2020, 13:38:25"}, "type": "Feature"}, {"geometry": {"coordinates": [8.57046, 47.354081], "type": "Point"}, "properties": {"charge": 63, "id": "smide_2752", "name": "BE343856", "provider": "smide", "range": 31.0, "size": 17, "time": "03/17/2020, 13:38:25"}, "type": "Feature"}, {"geometry": {"coordinates": [8.560608, 47.416956], "type": "Point"}, "properties": {"charge": 56, "id": "smide_2751", "name": "BE343857", "provider": "smide", "range": 28.0, "size": 17, "time": "03/17/2020, 13:38:25"}, "type": "Feature"}, {"geometry": {"coordinates": [8.531313, 47.416136], "type": "Point"}, "properties": {"charge": 99, "id": "smide_2749", "name": "BE343867", "provider": "smide", "range": 49.0, "size": 17, "time": "03/17/2020, 13:38:25"}, "type": "Feature"}, {"geometry": {"coordinates": [8.533147, 47.394544], "type": "Point"}, "properties": {"charge": 28, "id": "smide_2748", "name": "BE335758", "provider": "smide", "range": 14.0, "size": 17, "time": "03/17/2020, 13:38:25"}, "type": "Feature"}, {"geometry": {"coordinates": [8.485084, 47.391808], "type": "Point"}, "properties": {"charge": 43, "id": "smide_2746", "name": "BE335817", "provider": "smide", "range": 21.0, "size": 17, "time": "03/17/2020, 13:38:25"}, "type": "Feature"}, {"geometry": {"coordinates": [8.536056, 47.374861], "type": "Point"}, "properties": {"charge": 57, "id": "smide_2747", "name": "BE335820", "provider": "smide", "range": 28.0, "size": 17, "time": "03/17/2020, 13:38:25"}, "type": "Feature"}, {"geometry": {"coordinates": [8.532265, 47.408088], "type": "Point"}, "properties": {"charge": 64, "id": "smide_2743", "name": "BE343864", "provider": "smide", "range": 32.0, "size": 17, "time": "03/17/2020, 13:38:25"}, "type": "Feature"}, {"geometry": {"coordinates": [8.556423, 47.420828], "type": "Point"}, "properties": {"charge": 52, "id": "smide_2742", "name": "BE343866", "provider": "smide", "range": 26.0, "size": 17, "time": "03/17/2020, 13:38:25"}, "type": "Feature"}, {"geometry": {"coordinates": [8.553276, 47.375261], "type": "Point"}, "properties": {"charge": 41, "id": "smide_2738", "name": "BE343865", "provider": "smide", "range": 20.0, "size": 17, "time": "03/17/2020, 13:38:25"}, "type": "Feature"}, {"geometry": {"coordinates": [8.527561, 47.371484], "type": "Point"}, "properties": {"charge": 23, "id": "smide_2737", "name": "BE336149", "provider": "smide", "range": 11.0, "size": 17, "time": "03/17/2020, 13:38:25"}, "type": "Feature"}, {"geometry": {"coordinates": [8.535973, 47.377904], "type": "Point"}, "properties": {"charge": 90, "id": "smide_2734", "name": "BE343876", "provider": "smide", "range": 45.0, "size": 17, "time": "03/17/2020, 13:38:25"}, "type": "Feature"}, {"geometry": {"coordinates": [8.49109, 47.390196], "type": "Point"}, "properties": {"charge": 100, "id": "smide_2733", "name": "BE343873", "provider": "smide", "range": 50.0, "size": 17, "time": "03/17/2020, 13:38:25"}, "type": "Feature"}, {"geometry": {"coordinates": [8.544181, 47.410852], "type": "Point"}, "properties": {"charge": 86, "id": "smide_2732", "name": "BE343870", "provider": "smide", "range": 43.0, "size": 17, "time": "03/17/2020, 13:38:25"}, "type": "Feature"}, {"geometry": {"coordinates": [8.560143, 47.381404], "type": "Point"}, "properties": {"charge": 76, "id": "smide_2729", "name": "BE343878", "provider": "smide", "range": 38.0, "size": 17, "time": "03/17/2020, 13:38:25"}, "type": "Feature"}, {"geometry": {"coordinates": [8.564293, 47.349335], "type": "Point"}, "properties": {"charge": 77, "id": "smide_2725", "name": "ZH261545", "provider": "smide", "range": 38.0, "size": 0, "time": "03/17/2020, 13:38:25"}, "type": "Feature"}, {"geometry": {"coordinates": [8.574732, 47.3522], "type": "Point"}, "properties": {"charge": 79, "id": "smide_2717", "name": "ZH263287", "provider": "smide", "range": 39.0, "size": 17, "time": "03/17/2020, 13:38:25"}, "type": "Feature"}, {"geometry": {"coordinates": [8.562305, 47.355211], "type": "Point"}, "properties": {"charge": 76, "id": "smide_2716", "name": "ZH254606", "provider": "smide", "range": 38.0, "size": 17, "time": "03/17/2020, 13:38:25"}, "type": "Feature"}, {"geometry": {"coordinates": [8.542474, 47.411452], "type": "Point"}, "properties": {"charge": 48, "id": "smide_2715", "name": "ZH254605", "provider": "smide", "range": 24.0, "size": 17, "time": "03/17/2020, 13:38:25"}, "type": "Feature"}, {"geometry": {"coordinates": [8.558517, 47.385152], "type": "Point"}, "properties": {"charge": 100, "id": "smide_2714", "name": "ZH256461", "provider": "smide", "range": 50.0, "size": 17, "time": "03/17/2020, 13:38:25"}, "type": "Feature"}, {"geometry": {"coordinates": [8.534175, 47.396932], "type": "Point"}, "properties": {"charge": 87, "id": "smide_2710", "name": "ZH256460", "provider": "smide", "range": 43.0, "size": 17, "time": "03/17/2020, 13:38:25"}, "type": "Feature"}, {"geometry": {"coordinates": [8.538466, 47.34012], "type": "Point"}, "properties": {"charge": 100, "id": "smide_2709", "name": "ZH256466", "provider": "smide", "range": 50.0, "size": 20, "time": "03/17/2020, 13:38:25"}, "type": "Feature"}, {"geometry": {"coordinates": [8.546538, 47.404016], "type": "Point"}, "properties": {"charge": 15, "id": "smide_2707", "name": "ZH256467", "provider": "smide", "range": 7.0, "size": 20, "time": "03/17/2020, 13:38:25"}, "type": "Feature"}, {"geometry": {"coordinates": [8.500546, 47.402824], "type": "Point"}, "properties": {"charge": 100, "id": "smide_2708", "name": "ZH256464", "provider": "smide", "range": 50.0, "size": 17, "time": "03/17/2020, 13:38:25"}, "type": "Feature"}, {"geometry": {"coordinates": [8.516407, 47.39832], "type": "Point"}, "properties": {"charge": 100, "id": "smide_2706", "name": "ZH256322", "provider": "smide", "range": 50.0, "size": 20, "time": "03/17/2020, 13:38:25"}, "type": "Feature"}, {"geometry": {"coordinates": [8.533528, 47.409292], "type": "Point"}, "properties": {"charge": 56, "id": "smide_2701", "name": "ZH256468", "provider": "smide", "range": 28.0, "size": 20, "time": "03/17/2020, 13:38:25"}, "type": "Feature"}, {"geometry": {"coordinates": [8.527956, 47.375888], "type": "Point"}, "properties": {"charge": 51, "id": "smide_2700", "name": "ZH256470", "provider": "smide", "range": 25.0, "size": 20, "time": "03/17/2020, 13:38:25"}, "type": "Feature"}, {"geometry": {"coordinates": [8.575962, 47.349768], "type": "Point"}, "properties": {"charge": 100, "id": "smide_2697", "name": "ZH254629", "provider": "smide", "range": 50.0, "size": 20, "time": "03/17/2020, 13:38:25"}, "type": "Feature"}, {"geometry": {"coordinates": [8.53838, 47.413436], "type": "Point"}, "properties": {"charge": 100, "id": "smide_2694", "name": "ZH254610", "provider": "smide", "range": 50.0, "size": 20, "time": "03/17/2020, 13:38:25"}, "type": "Feature"}, {"geometry": {"coordinates": [8.560461, 47.417015], "type": "Point"}, "properties": {"charge": 65, "id": "smide_2691", "name": "ZH254622", "provider": "smide", "range": 32.0, "size": 20, "time": "03/17/2020, 13:38:25"}, "type": "Feature"}, {"geometry": {"coordinates": [8.527773, 47.346126], "type": "Point"}, "properties": {"charge": 59, "id": "smide_2690", "name": "ZH254625", "provider": "smide", "range": 29.0, "size": 20, "time": "03/17/2020, 13:38:25"}, "type": "Feature"}, {"geometry": {"coordinates": [8.559323, 47.360088], "type": "Point"}, "properties": {"charge": 100, "id": "smide_2689", "name": "ZH254623", "provider": "smide", "range": 50.0, "size": 20, "time": "03/17/2020, 13:38:25"}, "type": "Feature"}, {"geometry": {"coordinates": [8.540102, 47.337984], "type": "Point"}, "properties": {"charge": 30, "id": "smide_2687", "name": "ZH263529", "provider": "smide", "range": 15.0, "size": 20, "time": "03/17/2020, 13:38:25"}, "type": "Feature"}, {"geometry": {"coordinates": [8.553775, 47.362376], "type": "Point"}, "properties": {"charge": 73, "id": "smide_2686", "name": "ZH263288", "provider": "smide", "range": 36.0, "size": 20, "time": "03/17/2020, 13:38:25"}, "type": "Feature"}, {"geometry": {"coordinates": [8.564687, 47.372848], "type": "Point"}, "properties": {"charge": 70, "id": "smide_2684", "name": "ZH254626", "provider": "smide", "range": 35.0, "size": 20, "time": "03/17/2020, 13:38:25"}, "type": "Feature"}, {"geometry": {"coordinates": [8.534318, 47.37389], "type": "Point"}, "properties": {"charge": 99, "id": "smide_2683", "name": "ZH254620", "provider": "smide", "range": 49.0, "size": 20, "time": "03/17/2020, 13:38:25"}, "type": "Feature"}, {"geometry": {"coordinates": [8.534997, 47.366764], "type": "Point"}, "properties": {"charge": 98, "id": "smide_2680", "name": "ZH254619", "provider": "smide", "range": 49.0, "size": 20, "time": "03/17/2020, 13:38:25"}, "type": "Feature"}, {"geometry": {"coordinates": [8.5177, 47.41434], "type": "Point"}, "properties": {"charge": 75, "id": "smide_2679", "name": "ZH258489", "provider": "smide", "range": 37.0, "size": 17, "time": "03/17/2020, 13:38:25"}, "type": "Feature"}, {"geometry": {"coordinates": [8.514503, 47.35758], "type": "Point"}, "properties": {"charge": 93, "id": "smide_2674", "name": "ZH258654", "provider": "smide", "range": 46.0, "size": 17, "time": "03/17/2020, 13:38:25"}, "type": "Feature"}, {"geometry": {"coordinates": [8.566079, 47.356744], "type": "Point"}, "properties": {"charge": 65, "id": "smide_2669", "name": "ZH263294", "provider": "smide", "range": 32.0, "size": 17, "time": "03/17/2020, 13:38:25"}, "type": "Feature"}, {"geometry": {"coordinates": [8.542652, 47.412388], "type": "Point"}, "properties": {"charge": 50, "id": "smide_2666", "name": "ZH258653", "provider": "smide", "range": 25.0, "size": 17, "time": "03/17/2020, 13:38:25"}, "type": "Feature"}, {"geometry": {"coordinates": [8.538235, 47.36912], "type": "Point"}, "properties": {"charge": 15, "id": "smide_2664", "name": "ZH258652", "provider": "smide", "range": 7.0, "size": 17, "time": "03/17/2020, 13:38:25"}, "type": "Feature"}, {"geometry": {"coordinates": [8.542663, 47.412272], "type": "Point"}, "properties": {"charge": 46, "id": "smide_2663", "name": "ZH258649", "provider": "smide", "range": 23.0, "size": 17, "time": "03/17/2020, 13:38:25"}, "type": "Feature"}, {"geometry": {"coordinates": [8.542024, 47.424568], "type": "Point"}, "properties": {"charge": 53, "id": "smide_2662", "name": "ZH258643", "provider": "smide", "range": 26.0, "size": 17, "time": "03/17/2020, 13:38:25"}, "type": "Feature"}, {"geometry": {"coordinates": [8.50594, 47.419368], "type": "Point"}, "properties": {"charge": 56, "id": "smide_2660", "name": "ZH258647", "provider": "smide", "range": 28.0, "size": 17, "time": "03/17/2020, 13:38:25"}, "type": "Feature"}, {"geometry": {"coordinates": [8.507026, 47.406724], "type": "Point"}, "properties": {"charge": 100, "id": "smide_2648", "name": "ZH257930", "provider": "smide", "range": 50.0, "size": 20, "time": "03/17/2020, 13:38:25"}, "type": "Feature"}, {"geometry": {"coordinates": [8.570078, 47.35235], "type": "Point"}, "properties": {"charge": 99, "id": "smide_2657", "name": "ZH257936", "provider": "smide", "range": 49.0, "size": 17, "time": "03/17/2020, 13:38:25"}, "type": "Feature"}, {"geometry": {"coordinates": [8.545136, 47.395852], "type": "Point"}, "properties": {"charge": 87, "id": "smide_2647", "name": "ZH257932", "provider": "smide", "range": 43.0, "size": 20, "time": "03/17/2020, 13:38:25"}, "type": "Feature"}, {"geometry": {"coordinates": [8.500264, 47.372048], "type": "Point"}, "properties": {"charge": 100, "id": "smide_2645", "name": "ZH257933", "provider": "smide", "range": 50.0, "size": 20, "time": "03/17/2020, 13:38:25"}, "type": "Feature"}, {"geometry": {"coordinates": [8.561185, 47.410931], "type": "Point"}, "properties": {"charge": 90, "id": "smide_3", "name": "ZH253765", "provider": "smide", "range": 45.0, "size": 20, "time": "03/17/2020, 13:38:25"}, "type": "Feature"}, {"geometry": {"coordinates": [8.571835, 47.382038], "type": "Point"}, "properties": {"charge": 48, "id": "smide_105", "name": "ZH253804", "provider": "smide", "range": 24.0, "size": 17, "time": "03/17/2020, 13:38:25"}, "type": "Feature"}, {"geometry": {"coordinates": [8.507361, 47.398771], "type": "Point"}, "properties": {"charge": 53, "id": "smide_77", "name": "ZH261548", "provider": "smide", "range": 26.0, "size": 20, "time": "03/17/2020, 13:38:25"}, "type": "Feature"}, {"geometry": {"coordinates": [8.546288, 47.38886], "type": "Point"}, "properties": {"charge": 23, "id": "smide_8", "name": "ZH253861", "provider": "smide", "range": 11.0, "size": 17, "time": "03/17/2020, 13:38:25"}, "type": "Feature"}, {"geometry": {"coordinates": [8.507761, 47.35183], "type": "Point"}, "properties": {"charge": 30, "id": "smide_201", "name": "ZH253698", "provider": "smide", "range": 15.0, "size": 17, "time": "03/17/2020, 13:38:25"}, "type": "Feature"}, {"geometry": {"coordinates": [8.50211, 47.362288], "type": "Point"}, "properties": {"charge": 100, "id": "smide_71", "name": "ZH253742", "provider": "smide", "range": 50.0, "size": 20, "time": "03/17/2020, 13:38:25"}, "type": "Feature"}, {"geometry": {"coordinates": [8.532439, 47.397416], "type": "Point"}, "properties": {"charge": 77, "id": "smide_101", "name": "ZH253814", "provider": "smide", "range": 38.0, "size": 17, "time": "03/17/2020, 13:38:25"}, "type": "Feature"}, {"geometry": {"coordinates": [8.476974, 47.385004], "type": "Point"}, "properties": {"charge": 47, "id": "smide_9", "name": "ZH253796", "provider": "smide", "range": 23.0, "size": 17, "time": "03/17/2020, 13:38:25"}, "type": "Feature"}, {"geometry": {"coordinates": [8.572214, 47.3526], "type": "Point"}, "properties": {"charge": 100, "id": "smide_143", "name": "ZH253778", "provider": "smide", "range": 50.0, "size": 17, "time": "03/17/2020, 13:38:25"}, "type": "Feature"}, {"geometry": {"coordinates": [8.507465, 47.399275], "type": "Point"}, "properties": {"charge": 100, "id": "smide_180", "name": "ZH253824", "provider": "smide", "range": 50.0, "size": 20, "time": "03/17/2020, 13:38:25"}, "type": "Feature"}, {"geometry": {"coordinates": [8.517823, 47.398528], "type": "Point"}, "properties": {"charge": 100, "id": "smide_20", "name": "ZH253770", "provider": "smide", "range": 50.0, "size": 20, "time": "03/17/2020, 13:38:25"}, "type": "Feature"}, {"geometry": {"coordinates": [8.563579, 47.3774], "type": "Point"}, "properties": {"charge": 66, "id": "smide_50", "name": "ZH253853", "provider": "smide", "range": 33.0, "size": 17, "time": "03/17/2020, 13:38:25"}, "type": "Feature"}, {"geometry": {"coordinates": [8.556655, 47.355728], "type": "Point"}, "properties": {"charge": 91, "id": "smide_30", "name": "ZH253813", "provider": "smide", "range": 45.0, "size": 20, "time": "03/17/2020, 13:38:25"}, "type": "Feature"}, {"geometry": {"coordinates": [8.553341, 47.375113], "type": "Point"}, "properties": {"charge": 52, "id": "smide_10", "name": "ZH253855", "provider": "smide", "range": 26.0, "size": 17, "time": "03/17/2020, 13:38:25"}, "type": "Feature"}, {"geometry": {"coordinates": [8.54493, 47.373783], "type": "Point"}, "properties": {"charge": 100, "id": "smide_79", "name": "ZH253711", "provider": "smide", "range": 50.0, "size": 20, "time": "03/17/2020, 13:38:25"}, "type": "Feature"}, {"geometry": {"coordinates": [8.539139, 47.385112], "type": "Point"}, "properties": {"charge": 78, "id": "smide_84", "name": "ZH253733", "provider": "smide", "range": 39.0, "size": 17, "time": "03/17/2020, 13:38:25"}, "type": "Feature"}, {"geometry": {"coordinates": [8.572141, 47.352544], "type": "Point"}, "properties": {"charge": 58, "id": "smide_165", "name": "ZH253752", "provider": "smide", "range": 28.0, "size": 17, "time": "03/17/2020, 13:38:25"}, "type": "Feature"}, {"geometry": {"coordinates": [8.525904, 47.365364], "type": "Point"}, "properties": {"charge": 100, "id": "smide_35", "name": "ZH253755", "provider": "smide", "range": 50.0, "size": 20, "time": "03/17/2020, 13:38:25"}, "type": "Feature"}, {"geometry": {"coordinates": [8.536421, 47.369176], "type": "Point"}, "properties": {"charge": 45, "id": "smide_119", "name": "ZH253686", "provider": "smide", "range": 22.0, "size": 20, "time": "03/17/2020, 13:38:25"}, "type": "Feature"}, {"geometry": {"coordinates": [8.57223, 47.352572], "type": "Point"}, "properties": {"charge": 99, "id": "smide_129", "name": "ZH261378", "provider": "smide", "range": 49.0, "size": 17, "time": "03/17/2020, 13:38:25"}, "type": "Feature"}, {"geometry": {"coordinates": [8.51441, 47.357326], "type": "Point"}, "properties": {"charge": 53, "id": "smide_49", "name": "ZH253873", "provider": "smide", "range": 26.0, "size": 17, "time": "03/17/2020, 13:38:25"}, "type": "Feature"}, {"geometry": {"coordinates": [8.570065, 47.352396], "type": "Point"}, "properties": {"charge": 100, "id": "smide_94", "name": "ZH253754", "provider": "smide", "range": 50.0, "size": 17, "time": "03/17/2020, 13:38:25"}, "type": "Feature"}, {"geometry": {"coordinates": [8.552225, 47.35306], "type": "Point"}, "properties": {"charge": 97, "id": "smide_37", "name": "ZH261377", "provider": "smide", "range": 48.0, "size": 20, "time": "03/17/2020, 13:38:25"}, "type": "Feature"}, {"geometry": {"coordinates": [8.536695, 47.375245], "type": "Point"}, "properties": {"charge": 35, "id": "smide_191", "name": "ZH253762", "provider": "smide", "range": 17.0, "size": 17, "time": "03/17/2020, 13:38:25"}, "type": "Feature"}, {"geometry": {"coordinates": [8.53109, 47.343485], "type": "Point"}, "properties": {"charge": 19, "id": "smide_202", "name": "ZH253830", "provider": "smide", "range": 9.0, "size": 17, "time": "03/17/2020, 13:38:25"}, "type": "Feature"}, {"geometry": {"coordinates": [8.489847, 47.3905], "type": "Point"}, "properties": {"charge": 99, "id": "smide_56", "name": "ZH261442", "provider": "smide", "range": 49.0, "size": 20, "time": "03/17/2020, 13:38:25"}, "type": "Feature"}, {"geometry": {"coordinates": [8.57521, 47.349046], "type": "Point"}, "properties": {"charge": 65, "id": "smide_47", "name": "ZH253858", "provider": "smide", "range": 32.0, "size": 17, "time": "03/17/2020, 13:38:25"}, "type": "Feature"}, {"geometry": {"coordinates": [8.489294, 47.39278], "type": "Point"}, "properties": {"charge": 71, "id": "smide_150", "name": "ZH253703", "provider": "smide", "range": 35.0, "size": 20, "time": "03/17/2020, 13:38:25"}, "type": "Feature"}, {"geometry": {"coordinates": [8.523683, 47.398086], "type": "Point"}, "properties": {"charge": 100, "id": "smide_97", "name": "ZH253799", "provider": "smide", "range": 50.0, "size": 20, "time": "03/17/2020, 13:38:25"}, "type": "Feature"}, {"geometry": {"coordinates": [8.525969, 47.365392], "type": "Point"}, "properties": {"charge": 100, "id": "smide_66", "name": "ZH253818", "provider": "smide", "range": 50.0, "size": 20, "time": "03/17/2020, 13:38:25"}, "type": "Feature"}, {"geometry": {"coordinates": [8.513285, 47.362045], "type": "Point"}, "properties": {"charge": 86, "id": "smide_17", "name": "ZH253793", "provider": "smide", "range": 43.0, "size": 17, "time": "03/17/2020, 13:38:25"}, "type": "Feature"}, {"geometry": {"coordinates": [8.555237, 47.375512], "type": "Point"}, "properties": {"charge": 60, "id": "smide_127", "name": "ZH253808", "provider": "smide", "range": 30.0, "size": 20, "time": "03/17/2020, 13:38:25"}, "type": "Feature"}, {"geometry": {"coordinates": [8.510945, 47.372691], "type": "Point"}, "properties": {"charge": 28, "id": "smide_145", "name": "ZH253780", "provider": "smide", "range": 14.0, "size": 20, "time": "03/17/2020, 13:38:25"}, "type": "Feature"}, {"geometry": {"coordinates": [8.500758, 47.373688], "type": "Point"}, "properties": {"charge": 100, "id": "smide_21", "name": "ZH253841", "provider": "smide", "range": 50.0, "size": 17, "time": "03/17/2020, 13:38:25"}, "type": "Feature"}, {"geometry": {"coordinates": [8.526133, 47.365288], "type": "Point"}, "properties": {"charge": 95, "id": "smide_164", "name": "ZH253775", "provider": "smide", "range": 47.0, "size": 17, "time": "03/17/2020, 13:38:25"}, "type": "Feature"}, {"geometry": {"coordinates": [8.547516, 47.36504], "type": "Point"}, "properties": {"charge": 52, "id": "smide_189", "name": "ZH253845", "provider": "smide", "range": 26.0, "size": 20, "time": "03/17/2020, 13:38:25"}, "type": "Feature"}, {"geometry": {"coordinates": [8.574615, 47.352212], "type": "Point"}, "properties": {"charge": 79, "id": "smide_81", "name": "ZH253753", "provider": "smide", "range": 39.0, "size": 17, "time": "03/17/2020, 13:38:25"}, "type": "Feature"}, {"geometry": {"coordinates": [8.548232, 47.370896], "type": "Point"}, "properties": {"charge": 87, "id": "smide_171", "name": "ZH253689", "provider": "smide", "range": 43.0, "size": 20, "time": "03/17/2020, 13:38:25"}, "type": "Feature"}, {"geometry": {"coordinates": [8.563588, 47.404108], "type": "Point"}, "properties": {"charge": 45, "id": "smide_93", "name": "ZH253681", "provider": "smide", "range": 22.0, "size": 17, "time": "03/17/2020, 13:38:25"}, "type": "Feature"}, {"geometry": {"coordinates": [8.549094, 47.408668], "type": "Point"}, "properties": {"charge": 50, "id": "smide_67", "name": "ZH253779", "provider": "smide", "range": 25.0, "size": 17, "time": "03/17/2020, 13:38:25"}, "type": "Feature"}, {"geometry": {"coordinates": [8.5615, 47.372463], "type": "Point"}, "properties": {"charge": 62, "id": "smide_118", "name": "ZH253759", "provider": "smide", "range": 31.0, "size": 20, "time": "03/17/2020, 13:38:25"}, "type": "Feature"}, {"geometry": {"coordinates": [8.531768, 47.384385], "type": "Point"}, "properties": {"charge": 59, "id": "smide_166", "name": "ZH253728", "provider": "smide", "range": 29.0, "size": 17, "time": "03/17/2020, 13:38:25"}, "type": "Feature"}, {"geometry": {"coordinates": [8.54849, 47.377836], "type": "Point"}, "properties": {"charge": 76, "id": "smide_126", "name": "ZH268400", "provider": "smide", "range": 38.0, "size": 17, "time": "03/17/2020, 13:38:25"}, "type": "Feature"}, {"geometry": {"coordinates": [8.504236, 47.418075], "type": "Point"}, "properties": {"charge": 100, "id": "smide_44", "name": "ZH253837", "provider": "smide", "range": 50.0, "size": 17, "time": "03/17/2020, 13:38:25"}, "type": "Feature"}, {"geometry": {"coordinates": [8.49315, 47.38288], "type": "Point"}, "properties": {"charge": 86, "id": "smide_57", "name": "ZH253772", "provider": "smide", "range": 43.0, "size": 17, "time": "03/17/2020, 13:38:25"}, "type": "Feature"}, {"geometry": {"coordinates": [8.507767, 47.399408], "type": "Point"}, "properties": {"charge": 100, "id": "smide_154", "name": "ZH253744", "provider": "smide", "range": 50.0, "size": 20, "time": "03/17/2020, 13:38:25"}, "type": "Feature"}, {"geometry": {"coordinates": [8.530183, 47.342152], "type": "Point"}, "properties": {"charge": 76, "id": "smide_92", "name": "ZH253798", "provider": "smide", "range": 38.0, "size": 17, "time": "03/17/2020, 13:38:25"}, "type": "Feature"}, {"geometry": {"coordinates": [8.521455, 47.369292], "type": "Point"}, "properties": {"charge": 79, "id": "smide_65", "name": "ZH253810", "provider": "smide", "range": 39.0, "size": 17, "time": "03/17/2020, 13:38:25"}, "type": "Feature"}, {"geometry": {"coordinates": [8.567225, 47.376256], "type": "Point"}, "properties": {"charge": 43, "id": "smide_111", "name": "ZH253763", "provider": "smide", "range": 21.0, "size": 17, "time": "03/17/2020, 13:38:25"}, "type": "Feature"}, {"geometry": {"coordinates": [8.493863, 47.400276], "type": "Point"}, "properties": {"charge": 100, "id": "smide_1", "name": "ZH253776", "provider": "smide", "range": 50.0, "size": 17, "time": "03/17/2020, 13:38:25"}, "type": "Feature"}, {"geometry": {"coordinates": [8.550666, 47.3785], "type": "Point"}, "properties": {"charge": 29, "id": "smide_28", "name": "ZH253831", "provider": "smide", "range": 14.0, "size": 17, "time": "03/17/2020, 13:38:25"}, "type": "Feature"}, {"geometry": {"coordinates": [8.533498, 47.409058], "type": "Point"}, "properties": {"charge": 87, "id": "smide_14", "name": "ZH253749", "provider": "smide", "range": 43.0, "size": 20, "time": "03/17/2020, 13:38:25"}, "type": "Feature"}, {"geometry": {"coordinates": [8.483706, 47.397364], "type": "Point"}, "properties": {"charge": 93, "id": "smide_130", "name": "ZH253847", "provider": "smide", "range": 46.0, "size": 20, "time": "03/17/2020, 13:38:25"}, "type": "Feature"}, {"geometry": {"coordinates": [8.494948, 47.368118], "type": "Point"}, "properties": {"charge": 78, "id": "smide_24", "name": "ZH253696", "provider": "smide", "range": 39.0, "size": 20, "time": "03/17/2020, 13:38:25"}, "type": "Feature"}, {"geometry": {"coordinates": [8.531705, 47.395505], "type": "Point"}, "properties": {"charge": 88, "id": "smide_107", "name": "ZH253819", "provider": "smide", "range": 44.0, "size": 17, "time": "03/17/2020, 13:38:25"}, "type": "Feature"}, {"geometry": {"coordinates": [8.566971, 47.3604], "type": "Point"}, "properties": {"charge": 67, "id": "smide_136", "name": "ZH253682", "provider": "smide", "range": 33.0, "size": 17, "time": "03/17/2020, 13:38:25"}, "type": "Feature"}, {"geometry": {"coordinates": [8.489515, 47.381276], "type": "Point"}, "properties": {"charge": 100, "id": "smide_73", "name": "ZH261379", "provider": "smide", "range": 50.0, "size": 20, "time": "03/17/2020, 13:38:25"}, "type": "Feature"}, {"geometry": {"coordinates": [8.559845, 47.413323], "type": "Point"}, "properties": {"charge": 37, "id": "smide_158", "name": "ZH253870", "provider": "smide", "range": 18.0, "size": 20, "time": "03/17/2020, 13:38:25"}, "type": "Feature"}, {"geometry": {"coordinates": [8.537111, 47.342892], "type": "Point"}, "properties": {"charge": 100, "id": "smide_100", "name": "ZH253862", "provider": "smide", "range": 50.0, "size": 20, "time": "03/17/2020, 13:38:25"}, "type": "Feature"}, {"geometry": {"coordinates": [8.51189, 47.389865], "type": "Point"}, "properties": {"charge": 100, "id": "smide_134", "name": "ZH253741", "provider": "smide", "range": 50.0, "size": 20, "time": "03/17/2020, 13:38:25"}, "type": "Feature"}, {"geometry": {"coordinates": [8.559381, 47.414978], "type": "Point"}, "properties": {"charge": 71, "id": "smide_141", "name": "ZH253800", "provider": "smide", "range": 35.0, "size": 20, "time": "03/17/2020, 13:38:25"}, "type": "Feature"}, {"geometry": {"coordinates": [8.545551, 47.41097], "type": "Point"}, "properties": {"charge": 42, "id": "smide_149", "name": "ZH253743", "provider": "smide", "range": 21.0, "size": 20, "time": "03/17/2020, 13:38:25"}, "type": "Feature"}, {"geometry": {"coordinates": [8.549539, 47.413044], "type": "Point"}, "properties": {"charge": 92, "id": "smide_16", "name": "ZH253713", "provider": "smide", "range": 46.0, "size": 20, "time": "03/17/2020, 13:38:25"}, "type": "Feature"}, {"geometry": {"coordinates": [8.563099, 47.406468], "type": "Point"}, "properties": {"charge": 92, "id": "smide_74", "name": "ZH253693", "provider": "smide", "range": 46.0, "size": 20, "time": "03/17/2020, 13:38:25"}, "type": "Feature"}, {"geometry": {"coordinates": [8.534516, 47.378566], "type": "Point"}, "properties": {"charge": 60, "id": "smide_33", "name": "ZH253782", "provider": "smide", "range": 30.0, "size": 20, "time": "03/17/2020, 13:38:25"}, "type": "Feature"}, {"geometry": {"coordinates": [8.564413, 47.369285], "type": "Point"}, "properties": {"charge": 100, "id": "smide_183", "name": "ZH253868", "provider": "smide", "range": 50.0, "size": 17, "time": "03/17/2020, 13:38:25"}, "type": "Feature"}, {"geometry": {"coordinates": [8.552381, 47.373944], "type": "Point"}, "properties": {"charge": 30, "id": "smide_4", "name": "ZH253740", "provider": "smide", "range": 15.0, "size": 20, "time": "03/17/2020, 13:38:25"}, "type": "Feature"}, {"geometry": {"coordinates": [8.531206, 47.36494], "type": "Point"}, "properties": {"charge": 29, "id": "smide_160", "name": "ZH253722", "provider": "smide", "range": 14.0, "size": 17, "time": "03/17/2020, 13:38:25"}, "type": "Feature"}, {"geometry": {"coordinates": [8.492463, 47.384091], "type": "Point"}, "properties": {"charge": 77, "id": "smide_137", "name": "ZH258502", "provider": "smide", "range": 38.0, "size": 17, "time": "03/17/2020, 13:38:25"}, "type": "Feature"}, {"geometry": {"coordinates": [8.524225, 47.368785], "type": "Point"}, "properties": {"charge": 61, "id": "smide_55", "name": "ZH253875", "provider": "smide", "range": 30.0, "size": 17, "time": "03/17/2020, 13:38:25"}, "type": "Feature"}, {"geometry": {"coordinates": [8.571821, 47.381852], "type": "Point"}, "properties": {"charge": 100, "id": "smide_96", "name": "ZH256146", "provider": "smide", "range": 50.0, "size": 20, "time": "03/17/2020, 13:38:25"}, "type": "Feature"}, {"geometry": {"coordinates": [8.557302, 47.403564], "type": "Point"}, "properties": {"charge": 84, "id": "smide_58", "name": "ZH259246", "provider": "smide", "range": 42.0, "size": 20, "time": "03/17/2020, 13:38:25"}, "type": "Feature"}, {"geometry": {"coordinates": [8.502086, 47.362224], "type": "Point"}, "properties": {"charge": 60, "id": "smide_54", "name": "ZH253874", "provider": "smide", "range": 30.0, "size": 20, "time": "03/17/2020, 13:38:25"}, "type": "Feature"}, {"geometry": {"coordinates": [8.50481, 47.393986], "type": "Point"}, "properties": {"charge": 35, "id": "smide_162", "name": "ZH253760", "provider": "smide", "range": 17.0, "size": 17, "time": "03/17/2020, 13:38:25"}, "type": "Feature"}, {"geometry": {"coordinates": [8.49465, 47.367748], "type": "Point"}, "properties": {"charge": 52, "id": "smide_95", "name": "ZH253773", "provider": "smide", "range": 26.0, "size": 17, "time": "03/17/2020, 13:38:25"}, "type": "Feature"}, {"geometry": {"coordinates": [8.529864, 47.376104], "type": "Point"}, "properties": {"charge": 91, "id": "smide_163", "name": "ZH256147", "provider": "smide", "range": 45.0, "size": 20, "time": "03/17/2020, 13:38:25"}, "type": "Feature"}, {"geometry": {"coordinates": [8.540955, 47.369024], "type": "Point"}, "properties": {"charge": 78, "id": "smide_122", "name": "ZH253850", "provider": "smide", "range": 39.0, "size": 20, "time": "03/17/2020, 13:38:25"}, "type": "Feature"}, {"geometry": {"coordinates": [8.574946, 47.373261], "type": "Point"}, "properties": {"charge": 84, "id": "smide_38", "name": "ZH253851", "provider": "smide", "range": 42.0, "size": 20, "time": "03/17/2020, 13:38:25"}, "type": "Feature"}, {"geometry": {"coordinates": [8.543125, 47.420996], "type": "Point"}, "properties": {"charge": 87, "id": "smide_6", "name": "ZH253787", "provider": "smide", "range": 43.0, "size": 17, "time": "03/17/2020, 13:38:25"}, "type": "Feature"}, {"geometry": {"coordinates": [8.494373, 47.38692], "type": "Point"}, "properties": {"charge": 100, "id": "smide_18", "name": "ZH253859", "provider": "smide", "range": 50.0, "size": 17, "time": "03/17/2020, 13:38:25"}, "type": "Feature"}, {"geometry": {"coordinates": [8.53902, 47.377428], "type": "Point"}, "properties": {"charge": 99, "id": "smide_192", "name": "ZH253706", "provider": "smide", "range": 49.0, "size": 20, "time": "03/17/2020, 13:38:25"}, "type": "Feature"}, {"geometry": {"coordinates": [8.527651, 47.410413], "type": "Point"}, "properties": {"charge": 57, "id": "smide_39", "name": "ZH253714", "provider": "smide", "range": 28.0, "size": 20, "time": "03/17/2020, 13:38:25"}, "type": "Feature"}, {"geometry": {"coordinates": [8.493686, 47.389273], "type": "Point"}, "properties": {"charge": 75, "id": "smide_5", "name": "ZH261443", "provider": "smide", "range": 37.0, "size": 20, "time": "03/17/2020, 13:38:25"}, "type": "Feature"}, {"geometry": {"coordinates": [8.49351, 47.387961], "type": "Point"}, "properties": {"charge": 63, "id": "smide_85", "name": "ZH253729", "provider": "smide", "range": 31.0, "size": 17, "time": "03/17/2020, 13:38:25"}, "type": "Feature"}, {"geometry": {"coordinates": [8.550205, 47.387656], "type": "Point"}, "properties": {"charge": 80, "id": "smide_29", "name": "ZH253723", "provider": "smide", "range": 40.0, "size": 17, "time": "03/17/2020, 13:38:25"}, "type": "Feature"}, {"geometry": {"coordinates": [8.548306, 47.377708], "type": "Point"}, "properties": {"charge": 74, "id": "smide_132", "name": "ZH253857", "provider": "smide", "range": 37.0, "size": 17, "time": "03/17/2020, 13:38:25"}, "type": "Feature"}, {"geometry": {"coordinates": [8.513692, 47.36212], "type": "Point"}, "properties": {"charge": 24, "id": "smide_46", "name": "ZH253843", "provider": "smide", "range": 12.0, "size": 20, "time": "03/17/2020, 13:38:25"}, "type": "Feature"}, {"geometry": {"coordinates": [8.51810666666667, 47.3856083333333], "type": "Point"}, "properties": {"charge": 94, "id": "bird_31a2074b-ef8f-4cf5-93f3-6f00da443133", "provider": "bird", "timeStamp": "03/17/2020, 14:13:09"}, "type": "Feature"}, {"geometry": {"coordinates": [8.51695833333333, 47.3757433333333], "type": "Point"}, "properties": {"charge": 94, "id": "bird_e30e466b-fabe-4c5c-ad1b-ae611bf23c4e", "provider": "bird", "timeStamp": "03/17/2020, 14:13:09"}, "type": "Feature"}, {"geometry": {"coordinates": [8.51869166666667, 47.3861083333333], "type": "Point"}, "properties": {"charge": 69, "id": "bird_13fbb7c5-5417-4011-93f0-5cbaac75aefb", "provider": "bird", "timeStamp": "03/17/2020, 14:13:09"}, "type": "Feature"}, {"geometry": {"coordinates": [8.54343166666667, 47.37643], "type": "Point"}, "properties": {"charge": 33, "id": "bird_fc68a7f1-f810-4dd1-96b4-b2d382d61474", "provider": "bird", "timeStamp": "03/17/2020, 14:13:09"}, "type": "Feature"}, {"geometry": {"coordinates": [8.52770833333333, 47.3704183333333], "type": "Point"}, "properties": {"charge": 84, "id": "bird_9201d567-366d-4575-b355-1350cd540896", "provider": "bird", "timeStamp": "03/17/2020, 14:13:09"}, "type": "Feature"}, {"geometry": {"coordinates": [8.51728833333333, 47.3755716666667], "type": "Point"}, "properties": {"charge": 49, "id": "bird_5139b51a-f124-476e-a90f-aa3eac01c476", "provider": "bird", "timeStamp": "03/17/2020, 14:13:09"}, "type": "Feature"}, {"geometry": {"coordinates": [8.51865833333333, 47.3858216666667], "type": "Point"}, "properties": {"charge": 62, "id": "bird_4ff01b3c-61c4-41b3-905d-a011964ef24f", "provider": "bird", "timeStamp": "03/17/2020, 14:13:09"}, "type": "Feature"}, {"geometry": {"coordinates": [8.5158, 47.37946], "type": "Point"}, "properties": {"charge": 46, "id": "bird_9a169e05-b7ed-4bb8-94db-e2434a1f1034", "provider": "bird", "timeStamp": "03/17/2020, 14:13:09"}, "type": "Feature"}, {"geometry": {"coordinates": [8.52343166666667, 47.3885233333333], "type": "Point"}, "properties": {"charge": 38, "id": "bird_d965bbd0-597e-4b79-b823-8779ea6bcf2a", "provider": "bird", "timeStamp": "03/17/2020, 14:13:09"}, "type": "Feature"}, {"geometry": {"coordinates": [8.51581666666667, 47.3797416666667], "type": "Point"}, "properties": {"charge": 65, "id": "bird_ea1b2eb7-8ce9-4e52-80d8-ee0ae958d6ee", "provider": "bird", "timeStamp": "03/17/2020, 14:13:09"}, "type": "Feature"}, {"geometry": {"coordinates": [8.5167, 47.3768383333333], "type": "Point"}, "properties": {"charge": 61, "id": "bird_47d041cc-92be-4614-bcf5-09fefa788d9a", "provider": "bird", "timeStamp": "03/17/2020, 14:13:09"}, "type": "Feature"}, {"geometry": {"coordinates": [8.51596, 47.37941], "type": "Point"}, "properties": {"charge": 65, "id": "bird_a16958da-6900-4acb-9197-86e8ddc051de", "provider": "bird", "timeStamp": "03/17/2020, 14:13:09"}, "type": "Feature"}, {"geometry": {"coordinates": [8.53221666666667, 47.3706133333333], "type": "Point"}, "properties": {"charge": 31, "id": "bird_e24a1b5b-52d9-4b57-b5cf-cfbf6c495813", "provider": "bird", "timeStamp": "03/17/2020, 14:13:09"}, "type": "Feature"}, {"geometry": {"coordinates": [8.53950833333333, 47.3730166666667], "type": "Point"}, "properties": {"charge": 30, "id": "bird_216bd804-1ec3-49f0-b954-926a07a60b5b", "provider": "bird", "timeStamp": "03/17/2020, 14:13:09"}, "type": "Feature"}, {"geometry": {"coordinates": [8.53247166666667, 47.37069], "type": "Point"}, "properties": {"charge": 63, "id": "bird_464b76b6-ad11-4221-880d-0d0ea1b827e6", "provider": "bird", "timeStamp": "03/17/2020, 14:13:09"}, "type": "Feature"}, {"geometry": {"coordinates": [8.51632666666667, 47.3795816666667], "type": "Point"}, "properties": {"charge": 44, "id": "bird_3d0ff65e-c0bc-4ee0-963d-f0c68b41642f", "provider": "bird", "timeStamp": "03/17/2020, 14:13:09"}, "type": "Feature"}, {"geometry": {"coordinates": [8.541865, 47.375565], "type": "Point"}, "properties": {"charge": 43, "id": "bird_83e0ebdf-d9a4-46b1-b92f-f1d04cdc9430", "provider": "bird", "timeStamp": "03/17/2020, 14:13:09"}, "type": "Feature"}, {"geometry": {"coordinates": [8.52550333333333, 47.3886216666667], "type": "Point"}, "properties": {"charge": 38, "id": "bird_900efa12-850a-49df-9216-0d18ab807422", "provider": "bird", "timeStamp": "03/17/2020, 14:13:09"}, "type": "Feature"}, {"geometry": {"coordinates": [8.52362333333333, 47.3878516666667], "type": "Point"}, "properties": {"charge": 46, "id": "bird_65b013ef-3512-44a0-91d9-dede68bfae9e", "provider": "bird", "timeStamp": "03/17/2020, 14:13:09"}, "type": "Feature"}, {"geometry": {"coordinates": [8.535145, 47.3881116666667], "type": "Point"}, "properties": {"charge": 48, "id": "bird_e0a460ce-fac7-42a6-9ab4-347cefda5578", "provider": "bird", "timeStamp": "03/17/2020, 14:13:09"}, "type": "Feature"}, {"geometry": {"coordinates": [8.51726, 47.3783566666667], "type": "Point"}, "properties": {"charge": 91, "id": "bird_fb830731-e2e0-464a-b1af-79bfb857e5ec", "provider": "bird", "timeStamp": "03/17/2020, 14:13:09"}, "type": "Feature"}, {"geometry": {"coordinates": [8.523595, 47.3876083333333], "type": "Point"}, "properties": {"charge": 52, "id": "bird_d40e2bce-bf27-4c17-89b9-8d3381e76d44", "provider": "bird", "timeStamp": "03/17/2020, 14:13:09"}, "type": "Feature"}, {"geometry": {"coordinates": [8.53915333333333, 47.3738166666667], "type": "Point"}, "properties": {"charge": 18, "id": "bird_dc513754-1acb-4d11-a4e7-b9619eca559d", "provider": "bird", "timeStamp": "03/17/2020, 14:13:09"}, "type": "Feature"}, {"geometry": {"coordinates": [8.53905333333333, 47.3737683333333], "type": "Point"}, "properties": {"charge": 36, "id": "bird_59448806-fe21-4731-b497-090173ce5901", "provider": "bird", "timeStamp": "03/17/2020, 14:13:09"}, "type": "Feature"}, {"geometry": {"coordinates": [8.519365, 47.3750683333333], "type": "Point"}, "properties": {"charge": 37, "id": "bird_5715b4c5-1786-40d5-a652-db0e4c388317", "provider": "bird", "timeStamp": "03/17/2020, 14:13:09"}, "type": "Feature"}, {"geometry": {"coordinates": [8.540935, 47.375405], "type": "Point"}, "properties": {"charge": 30, "id": "bird_130a4823-efd7-4e5d-9d92-24418572797f", "provider": "bird", "timeStamp": "03/17/2020, 14:13:09"}, "type": "Feature"}, {"geometry": {"coordinates": [8.530145, 47.3713066666667], "type": "Point"}, "properties": {"charge": 28, "id": "bird_b841df7f-f112-442c-a15d-ddf11e36e8c2", "provider": "bird", "timeStamp": "03/17/2020, 14:13:09"}, "type": "Feature"}, {"geometry": {"coordinates": [8.52265166666667, 47.3729316666667], "type": "Point"}, "properties": {"charge": 27, "id": "bird_e0da6dda-528f-4385-8b46-bef8843f4213", "provider": "bird", "timeStamp": "03/17/2020, 14:13:09"}, "type": "Feature"}, {"geometry": {"coordinates": [8.53783, 47.3732066666667], "type": "Point"}, "properties": {"charge": 37, "id": "bird_cbf8c26a-c013-4c2c-bad5-327019e01f6e", "provider": "bird", "timeStamp": "03/17/2020, 14:13:09"}, "type": "Feature"}, {"geometry": {"coordinates": [8.53694166666667, 47.37283], "type": "Point"}, "properties": {"charge": 57, "id": "bird_fbe33735-4266-4a0b-b58e-636c35f37c2c", "provider": "bird", "timeStamp": "03/17/2020, 14:13:09"}, "type": "Feature"}, {"geometry": {"coordinates": [8.54161333333333, 47.37682], "type": "Point"}, "properties": {"charge": 71, "id": "bird_a70b8d19-a6bb-434f-bb34-5ef3a7ef8a95", "provider": "bird", "timeStamp": "03/17/2020, 14:13:09"}, "type": "Feature"}, {"geometry": {"coordinates": [8.53421333333333, 47.3720133333333], "type": "Point"}, "properties": {"charge": 84, "id": "bird_edc0cc0b-028c-4b5f-8906-98f77df50c45", "provider": "bird", "timeStamp": "03/17/2020, 14:13:09"}, "type": "Feature"}, {"geometry": {"coordinates": [8.52645166666667, 47.3881333333333], "type": "Point"}, "properties": {"charge": 34, "id": "bird_dec16156-f58b-409d-ad43-e45387adcf58", "provider": "bird", "timeStamp": "03/17/2020, 14:13:09"}, "type": "Feature"}, {"geometry": {"coordinates": [8.536885, 47.372975], "type": "Point"}, "properties": {"charge": 45, "id": "bird_c19b0df2-20f8-43a2-8ce1-3b709cbf7da1", "provider": "bird", "timeStamp": "03/17/2020, 14:13:09"}, "type": "Feature"}, {"geometry": {"coordinates": [8.53675, 47.3729316666667], "type": "Point"}, "properties": {"charge": 60, "id": "bird_c9a57f98-f2da-49a0-9bda-b6b01ff26edf", "provider": "bird", "timeStamp": "03/17/2020, 14:13:09"}, "type": "Feature"}, {"geometry": {"coordinates": [8.52427333333333, 47.3874433333333], "type": "Point"}, "properties": {"charge": 43, "id": "bird_55215d1a-758e-40f3-9999-20289fa5fe91", "provider": "bird", "timeStamp": "03/17/2020, 14:13:09"}, "type": "Feature"}, {"geometry": {"coordinates": [8.536815, 47.3730016666667], "type": "Point"}, "properties": {"charge": 38, "id": "bird_d741b196-d260-4b06-812a-d9538dc0e438", "provider": "bird", "timeStamp": "03/17/2020, 14:13:09"}, "type": "Feature"}, {"geometry": {"coordinates": [8.536795, 47.3730166666667], "type": "Point"}, "properties": {"charge": 48, "id": "bird_68a815a0-ddd7-4223-acf9-25c81eec1089", "provider": "bird", "timeStamp": "03/17/2020, 14:13:09"}, "type": "Feature"}, {"geometry": {"coordinates": [8.52252166666667, 47.3866383333333], "type": "Point"}, "properties": {"charge": 78, "id": "bird_b0f462b9-cc7b-4436-9db6-bab127e96a95", "provider": "bird", "timeStamp": "03/17/2020, 14:13:09"}, "type": "Feature"}, {"geometry": {"coordinates": [8.51965166666667, 47.3755766666667], "type": "Point"}, "properties": {"charge": 33, "id": "bird_a3bc6c3d-4e5e-40f9-b16f-eb6d57f3aca3", "provider": "bird", "timeStamp": "03/17/2020, 14:13:09"}, "type": "Feature"}, {"geometry": {"coordinates": [8.53674, 47.373085], "type": "Point"}, "properties": {"charge": 40, "id": "bird_7abb1d27-81a4-4374-af64-ef478151d251", "provider": "bird", "timeStamp": "03/17/2020, 14:13:09"}, "type": "Feature"}, {"geometry": {"coordinates": [8.52220666666667, 47.386375], "type": "Point"}, "properties": {"charge": 53, "id": "bird_1ddc8f12-2833-402d-99ab-157db7a66597", "provider": "bird", "timeStamp": "03/17/2020, 14:13:09"}, "type": "Feature"}, {"geometry": {"coordinates": [8.52166833333333, 47.3860516666667], "type": "Point"}, "properties": {"charge": 24, "id": "bird_51f1caca-f376-4a49-b6bb-8f0e213d7d91", "provider": "bird", "timeStamp": "03/17/2020, 14:13:09"}, "type": "Feature"}, {"geometry": {"coordinates": [8.53673166666667, 47.3731033333333], "type": "Point"}, "properties": {"charge": 43, "id": "bird_365cb52d-5e44-48a2-a9c4-e4992e37d321", "provider": "bird", "timeStamp": "03/17/2020, 14:13:09"}, "type": "Feature"}, {"geometry": {"coordinates": [8.54072833333333, 47.3761133333333], "type": "Point"}, "properties": {"charge": 38, "id": "bird_50bca678-cee6-4b4b-a091-61bf2d1e6631", "provider": "bird", "timeStamp": "03/17/2020, 14:13:09"}, "type": "Feature"}, {"geometry": {"coordinates": [8.52913833333333, 47.371865], "type": "Point"}, "properties": {"charge": 84, "id": "bird_381eeb4d-e710-4e14-9bd4-84511772d2d7", "provider": "bird", "timeStamp": "03/17/2020, 14:13:09"}, "type": "Feature"}, {"geometry": {"coordinates": [8.54125333333333, 47.3772966666667], "type": "Point"}, "properties": {"charge": 64, "id": "bird_fc08ce0b-69aa-42c2-84fd-921184234ae2", "provider": "bird", "timeStamp": "03/17/2020, 14:13:09"}, "type": "Feature"}, {"geometry": {"coordinates": [8.54077833333333, 47.37658], "type": "Point"}, "properties": {"charge": 27, "id": "bird_1272e6b0-d139-4abd-9dbe-51b1428d01c5", "provider": "bird", "timeStamp": "03/17/2020, 14:13:09"}, "type": "Feature"}, {"geometry": {"coordinates": [8.54120333333333, 47.3772966666667], "type": "Point"}, "properties": {"charge": 44, "id": "bird_9d83ba3b-ebee-4047-8326-c8237c08ed6d", "provider": "bird", "timeStamp": "03/17/2020, 14:13:09"}, "type": "Feature"}, {"geometry": {"coordinates": [8.52509, 47.372715], "type": "Point"}, "properties": {"charge": 61, "id": "bird_f1d0a0cd-10a3-43ce-a2bb-c2e10c687740", "provider": "bird", "timeStamp": "03/17/2020, 14:13:09"}, "type": "Feature"}, {"geometry": {"coordinates": [8.54059666666667, 47.3765716666667], "type": "Point"}, "properties": {"charge": 33, "id": "bird_d0934eaa-e34f-4036-ba29-9631bca91ad6", "provider": "bird", "timeStamp": "03/17/2020, 14:13:09"}, "type": "Feature"}, {"geometry": {"coordinates": [8.53465666666667, 47.3727], "type": "Point"}, "properties": {"charge": 92, "id": "bird_356d0749-053e-41d9-83f3-2a6275803b05", "provider": "bird", "timeStamp": "03/17/2020, 14:13:09"}, "type": "Feature"}, {"geometry": {"coordinates": [8.540925, 47.37709], "type": "Point"}, "properties": {"charge": 43, "id": "bird_a1110022-ea59-4e3e-8851-3e439dd1f496", "provider": "bird", "timeStamp": "03/17/2020, 14:13:09"}, "type": "Feature"}, {"geometry": {"coordinates": [8.51830166666667, 47.3799516666667], "type": "Point"}, "properties": {"charge": 66, "id": "bird_65e90dac-46a1-4d05-8590-d8b837a22d1b", "provider": "bird", "timeStamp": "03/17/2020, 14:13:09"}, "type": "Feature"}, {"geometry": {"coordinates": [8.54088333333333, 47.37711], "type": "Point"}, "properties": {"charge": 63, "id": "bird_7c8d455d-46ac-4d9a-9bc3-8e7c09f0f1bc", "provider": "bird", "timeStamp": "03/17/2020, 14:13:09"}, "type": "Feature"}, {"geometry": {"coordinates": [8.53458833333333, 47.3727716666667], "type": "Point"}, "properties": {"charge": 94, "id": "bird_93600034-6fe5-4341-b758-d8064088cc7c", "provider": "bird", "timeStamp": "03/17/2020, 14:13:09"}, "type": "Feature"}, {"geometry": {"coordinates": [8.53452666666667, 47.37276], "type": "Point"}, "properties": {"charge": 84, "id": "bird_adc10ebf-7cbe-4b92-8265-de411bad6e4b", "provider": "bird", "timeStamp": "03/17/2020, 14:13:09"}, "type": "Feature"}, {"geometry": {"coordinates": [8.53463666666667, 47.372795], "type": "Point"}, "properties": {"charge": 97, "id": "bird_3a21f817-0268-4917-9b8a-cf0fee73c3e1", "provider": "bird", "timeStamp": "03/17/2020, 14:13:09"}, "type": "Feature"}, {"geometry": {"coordinates": [8.53455166666667, 47.3728066666667], "type": "Point"}, "properties": {"charge": 98, "id": "bird_8cac9f0b-94c0-4d81-86da-7b3bd438b729", "provider": "bird", "timeStamp": "03/17/2020, 14:13:09"}, "type": "Feature"}, {"geometry": {"coordinates": [8.52795666666667, 47.3724516666667], "type": "Point"}, "properties": {"charge": 37, "id": "bird_3c23e93d-10bd-4542-bb41-d256c8f9aa3d", "provider": "bird", "timeStamp": "03/17/2020, 14:13:09"}, "type": "Feature"}, {"geometry": {"coordinates": [8.53685833333333, 47.3739016666667], "type": "Point"}, "properties": {"charge": 38, "id": "bird_e640059c-5dd4-4cc4-899c-3e3f6acd1257", "provider": "bird", "timeStamp": "03/17/2020, 14:13:09"}, "type": "Feature"}, {"geometry": {"coordinates": [8.53682, 47.3739283333333], "type": "Point"}, "properties": {"charge": 43, "id": "bird_b2bf9e65-c6f4-46a7-81f5-988ef5ca3a81", "provider": "bird", "timeStamp": "03/17/2020, 14:13:09"}, "type": "Feature"}, {"geometry": {"coordinates": [8.53683166666667, 47.373935], "type": "Point"}, "properties": {"charge": 28, "id": "bird_c544237d-0fc3-45cd-b897-f9c8fd67f22b", "provider": "bird", "timeStamp": "03/17/2020, 14:13:09"}, "type": "Feature"}, {"geometry": {"coordinates": [8.51978333333333, 47.3770683333333], "type": "Point"}, "properties": {"charge": 22, "id": "bird_73189baa-51fc-4a91-b26e-6ebbc7fcc042", "provider": "bird", "timeStamp": "03/17/2020, 14:13:09"}, "type": "Feature"}, {"geometry": {"coordinates": [8.54079, 47.37835], "type": "Point"}, "properties": {"charge": 55, "id": "bird_2b62ec26-6c26-48bb-816f-0e4d68abdba0", "provider": "bird", "timeStamp": "03/17/2020, 14:13:09"}, "type": "Feature"}, {"geometry": {"coordinates": [8.5291, 47.3726083333333], "type": "Point"}, "properties": {"charge": 48, "id": "bird_df802906-c453-42fe-9d83-d48fec99139e", "provider": "bird", "timeStamp": "03/17/2020, 14:13:09"}, "type": "Feature"}, {"geometry": {"coordinates": [8.53483166666667, 47.373485], "type": "Point"}, "properties": {"charge": 71, "id": "bird_a3052c9e-8fc2-4de8-84f0-dbf76cb7a86e", "provider": "bird", "timeStamp": "03/17/2020, 14:13:09"}, "type": "Feature"}, {"geometry": {"coordinates": [8.52953666666667, 47.3872833333333], "type": "Point"}, "properties": {"charge": 63, "id": "bird_a782aa5a-911d-468b-98f1-febc0f8f2475", "provider": "bird", "timeStamp": "03/17/2020, 14:13:09"}, "type": "Feature"}, {"geometry": {"coordinates": [8.53483333333333, 47.3735083333333], "type": "Point"}, "properties": {"charge": 62, "id": "bird_1dcbcd4b-5e34-4550-9af2-f8125547fe86", "provider": "bird", "timeStamp": "03/17/2020, 14:13:09"}, "type": "Feature"}, {"geometry": {"coordinates": [8.533365, 47.3731583333333], "type": "Point"}, "properties": {"charge": 57, "id": "bird_8762a16c-b838-47da-a888-13bf17c6b064", "provider": "bird", "timeStamp": "03/17/2020, 14:13:09"}, "type": "Feature"}, {"geometry": {"coordinates": [8.53752666666667, 47.37495], "type": "Point"}, "properties": {"charge": 29, "id": "bird_1388bb93-91d2-407b-a7cd-268702509e98", "provider": "bird", "timeStamp": "03/17/2020, 14:13:09"}, "type": "Feature"}, {"geometry": {"coordinates": [8.53914333333333, 47.383595], "type": "Point"}, "properties": {"charge": 18, "id": "bird_a2772406-ad8c-44c9-bbbd-2b5369af88e3", "provider": "bird", "timeStamp": "03/17/2020, 14:13:09"}, "type": "Feature"}, {"geometry": {"coordinates": [8.51948833333333, 47.3803666666667], "type": "Point"}, "properties": {"charge": 40, "id": "bird_32f8ff4a-d0ba-46aa-b2fe-bbf5654ea7e7", "provider": "bird", "timeStamp": "03/17/2020, 14:13:09"}, "type": "Feature"}, {"geometry": {"coordinates": [8.52757666666667, 47.3731616666667], "type": "Point"}, "properties": {"charge": 35, "id": "bird_e415045f-c019-49ff-b21c-f3955e4eb956", "provider": "bird", "timeStamp": "03/17/2020, 14:13:09"}, "type": "Feature"}, {"geometry": {"coordinates": [8.53549166666667, 47.3740316666667], "type": "Point"}, "properties": {"charge": 66, "id": "bird_f573617f-4efc-42df-b694-b75d5119be77", "provider": "bird", "timeStamp": "03/17/2020, 14:13:09"}, "type": "Feature"}, {"geometry": {"coordinates": [8.53552, 47.37407], "type": "Point"}, "properties": {"charge": 61, "id": "bird_eaa91a0c-5690-4b19-bb54-367f36ac23b3", "provider": "bird", "timeStamp": "03/17/2020, 14:13:09"}, "type": "Feature"}, {"geometry": {"coordinates": [8.53918333333333, 47.37701], "type": "Point"}, "properties": {"charge": 56, "id": "bird_e1933927-0487-4730-b1a7-7e8313154de0", "provider": "bird", "timeStamp": "03/17/2020, 14:13:09"}, "type": "Feature"}, {"geometry": {"coordinates": [8.52418666666667, 47.3744233333333], "type": "Point"}, "properties": {"charge": 93, "id": "bird_d3950f7e-2c81-4025-b2b4-0f4cd16d78ef", "provider": "bird", "timeStamp": "03/17/2020, 14:13:09"}, "type": "Feature"}, {"geometry": {"coordinates": [8.52122333333333, 47.376675], "type": "Point"}, "properties": {"charge": 49, "id": "bird_bd280552-b5ad-418d-93b5-847e0edaa9da", "provider": "bird", "timeStamp": "03/17/2020, 14:13:09"}, "type": "Feature"}, {"geometry": {"coordinates": [8.53754666666667, 47.375645], "type": "Point"}, "properties": {"charge": 38, "id": "bird_af0ae44a-a943-4411-be6b-ab5652e68130", "provider": "bird", "timeStamp": "03/17/2020, 14:13:09"}, "type": "Feature"}, {"geometry": {"coordinates": [8.5243, 47.374515], "type": "Point"}, "properties": {"charge": 93, "id": "bird_1b8ff286-8252-4226-ad6b-bfe1f4ff1a32", "provider": "bird", "timeStamp": "03/17/2020, 14:13:09"}, "type": "Feature"}, {"geometry": {"coordinates": [8.53577166666667, 47.385445], "type": "Point"}, "properties": {"charge": 62, "id": "bird_aa238333-9e79-4b07-8d19-bbd302b0336f", "provider": "bird", "timeStamp": "03/17/2020, 14:13:09"}, "type": "Feature"}, {"geometry": {"coordinates": [8.524255, 47.3746], "type": "Point"}, "properties": {"charge": 96, "id": "bird_f1666d56-48e7-4020-9e64-5e011553f8f9", "provider": "bird", "timeStamp": "03/17/2020, 14:13:09"}, "type": "Feature"}, {"geometry": {"coordinates": [8.52779666666667, 47.3735316666667], "type": "Point"}, "properties": {"charge": 33, "id": "bird_95ec039d-b1d5-4518-87eb-ac3485f489ba", "provider": "bird", "timeStamp": "03/17/2020, 14:13:09"}, "type": "Feature"}, {"geometry": {"coordinates": [8.52421833333333, 47.3746483333333], "type": "Point"}, "properties": {"charge": 45, "id": "bird_b60d1e9d-09d1-4013-8e93-05a97ea81b0e", "provider": "bird", "timeStamp": "03/17/2020, 14:13:09"}, "type": "Feature"}, {"geometry": {"coordinates": [8.52838666666667, 47.373485], "type": "Point"}, "properties": {"charge": 49, "id": "bird_5ce25fad-07b0-462a-a3b0-453d74e278a7", "provider": "bird", "timeStamp": "03/17/2020, 14:13:09"}, "type": "Feature"}, {"geometry": {"coordinates": [8.52418833333333, 47.3746983333333], "type": "Point"}, "properties": {"charge": 64, "id": "bird_8cb82570-0e9f-42f4-a694-a44982adf142", "provider": "bird", "timeStamp": "03/17/2020, 14:13:09"}, "type": "Feature"}, {"geometry": {"coordinates": [8.53610166666667, 47.3748783333333], "type": "Point"}, "properties": {"charge": 39, "id": "bird_da1e3791-7d67-409d-8632-e06b3c979232", "provider": "bird", "timeStamp": "03/17/2020, 14:13:09"}, "type": "Feature"}, {"geometry": {"coordinates": [8.53701333333333, 47.3754466666667], "type": "Point"}, "properties": {"charge": 89, "id": "bird_014dee11-d06d-4720-85b3-2c0eea0c8b60", "provider": "bird", "timeStamp": "03/17/2020, 14:13:09"}, "type": "Feature"}, {"geometry": {"coordinates": [8.525455, 47.3741916666667], "type": "Point"}, "properties": {"charge": 65, "id": "bird_2b8e5760-8cab-4ca9-942a-1674143ee9dd", "provider": "bird", "timeStamp": "03/17/2020, 14:13:09"}, "type": "Feature"}, {"geometry": {"coordinates": [8.52427666666667, 47.3746916666667], "type": "Point"},