{"features": [{"geometry": {"coordinates": [8.540062, 47.374392], "type": "Point"}, "properties": {"address": "Uraniastrasse 7", "electric": 3, "id": "pb_60", "manual": 3, "name": "Demo Station Werdm\u00fchleplatz", "provider": "publibike", "timeStamp": "03/21/2020, 11:07:10", "zip": 8001}, "type": "Feature"}, {"geometry": {"coordinates": [8.5452956, 47.4099615], "type": "Point"}, "properties": {"address": "Querstrasse 8", "electric": 0, "id": "pb_61", "manual": 1, "name": "Marktplatz", "provider": "publibike", "timeStamp": "03/21/2020, 11:07:10", "zip": 8050}, "type": "Feature"}, {"geometry": {"coordinates": [8.5156327, 47.3795837], "type": "Point"}, "properties": {"address": "Bullingerstrasse 5", "electric": 2, "id": "pb_80", "manual": 10, "name": "Bullingerplatz", "provider": "publibike", "timeStamp": "03/21/2020, 11:07:10", "zip": 8004}, "type": "Feature"}, {"geometry": {"coordinates": [8.5104051, 47.3899342], "type": "Point"}, "properties": {"address": "Pfingstweidstrasse 96e", "electric": 0, "id": "pb_81", "manual": 6, "name": "Herdern", "provider": "publibike", "timeStamp": "03/21/2020, 11:07:10", "zip": 8001}, "type": "Feature"}, {"geometry": {"coordinates": [8.535718, 47.359675], "type": "Point"}, "properties": {"address": "Mythenquai 50", "electric": 7, "id": "pb_82", "manual": 6, "name": "Hafen Enge", "provider": "publibike", "timeStamp": "03/21/2020, 11:07:10", "zip": 8002}, "type": "Feature"}, {"geometry": {"coordinates": [8.520370505, 47.358663827], "type": "Point"}, "properties": {"address": "Bubenbergstrasse 1", "electric": 0, "id": "pb_83", "manual": 0, "name": "Comerge", "provider": "publibike", "timeStamp": "03/21/2020, 11:07:10", "zip": 8045}, "type": "Feature"}, {"geometry": {"coordinates": [8.5412505, 47.3789825], "type": "Point"}, "properties": {"address": "Museumstrasse 2", "electric": 7, "id": "pb_84", "manual": 27, "name": "Landesmuseum", "provider": "publibike", "timeStamp": "03/21/2020, 11:07:10", "zip": 8001}, "type": "Feature"}, {"geometry": {"coordinates": [8.5235479, 47.3716661], "type": "Point"}, "properties": {"address": "Birmensdorferstrasse 80", "electric": 4, "id": "pb_85", "manual": 6, "name": "Bahnhof Wiedikon", "provider": "publibike", "timeStamp": "03/21/2020, 11:07:10", "zip": 8003}, "type": "Feature"}, {"geometry": {"coordinates": [8.506822854, 47.40781197], "type": "Point"}, "properties": {"address": "Stefano-Franscini-Platz 5", "electric": 3, "id": "pb_86", "manual": 0, "name": "ETH H\u00f6nggerberg", "provider": "publibike", "timeStamp": "03/21/2020, 11:07:10", "zip": 8093}, "type": "Feature"}, {"geometry": {"coordinates": [8.536101, 47.371083], "type": "Point"}, "properties": {"address": "Pelikanplatz 5", "electric": 8, "id": "pb_87", "manual": 6, "name": "Pelikanplatz", "provider": "publibike", "timeStamp": "03/21/2020, 11:07:10", "zip": 8001}, "type": "Feature"}, {"geometry": {"coordinates": [8.5257822, 47.3651936], "type": "Point"}, "properties": {"address": "H\u00fcrlimannplatz 90", "electric": 12, "id": "pb_88", "manual": 4, "name": "H\u00fcrlimannplatz", "provider": "publibike", "timeStamp": "03/21/2020, 11:07:10", "zip": 8002}, "type": "Feature"}, {"geometry": {"coordinates": [8.5313344, 47.3713591], "type": "Point"}, "properties": {"address": "Selnaustrasse 32", "electric": 0, "id": "pb_89", "manual": 5, "name": "Stauffacherbr\u00fccke", "provider": "publibike", "timeStamp": "03/21/2020, 11:07:10", "zip": 8001}, "type": "Feature"}, {"geometry": {"coordinates": [8.5056978, 47.3917964], "type": "Point"}, "properties": {"address": "Sportweg 25", "electric": 2, "id": "pb_90", "manual": 4, "name": "Sportweg", "provider": "publibike", "timeStamp": "03/21/2020, 11:07:10", "zip": 8005}, "type": "Feature"}, {"geometry": {"coordinates": [8.5181701, 47.3917837], "type": "Point"}, "properties": {"address": "Hardturmstrasse 11", "electric": 4, "id": "pb_91", "manual": 6, "name": "Puls 5", "provider": "publibike", "timeStamp": "03/21/2020, 11:07:10", "zip": 8005}, "type": "Feature"}, {"geometry": {"coordinates": [8.5286468, 47.3820827], "type": "Point"}, "properties": {"address": "R\u00f6ntgenstrasse 6", "electric": 0, "id": "pb_92", "manual": 1, "name": "R\u00f6ntgenstrasse", "provider": "publibike", "timeStamp": "03/21/2020, 11:07:10", "zip": 8005}, "type": "Feature"}, {"geometry": {"coordinates": [8.531935, 47.384918], "type": "Point"}, "properties": {"address": "Kornhausbr\u00fccke 1", "electric": 4, "id": "pb_93", "manual": 9, "name": "Limmatplatz", "provider": "publibike", "timeStamp": "03/21/2020, 11:07:10", "zip": 8005}, "type": "Feature"}, {"geometry": {"coordinates": [8.5354006, 47.3758639], "type": "Point"}, "properties": {"address": "Gessnerallee 15", "electric": 5, "id": "pb_94", "manual": 3, "name": "Gessnerallee", "provider": "publibike", "timeStamp": "03/21/2020, 11:07:10", "zip": 8001}, "type": "Feature"}, {"geometry": {"coordinates": [8.523818, 47.377148], "type": "Point"}, "properties": {"address": "Stauffacherstrasse 127", "electric": 6, "id": "pb_95", "manual": 0, "name": "B\u00e4ckeranlage", "provider": "publibike", "timeStamp": "03/21/2020, 11:07:10", "zip": 8004}, "type": "Feature"}, {"geometry": {"coordinates": [8.531836, 47.378548], "type": "Point"}, "properties": {"address": "Lagerstrasse 44", "electric": 6, "id": "pb_96", "manual": 13, "name": "Gustav-Gull-Platz", "provider": "publibike", "timeStamp": "03/21/2020, 11:07:10", "zip": 8004}, "type": "Feature"}, {"geometry": {"coordinates": [8.5104883, 47.3771535], "type": "Point"}, "properties": {"address": "Zurlindenstrasse 291", "electric": 6, "id": "pb_97", "manual": 6, "name": "Zurlindenstrasse", "provider": "publibike", "timeStamp": "03/21/2020, 11:07:10", "zip": 8003}, "type": "Feature"}, {"geometry": {"coordinates": [8.5333139, 47.3731102], "type": "Point"}, "properties": {"address": "Sihlstrasse 81", "electric": 0, "id": "pb_98", "manual": 6, "name": "Sihlstrasse", "provider": "publibike", "timeStamp": "03/21/2020, 11:07:10", "zip": 8001}, "type": "Feature"}, {"geometry": {"coordinates": [8.520532, 47.374951], "type": "Point"}, "properties": {"address": "Feldstrasse 24", "electric": 1, "id": "pb_99", "manual": 3, "name": "Kalkbreite", "provider": "publibike", "timeStamp": "03/21/2020, 11:07:10", "zip": 8004}, "type": "Feature"}, {"geometry": {"coordinates": [8.539046, 47.368064], "type": "Point"}, "properties": {"address": "Talstrasse 12", "electric": 0, "id": "pb_100", "manual": 7, "name": "Z\u00fcrcher Kantonalbank", "provider": "publibike", "timeStamp": "03/21/2020, 11:07:10", "zip": 8001}, "type": "Feature"}, {"geometry": {"coordinates": [8.5348427, 47.3625938], "type": "Point"}, "properties": {"address": "Breitingerstrasse 5", "electric": 2, "id": "pb_101", "manual": 7, "name": "Rentenanstalt", "provider": "publibike", "timeStamp": "03/21/2020, 11:07:10", "zip": 8002}, "type": "Feature"}, {"geometry": {"coordinates": [8.5166922, 47.3897772], "type": "Point"}, "properties": {"address": "Technoparkstrasse 4", "electric": 0, "id": "pb_102", "manual": 4, "name": "Turbinenplatz", "provider": "publibike", "timeStamp": "03/21/2020, 11:07:10", "zip": 8005}, "type": "Feature"}, {"geometry": {"coordinates": [8.539312, 47.3739964], "type": "Point"}, "properties": {"address": "Oetenbachgasse 14", "electric": 3, "id": "pb_104", "manual": 4, "name": "Rennweg", "provider": "publibike", "timeStamp": "03/21/2020, 11:07:10", "zip": 8001}, "type": "Feature"}, {"geometry": {"coordinates": [8.5360685, 47.3775022], "type": "Point"}, "properties": {"address": "Kasernenstrasse 101", "electric": 7, "id": "pb_105", "manual": 17, "name": "Sihlpost", "provider": "publibike", "timeStamp": "03/21/2020, 11:07:10", "zip": 8004}, "type": "Feature"}, {"geometry": {"coordinates": [8.53545, 47.382798], "type": "Point"}, "properties": {"address": "Ausstellungsstrasse 44", "electric": 0, "id": "pb_106", "manual": 1, "name": "Museum f\u00fcr Gestaltung", "provider": "publibike", "timeStamp": "03/21/2020, 11:07:10", "zip": 8005}, "type": "Feature"}, {"geometry": {"coordinates": [8.5306155, 47.3647902], "type": "Point"}, "properties": {"address": "Gutenbergstrasse 1", "electric": 4, "id": "pb_107", "manual": 8, "name": "Bederbr\u00fccke", "provider": "publibike", "timeStamp": "03/21/2020, 11:07:10", "zip": 8002}, "type": "Feature"}, {"geometry": {"coordinates": [8.518982, 47.386741], "type": "Point"}, "properties": {"address": "Geroldstrasse 4", "electric": 0, "id": "pb_108", "manual": 13, "name": "Bahnhof Hardbr\u00fccke", "provider": "publibike", "timeStamp": "03/21/2020, 11:07:10", "zip": 8005}, "type": "Feature"}, {"geometry": {"coordinates": [8.53001018, 47.37247535], "type": "Point"}, "properties": {"address": "Werdstrasse 21", "electric": 9, "id": "pb_109", "manual": 3, "name": "Tamedia", "provider": "publibike", "timeStamp": "03/21/2020, 11:07:10", "zip": 8004}, "type": "Feature"}, {"geometry": {"coordinates": [8.4860017, 47.396401], "type": "Point"}, "properties": {"address": "Gr\u00fcnauring 37", "electric": 4, "id": "pb_110", "manual": 4, "name": "Gr\u00fcnau", "provider": "publibike", "timeStamp": "03/21/2020, 11:07:10", "zip": 8064}, "type": "Feature"}, {"geometry": {"coordinates": [8.548519, 47.376756], "type": "Point"}, "properties": {"address": "R\u00e4mistrasse 101", "electric": 6, "id": "pb_111", "manual": 1, "name": "ETH Zentrum", "provider": "publibike", "timeStamp": "03/21/2020, 11:07:10", "zip": 8006}, "type": "Feature"}, {"geometry": {"coordinates": [8.520449, 47.388151], "type": "Point"}, "properties": {"address": "Josefstrasse 224", "electric": 1, "id": "pb_112", "manual": 3, "name": "Steinfelsareal", "provider": "publibike", "timeStamp": "03/21/2020, 11:07:10", "zip": 8005}, "type": "Feature"}, {"geometry": {"coordinates": [8.520482, 47.37209], "type": "Point"}, "properties": {"address": "Weststrasse 115", "electric": 3, "id": "pb_124", "manual": 2, "name": "Weststrasse", "provider": "publibike", "timeStamp": "03/21/2020, 11:07:10", "zip": 8003}, "type": "Feature"}, {"geometry": {"coordinates": [8.496727, 47.378521], "type": "Point"}, "properties": {"address": "Albisriederstrasse 200", "electric": 6, "id": "pb_125", "manual": 4, "name": "Utogrund", "provider": "publibike", "timeStamp": "03/21/2020, 11:07:10", "zip": 8047}, "type": "Feature"}, {"geometry": {"coordinates": [8.510418, 47.381356], "type": "Point"}, "properties": {"address": "Bullingerstrasse 73", "electric": 4, "id": "pb_126", "manual": 8, "name": "Hardau", "provider": "publibike", "timeStamp": "03/21/2020, 11:07:10", "zip": 8004}, "type": "Feature"}, {"geometry": {"coordinates": [8.525525, 47.361567], "type": "Point"}, "properties": {"address": "Klopstockstrasse 23", "electric": 0, "id": "pb_127", "manual": 6, "name": "Klopstockwiese", "provider": "publibike", "timeStamp": "03/21/2020, 11:07:10", "zip": 8002}, "type": "Feature"}, {"geometry": {"coordinates": [8.518143, 47.363148], "type": "Point"}, "properties": {"address": "Haldenstrasse 8", "electric": 4, "id": "pb_128", "manual": 6, "name": "Binz", "provider": "publibike", "timeStamp": "03/21/2020, 11:07:10", "zip": 8045}, "type": "Feature"}, {"geometry": {"coordinates": [8.542726, 47.379952], "type": "Point"}, "properties": {"address": "Walchestrasse 11", "electric": 1, "id": "pb_129", "manual": 6, "name": "Stampfenbachplatz", "provider": "publibike", "timeStamp": "03/21/2020, 11:07:10", "zip": 8006}, "type": "Feature"}, {"geometry": {"coordinates": [8.488108, 47.391366], "type": "Point"}, "properties": {"address": "Altstetterplatz 1", "electric": 9, "id": "pb_130", "manual": 8, "name": "Bahnhof Altstetten", "provider": "publibike", "timeStamp": "03/21/2020, 11:07:10", "zip": 8048}, "type": "Feature"}, {"geometry": {"coordinates": [8.554114, 47.365119], "type": "Point"}, "properties": {"address": "Kreuzplatz 2", "electric": 9, "id": "pb_131", "manual": 2, "name": "Kreuzplatz", "provider": "publibike", "timeStamp": "03/21/2020, 11:07:10", "zip": 8032}, "type": "Feature"}, {"geometry": {"coordinates": [8.549852, 47.35594], "type": "Point"}, "properties": {"address": "H\u00f6schgasse 3", "electric": 3, "id": "pb_132", "manual": 5, "name": "Blatterwiese", "provider": "publibike", "timeStamp": "03/21/2020, 11:07:10", "zip": 8008}, "type": "Feature"}, {"geometry": {"coordinates": [8.554501, 47.36162], "type": "Point"}, "properties": {"address": "Feldeggstrasse 80", "electric": 15, "id": "pb_133", "manual": 3, "name": "Villa Bleuler", "provider": "publibike", "timeStamp": "03/21/2020, 11:07:10", "zip": 8008}, "type": "Feature"}, {"geometry": {"coordinates": [8.557088, 47.358557], "type": "Point"}, "properties": {"address": "M\u00fchlebachstrasse 131", "electric": 2, "id": "pb_134", "manual": 6, "name": "M\u00fchlebachstrasse", "provider": "publibike", "timeStamp": "03/21/2020, 11:07:10", "zip": 8008}, "type": "Feature"}, {"geometry": {"coordinates": [8.547639, 47.361266], "type": "Point"}, "properties": {"address": "Utoquai 50", "electric": 1, "id": "pb_135", "manual": 1, "name": "Seebad Utoquai", "provider": "publibike", "timeStamp": "03/21/2020, 11:07:10", "zip": 8008}, "type": "Feature"}, {"geometry": {"coordinates": [8.548045, 47.370869], "type": "Point"}, "properties": {"address": "Heimplatz 1", "electric": 2, "id": "pb_137", "manual": 1, "name": "Kunsthaus", "provider": "publibike", "timeStamp": "03/21/2020, 11:07:10", "zip": 8001}, "type": "Feature"}, {"geometry": {"coordinates": [8.543447, 47.375933], "type": "Point"}, "properties": {"address": "Limmatquai 138", "electric": 7, "id": "pb_138", "manual": 7, "name": "Central", "provider": "publibike", "timeStamp": "03/21/2020, 11:07:10", "zip": 8001}, "type": "Feature"}, {"geometry": {"coordinates": [8.549356, 47.408827], "type": "Point"}, "properties": {"address": "Tramstrasse 35", "electric": 2, "id": "pb_139", "manual": 1, "name": "ewz Tramstrasse", "provider": "publibike", "timeStamp": "03/21/2020, 11:07:10", "zip": 8050}, "type": "Feature"}, {"geometry": {"coordinates": [8.533736, 47.366904], "type": "Point"}, "properties": {"address": "Bleicherweg 33", "electric": 2, "id": "pb_140", "manual": 10, "name": "Bleicherweg", "provider": "publibike", "timeStamp": "03/21/2020, 11:07:10", "zip": 8002}, "type": "Feature"}, {"geometry": {"coordinates": [8.544935, 47.366752], "type": "Point"}, "properties": {"address": "Bellevueplatz 2", "electric": 36, "id": "pb_141", "manual": 13, "name": "Bellevue", "provider": "publibike", "timeStamp": "03/21/2020, 11:07:10", "zip": 8001}, "type": "Feature"}, {"geometry": {"coordinates": [8.5285533, 47.3742296], "type": "Point"}, "properties": {"address": "Stauffacherstrasse 41", "electric": 3, "id": "pb_142", "manual": 16, "name": "Stauffacher", "provider": "publibike", "timeStamp": "03/21/2020, 11:07:10", "zip": 8004}, "type": "Feature"}, {"geometry": {"coordinates": [8.523722, 47.3899], "type": "Point"}, "properties": {"address": "Limmatstrasse 310", "electric": 2, "id": "pb_143", "manual": 1, "name": "Escher-Wyss-Platz", "provider": "publibike", "timeStamp": "03/21/2020, 11:07:10", "zip": 8005}, "type": "Feature"}, {"geometry": {"coordinates": [8.491061, 47.392336], "type": "Point"}, "properties": {"address": "Vulkanplatz 1", "electric": 1, "id": "pb_149", "manual": 6, "name": "Vulkanplatz", "provider": "publibike", "timeStamp": "03/21/2020, 11:07:10", "zip": 8048}, "type": "Feature"}, {"geometry": {"coordinates": [8.52306, 47.359872], "type": "Point"}, "properties": {"address": "Giessh\u00fcbelstrasse 15", "electric": 0, "id": "pb_150", "manual": 5, "name": "Utoplatz", "provider": "publibike", "timeStamp": "03/21/2020, 11:07:10", "zip": 8045}, "type": "Feature"}, {"geometry": {"coordinates": [8.486284, 47.387685], "type": "Point"}, "properties": {"address": "Lindenplatz 1", "electric": 7, "id": "pb_151", "manual": 9, "name": "Lindenplatz", "provider": "publibike", "timeStamp": "03/21/2020, 11:07:10", "zip": 8048}, "type": "Feature"}, {"geometry": {"coordinates": [8.49163, 47.389823], "type": "Point"}, "properties": {"address": "Hohlstrasse 563", "electric": 5, "id": "pb_152", "manual": 8, "name": "Luggweg", "provider": "publibike", "timeStamp": "03/21/2020, 11:07:10", "zip": 8048}, "type": "Feature"}, {"geometry": {"coordinates": [8.52174, 47.365272], "type": "Point"}, "properties": {"address": "Manessestrasse 87", "electric": 8, "id": "pb_153", "manual": 7, "name": "Manesseplatz", "provider": "publibike", "timeStamp": "03/21/2020, 11:07:10", "zip": 8045}, "type": "Feature"}, {"geometry": {"coordinates": [8.52714, 47.372329], "type": "Point"}, "properties": {"address": "Werdstrasse 75", "electric": 7, "id": "pb_154", "manual": 10, "name": "Werd", "provider": "publibike", "timeStamp": "03/21/2020, 11:07:10", "zip": 8004}, "type": "Feature"}, {"geometry": {"coordinates": [8.543042, 47.374711], "type": "Point"}, "properties": {"address": "Limmatquai 100", "electric": 0, "id": "pb_155", "manual": 0, "name": "Rudolf-Brun-Br\u00fccke", "provider": "publibike", "timeStamp": "03/21/2020, 11:07:10", "zip": 8001}, "type": "Feature"}, {"geometry": {"coordinates": [8.490837, 47.386596], "type": "Point"}, "properties": {"address": "Badenerstrasse 627", "electric": 0, "id": "pb_156", "manual": 12, "name": "Luggwegstrasse VBZ", "provider": "publibike", "timeStamp": "03/21/2020, 11:07:10", "zip": 8048}, "type": "Feature"}, {"geometry": {"coordinates": [8.535119, 47.355189], "type": "Point"}, "properties": {"address": "Mythenquai 95", "electric": 5, "id": "pb_157", "manual": 1, "name": "Strandbad Mythenquai", "provider": "publibike", "timeStamp": "03/21/2020, 11:07:10", "zip": 8002}, "type": "Feature"}, {"geometry": {"coordinates": [8.545505, 47.373675], "type": "Point"}, "properties": {"address": "Predigerpatz 21", "electric": 0, "id": "pb_158", "manual": 1, "name": "Predigerplatz", "provider": "publibike", "timeStamp": "03/21/2020, 11:07:10", "zip": 8001}, "type": "Feature"}, {"geometry": {"coordinates": [8.515558, 47.371868], "type": "Point"}, "properties": {"address": "Aemtlerstrasse 23", "electric": 7, "id": "pb_159", "manual": 4, "name": "Zwinglihaus", "provider": "publibike", "timeStamp": "03/21/2020, 11:07:10", "zip": 8003}, "type": "Feature"}, {"geometry": {"coordinates": [8.524629, 47.386072], "type": "Point"}, "properties": {"address": "Josefstrasse 188", "electric": 3, "id": "pb_160", "manual": 2, "name": "Josefwiese", "provider": "publibike", "timeStamp": "03/21/2020, 11:07:10", "zip": 8005}, "type": "Feature"}, {"geometry": {"coordinates": [8.527138, 47.387531], "type": "Point"}, "properties": {"address": "R\u00f6ntgenstrasse 87", "electric": 2, "id": "pb_164", "manual": 3, "name": "Markthalle", "provider": "publibike", "timeStamp": "03/21/2020, 11:07:10", "zip": 8005}, "type": "Feature"}, {"geometry": {"coordinates": [8.552717, 47.359978], "type": "Point"}, "properties": {"address": "Seefeldstrasse 96", "electric": 0, "id": "pb_263", "manual": 3, "name": "Feldeggstrasse", "provider": "publibike", "timeStamp": "03/21/2020, 11:07:10", "zip": 8008}, "type": "Feature"}, {"geometry": {"coordinates": [8.553189, 47.353198], "type": "Point"}, "properties": {"address": "Bellerivestrasse 170", "electric": 6, "id": "pb_264", "manual": 8, "name": "Lake Side", "provider": "publibike", "timeStamp": "03/21/2020, 11:07:10", "zip": 8008}, "type": "Feature"}, {"geometry": {"coordinates": [8.543437, 47.369256], "type": "Point"}, "properties": {"address": "Limmatquai 18", "electric": 0, "id": "pb_265", "manual": 0, "name": "Helmhaus", "provider": "publibike", "timeStamp": "03/21/2020, 11:07:10", "zip": 8032}, "type": "Feature"}, {"geometry": {"coordinates": [8.516676, 47.375819], "type": "Point"}, "properties": {"address": "Badenerstrasse 246", "electric": 2, "id": "pb_266", "manual": 9, "name": "Lochergut", "provider": "publibike", "timeStamp": "03/21/2020, 11:07:10", "zip": 8004}, "type": "Feature"}, {"geometry": {"coordinates": [8.514605, 47.389862], "type": "Point"}, "properties": {"address": "Pfingstweidstrasse 60", "electric": 1, "id": "pb_273", "manual": 4, "name": "Westpark", "provider": "publibike", "timeStamp": "03/21/2020, 11:07:10", "zip": 8005}, "type": "Feature"}, {"geometry": {"coordinates": [8.541239126, 47.375991201], "type": "Point"}, "properties": {"address": "Beatenplatz 1", "electric": 0, "id": "pb_274", "manual": 13, "name": "Beatenplatz", "provider": "publibike", "timeStamp": "03/21/2020, 11:07:10", "zip": 8001}, "type": "Feature"}, {"geometry": {"coordinates": [8.5417135, 47.3942197], "type": "Point"}, "properties": {"address": "Scheuchzerstrasse 181", "electric": 3, "id": "pb_275", "manual": 1, "name": "Pauluskirche", "provider": "publibike", "timeStamp": "03/21/2020, 11:07:10", "zip": 8057}, "type": "Feature"}, {"geometry": {"coordinates": [8.5528182, 47.414558], "type": "Point"}, "properties": {"address": "Hagenholzstrasse 51", "electric": 0, "id": "pb_276", "manual": 6, "name": "Airgate", "provider": "publibike", "timeStamp": "03/21/2020, 11:07:10", "zip": 8050}, "type": "Feature"}, {"geometry": {"coordinates": [8.537816, 47.413514], "type": "Point"}, "properties": {"address": "Birchstrasse 183", "electric": 0, "id": "pb_277", "manual": 0, "name": "Lamprechtweg", "provider": "publibike", "timeStamp": "03/21/2020, 11:07:10", "zip": 8050}, "type": "Feature"}, {"geometry": {"coordinates": [8.545602, 47.417701], "type": "Point"}, "properties": {"address": "Felsenrainstrasse 2", "electric": 5, "id": "pb_278", "manual": 2, "name": "Emil-Oberh\u00e4nsli", "provider": "publibike", "timeStamp": "03/21/2020, 11:07:10", "zip": 8050}, "type": "Feature"}, {"geometry": {"coordinates": [8.533647, 47.39808], "type": "Point"}, "properties": {"address": "Bucheggplatz 2", "electric": 3, "id": "pb_279", "manual": 10, "name": "Bucheggplatz", "provider": "publibike", "timeStamp": "03/21/2020, 11:07:10", "zip": 8057}, "type": "Feature"}, {"geometry": {"coordinates": [8.523549, 47.392347], "type": "Point"}, "properties": {"address": "Wipkingerplatz 4", "electric": 2, "id": "pb_280", "manual": 5, "name": "Wipkingerplatz", "provider": "publibike", "timeStamp": "03/21/2020, 11:07:10", "zip": 8037}, "type": "Feature"}, {"geometry": {"coordinates": [8.548562, 47.36691], "type": "Point"}, "properties": {"address": "Galerie \u00fcber Gleis 2/3", "electric": 1, "id": "pb_285", "manual": 11, "name": "Bahnhof Stadelhofen", "provider": "publibike", "timeStamp": "03/21/2020, 11:07:10", "zip": 8001}, "type": "Feature"}, {"geometry": {"coordinates": [8.493822, 47.3985553], "type": "Point"}, "properties": {"address": "Meierwiesenstrasse 12-4", "electric": 0, "id": "pb_286", "manual": 2, "name": "T\u00fcffenwies", "provider": "publibike", "timeStamp": "03/21/2020, 11:07:10", "zip": 8064}, "type": "Feature"}, {"geometry": {"coordinates": [8.552432, 47.3801757], "type": "Point"}, "properties": {"address": "Hochstrasse 34", "electric": 8, "id": "pb_356", "manual": 0, "name": "Siriuswiese", "provider": "publibike", "timeStamp": "03/21/2020, 11:07:10", "zip": 8044}, "type": "Feature"}, {"geometry": {"coordinates": [8.527298, 47.370141], "type": "Point"}, "properties": {"address": "Hallwylstrasse 71", "electric": 3, "id": "pb_357", "manual": 3, "name": "Hallwylstrasse", "provider": "publibike", "timeStamp": "03/21/2020, 11:07:10", "zip": 8004}, "type": "Feature"}, {"geometry": {"coordinates": [8.5414185, 47.3972455], "type": "Point"}, "properties": {"address": "Schaffhauserstrasse 137", "electric": 4, "id": "pb_358", "manual": 1, "name": "Milchbuck", "provider": "publibike", "timeStamp": "03/21/2020, 11:07:10", "zip": 8057}, "type": "Feature"}, {"geometry": {"coordinates": [8.512381, 47.393409], "type": "Point"}, "properties": {"address": "Hardturmstrasse 161", "electric": 4, "id": "pb_359", "manual": 1, "name": "Fischerweg", "provider": "publibike", "timeStamp": "03/21/2020, 11:07:10", "zip": 8005}, "type": "Feature"}, {"geometry": {"coordinates": [8.5421457, 47.3876979], "type": "Point"}, "properties": {"address": "Turnerstrasse 47", "electric": 5, "id": "pb_360", "manual": 6, "name": "Kirche Unterstrass", "provider": "publibike", "timeStamp": "03/21/2020, 11:07:10", "zip": 8006}, "type": "Feature"}, {"geometry": {"coordinates": [8.522117, 47.394554], "type": "Point"}, "properties": {"address": "Dorfstrasse 40", "electric": 0, "id": "pb_361", "manual": 3, "name": "Dorfstrasse", "provider": "publibike", "timeStamp": "03/21/2020, 11:07:10", "zip": 8037}, "type": "Feature"}, {"geometry": {"coordinates": [8.530437, 47.37271], "type": "Point"}, "properties": {"address": "Werdstrasse 25", "electric": 3, "id": "pb_362", "manual": 8, "name": "Stauffachertor", "provider": "publibike", "timeStamp": "03/21/2020, 11:07:10", "zip": 8004}, "type": "Feature"}, {"geometry": {"coordinates": [8.541712, 47.416155], "type": "Point"}, "properties": {"address": "Eggb\u00fchlstrasse 21", "electric": 1, "id": "pb_363", "manual": 5, "name": "Wahlenpark", "provider": "publibike", "timeStamp": "03/21/2020, 11:07:10", "zip": 8050}, "type": "Feature"}, {"geometry": {"coordinates": [8.5595335, 47.3708387], "type": "Point"}, "properties": {"address": "Dolderstrasse 32", "electric": 3, "id": "pb_364", "manual": 0, "name": "Kinderspital", "provider": "publibike", "timeStamp": "03/21/2020, 11:07:10", "zip": 8032}, "type": "Feature"}, {"geometry": {"coordinates": [8.536433, 47.388689], "type": "Point"}, "properties": {"address": "Kornhausstrasse 30", "electric": 3, "id": "pb_365", "manual": 1, "name": "Kornhausstrasse", "provider": "publibike", "timeStamp": "03/21/2020, 11:07:10", "zip": 8006}, "type": "Feature"}, {"geometry": {"coordinates": [8.55033, 47.407098], "type": "Point"}, "properties": {"address": "Schwamendingenstrasse 41", "electric": 4, "id": "pb_366", "manual": 2, "name": "Dorflinde", "provider": "publibike", "timeStamp": "03/21/2020, 11:07:10", "zip": 8050}, "type": "Feature"}, {"geometry": {"coordinates": [8.560476, 47.368199], "type": "Point"}, "properties": {"address": "R\u00f6merhofplatz 5", "electric": 3, "id": "pb_367", "manual": 0, "name": "R\u00f6merhof", "provider": "publibike", "timeStamp": "03/21/2020, 11:07:10", "zip": 8032}, "type": "Feature"}, {"geometry": {"coordinates": [8.5609218, 47.3619068], "type": "Point"}, "properties": {"address": "Forchstrasse 99", "electric": 5, "id": "pb_368", "manual": 0, "name": "Hegibachplatz", "provider": "publibike", "timeStamp": "03/21/2020, 11:07:10", "zip": 8032}, "type": "Feature"}, {"geometry": {"coordinates": [8.5721264, 47.4039985], "type": "Point"}, "properties": {"address": "Winterthurerstrasse 519", "electric": 8, "id": "pb_370", "manual": 1, "name": "Schwamendingerplatz", "provider": "publibike", "timeStamp": "03/21/2020, 11:07:10", "zip": 8051}, "type": "Feature"}, {"geometry": {"coordinates": [8.520168, 47.378556], "type": "Point"}, "properties": {"address": "Herman-Greulich-Strasse 56", "electric": 6, "id": "pb_384", "manual": 2, "name": "Hermann-Greulich-Weg", "provider": "publibike", "timeStamp": "03/21/2020, 11:07:10", "zip": 8004}, "type": "Feature"}, {"geometry": {"coordinates": [8.547912, 47.384923], "type": "Point"}, "properties": {"address": "Culmannstrasse", "electric": 4, "id": "pb_386", "manual": 0, "name": "Rigiplatz", "provider": "publibike", "timeStamp": "03/21/2020, 11:07:10", "zip": 8006}, "type": "Feature"}, {"geometry": {"coordinates": [8.543768, 47.411057], "type": "Point"}, "properties": {"address": "Hofwiesenstrasse 369", "electric": 3, "id": "pb_387", "manual": 7, "name": "Bahnhof Oerlikon S\u00fcd", "provider": "publibike", "timeStamp": "03/21/2020, 11:07:10", "zip": 8050}, "type": "Feature"}, {"geometry": {"coordinates": [8.544185, 47.412732], "type": "Point"}, "properties": {"address": "Jungholzstrasse 6", "electric": 1, "id": "pb_388", "manual": 1, "name": "Max-Frisch-Platz", "provider": "publibike", "timeStamp": "03/21/2020, 11:07:10", "zip": 8050}, "type": "Feature"}, {"geometry": {"coordinates": [8.558096, 47.413032], "type": "Point"}, "properties": {"address": "Andreasstrasse", "electric": 8, "id": "pb_389", "manual": 3, "name": "Hunziker-Areal", "provider": "publibike", "timeStamp": "03/21/2020, 11:07:10", "zip": 8050}, "type": "Feature"}, {"geometry": {"coordinates": [8.533265, 47.412873], "type": "Point"}, "properties": {"address": "Regina-K\u00e4gi-Strasse 1", "electric": 9, "id": "pb_390", "manual": 2, "name": "Luis-H\u00e4fliger-Park", "provider": "publibike", "timeStamp": "03/21/2020, 11:07:10", "zip": 8050}, "type": "Feature"}, {"geometry": {"coordinates": [8.499265, 47.401852], "type": "Point"}, "properties": {"address": "Limmattalstrasse 177", "electric": 10, "id": "pb_391", "manual": 1, "name": "Meierhofplatz", "provider": "publibike", "timeStamp": "03/21/2020, 11:07:10", "zip": 8049}, "type": "Feature"}, {"geometry": {"coordinates": [8.528356, 47.393255], "type": "Point"}, "properties": {"address": "R\u00f6schibachstrasse 73", "electric": 17, "id": "pb_392", "manual": 2, "name": "R\u00f6schibachplatz", "provider": "publibike", "timeStamp": "03/21/2020, 11:07:10", "zip": 8037}, "type": "Feature"}, {"geometry": {"coordinates": [8.538067, 47.415721], "type": "Point"}, "properties": {"address": "Birchstrasse 191", "electric": 2, "id": "pb_393", "manual": 0, "name": "Oerliker Park", "provider": "publibike", "timeStamp": "03/21/2020, 11:07:10", "zip": 8050}, "type": "Feature"}, {"geometry": {"coordinates": [8.5420304, 47.3669233], "type": "Point"}, "properties": {"address": "Stadthausquai 1", "electric": 2, "id": "pb_395", "manual": 7, "name": "B\u00fcrkliplatz", "provider": "publibike", "timeStamp": "03/21/2020, 11:07:10", "zip": 8001}, "type": "Feature"}, {"geometry": {"coordinates": [8.535767, 47.409881], "type": "Point"}, "properties": {"address": "Regensbergstrasse 195", "electric": 5, "id": "pb_396", "manual": 3, "name": "Holunderhof", "provider": "publibike", "timeStamp": "03/21/2020, 11:07:10", "zip": 8050}, "type": "Feature"}, {"geometry": {"coordinates": [8.5116245, 47.3616199], "type": "Point"}, "properties": {"address": "Grubenstrasse 42", "electric": 5, "id": "pb_431", "manual": 1, "name": "Binz Center", "provider": "publibike", "timeStamp": "03/21/2020, 11:07:10", "zip": 8045}, "type": "Feature"}, {"geometry": {"coordinates": [8.547195, 47.382089], "type": "Point"}, "properties": {"address": "Nelkenstrasse 24", "electric": 2, "id": "pb_430", "manual": 4, "name": "Stapferstube", "provider": "publibike", "timeStamp": "03/21/2020, 11:07:10", "zip": 8006}, "type": "Feature"}, {"geometry": {"coordinates": [8.5787183, 47.4039845], "type": "Point"}, "properties": {"address": "Kronwiesenstrasse 35", "electric": 0, "id": "pb_426", "manual": 2, "name": "Kronwiesen", "provider": "publibike", "timeStamp": "03/21/2020, 11:07:10", "zip": 8051}, "type": "Feature"}, {"geometry": {"coordinates": [8.508131, 47.420757], "type": "Point"}, "properties": {"address": "Riedenhaldenstrasse 20-18", "electric": 15, "id": "pb_425", "manual": 3, "name": "Bahnhof Affoltern", "provider": "publibike", "timeStamp": "03/21/2020, 11:07:10", "zip": 8046}, "type": "Feature"}, {"geometry": {"coordinates": [8.532464, 47.406988], "type": "Point"}, "properties": {"address": "K\u00fcnzlistrasse 41", "electric": 3, "id": "pb_424", "manual": 1, "name": "Birchd\u00f6rfli", "provider": "publibike", "timeStamp": "03/21/2020, 11:07:10", "zip": 8057}, "type": "Feature"}, {"geometry": {"coordinates": [8.5777038, 47.4080095], "type": "Point"}, "properties": {"address": "Luegislandstrasse 412", "electric": 9, "id": "pb_429", "manual": 6, "name": "Luegisland", "provider": "publibike", "timeStamp": "03/21/2020, 11:07:10", "zip": 8051}, "type": "Feature"}, {"geometry": {"coordinates": [8.58841, 47.40158], "type": "Point"}, "properties": {"address": "Hirzenbachstrasse 2-4", "electric": 13, "id": "pb_428", "manual": 5, "name": "Hirzenbachstrasse", "provider": "publibike", "timeStamp": "03/21/2020, 11:07:10", "zip": 8051}, "type": "Feature"}, {"geometry": {"coordinates": [8.5563463, 47.4095467], "type": "Point"}, "properties": {"address": "K\u00fchriedweg", "electric": 2, "id": "pb_445", "manual": 1, "name": "Hallenbad Oerlikon", "provider": "publibike", "timeStamp": "03/21/2020, 11:07:10", "zip": 8050}, "type": "Feature"}, {"geometry": {"coordinates": [8.537971, 47.364871], "type": "Point"}, "properties": {"address": "General-Guisan-Quai 17", "electric": 0, "id": "pb_454", "manual": 0, "name": "General-Guisan-Quai", "provider": "publibike", "timeStamp": "03/21/2020, 11:07:10", "zip": 8002}, "type": "Feature"}, {"geometry": {"coordinates": [8.560587, 47.350578], "type": "Point"}, "properties": {"address": "Bellerivestrasse 245", "electric": 10, "id": "pb_450", "manual": 9, "name": "Bahnhof Tiefenbrunnen", "provider": "publibike", "timeStamp": "03/21/2020, 11:07:10", "zip": 8008}, "type": "Feature"}, {"geometry": {"coordinates": [8.5269416, 47.3563719], "type": "Point"}, "properties": {"address": "Waffenplatzstrasse 89", "electric": 2, "id": "pb_452", "manual": 0, "name": "Rieterplatz", "provider": "publibike", "timeStamp": "03/21/2020, 11:07:10", "zip": 8002}, "type": "Feature"}, {"geometry": {"coordinates": [8.514176, 47.3663708], "type": "Point"}, "properties": {"address": "Talwiesenstrasse 92", "electric": 8, "id": "pb_446", "manual": 2, "name": "Binzallee", "provider": "publibike", "timeStamp": "03/21/2020, 11:07:10", "zip": 8055}, "type": "Feature"}, {"geometry": {"coordinates": [8.5070564, 47.371455], "type": "Point"}, "properties": {"address": "Gutstrasse 87", "electric": 11, "id": "pb_447", "manual": 5, "name": "Gutstrasse", "provider": "publibike", "timeStamp": "03/21/2020, 11:07:10", "zip": 8055}, "type": "Feature"}, {"geometry": {"coordinates": [8.4941268, 47.3836391], "type": "Point"}, "properties": {"address": "Flurstrasse 62", "electric": 0, "id": "pb_453", "manual": 8, "name": "Flurpark", "provider": "publibike", "timeStamp": "03/21/2020, 11:07:10", "zip": 8048}, "type": "Feature"}, {"geometry": {"coordinates": [8.500343, 47.380778], "type": "Point"}, "properties": {"address": "Edelweissstrasse 32", "electric": 1, "id": "pb_448", "manual": 6, "name": "Bl\u00fcemliquartier", "provider": "publibike", "timeStamp": "03/21/2020, 11:07:10", "zip": 8048}, "type": "Feature"}, {"geometry": {"coordinates": [8.528796, 47.383858], "type": "Point"}, "properties": {"address": "Gasometerstrasse 24", "electric": 2, "id": "pb_449", "manual": 6, "name": "Gasometerstrasse", "provider": "publibike", "timeStamp": "03/21/2020, 11:07:10", "zip": 8005}, "type": "Feature"}, {"geometry": {"coordinates": [8.4981964, 47.3859194], "type": "Point"}, "properties": {"address": "Baslerstrasse 57", "electric": 4, "id": "pb_455", "manual": 4, "name": "Letzipark", "provider": "publibike", "timeStamp": "03/21/2020, 11:07:10", "zip": 8048}, "type": "Feature"}, {"geometry": {"coordinates": [8.515252, 47.381915], "type": "Point"}, "properties": {"address": "Sihlfeldstrasse 175", "electric": 0, "id": "pb_451", "manual": 4, "name": "Hardplatz", "provider": "publibike", "timeStamp": "03/21/2020, 11:07:10", "zip": 8004}, "type": "Feature"}, {"geometry": {"coordinates": [8.5064743, 47.4188324], "type": "Point"}, "properties": {"address": "Wehntalerstrasse 541", "electric": 5, "id": "pb_427", "manual": 3, "name": "Zehntenhausplatz", "provider": "publibike", "timeStamp": "03/21/2020, 11:07:10", "zip": 8046}, "type": "Feature"}, {"geometry": {"coordinates": [8.537729, 47.379719], "type": "Point"}, "properties": {"address": "Sihlquai/HB", "electric": 7, "id": "pb_513", "manual": 23, "name": "Sihlquai", "provider": "publibike", "timeStamp": "03/21/2020, 11:07:10", "zip": 8005}, "type": "Feature"}, {"geometry": {"coordinates": [8.596202, 47.397885], "type": "Point"}, "properties": {"address": "Bahnhof Stettbach", "electric": 5, "id": "pb_514", "manual": 2, "name": "Bahnhof Stettbach", "provider": "publibike", "timeStamp": "03/21/2020, 11:07:10", "zip": 8051}, "type": "Feature"}, {"geometry": {"coordinates": [8.5543974, 47.3690153], "type": "Point"}, "properties": {"address": "Kasinostrasse 10", "electric": 5, "id": "pb_515", "manual": 1, "name": "Hottingerplatz", "provider": "publibike", "timeStamp": "03/21/2020, 11:07:10", "zip": 8032}, "type": "Feature"}, {"geometry": {"coordinates": [8.534444, 47.351525], "type": "Point"}, "properties": {"address": "Mobile Station Z\u00fcrich 1", "electric": 0, "id": "pb_282", "manual": 0, "name": "Theaterspektakel", "provider": "publibike", "timeStamp": "03/21/2020, 11:07:10", "zip": 8002}, "type": "Feature"}, {"geometry": {"coordinates": [8.516257, 47.367656], "type": "Point"}, "properties": {"address": "Goldbrunnenstrasse 54", "electric": 3, "id": "pb_538", "manual": 2, "name": "Kirche B\u00fchl", "provider": "publibike", "timeStamp": "03/21/2020, 11:07:10", "zip": 8055}, "type": "Feature"}, {"geometry": {"coordinates": [8.555639, 47.416873], "type": "Point"}, "properties": {"address": "Leutschenbachstrasse 50", "electric": 2, "id": "pb_537", "manual": 7, "name": "Leutschenpark", "provider": "publibike", "timeStamp": "03/21/2020, 11:07:10", "zip": 8050}, "type": "Feature"}, {"geometry": {"coordinates": [8.546464, 47.403822], "type": "Point"}, "properties": {"address": "Berninastrasse 45", "electric": 6, "id": "pb_540", "manual": 1, "name": "Berninaplatz", "provider": "publibike", "timeStamp": "03/21/2020, 11:07:10", "zip": 8057}, "type": "Feature"}, {"geometry": {"coordinates": [8.523134, 47.369004], "type": "Point"}, "properties": {"address": "Erlachstrasse 3", "electric": 7, "id": "pb_385", "manual": 5, "name": "Aegerten", "provider": "publibike", "timeStamp": "03/21/2020, 11:07:10", "zip": 8003}, "type": "Feature"}, {"geometry": {"coordinates": [8.49038, 47.381591], "type": "Point"}, "properties": {"address": "Rautistrasse 60", "electric": 6, "id": "pb_536", "manual": 6, "name": "Freilager", "provider": "publibike", "timeStamp": "03/21/2020, 11:07:10", "zip": 8048}, "type": "Feature"}, {"geometry": {"coordinates": [8.496511, 47.375247], "type": "Point"}, "properties": {"address": "Letzigraben 139", "electric": 6, "id": "pb_444", "manual": 3, "name": "Sackzelg", "provider": "publibike", "timeStamp": "03/21/2020, 11:07:10", "zip": 8047}, "type": "Feature"}, {"geometry": {"coordinates": [8.58131, 47.402801], "type": "Point"}, "properties": {"address": "Altwiesenstrasse 104", "electric": 3, "id": "pb_539", "manual": 0, "name": "Glattwiesen", "provider": "publibike", "timeStamp": "03/21/2020, 11:07:10", "zip": 8051}, "type": "Feature"}, {"geometry": {"coordinates": [8.52689, 47.3767], "type": "Point"}, "properties": {"address": "Molkenstrasse 5", "electric": 6, "id": "pb_560", "manual": 7, "name": "Helvetiaplatz", "provider": "publibike", "timeStamp": "03/21/2020, 11:07:10", "zip": 8004}, "type": "Feature"}, {"geometry": {"coordinates": [8.525602, 47.374241], "type": "Point"}, "properties": {"address": "Badenerstrasse 90", "electric": 0, "id": "pb_559", "manual": 1, "name": "Bezirksgeb\u00e4ude", "provider": "publibike", "timeStamp": "03/21/2020, 11:07:10", "zip": 8004}, "type": "Feature"}, {"geometry": {"coordinates": [8.535082, 47.345248], "type": "Point"}, "properties": {"address": "Bachstrasse 15", "electric": 1, "id": "pb_564", "manual": 11, "name": "GZ Wollishofen", "provider": "publibike", "timeStamp": "03/21/2020, 11:07:10", "zip": 8038}, "type": "Feature"}, {"geometry": {"coordinates": [8.514841, 47.370238], "type": "Point"}, "properties": {"address": "Schrennengasse 37", "electric": 4, "id": "pb_562", "manual": 3, "name": "Goldbrunnenplatz", "provider": "publibike", "timeStamp": "03/21/2020, 11:07:10", "zip": 8003}, "type": "Feature"}, {"geometry": {"coordinates": [8.514138, 47.374206], "type": "Point"}, "properties": {"address": "Idaplatz 4", "electric": 1, "id": "pb_557", "manual": 1, "name": "Idaplatz", "provider": "publibike", "timeStamp": "03/21/2020, 11:07:10", "zip": 8003}, "type": "Feature"}, {"geometry": {"coordinates": [8.518432, 47.369549], "type": "Point"}, "properties": {"address": "Brinerstrasse 2", "electric": 3, "id": "pb_558", "manual": 0, "name": "Schmiede Wiedikon", "provider": "publibike", "timeStamp": "03/21/2020, 11:07:10", "zip": 8003}, "type": "Feature"}, {"geometry": {"coordinates": [8.537546, 47.391289], "type": "Point"}, "properties": {"address": "Rotbuchstrasse 15", "electric": 9, "id": "pb_556", "manual": 1, "name": "Schaffhauserplatz", "provider": "publibike", "timeStamp": "03/21/2020, 11:07:10", "zip": 8006}, "type": "Feature"}, {"geometry": {"coordinates": [8.541541, 47.413733], "type": "Point"}, "properties": {"address": "Therese-Giehse-Strasse 11", "electric": 1, "id": "pb_561", "manual": 0, "name": "Center Eleven", "provider": "publibike", "timeStamp": "03/21/2020, 11:07:10", "zip": 8050}, "type": "Feature"}, {"geometry": {"coordinates": [8.534227, 47.360004], "type": "Point"}, "properties": {"address": "Alfred Escher-Strasse 76", "electric": 3, "id": "pb_563", "manual": 6, "name": "Mythenschloss", "provider": "publibike", "timeStamp": "03/21/2020, 11:07:10", "zip": 8002}, "type": "Feature"}, {"geometry": {"coordinates": [8.50373, 47.396172], "type": "Point"}, "properties": {"address": "Hardeggstrasse 6", "electric": 3, "id": "pb_566", "manual": 2, "name": "Am Wasser", "provider": "publibike", "timeStamp": "03/21/2020, 11:07:10", "zip": 8049}, "type": "Feature"}, {"geometry": {"coordinates": [8.532432, 47.381174], "type": "Point"}, "properties": {"address": "Klingenstrasse 9", "electric": 1, "id": "pb_565", "manual": 9, "name": "Zollstrasse", "provider": "publibike", "timeStamp": "03/21/2020, 11:07:10", "zip": 8005}, "type": "Feature"}, {"geometry": {"coordinates": [8.497982, 47.381447], "type": "Point"}, "properties": {"address": "Dennlerstrasse 23", "electric": 4, "id": "pb_567", "manual": 12, "name": "Dennlerstrasse", "provider": "publibike", "timeStamp": "03/21/2020, 11:07:10", "zip": 8047}, "type": "Feature"}, {"geometry": {"coordinates": [8.528049, 47.347701], "type": "Point"}, "properties": {"address": "Mutschellenstrasse 114", "electric": 4, "id": "pb_568", "manual": 1, "name": "Jugendherberge", "provider": "publibike", "timeStamp": "03/21/2020, 11:07:10", "zip": 8038}, "type": "Feature"}, {"geometry": {"coordinates": [8.539016, 47.405751], "type": "Point"}, "properties": {"address": "Ringstrasse 82", "electric": 4, "id": "pb_569", "manual": 1, "name": "Freibad Allenmoos", "provider": "publibike", "timeStamp": "03/21/2020, 11:07:10", "zip": 8057}, "type": "Feature"}, {"geometry": {"coordinates": [8.534974, 47.402164], "type": "Point"}, "properties": {"address": "Brache Guggach", "electric": 4, "id": "pb_572", "manual": 3, "name": "Radiostudio", "provider": "publibike", "timeStamp": "03/21/2020, 11:07:10", "zip": 8057}, "type": "Feature"}, {"geometry": {"coordinates": [8.547901, 47.375556], "type": "Point"}, "properties": {"address": "Karl-Schmid-Strasse 4", "electric": 9, "id": "pb_571", "manual": 0, "name": "ETH/Zoologisches Museum", "provider": "publibike", "timeStamp": "03/21/2020, 11:07:10", "zip": 8006}, "type": "Feature"}, {"geometry": {"coordinates": [8.507593, 47.407156], "type": "Point"}, "properties": {"charge": 40, "id": "smide_154", "name": "ZH253744", "provider": "smide", "range": 20.0, "size": 20, "time": "03/25/2020, 03:08:57"}, "type": "Feature"}, {"geometry": {"coordinates": [8.525853, 47.364972], "type": "Point"}, "properties": {"charge": 81, "id": "smide_92", "name": "ZH253798", "provider": "smide", "range": 40.0, "size": 17, "time": "03/25/2020, 03:08:57"}, "type": "Feature"}, {"geometry": {"coordinates": [8.562556, 47.377572], "type": "Point"}, "properties": {"charge": 100, "id": "smide_65", "name": "ZH253810", "provider": "smide", "range": 50.0, "size": 17, "time": "03/25/2020, 03:08:57"}, "type": "Feature"}, {"geometry": {"coordinates": [8.557122, 47.377016], "type": "Point"}, "properties": {"charge": 49, "id": "smide_1", "name": "ZH253776", "provider": "smide", "range": 24.0, "size": 17, "time": "03/25/2020, 03:08:57"}, "type": "Feature"}, {"geometry": {"coordinates": [8.510623, 47.357616], "type": "Point"}, "properties": {"charge": 99, "id": "smide_28", "name": "ZH253831", "provider": "smide", "range": 49.0, "size": 17, "time": "03/25/2020, 03:08:57"}, "type": "Feature"}, {"geometry": {"coordinates": [8.529355, 47.350163], "type": "Point"}, "properties": {"charge": 79, "id": "smide_14", "name": "ZH253749", "provider": "smide", "range": 39.0, "size": 20, "time": "03/25/2020, 03:08:57"}, "type": "Feature"}, {"geometry": {"coordinates": [8.536356, 47.380224], "type": "Point"}, "properties": {"charge": 88, "id": "smide_130", "name": "ZH253847", "provider": "smide", "range": 44.0, "size": 20, "time": "03/25/2020, 03:08:57"}, "type": "Feature"}, {"geometry": {"coordinates": [8.530393, 47.416073], "type": "Point"}, "properties": {"charge": 31, "id": "smide_24", "name": "ZH253696", "provider": "smide", "range": 15.0, "size": 20, "time": "03/25/2020, 03:08:57"}, "type": "Feature"}, {"geometry": {"coordinates": [8.544788, 47.404218], "type": "Point"}, "properties": {"charge": 89, "id": "smide_107", "name": "ZH253819", "provider": "smide", "range": 44.0, "size": 17, "time": "03/25/2020, 03:08:57"}, "type": "Feature"}, {"geometry": {"coordinates": [8.574896, 47.344304], "type": "Point"}, "properties": {"charge": 47, "id": "smide_136", "name": "ZH253682", "provider": "smide", "range": 23.0, "size": 17, "time": "03/25/2020, 03:08:57"}, "type": "Feature"}, {"geometry": {"coordinates": [8.550553, 47.36016], "type": "Point"}, "properties": {"charge": 87, "id": "smide_73", "name": "ZH261379", "provider": "smide", "range": 43.0, "size": 20, "time": "03/25/2020, 03:08:57"}, "type": "Feature"}, {"geometry": {"coordinates": [8.542773, 47.402716], "type": "Point"}, "properties": {"charge": 52, "id": "smide_158", "name": "ZH253870", "provider": "smide", "range": 26.0, "size": 20, "time": "03/25/2020, 03:08:57"}, "type": "Feature"}, {"geometry": {"coordinates": [8.488372, 47.385016], "type": "Point"}, "properties": {"charge": 100, "id": "smide_100", "name": "ZH253862", "provider": "smide", "range": 50.0, "size": 20, "time": "03/25/2020, 03:08:57"}, "type": "Feature"}, {"geometry": {"coordinates": [8.527531, 47.396993], "type": "Point"}, "properties": {"charge": 100, "id": "smide_141", "name": "ZH253800", "provider": "smide", "range": 50.0, "size": 20, "time": "03/25/2020, 03:08:57"}, "type": "Feature"}, {"geometry": {"coordinates": [8.487441, 47.384243], "type": "Point"}, "properties": {"charge": 65, "id": "smide_149", "name": "ZH253743", "provider": "smide", "range": 32.0, "size": 20, "time": "03/25/2020, 03:08:57"}, "type": "Feature"}, {"geometry": {"coordinates": [8.498209, 47.403124], "type": "Point"}, "properties": {"charge": 37, "id": "smide_16", "name": "ZH253713", "provider": "smide", "range": 18.0, "size": 20, "time": "03/25/2020, 03:08:57"}, "type": "Feature"}, {"geometry": {"coordinates": [8.532255, 47.356638], "type": "Point"}, "properties": {"charge": 30, "id": "smide_33", "name": "ZH253782", "provider": "smide", "range": 15.0, "size": 20, "time": "03/25/2020, 03:08:57"}, "type": "Feature"}, {"geometry": {"coordinates": [8.569417, 47.352], "type": "Point"}, "properties": {"charge": 90, "id": "smide_161", "name": "ZH253691", "provider": "smide", "range": 45.0, "size": 20, "time": "03/25/2020, 03:08:57"}, "type": "Feature"}, {"geometry": {"coordinates": [8.510923, 47.371943], "type": "Point"}, "properties": {"charge": 29, "id": "smide_183", "name": "ZH253868", "provider": "smide", "range": 14.0, "size": 17, "time": "03/25/2020, 03:08:57"}, "type": "Feature"}, {"geometry": {"coordinates": [8.486954, 47.383568], "type": "Point"}, "properties": {"charge": 18, "id": "smide_42", "name": "ZH253846", "provider": "smide", "range": 9.0, "size": 20, "time": "03/25/2020, 03:08:57"}, "type": "Feature"}, {"geometry": {"coordinates": [8.55692, 47.354208], "type": "Point"}, "properties": {"charge": 79, "id": "smide_160", "name": "ZH253722", "provider": "smide", "range": 39.0, "size": 17, "time": "03/25/2020, 03:08:57"}, "type": "Feature"}, {"geometry": {"coordinates": [8.507748, 47.421295], "type": "Point"}, "properties": {"charge": 47, "id": "smide_137", "name": "ZH258502", "provider": "smide", "range": 23.0, "size": 17, "time": "03/25/2020, 03:08:57"}, "type": "Feature"}, {"geometry": {"coordinates": [8.535421, 47.364143], "type": "Point"}, "properties": {"charge": 70, "id": "smide_55", "name": "ZH253875", "provider": "smide", "range": 35.0, "size": 17, "time": "03/25/2020, 03:08:57"}, "type": "Feature"}, {"geometry": {"coordinates": [8.560627, 47.368564], "type": "Point"}, "properties": {"charge": 100, "id": "smide_96", "name": "ZH256146", "provider": "smide", "range": 50.0, "size": 20, "time": "03/25/2020, 03:08:57"}, "type": "Feature"}, {"geometry": {"coordinates": [8.526769, 47.41254], "type": "Point"}, "properties": {"charge": 97, "id": "smide_58", "name": "ZH259246", "provider": "smide", "range": 48.0, "size": 20, "time": "03/25/2020, 03:08:57"}, "type": "Feature"}, {"geometry": {"coordinates": [8.537923, 47.340616], "type": "Point"}, "properties": {"charge": 91, "id": "smide_54", "name": "ZH253874", "provider": "smide", "range": 45.0, "size": 20, "time": "03/25/2020, 03:08:57"}, "type": "Feature"}, {"geometry": {"coordinates": [8.509363, 47.413523], "type": "Point"}, "properties": {"charge": 56, "id": "smide_162", "name": "ZH253760", "provider": "smide", "range": 28.0, "size": 17, "time": "03/25/2020, 03:08:57"}, "type": "Feature"}, {"geometry": {"coordinates": [8.523658, 47.395996], "type": "Point"}, "properties": {"charge": 81, "id": "smide_163", "name": "ZH256147", "provider": "smide", "range": 40.0, "size": 20, "time": "03/25/2020, 03:08:57"}, "type": "Feature"}, {"geometry": {"coordinates": [8.537092, 47.40844], "type": "Point"}, "properties": {"charge": 100, "id": "smide_112", "name": "ZH263530", "provider": "smide", "range": 50.0, "size": 20, "time": "03/25/2020, 03:08:57"}, "type": "Feature"}, {"geometry": {"coordinates": [8.498178, 47.403124], "type": "Point"}, "properties": {"charge": 100, "id": "smide_122", "name": "ZH253850", "provider": "smide", "range": 50.0, "size": 20, "time": "03/25/2020, 03:08:57"}, "type": "Feature"}, {"geometry": {"coordinates": [8.513061, 47.374775], "type": "Point"}, "properties": {"charge": 61, "id": "smide_38", "name": "ZH253851", "provider": "smide", "range": 30.0, "size": 20, "time": "03/25/2020, 03:08:57"}, "type": "Feature"}, {"geometry": {"coordinates": [8.54559, 47.395864], "type": "Point"}, "properties": {"charge": 20, "id": "smide_6", "name": "ZH253787", "provider": "smide", "range": 10.0, "size": 17, "time": "03/25/2020, 03:08:57"}, "type": "Feature"}, {"geometry": {"coordinates": [8.499743, 47.359755], "type": "Point"}, "properties": {"charge": 65, "id": "smide_18", "name": "ZH253859", "provider": "smide", "range": 32.0, "size": 17, "time": "03/25/2020, 03:08:57"}, "type": "Feature"}, {"geometry": {"coordinates": [8.552795, 47.357496], "type": "Point"}, "properties": {"charge": 57, "id": "smide_192", "name": "ZH253706", "provider": "smide", "range": 28.0, "size": 20, "time": "03/25/2020, 03:08:57"}, "type": "Feature"}, {"geometry": {"coordinates": [8.533448, 47.409265], "type": "Point"}, "properties": {"charge": 87, "id": "smide_39", "name": "ZH253714", "provider": "smide", "range": 43.0, "size": 20, "time": "03/25/2020, 03:08:57"}, "type": "Feature"}, {"geometry": {"coordinates": [8.512938, 47.361113], "type": "Point"}, "properties": {"charge": 50, "id": "smide_5", "name": "ZH261443", "provider": "smide", "range": 25.0, "size": 20, "time": "03/25/2020, 03:08:57"}, "type": "Feature"}, {"geometry": {"coordinates": [8.506481, 47.35209], "type": "Point"}, "properties": {"charge": 73, "id": "smide_85", "name": "ZH253729", "provider": "smide", "range": 36.0, "size": 17, "time": "03/25/2020, 03:08:57"}, "type": "Feature"}, {"geometry": {"coordinates": [8.551602, 47.395044], "type": "Point"}, "properties": {"charge": 91, "id": "smide_29", "name": "ZH253723", "provider": "smide", "range": 45.0, "size": 17, "time": "03/25/2020, 03:08:57"}, "type": "Feature"}, {"geometry": {"coordinates": [8.56049, 47.381951], "type": "Point"}, "properties": {"charge": 85, "id": "smide_132", "name": "ZH253857", "provider": "smide", "range": 42.0, "size": 17, "time": "03/25/2020, 03:08:57"}, "type": "Feature"}, {"geometry": {"coordinates": [8.518544, 47.365536], "type": "Point"}, "properties": {"charge": 91, "id": "smide_46", "name": "ZH253843", "provider": "smide", "range": 45.0, "size": 20, "time": "03/25/2020, 03:08:57"}, "type": "Feature"}, {"geometry": {"coordinates": [8.51364, 47.3873866666667], "type": "Point"}, "properties": {"charge": 34, "id": "bird_c18cf83b-efaa-4f0c-af1e-8a81b2367a24", "provider": "bird", "timeStamp": "03/25/2020, 03:31:53"}, "type": "Feature"}, {"geometry": {"coordinates": [8.53488166666667, 47.367375], "type": "Point"}, "properties": {"charge": 92, "id": "bird_593dc0da-478f-4b2c-afb3-95996fa1ff60", "provider": "bird", "timeStamp": "03/25/2020, 03:31:53"}, "type": "Feature"}, {"geometry": {"coordinates": [8.54856666666667, 47.376805], "type": "Point"}, "properties": {"charge": 75, "id": "bird_ef0b87a3-0089-409a-b629-f62a3e91a943", "provider": "bird", "timeStamp": "03/25/2020, 03:31:53"}, "type": "Feature"}, {"geometry": {"coordinates": [8.54855833333333, 47.376865], "type": "Point"}, "properties": {"charge": 72, "id": "bird_e4e49510-dc29-4aac-93f9-a1c63bfda799", "provider": "bird", "timeStamp": "03/25/2020, 03:31:53"}, "type": "Feature"}, {"geometry": {"coordinates": [8.547945, 47.3755416666667], "type": "Point"}, "properties": {"charge": 73, "id": "bird_10ea0011-3a3c-4cdb-8cc1-48ba2d7bea98", "provider": "bird", "timeStamp": "03/25/2020, 03:31:53"}, "type": "Feature"}, {"geometry": {"coordinates": [8.54791333333333, 47.3755916666667], "type": "Point"}, "properties": {"charge": 82, "id": "bird_f674ad2d-f0c9-4413-9629-4feb06ee2e4a", "provider": "bird", "timeStamp": "03/25/2020, 03:31:53"}, "type": "Feature"}, {"geometry": {"coordinates": [8.511415, 47.3781666666667], "type": "Point"}, "properties": {"charge": 28, "id": "bird_3a8261a8-ab22-4286-8e61-10ad79f51636", "provider": "bird", "timeStamp": "03/25/2020, 03:31:53"}, "type": "Feature"}, {"geometry": {"coordinates": [8.52579666666667, 47.3922116666667], "type": "Point"}, "properties": {"charge": 57, "id": "bird_b30f5164-7a81-45d2-b4ad-865a3beb9dec", "provider": "bird", "timeStamp": "03/25/2020, 03:31:53"}, "type": "Feature"}, {"geometry": {"coordinates": [8.54810833333333, 47.3774483333333], "type": "Point"}, "properties": {"charge": 72, "id": "bird_87e9bb8d-92fd-46e1-a8c4-50cc5c987911", "provider": "bird", "timeStamp": "03/25/2020, 03:31:53"}, "type": "Feature"}, {"geometry": {"coordinates": [8.541575, 47.3897666666667], "type": "Point"}, "properties": {"charge": 36, "id": "bird_41d7e764-29ef-451b-8d22-07491021edfe", "provider": "bird", "timeStamp": "03/25/2020, 03:31:53"}, "type": "Feature"}, {"geometry": {"coordinates": [8.54820666666667, 47.3781883333333], "type": "Point"}, "properties": {"charge": 78, "id": "bird_0e5a41da-9bd0-4f0f-8394-af37b397ffbe", "provider": "bird", "timeStamp": "03/25/2020, 03:31:53"}, "type": "Feature"}, {"geometry": {"coordinates": [8.54511333333333, 47.372925], "type": "Point"}, "properties": {"charge": 21, "id": "bird_04fe75aa-8125-4b9c-98d1-10853f3bed56", "provider": "bird", "timeStamp": "03/25/2020, 03:31:53"}, "type": "Feature"}, {"geometry": {"coordinates": [8.54810666666667, 47.3781466666667], "type": "Point"}, "properties": {"charge": 73, "id": "bird_324bffa8-c7c1-4c19-bfc9-245bd86ac014", "provider": "bird", "timeStamp": "03/25/2020, 03:31:53"}, "type": "Feature"}, {"geometry": {"coordinates": [8.54815833333333, 47.3793483333333], "type": "Point"}, "properties": {"charge": 70, "id": "bird_7739ec2a-a187-45d5-95b8-6912530bb7c5", "provider": "bird", "timeStamp": "03/25/2020, 03:31:53"}, "type": "Feature"}, {"geometry": {"coordinates": [8.54811, 47.379315], "type": "Point"}, "properties": {"charge": 75, "id": "bird_5d638dba-cbd9-4df1-b52e-301cb8d105e8", "provider": "bird", "timeStamp": "03/25/2020, 03:31:53"}, "type": "Feature"}, {"geometry": {"coordinates": [8.53827, 47.369095], "type": "Point"}, "properties": {"charge": 47, "id": "bird_e2de9865-32ed-42cf-936e-d64667fcc77a", "provider": "bird", "timeStamp": "03/25/2020, 03:31:53"}, "type": "Feature"}, {"geometry": {"coordinates": [8.53870833333333, 47.3692666666667], "type": "Point"}, "properties": {"charge": 67, "id": "bird_d24328ae-aeac-4c6c-a502-81e481db018e", "provider": "bird", "timeStamp": "03/25/2020, 03:31:53"}, "type": "Feature"}, {"geometry": {"coordinates": [8.538265, 47.3691333333333], "type": "Point"}, "properties": {"charge": 55, "id": "bird_7d84aad9-2910-4842-a07e-004adc2e498c", "provider": "bird", "timeStamp": "03/25/2020, 03:31:53"}, "type": "Feature"}, {"geometry": {"coordinates": [8.52247166666667, 47.3910683333333], "type": "Point"}, "properties": {"charge": 13, "id": "bird_3368eda4-f8b6-4105-9a6c-a1d78cd4669a", "provider": "bird", "timeStamp": "03/25/2020, 03:31:53"}, "type": "Feature"}, {"geometry": {"coordinates": [8.53845, 47.3692433333333], "type": "Point"}, "properties": {"charge": 90, "id": "bird_8ca1e675-603b-4db0-8a20-798b7e649686", "provider": "bird", "timeStamp": "03/25/2020, 03:31:53"}, "type": "Feature"}, {"geometry": {"coordinates": [8.53841833333333, 47.3692783333333], "type": "Point"}, "properties": {"charge": 92, "id": "bird_bf46e723-11fa-41f0-a4ed-15a30034049d", "provider": "bird", "timeStamp": "03/25/2020, 03:31:53"}, "type": "Feature"}, {"geometry": {"coordinates": [8.53849, 47.3693166666667], "type": "Point"}, "properties": {"charge": 44, "id": "bird_231166fe-aba1-4982-9a90-4ddbd3543f76", "provider": "bird", "timeStamp": "03/25/2020, 03:31:53"}, "type": "Feature"}, {"geometry": {"coordinates": [8.53853, 47.3693466666667], "type": "Point"}, "properties": {"charge": 62, "id": "bird_665fb696-75af-4654-b358-e309f1f3ec9d", "provider": "bird", "timeStamp": "03/25/2020, 03:31:53"}, "type": "Feature"}, {"geometry": {"coordinates": [8.54521333333333, 47.3736266666667], "type": "Point"}, "properties": {"charge": 18, "id": "bird_b970086f-e47b-426b-8ed9-f1a729c575dc", "provider": "bird", "timeStamp": "03/25/2020, 03:31:53"}, "type": "Feature"}, {"geometry": {"coordinates": [8.53841, 47.3693433333333], "type": "Point"}, "properties": {"charge": 96, "id": "bird_0774fac4-2c0f-4a2e-a8dc-3c89aaf009c8", "provider": "bird", "timeStamp": "03/25/2020, 03:31:53"}, "type": "Feature"}, {"geometry": {"coordinates": [8.54575833333333, 47.3746383333333], "type": "Point"}, "properties": {"charge": 33, "id": "bird_a8cc4479-b191-44da-ada7-664b822ac47b", "provider": "bird", "timeStamp": "03/25/2020, 03:31:53"}, "type": "Feature"}, {"geometry": {"coordinates": [8.53849666666667, 47.369545], "type": "Point"}, "properties": {"charge": 92, "id": "bird_51838914-2ad5-46f8-afc1-a5780d445d20", "provider": "bird", "timeStamp": "03/25/2020, 03:31:53"}, "type": "Feature"}, {"geometry": {"coordinates": [8.52069166666667, 47.3698766666667], "type": "Point"}, "properties": {"charge": 29, "id": "bird_c2087afa-c7a5-47ba-84f1-7c0cf563144b", "provider": "bird", "timeStamp": "03/25/2020, 03:31:53"}, "type": "Feature"}, {"geometry": {"coordinates": [8.52081, 47.36996], "type": "Point"}, "properties": {"charge": 45, "id": "bird_3e6929c3-8e43-4848-ae47-c139c31c37f4", "provider": "bird", "timeStamp": "03/25/2020, 03:31:53"}, "type": "Feature"}, {"geometry": {"coordinates": [8.53437, 47.3685716666667], "type": "Point"}, "properties": {"charge": 12, "id": "bird_b477db3d-ce25-4d23-ab91-8775a45cca13", "provider": "bird", "timeStamp": "03/25/2020, 03:31:53"}, "type": "Feature"}, {"geometry": {"coordinates": [8.53435, 47.3685716666667], "type": "Point"}, "properties": {"charge": 19, "id": "bird_749ec013-c0b5-4fc9-9d6d-1879ddaacb91", "provider": "bird", "timeStamp": "03/25/2020, 03:31:53"}, "type": "Feature"}, {"geometry": {"coordinates": [8.53445, 47.3686333333333], "type": "Point"}, "properties": {"charge": 20, "id": "bird_a3bca6df-aa34-4a73-9007-9770bc408143", "provider": "bird", "timeStamp": "03/25/2020, 03:31:53"}, "type": "Feature"}, {"geometry": {"coordinates": [8.54658333333333, 47.3766333333333], "type": "Point"}, "properties": {"charge": 74, "id": "bird_7745af52-de75-43b2-ada7-7a329a381f77", "provider": "bird", "timeStamp": "03/25/2020, 03:31:53"}, "type": "Feature"}, {"geometry": {"coordinates": [8.53826, 47.3697816666667], "type": "Point"}, "properties": {"charge": 96, "id": "bird_fef4b36f-3ab6-484e-b176-51fc9c8785a5", "provider": "bird", "timeStamp": "03/25/2020, 03:31:53"}, "type": "Feature"}, {"geometry": {"coordinates": [8.53830333333333, 47.3698316666667], "type": "Point"}, "properties": {"charge": 93, "id": "bird_6cf12461-014d-4428-84ad-54862ce3bad8", "provider": "bird", "timeStamp": "03/25/2020, 03:31:53"}, "type": "Feature"}, {"geometry": {"coordinates": [8.53931333333333, 47.3897166666667], "type": "Point"}, "properties": {"charge": 34, "id": "bird_f95cecf4-ea20-42b9-bbf0-377bcb13b136", "provider": "bird", "timeStamp": "03/25/2020, 03:31:53"}, "type": "Feature"}, {"geometry": {"coordinates": [8.51317833333333, 47.3819083333333], "type": "Point"}, "properties": {"charge": 73, "id": "bird_cebfa570-acc4-4374-a404-c99bc980bd80", "provider": "bird", "timeStamp": "03/25/2020, 03:31:53"}, "type": "Feature"}, {"geometry": {"coordinates": [8.53763833333333, 47.3700983333333], "type": "Point"}, "properties": {"charge": 55, "id": "bird_612ac875-4cd8-401a-82d3-1fc980d39f92", "provider": "bird", "timeStamp": "03/25/2020, 03:31:53"}, "type": "Feature"}, {"geometry": {"coordinates": [8.53663, 47.369805], "type": "Point"}, "properties": {"charge": 35, "id": "bird_5b9b2788-d8f0-4340-b1a1-d09bee781a4a", "provider": "bird", "timeStamp": "03/25/2020, 03:31:53"}, "type": "Feature"}, {"geometry": {"coordinates": [8.52172666666667, 47.3895766666667], "type": "Point"}, "properties": {"charge": 98, "id": "bird_8152d7dc-5554-4c06-bbc2-21e1da3ecce7", "provider": "bird", "timeStamp": "03/25/2020, 03:31:53"}, "type": "Feature"}, {"geometry": {"coordinates": [8.537575, 47.3701933333333], "type": "Point"}, "properties": {"charge": 62, "id": "bird_9a21a943-dbdf-47b7-b198-7ed27d77f94a", "provider": "bird", "timeStamp": "03/25/2020, 03:31:53"}, "type": "Feature"}, {"geometry": {"coordinates": [8.51453166666667, 47.3764383333333], "type": "Point"}, "properties": {"charge": 34, "id": "bird_82ec99a0-fff1-4833-840b-b406a360bca9", "provider": "bird", "timeStamp": "03/25/2020, 03:31:53"}, "type": "Feature"}, {"geometry": {"coordinates": [8.537615, 47.3702133333333], "type": "Point"}, "properties": {"charge": 33, "id": "bird_615f2dac-8e2e-4fc3-955e-95958aefe129", "provider": "bird", "timeStamp": "03/25/2020, 03:31:53"}, "type": "Feature"}, {"geometry": {"coordinates": [8.52170666666667, 47.389485], "type": "Point"}, "properties": {"charge": 96, "id": "bird_786dd56c-a5f5-403a-a0bb-3ab158912e99", "provider": "bird", "timeStamp": "03/25/2020, 03:31:53"}, "type": "Feature"}, {"geometry": {"coordinates": [8.54379, 47.3743666666667], "type": "Point"}, "properties": {"charge": 22, "id": "bird_4a9638df-f33d-4fcd-a3d5-440f8d798966", "provider": "bird", "timeStamp": "03/25/2020, 03:31:53"}, "type": "Feature"}, {"geometry": {"coordinates": [8.52193666666667, 47.3894083333333], "type": "Point"}, "properties": {"charge": 93, "id": "bird_f827e480-a9f5-4c90-8812-2d73f831aa14", "provider": "bird", "timeStamp": "03/25/2020, 03:31:53"}, "type": "Feature"}, {"geometry": {"coordinates": [8.51477, 47.382995], "type": "Point"}, "properties": {"charge": 74, "id": "bird_dd95088d-20d1-4089-837d-37ace0839a1b", "provider": "bird", "timeStamp": "03/25/2020, 03:31:53"}, "type": "Feature"}, {"geometry": {"coordinates": [8.518615, 47.38739], "type": "Point"}, "properties": {"charge": 97, "id": "bird_0736bff5-1b85-4d20-8e47-7f818f09f3df", "provider": "bird", "timeStamp": "03/25/2020, 03:31:53"}, "type": "Feature"}, {"geometry": {"coordinates": [8.51878, 47.3874366666667], "type": "Point"}, "properties": {"charge": 72, "id": "bird_4d29bc35-3155-4062-9c97-0a14421eaaa0", "provider": "bird", "timeStamp": "03/25/2020, 03:31:53"}, "type": "Feature"}, {"geometry": {"coordinates": [8.51770333333333, 47.3865733333333], "type": "Point"}, "properties": {"charge": 98, "id": "bird_dffe6839-b653-4fa5-ba03-5d34df605fe9", "provider": "bird", "timeStamp": "03/25/2020, 03:31:53"}, "type": "Feature"}, {"geometry": {"coordinates": [8.52023, 47.388275], "type": "Point"}, "properties": {"charge": 98, "id": "bird_f0d6ed3e-f090-4c6a-9156-9182f90a9f51", "provider": "bird", "timeStamp": "03/25/2020, 03:31:53"}, "type": "Feature"}, {"geometry": {"coordinates": [8.51774333333333, 47.386525], "type": "Point"}, "properties": {"charge": 97, "id": "bird_75254183-4d5f-4c4f-908f-de63e0cdb604", "provider": "bird", "timeStamp": "03/25/2020, 03:31:53"}, "type": "Feature"}, {"geometry": {"coordinates": [8.52016, 47.388165], "type": "Point"}, "properties": {"charge": 99, "id": "bird_3177c9fc-bc26-44f0-89c1-d1cbcbadcb92", "provider": "bird", "timeStamp": "03/25/2020, 03:31:53"}, "type": "Feature"}, {"geometry": {"coordinates": [8.51784666666667, 47.3865016666667], "type": "Point"}, "properties": {"charge": 75, "id": "bird_367c7ce5-9610-46fc-a28d-419444c29423", "provider": "bird", "timeStamp": "03/25/2020, 03:31:53"}, "type": "Feature"}, {"geometry": {"coordinates": [8.51847666666667, 47.387005], "type": "Point"}, "properties": {"charge": 40, "id": "bird_819bb593-220f-457f-9ae0-5126e11627ac", "provider": "bird", "timeStamp": "03/25/2020, 03:31:53"}, "type": "Feature"}, {"geometry": {"coordinates": [8.51494333333333, 47.38224], "type": "Point"}, "properties": {"charge": 56, "id": "bird_37631798-5808-4f86-b5be-910f1a2d7fa3", "provider": "bird", "timeStamp": "03/25/2020, 03:31:53"}, "type": "Feature"}, {"geometry": {"coordinates": [8.51497, 47.38224], "type": "Point"}, "properties": {"charge": 65, "id": "bird_0e8e53a7-f2b3-4293-b344-16257cb154d2", "provider": "bird", "timeStamp": "03/25/2020, 03:31:53"}, "type": "Feature"}, {"geometry": {"coordinates": [8.518075, 47.38657], "type": "Point"}, "properties": {"charge": 10, "id": "bird_47862af3-68c8-4b61-95c8-93eb239bdc4c", "provider": "bird", "timeStamp": "03/25/2020, 03:31:53"}, "type": "Feature"}, {"geometry": {"coordinates": [8.51674166666667, 47.3748466666667], "type": "Point"}, "properties": {"charge": 39, "id": "bird_1bc25014-9bce-44a7-8aa6-32f3a82c8727", "provider": "bird", "timeStamp": "03/25/2020, 03:31:53"}, "type": "Feature"}, {"geometry": {"coordinates": [8.51486, 47.381355], "type": "Point"}, "properties": {"charge": 76, "id": "bird_1f4318e8-d45a-477e-88ed-79c93a98043f", "provider": "bird", "timeStamp": "03/25/2020, 03:31:53"}, "type": "Feature"}, {"geometry": {"coordinates": [8.516235, 47.3755766666667], "type": "Point"}, "properties": {"charge": 69, "id": "bird_3c6a1887-bbc6-4a49-a34b-32031ed06a70", "provider": "bird", "timeStamp": "03/25/2020, 03:31:53"}, "type": "Feature"}, {"geometry": {"coordinates": [8.51513166666667, 47.382195], "type": "Point"}, "properties": {"charge": 69, "id": "bird_7eb13b1b-dd06-4e93-8475-4f3c58cb6008", "provider": "bird", "timeStamp": "03/25/2020, 03:31:53"}, "type": "Feature"}, {"geometry": {"coordinates": [8.545115, 47.3789016666667], "type": "Point"}, "properties": {"charge": 73, "id": "bird_7728ce2d-9e6b-42af-a116-e8a62a0f291e", "provider": "bird", "timeStamp": "03/25/2020, 03:31:53"}, "type": "Feature"}, {"geometry": {"coordinates": [8.51737333333333, 47.3857033333333], "type": "Point"}, "properties": {"charge": 27, "id": "bird_da3cf87a-18aa-46c3-ab98-e754dabed7e8", "provider": "bird", "timeStamp": "03/25/2020, 03:31:53"}, "type": "Feature"}, {"geometry": {"coordinates": [8.51790666666667, 47.3861383333333], "type": "Point"}, "properties": {"charge": 48, "id": "bird_8c13d6c5-1546-4d10-b9c8-1a1039374142", "provider": "bird", "timeStamp": "03/25/2020, 03:31:53"}, "type": "Feature"}, {"geometry": {"coordinates": [8.54170333333333, 47.3864633333333], "type": "Point"}, "properties": {"charge": 49, "id": "bird_bf03b433-14ae-42ff-a3b3-7850e8a6476b", "provider": "bird", "timeStamp": "03/25/2020, 03:31:53"}, "type": "Feature"}, {"geometry": {"coordinates": [8.541755, 47.3864133333333], "type": "Point"}, "properties": {"charge": 30, "id": "bird_5624a9ef-27e6-43e7-b1bb-b4e29a3fa786", "provider": "bird", "timeStamp": "03/25/2020, 03:31:53"}, "type": "Feature"}, {"geometry": {"coordinates": [8.51819666666667, 47.3863716666667], "type": "Point"}, "properties": {"charge": 27, "id": "bird_10789234-a1a0-4f95-814a-08f7f76bd2d2", "provider": "bird", "timeStamp": "03/25/2020, 03:31:53"}, "type": "Feature"}, {"geometry": {"coordinates": [8.52723666666667, 47.3699716666667], "type": "Point"}, "properties": {"charge": 53, "id": "bird_a9722f28-4f19-46ed-b73a-24f49246b441", "provider": "bird", "timeStamp": "03/25/2020, 03:31:53"}, "type": "Feature"}, {"geometry": {"coordinates": [8.51791333333333, 47.3860816666667], "type": "Point"}, "properties": {"charge": 96, "id": "bird_06473727-d125-4ca2-8833-37476f89e5d6", "provider": "bird", "timeStamp": "03/25/2020, 03:31:53"}, "type": "Feature"}, {"geometry": {"coordinates": [8.51821166666667, 47.3863416666667], "type": "Point"}, "properties": {"charge": 76, "id": "bird_ee078963-16c4-41b8-8414-208046c31d37", "provider": "bird", "timeStamp": "03/25/2020, 03:31:53"}, "type": "Feature"}, {"geometry": {"coordinates": [8.51816333333333, 47.3862883333333], "type": "Point"}, "properties": {"charge": 74, "id": "bird_0713ae23-7ab2-478e-b887-47699d0ee055", "provider": "bird", "timeStamp": "03/25/2020, 03:31:53"}, "type": "Feature"}, {"geometry": {"coordinates": [8.51799166666667, 47.3861166666667], "type": "Point"}, "properties": {"charge": 73, "id": "bird_4c031e5d-f2b2-4b4a-b548-e9c4f748f22b", "provider": "bird", "timeStamp": "03/25/2020, 03:31:53"}, "type": "Feature"}, {"geometry": {"coordinates": [8.51641833333333, 47.3756683333333], "type": "Point"}, "properties": {"charge": 71, "id": "bird_cf4175c5-4991-4b51-bdd2-4bae22ac434f", "provider": "bird", "timeStamp": "03/25/2020, 03:31:53"}, "type": "Feature"}, {"geometry": {"coordinates": [8.51821, 47.3862616666667], "type": "Point"}, "properties": {"charge": 62, "id": "bird_18ee08cf-8b21-4811-ae82-78a9d252ac7e", "provider": "bird", "timeStamp": "03/25/2020, 03:31:53"}, "type": "Feature"}, {"geometry": {"coordinates": [8.51799, 47.3860666666667], "type": "Point"}, "properties": {"charge": 42, "id": "bird_54054f55-c249-4d2b-87bc-b0f815447de1", "provider": "bird", "timeStamp": "03/25/2020, 03:31:53"}, "type": "Feature"}, {"geometry": {"coordinates": [8.51535666666667, 47.38211], "type": "Point"}, "properties": {"charge": 69, "id": "bird_205d9a93-5638-48a8-8241-bd184ae801dd", "provider": "bird", "timeStamp": "03/25/2020, 03:31:53"}, "type": "Feature"}, {"geometry": {"coordinates": [8.51832, 47.3862983333333], "type": "Point"}, "properties": {"charge": 29, "id": "bird_d63434cc-9239-4228-9324-b74281d47510", "provider": "bird", "timeStamp": "03/25/2020, 03:31:53"}, "type": "Feature"}, {"geometry": {"coordinates": [8.51818833333333, 47.3861583333333], "type": "Point"}, "properties": {"charge": 96, "id": "bird_b785cffe-ebea-49a9-8eff-7743c94dec13", "provider": "bird", "timeStamp": "03/25/2020, 03:31:53"}, "type": "Feature"}, {"geometry": {"coordinates": [8.51545833333333, 47.3821683333333], "type": "Point"}, "properties": {"charge": 79, "id": "bird_2323dcc3-9062-42e8-b294-e3dcc58bcb11", "provider": "bird", "timeStamp": "03/25/2020, 03:31:53"}, "type": "Feature"}, {"geometry": {"coordinates": [8.51548833333333, 47.382115], "type": "Point"}, "properties": {"charge": 75, "id": "bird_61f40942-2bbd-4e7c-b295-b952fb7e6a93", "provider": "bird", "timeStamp": "03/25/2020, 03:31:53"}, "type": "Feature"}, {"geometry": {"coordinates": [8.51833666666667, 47.386215], "type": "Point"}, "properties": {"charge": 22, "id": "bird_5cec397b-902c-4a57-8f73-66e05e55ab68", "provider": "bird", "timeStamp": "03/25/2020, 03:31:53"}, "type": "Feature"}, {"geometry": {"coordinates": [8.518065, 47.3859666666667], "type": "Point"}, "properties": {"charge": 15, "id": "bird_07e6e1e2-2446-4f65-8c4b-37dc98d6d762", "provider": "bird", "timeStamp": "03/25/2020, 03:31:53"}, "type": "Feature"}, {"geometry": {"coordinates": [8.51730333333333, 47.3851933333333], "type": "Point"}, "properties": {"charge": 96, "id": "bird_ca001ff5-fb3e-486f-ac69-af258a07ba25", "provider": "bird", "timeStamp": "03/25/2020, 03:31:53"}, "type": "Feature"}, {"geometry": {"coordinates": [8.51863666666667, 47.386455], "type": "Point"}, "properties": {"charge": 81, "id": "bird_a940e2ff-6ce5-415c-ab36-dab29edb65d5", "provider": "bird", "timeStamp": "03/25/2020, 03:31:53"}, "type": "Feature"}, {"geometry": {"coordinates": [8.51784333333333, 47.38575], "type": "Point"}, "properties": {"charge": 96, "id": "bird_f75a15e5-d200-4632-b3b2-9a7e20f4345a", "provider": "bird", "timeStamp": "03/25/2020, 03:31:53"}, "type": "Feature"}, {"geometry": {"coordinates": [8.51851333333333, 47.3863483333333], "type": "Point"}, "properties": {"charge": 42, "id": "bird_66f0f50b-d2c2-4bc8-a973-27b553d9d161", "provider": "bird", "timeStamp": "03/25/2020, 03:31:53"}, "type": "Feature"}, {"geometry": {"coordinates": [8.51677166666667, 47.375485], "type": "Point"}, "properties": {"charge": 66, "id": "bird_708c9d13-3338-46a7-88a1-3bb3f6951fbe", "provider": "bird", "timeStamp": "03/25/2020, 03:31:53"}, "type": "Feature"}, {"geometry": {"coordinates": [8.51837166666667, 47.386185], "type": "Point"}, "properties": {"charge": 69, "id": "bird_68778139-e3e5-42e5-829c-a1a0f307d8f0", "provider": "bird", "timeStamp": "03/25/2020, 03:31:53"}, "type": "Feature"}, {"geometry": {"coordinates": [8.518455, 47.3862533333333], "type": "Point"}, "properties": {"charge": 10, "id": "bird_5cd2f0b9-e2d2-4390-b993-68692219173c", "provider": "bird", "timeStamp": "03/25/2020, 03:31:53"}, "type": "Feature"}, {"geometry": {"coordinates": [8.518285, 47.3860816666667], "type": "Point"}, "properties": {"charge": 73, "id": "bird_3fe81f3e-dc5b-4e30-b148-4f3cd1a06906", "provider": "bird", "timeStamp": "03/25/2020, 03:31:53"}, "type": "Feature"}, {"geometry": {"coordinates": [8.51566, 47.3778716666667], "type": "Point"}, "properties": {"charge": 27, "id": "bird_e127ba8c-d484-4b98-879a-baa17d2943c7", "provider": "bird", "timeStamp": "03/25/2020, 03:31:53"}, "type": "Feature"}, {"geometry": {"coordinates": [8.52321333333333, 47.3711883333333], "type": "Point"}, "properties": {"charge": 35, "id": "bird_5c238393-14a4-4875-8444-308c03cb141a", "provider": "bird", "timeStamp": "03/25/2020, 03:31:53"}, "type": "Feature"}, {"geometry": {"coordinates": [8.51851333333333, 47.3861383333333], "type": "Point"}, "properties": {"charge": 98, "id": "bird_2457375c-2900-4cbe-824b-347e604aa2e9", "provider": "bird", "timeStamp": "03/25/2020, 03:31:53"}, "type": "Feature"}, {"geometry": {"coordinates": [8.51772333333333, 47.3746183333333], "type": "Point"}, "properties": {"charge": 35, "id": "bird_79c3a555-e73c-4d7e-9c51-4ec494f00cdb", "provider": "bird", "timeStamp": "03/25/2020, 03:31:53"}, "type": "Feature"}, {"geometry": {"coordinates": [8.518635, 47.3862233333333], "type": "Point"}, "properties": {"charge": 11, "id": "bird_8297aaf7-adeb-4f61-b78b-53c6d85c0d54", "provider": "bird", "timeStamp": "03/25/2020, 03:31:53"}, "type": "Feature"}, {"geometry": {"coordinates": [8.51761166666667, 47.385235], "type": "Point"}, "properties": {"charge": 63, "id": "bird_9512a8a1-f6ff-48cb-90c1-e190fdccb078", "provider": "bird", "timeStamp": "03/25/2020, 03:31:53"}, "type": "Feature"}, {"geometry": {"coordinates": [8.51747, 47.38507], "type": "Point"}, "properties": {"charge": 67, "id": "bird_164e2ddb-989c-43c7-8068-5ab53bf3ffb8", "provider": "bird", "timeStamp": "03/25/2020, 03:31:53"}, "type": "Feature"}, {"geometry": {"coordinates": [8.51785333333333, 47.3854683333333], "type": "Point"}, "properties": {"charge": 97, "id": "bird_7529bbda-93b3-47e4-8029-ae5810e62fe8", "provider": "bird", "timeStamp": "03/25/2020, 03:31:53"}, "type": "Feature"}, {"geometry": {"coordinates": [8.51841, 47.38594], "type": "Point"}, "properties": {"charge": 53, "id": "bird_1e405c28-f610-4c43-a42a-a4f523cd3376", "provider": "bird", "timeStamp": "03/25/2020, 03:31:53"}, "type": "Feature"}, {"geometry": {"coordinates": [8.52360666666667, 47.3711783333333], "type": "Point"}, "properties": {"charge": 33, "id": "bird_29f55a93-6781-4fe3-b447-ce13d93331d3", "provider": "bird", "timeStamp": "03/25/2020, 03:31:53"}, "type": "Feature"}, {"geometry": {"coordinates": [8.51879666666667, 47.386165], "type": "Point"}, "properties": {"charge": 70, "id": "bird_6d47794f-e165-49b5-a332-8170758c8851", "provider": "bird", "timeStamp": "03/25/2020, 03:31:53"}, "type": "Feature"}, {"geometry": {"coordinates": [8.517935, 47.3853266666667], "type": "Point"}, "properties": {"charge": 99, "id": "bird_b6b3e4a3-f408-4af3-b1b8-d2a66ece7645", "provider": "bird", "timeStamp": "03/25/2020, 03:31:53"}, "type": "Feature"}, {"geometry": {"coordinates": [8.51708, 47.375835], "type": "Point"}, "properties": {"charge": 57, "id": "bird_6a3fdd33-37b0-4515-acfa-4f626187bd19", "provider": "bird", "timeStamp": "03/25/2020, 03:31:53"}, "type": "Feature"}, {"geometry": {"coordinates": [8.51579666666667, 47.3796883333333], "type": "Point"}, "properties": {"charge": 75, "id": "bird_c2b81108-10a0-49a6-90d5-88f075380680", "provider": "bird", "timeStamp": "03/25/2020, 03:31:53"}, "type": "Feature"}, {"geometry": {"coordinates": [8.52693333333333, 47.370605], "type": "Point"}, "properties": {"charge": 66, "id": "bird_e02db1d0-77ac-4fc3-a9d6-5ec3bb0e5b48", "provider": "bird", "timeStamp": "03/25/2020, 03:31:53"}, "type": "Feature"}, {"geometry": {"coordinates": [8.515805, 47.3796233333333], "type": "Point"}, "properties": {"charge": 73, "id": "bird_11db9e9b-ce5a-4d5e-9adc-ed023352a633", "provider": "bird", "timeStamp": "03/25/2020, 03:31:53"}, "type": "Feature"}, {"geometry": {"coordinates": [8.51581166666667, 47.379745], "type": "Point"}, "properties": {"charge": 79, "id": "bird_32ed48ce-03bd-4c45-9d9f-94bc84ff45b2", "provider": "bird", "timeStamp": "03/25/2020, 03:31:53"}, "type": "Feature"}, {"geometry": {"coordinates": [8.51583166666667, 47.3797566666667], "type": "Point"}, "properties": {"charge": 67, "id": "bird_7cc720f0-4185-4461-999c-4f3034205158", "provider": "bird", "timeStamp": "03/25/2020, 03:31:53"}, "type": "Feature"}, {"geometry": {"coordinates": [8.51918333333333, 47.3861316666667], "type": "Point"}, "properties": {"charge": 15, "id": "bird_facde6ea-b241-467c-92c4-c8f90387c17e", "provider": "bird", "timeStamp": "03/25/2020, 03:31:53"}, "type": "Feature"}, {"geometry": {"coordinates": [8.519455, 47.386315], "type": "Point"}, "properties": {"charge": 72, "id": "bird_84971136-b7d3-4c5c-8ca6-03e49cbc8b2c", "provider": "bird", "timeStamp": "03/25/2020, 03:31:53"}, "type": "Feature"}, {"geometry": {"coordinates": [8.51813833333333, 47.3748733333333], "type": "Point"}, "properties": {"charge": 17, "id": "bird_f59680e9-e825-48e1-90fe-61683184b9fa", "provider": "bird", "timeStamp": "03/25/2020, 03:31:53"}, "type": "Feature"}, {"geometry": {"coordinates": [8.515955, 47.37947], "type": "Point"}, "properties": {"charge": 65, "id": "bird_b274cdd6-0704-4ee4-8f70-8eeb4b30624d", "provider": "bird", "timeStamp": "03/25/2020, 03:31:53"}, "type": "Feature"}, {"geometry": {"coordinates": [8.54057833333333, 47.3862683333333], "type": "Point"}, "properties": {"charge": 57, "id": "bird_0baff497-40ea-4fb3-aff8-6cdec8d2b5a9", "provider": "bird", "timeStamp": "03/25/2020, 03:31:53"}, "type": "Feature"}, {"geometry": {"coordinates": [8.515975, 47.3794433333333], "type": "Point"}, "properties": {"charge": 80, "id": "bird_27bd116c-c1ce-4f78-8bd6-c4c935e20f80", "provider": "bird", "timeStamp": "03/25/2020, 03:31:53"}, "type": "Feature"}, {"geometry": {"coordinates": [8.51813333333333, 47.37495], "type": "Point"}, "properties": {"charge": 24, "id": "bird_da9823cc-5741-48b5-bdfc-cd97643201ca", "provider": "bird", "timeStamp": "03/25/2020, 03:31:53"}, "type": "Feature"}, {"geometry": {"coordinates": [8.52066666666667, 47.3729216666667], "type": "Point"}, "properties": {"charge": 39, "id": "bird_93145ec1-bef8-4a3a-8ea2-b7e068d3f3a2", "provider": "bird", "timeStamp": "03/25/2020, 03:31:53"}, "type": "Feature"}, {"geometry": {"coordinates": [8.54227, 47.384525], "type": "Point"}, "properties": {"charge": 38, "id": "bird_7ba11040-ca1c-4ecf-b4bd-e1851fcbf1d4", "provider": "bird", "timeStamp": "03/25/2020, 03:31:53"}, "type": "Feature"}, {"geometry": {"coordinates": [8.51829666666667, 47.3750033333333], "type": "Point"}, "properties": {"charge": 61, "id": "bird_4d9a1c40-ba1e-4909-99b8-f914b5d8b327", "provider": "bird", "timeStamp": "03/25/2020, 03:31:53"}, "type": "Feature"}, {"geometry": {"coordinates": [8.516215, 47.3796733333333], "type": "Point"}, "properties": {"charge": 83, "id": "bird_549d7edb-be81-4f8a-af62-ace2e4a98007", "provider": "bird", "timeStamp": "03/25/2020, 03:31:53"}, "type": "Feature"}, {"geometry": {"coordinates": [8.53751, 47.3721883333333], "type": "Point"}, "properties": {"charge": 96, "id": "bird_71f82b6d-07e3-46c3-ac56-eeaf96ce2403", "provider": "bird", "timeStamp": "03/25/2020, 03:31:53"}, "type": "Feature"}, {"geometry": {"coordinates": [8.51624333333333, 47.3796733333333], "type": "Point"}, "properties": {"charge": 80, "id": "bird_db019b8f-281c-4a4c-ae57-30aa453c50e8", "provider": "bird", "timeStamp": "03/25/2020, 03:31:53"}, "type": "Feature"}, {"geometry": {"coordinates": [8.53769166666667, 47.3722833333333], "type": "Point"}, "properties": {"charge": 94, "id": "bird_e6341e36-cc42-4aac-bc00-ca887ee7fe2f", "provider": "bird", "timeStamp": "03/25/2020, 03:31:53"}, "type": "Feature"}, {"geometry": {"coordinates": [8.53002333333333, 47.3893016666667], "type": "Point"}, "properties": {"charge": 69, "id": "bird_e78efe9a-5267-4cd0-82d4-af1aa24ee517", "provider": "bird", "timeStamp": "03/25/2020, 03:31:53"}, "type": "Feature"}, {"geometry": {"coordinates": [8.53765166666667, 47.372295], "type": "Point"}, "properties": {"charge": 93, "id": "bird_f32513d3-509f-408e-9c28-24e159c647d7", "provider": "bird", "timeStamp": "03/25/2020, 03:31:53"}, "type": "Feature"}, {"geometry": {"coordinates": [8.519025, 47.3853], "type": "Point"}, "properties": {"charge": 51, "id": "bird_8238d59f-f377-4441-9f0f-c892c252369a", "provider": "bird", "timeStamp": "03/25/2020, 03:31:53"}, "type": "Feature"}, {"geometry": {"coordinates": [8.53327833333333, 47.38871], "type": "Point"}, "properties": {"charge": 43, "id": "bird_08fc2f82-6c9a-4186-bfa2-f4e98e139e40", "provider": "bird", "timeStamp": "03/25/2020, 03:31:53"}, "type": "Feature"}, {"geometry": {"coordinates": [8.52437833333333, 47.37191], "type": "Point"}, "properties": {"charge": 44, "id": "bird_489f0e21-664e-4809-8d95-0f2c0f368800", "provider": "bird", "timeStamp": "03/25/2020, 03:31:53"}, "type": "Feature"}, {"geometry": {"coordinates": [8.53717333333333, 47.3873633333333], "type": "Point"}, "properties": {"charge": 51, "id": "bird_c152693a-d29d-40b6-a31f-65dd57be699d", "provider": "bird", "timeStamp": "03/25/2020, 03:31:53"}, "type": "Feature"}, {"geometry": {"coordinates": [8.53004, 47.3712266666667], "type": "Point"}, "properties": {"charge": 45, "id": "bird_2ba538fa-802a-499c-9e63-e22d25414c8c", "provider": "bird", "timeStamp": "03/25/2020, 03:31:53"}, "type": "Feature"}, {"geometry": {"coordinates": [8.52275166666667, 47.3728566666667], "type": "Point"}, "properties": {"charge": 21, "id": "bird_cab15f95-013c-474b-8ab3-5a4a9978e4f5", "provider": "bird", "timeStamp": "03/25/2020, 03:31:53"}, "type": "Feature"}, {"geometry": {"coordinates": [8.527705, 47.3715633333333], "type": "Point"}, "properties": {"charge": 58, "id": "bird_aee63bb0-9596-4c0d-b6cc-e208e5bf283b", "provider": "bird", "timeStamp": "03/25/2020, 03:31:53"}, "type": "Feature"}, {"geometry": {"coordinates": [8.51749166666667, 47.3813166666667], "type": "Point"}, "properties": {"charge": 71, "id": "bird_1666ee0d-fcfe-4ebd-af74-ba96583b4447", "provider": "bird", "timeStamp": "03/25/2020, 03:31:53"}, "type": "Feature"}, {"geometry": {"coordinates": [8.52766666666667, 47.37167], "type": "Point"}, "properties": {"charge": 94, "id": "bird_78adfa00-f573-44ae-a84d-61f935348369", "provider": "bird", "timeStamp": "03/25/2020, 03:31:53"}, "type": "Feature"}, {"geometry": {"coordinates": [8.52758833333333, 47.3717083333333], "type": "Point"}, "properties": {"charge": 37, "id": "bird_d877f616-5f80-416c-a869-bd0e0a839781", "provider": "bird", "timeStamp": "03/25/2020, 03:31:53"}, "type": "Feature"}, {"geometry": {"coordinates": [8.53684, 47.3730316666667], "type": "Point"}, "properties": {"charge": 96, "id": "bird_e8a05073-c6fa-4e83-a56b-a2d1d5884be4", "provider": "bird", "timeStamp": "03/25/2020, 03:31:53"}, "type": "Feature"}, {"geometry": {"coordinates": [8.53174333333333, 47.3882716666667], "type": "Point"}, "properties": {"charge": 72, "id": "bird_ac0b55db-554b-40bc-b829-5c7e1da1fa76", "provider": "bird", "timeStamp": "03/25/2020, 03:31:53"}, "type": "Feature"}, {"geometry": {"coordinates": [8.53666666666667, 47.373005], "type": "Point"}, "properties": {"charge": 93, "id": "bird_624f75e8-caff-41ac-8db0-b7e4354e3cb5", "provider": "bird", "timeStamp": "03/25/2020, 03:31:53"}, "type": "Feature"}, {"geometry": {"coordinates": [8.53423333333333, 47.3877983333333], "type": "Point"}, "properties": {"charge": 34, "id": "bird_6c998bb2-f802-42cc-9f70-01405b1ee714", "provider": "bird", "timeStamp": "03/25/2020, 03:31:53"}, "type": "Feature"}, {"geometry": {"coordinates": [8.53663333333333, 47.3730166666667], "type": "Point"}, "properties": {"charge": 98, "id": "bird_360ce19e-73bb-43cc-8bd6-ccb25c7ab48c", "provider": "bird", "timeStamp": "03/25/2020, 03:31:53"}, "type": "Feature"}, {"geometry": {"coordinates": [8.53669333333333, 47.3730766666667], "type": "Point"}, "properties": {"charge": 96, "id": "bird_f44b41d9-dc30-40a2-87d1-5f5ae0392bbc", "provider": "bird", "timeStamp": "03/25/2020, 03:31:53"}, "type": "Feature"}, {"geometry": {"coordinates": [8.53672333333333, 47.3730966666667], "type": "Point"}, "properties": {"charge": 93, "id": "bird_89ee8929-344d-41ea-a3dd-29d3eb5cc199", "provider": "bird", "timeStamp": "03/25/2020, 03:31:53"}, "type": "Feature"}, {"geometry": {"coordinates": [8.534405, 47.387665], "type": "Point"}, "properties": {"charge": 40, "id": "bird_761b4e00-9503-47f3-9dea-8ca24590ba0b", "provider": "bird", "timeStamp": "03/25/2020, 03:31:53"}, "type": "Feature"}, {"geometry": {"coordinates": [8.52523833333333, 47.3874633333333], "type": "Point"}, "properties": {"charge": 25, "id": "bird_483ad00b-c597-4cc2-934c-a8403eb9e987", "provider": "bird", "timeStamp": "03/25/2020, 03:31:53"}, "type": "Feature"}, {"geometry": {"coordinates": [8.52506833333333, 47.3873933333333], "type": "Point"}, "properties": {"charge": 24, "id": "bird_e68fa772-3b94-45f5-819a-7240b636f0fa", "provider": "bird", "timeStamp": "03/25/2020, 03:31:53"}, "type": "Feature"}, {"geometry": {"coordinates": [8.541215, 47.3773233333333], "type": "Point"}, "properties": {"charge": 66, "id": "bird_ffe008c6-3587-423e-99cc-e786e5eb2763", "provider": "bird", "timeStamp": "03/25/2020, 03:31:53"}, "type": "Feature"}, {"geometry": {"coordinates": [8.52206666666667, 47.3859983333333], "type": "Point"}, "properties": {"charge": 30, "id": "bird_b13c93dd-781a-472f-b0f7-1da0b61c1b2b", "provider": "bird", "timeStamp": "03/25/2020, 03:31:53"}, "type": "Feature"}, {"geometry": {"coordinates": [8.540515, 47.383755], "type": "Point"}, "properties": {"charge": 56, "id": "bird_24bf93ee-5a62-41f7-8a26-02e221bc9fa8", "provider": "bird", "timeStamp": "03/25/2020, 03:31:53"}, "type": "Feature"}, {"geometry": {"coordinates": [8.53465666666667, 47.3726433333333], "type": "Point"}, "properties": {"charge": 97, "id": "bird_5e620e27-144a-4f9b-a61f-ff90a1463e25", "provider": "bird", "timeStamp": "03/25/2020, 03:31:53"}, "type": "Feature"}, {"geometry": {"coordinates": [8.54133, 47.378205], "type": "Point"}, "properties": {"charge": 40, "id": "bird_cb5a2dea-b100-485e-a1be-844d9d7aa744", "provider": "bird", "timeStamp": "03/25/2020, 03:31:53"}, "type": "Feature"}, {"geometry": {"coordinates": [8.53451, 47.3727416666667], "type": "Point"}, "properties": {"charge": 94, "id": "bird_9b8c93ca-a630-4851-b959-c455d41c6558", "provider": "bird", "timeStamp": "03/25/2020, 03:31:53"}, "type": "Feature"}, {"geometry": {"coordinates": [8.53456666666667, 47.3728066666667], "type": "Point"}, "properties": {"charge": 97, "id": "bird_dc6eabd1-c20f-4e58-ace6-9d136e9a11ba", "provider": "bird", "timeStamp": "03/25/2020, 03:31:53"}, "type": "Feature"}, {"geometry": {"coordinates": [8.54062333333333, 47.3770333333333], "type": "Point"}, "properties": {"charge": 21, "id": "bird_81e0641e-b48f-45fb-8131-0c7a8edb4d12", "provider": "bird", "timeStamp": "03/25/2020, 03:31:53"}, "type": "Feature"}, {"geometry": {"coordinates": [8.52012166666667, 47.3760916666667], "type": "Point"}, "properties": {"charge": 20, "id": "bird_3020b7c5-cc9d-455c-88fd-cd800b60f811", "provider": "bird", "timeStamp": "03/25/2020, 03:31:53"}, "type": "Feature"}, {"geometry": {"coordinates": [8.52350166666667, 47.386375], "type": "Point"}, "properties": {"charge": 48, "id": "bird_a209ef65-34c6-4661-8e52-9b13de4400c8", "provider": "bird", "timeStamp": "03/25/2020, 03:31:53"}, "type": "Feature"}, {"geometry": {"coordinates": [8.534425, 47.372925], "type": "Point"}, "properties": {"charge": 93, "id": "bird_eae1904b-0fb5-4656-ac52-b53b6cf33e9d", "provider": "bird", "timeStamp": "03/25/2020, 03:31:53"}, "type": "Feature"}, {"geometry": {"coordinates": [8.53978333333333, 47.3838316666667], "type": "Point"}, "properties": {"charge": 29, "id": "bird_095cb73c-c1bf-4ff2-830f-30744a1c04b9", "provider": "bird", "timeStamp": "03/25/2020, 03:31:53"}, "type": "Feature"}, {"geometry": {"coordinates": [8.54034, 47.3771366666667], "type": "Point"}, "properties": {"charge": 28, "id": "bird_1f721288-5899-4810-b0c9-017c947ea22c", "provider": "bird", "timeStamp": "03/25/2020, 03:31:53"}, "type": "Feature"}, {"geometry": {"coordinates": [8.52568166666667, 47.3868633333333], "type": "Point"}, "properties": {"charge": 61, "id": "bird_723d2334-b2e0-43e4-94a2-2aee3b34e966", "provider": "bird", "timeStamp": "03/25/2020, 03:31:53"}, "type": "Feature"}, {"geometry": {"coordinates": [8.53476, 47.37336], "type": "Point"}, "properties": {"charge": 96, "id": "bird_de7fbf48-14d8-493d-a302-10e2c4125e45", "provider": "bird", "timeStamp": "03/25/2020, 03:31:53"}, "type": "Feature"}, {"geometry": {"coordinates": [8.53476166666667, 47.3734433333333], "type": "Point"}, "properties": {"charge": 96, "id": "bird_40e112bf-c268-4cd0-87f3-1051d8b53044", "provider": "bird", "timeStamp": "03/25/2020, 03:31:53"}, "type": "Feature"}, {"geometry": {"coordinates": [8.53471166666667, 47.3734466666667], "type": "Point"}, "properties": {"charge": 91, "id": "bird_74ca697c-f9a5-4dcc-b0b4-251d98aa2ce0", "provider": "bird", "timeStamp": "03/25/2020, 03:31:53"}, "type": "Feature"}, {"geometry": {"coordinates": [8.53077166666667, 47.3728516666667], "type": "Point"}, "properties": {"charge": 93, "id": "bird_3d8cad43-02f4-4a69-900f-8d42b493e8f2", "provider": "bird", "timeStamp": "03/25/2020, 03:31:53"}, "type": "Feature"}, {"geometry": {"coordinates": [8.52435166666667, 47.38602], "type": "Point"}, "properties": {"charge": 26, "id": "bird_0ff85c25-89f1-48aa-bcd5-3ef93f06f969", "provider": "bird", "timeStamp": "03/25/2020, 03:31:53"}, "type": "Feature"}, {"geometry": {"coordinates": [8.52807333333333, 47.38697], "type": "Point"}, "properties": {"charge": 25, "id": "bird_aebd4ffa-a1d5-4fea-8231-a8c6ad09bd65", "provider": "bird", "timeStamp": "03/25/2020, 03:31:53"}, "type": "Feature"}, {"geometry": {"coordinates": [8.52617666666667, 47.38641], "type": "Point"}, "properties": {"charge": 28, "id": "bird_159c84f3-236f-48bb-987b-be5dda7db0e5", "provider": "bird", "timeStamp": "03/25/2020, 03:31:53"}, "type": "Feature"}, {"geometry": {"coordinates": [8.52410666666667, 47.3744133333333], "type": "Point"}, "properties": {"charge": 19, "id": "bird_fc7e9b25-0c74-4363-b91f-b0a83391ffdd", "provider": "bird", "timeStamp": "03/25/2020, 03:31:53"}, "type": "Feature"}, {"geometry": {"coordinates": [8.523085, 47.3751], "type": "Point"}, "properties": {"charge": 24, "id": "bird_b0ce6f8a-ccdb-4191-8ea4-8ba1d55c1319", "provider": "bird", "timeStamp": "03/25/2020, 03:31:53"}, "type": "Feature"}, {"geometry": {"coordinates": [8.52502333333333, 47.3857916666667], "type": "Point"}, "properties": {"charge": 46, "id": "bird_087371fe-3911-402c-887e-48ca8b798c68", "provider": "bird", "timeStamp": "03/25/2020, 03:31:53"}, "type": "Feature"}, {"geometry": {"coordinates": [8.53748, 47.375625], "type": "Point"}, "properties": {"charge": 57, "id": "bird_af446d55-5471-46a1-8a17-a40a683753d7", "provider": "bird", "timeStamp": "03/25/2020, 03:31:53"}, "type": "Feature"}, {"geometry": {"coordinates": [8.53898, 47.37743], "type": "Point"}, "properties": {"charge": 96, "id": "bird_a3f1bde7-f550-4b7b-808f-1b429c6aa731", "provider": "bird", "timeStamp": "03/25/2020, 03:31:53"}, "type": "Feature"}, {"geometry": {"coordinates": [8.536945, 47.3754083333333], "type": "Point"}, "properties": {"charge": 92, "id": "bird_87fda542-5415-400f-9f51-ffaf3b6697af", "provider": "bird", "timeStamp": "03/25/2020, 03:31:53"}, "type": "Feature"}, {"geometry": {"coordinates": [8.525545, 47.37418], "type": "Point"}, "properties": {"charge": 21, "id": "bird_93f58524-83a0-420b-9042-0808e66fc279", "provider": "bird", "timeStamp": "03/25/2020, 03:31:53"}, "type": "Feature"}, {"geometry": {"coordinates": [8.53723, 47.3756416666667], "type": "Point"}, "properties": {"charge": 98, "id": "bird_703e6036-5937-444c-82e9-7749cc9e9736", "provider": "bird", "timeStamp": "03/25/2020, 03:31:53"}, "type": "Feature"}, {"geometry": {"coordinates": [8.52071166666667, 47.3781966666667], "type": "Point"}, "properties": {"charge": 70, "id": "bird_666cd15f-e5c1-44b2-815a-eaca6f50b78b", "provider": "bird", "timeStamp": "03/25/2020, 03:31:53"}, "type": "Feature"}, {"geometry": {"coordinates": [8.537155, 47.3756066666667], "type": "Point"}, "properties": {"charge": 98, "id": "bird_f6f32257-b711-47a7-9ec4-a8eebe707fb3", "provider": "bird", "timeStamp": "03/25/2020, 03:31:53"}, "type": "Feature"}, {"geometry": {"coordinates": [8.53698666666667, 47.375485], "type": "Point"}, "properties": {"charge": 98, "id": "bird_6f2bec65-881a-447a-81e0-edb69084f758", "provider": "bird", "timeStamp": "03/25/2020, 03:31:53"}, "type": "Feature"}, {"geometry": {"coordinates": [8.53722833333333, 47.3756633333333], "type": "Point"}, "properties": {"charge": 96, "id": "bird_5b38c345-becf-48d3-a3b5-8db3d4ee23ac", "provider": "bird", "timeStamp": "03/25/2020, 03:31:53"}, "type": "Feature"}, {"geometry": {"coordinates": [8.536915, 47.3754466666667], "type": "Point"}, "properties": {"charge": 93, "id": "bird_03f9a365-820b-4e86-aaed-cf1cd70368ca", "provider": "bird", "timeStamp": "03/25/2020, 03:31:53"}, "type": "Feature"}, {"geometry": {"coordinates": [8.52429166666667, 47.3747666666667], "type": "Point"}, "properties": {"charge": 48, "id": "bird_e951c738-a459-49c5-98ed-1cd5f769b3ba", "provider": "bird", "timeStamp": "03/25/2020, 03:31:53"}, "type": "Feature"}, {"geometry": {"coordinates": [8.52980064273933, 47.3735202899478], "type": "Point"}, "properties": {"charge": 96, "id": "bird_b389f72c-4982-46e6-8148-78d056a09fd6", "provider": "bird", "timeStamp": "03/25/2020, 03:31:53"}, "type": "Feature"}, {"geometry": {"coordinates": [8.53718, 47.3757166666667], "type": "Point"}, "properties": {"charge": 91, "id": "bird_378e304e-a524-4b90-92db-8d27f80c494d", "provider": "bird", "timeStamp": "03/25/2020, 03:31:53"}, "type": "Feature"}, {"geometry": {"coordinates": [8.53709333333333, 47.37566], "type": "Point"}, "properties": {"charge": 98, "id": "bird_4f017784-f124-459b-bd25-b1c69ab93f4c", "provider": "bird", "timeStamp": "03/25/2020, 03:31:53"}, "type": "Feature"}, {"geometry": {"coordinates": [8.53713166666667, 47.375695], "type": "Point"}, "properties": {"charge": 93, "id": "bird_0d8855c7-b885-4b54-a7e0-9bc7444bd034", "provider": "bird", "timeStamp": "03/25/2020, 03:31:53"}, "type": "Feature"}, {"geometry": {"coordinates": [8.53721166666667, 47.3757633333333], "type": "Point"}, "properties": {"charge": 97, "id": "bird_219cffb8-1974-4915-b65c-bc5a49f994af", "provider": "bird", "timeStamp": "03/25/2020, 03:31:53"}, "type": "Feature"}, {"geometry": {"coordinates": [8.52123, 47.3774566666667], "type": "Point"}, "properties": {"charge": 79, "id": "bird_034044c9-47bb-4a96-b52c-dcd5e1ffc6b7", "provider": "bird", "timeStamp": "03/25/2020, 03:31:53"}, "type": "Feature"}, {"geometry": {"coordinates": [8.53708666666667, 47.3756833333333], "type": "Point"}, "properties": {"charge": 94, "id": "bird_67b60142-e005-4cda-85ea-dd912fe9a718", "provider": "bird", "timeStamp": "03/25/2020, 03:31:53"}, "type": "Feature"}, {"geometry": {"coordinates": [8.53682833333333, 47.3754966666667], "type": "Point"}, "properties": {"charge": 98, "id": "bird_990cf4fc-1211-41d3-9c5d-e90806337f18", "provider": "bird", "timeStamp": "03/25/2020, 03:31:53"}, "type": "Feature"}, {"geometry": {"coordinates": [8.52129, 47.3774116666667], "type": "Point"}, "properties": {"charge": 29, "id": "bird_5bcca4a8-a82f-45b4-8690-c2b7b79ceab8", "provider": "bird", "timeStamp": "03/25/2020, 03:31:53"}, "type": "Feature"}, {"geometry": {"coordinates": [8.52541, 47.3743816666667], "type": "Point"}, "properties": {"charge": 28, "id": "bird_86b51830-afb0-41f4-acb8-407af3e6a9fd", "provider": "bird", "timeStamp": "03/25/2020, 03:31:53"}, "type": "Feature"}, {"geometry": {"coordinates": [8.53864833333333, 47.3773733333333], "type": "Point"}, "properties": {"charge": 58, "id": "bird_cb3d5798-dd54-4483-9e44-64cef69edd24", "provider": "bird", "timeStamp": "03/25/2020, 03:31:53"}, "type": "Feature"}, {"geometry": {"coordinates": [8.53707833333333, 47.3757366666667], "type": "Point"}, "properties": {"charge": 96, "id": "bird_d4d5cecc-10b6-4699-919c-0ebff707fe84", "provider": "bird", "timeStamp": "03/25/2020, 03:31:53"}, "type": "Feature"}, {"geometry": {"coordinates": [8.537085, 47.375755], "type": "Point"}, "properties": {"charge": 97, "id": "bird_225eafb4-d45a-4043-ac56-3d8af451aaf3", "provider": "bird", "timeStamp": "03/25/2020, 03:31:53"}, "type": "Feature"}, {"geometry": {"coordinates": [8.52474, 47.3753516666667], "type": "Point"}, "properties": {"charge": 38, "id": "bird_e3aa17e4-772b-4791-8207-4bf8dbf97f89", "provider": "bird", "timeStamp": "03/25/2020, 03:31:53"}, "type": "Feature"}, {"geometry": {"coordinates": [8.521735, 47.37891], "type": "Point"}, "properties": {"charge": 74, "id": "bird_7a527bc7-43f4-46fd-bc6d-47d5eac7d955", "provider": "bird", "timeStamp": "03/25/2020, 03:31:53"}, "type": "Feature"}, {"geometry": {"coordinates": [8.52493833333333, 47.3754466666667], "type": "Point"}, "properties": {"charge": 37, "id": "bird_e2a23ac3-58e1-4780-afb1-c46b5af51ccd", "provider": "bird", "timeStamp": "03/25/2020, 03:31:53"}, "type": "Feature"}, {"geometry": {"coordinates": [8.52496166666667, 47.37545], "type": "Point"}, "properties": {"charge": 60, "id": "bird_ff1f6e44-235e-4386-879d-41c8f2cfa24f", "provider": "bird", "timeStamp": "03/25/2020, 03:31:53"}, "type": "Feature"}, {"geometry": {"coordinates": [8.52524333333333, 47.3753933333333], "type": "Point"}, "properties": {"charge": 64, "id": "bird_0ce5d5ff-cbdc-4830-b624-596ac901d9ea", "provider": "bird", "timeStamp": "03/25/2020, 03:31:53"}, "type": "Feature"}, {"geometry": {"coordinates": [8.52522333333333, 47.3754266666667], "type": "Point"}, "properties": {"charge": 60, "id": "bird_3cae92f4-7b9a-4c84-a0ab-6eebcb34f664", "provider": "bird", "timeStamp": "03/25/2020, 03:31:53"}, "type": "Feature"}, {"geometry": {"coordinates": [8.53749833333333, 47.37775], "type": "Point"}, "properties": {"charge": 45, "id": "bird_891990d6-c393-4f82-9f31-ad39fcb97d0c", "provider": "bird", "timeStamp": "03/25/2020, 03:31:53"}, "type": "Feature"}, {"geometry": {"coordinates": [8.52909166666667, 47.3853716666667], "type": "Point"},