{"features": [{"geometry": {"coordinates": [8.540062, 47.374392], "type": "Point"}, "properties": {"address": "Uraniastrasse 7", "electric": 0, "id": "pb_60", "manual": 4, "name": "Demo Station Werdm\u00fchleplatz", "provider": "publibike", "timeStamp": "03/14/2020, 01:05:15", "zip": 8001}, "type": "Feature"}, {"geometry": {"coordinates": [8.5452956, 47.4099615], "type": "Point"}, "properties": {"address": "Querstrasse 8", "electric": 5, "id": "pb_61", "manual": 4, "name": "Marktplatz", "provider": "publibike", "timeStamp": "03/14/2020, 01:05:15", "zip": 8050}, "type": "Feature"}, {"geometry": {"coordinates": [8.5156327, 47.3795837], "type": "Point"}, "properties": {"address": "Bullingerstrasse 5", "electric": 9, "id": "pb_80", "manual": 14, "name": "Bullingerplatz", "provider": "publibike", "timeStamp": "03/14/2020, 01:05:15", "zip": 8004}, "type": "Feature"}, {"geometry": {"coordinates": [8.5104051, 47.3899342], "type": "Point"}, "properties": {"address": "Pfingstweidstrasse 96e", "electric": 0, "id": "pb_81", "manual": 2, "name": "Herdern", "provider": "publibike", "timeStamp": "03/14/2020, 01:05:15", "zip": 8001}, "type": "Feature"}, {"geometry": {"coordinates": [8.535718, 47.359675], "type": "Point"}, "properties": {"address": "Mythenquai 50", "electric": 1, "id": "pb_82", "manual": 1, "name": "Hafen Enge", "provider": "publibike", "timeStamp": "03/14/2020, 01:05:15", "zip": 8002}, "type": "Feature"}, {"geometry": {"coordinates": [8.520370505, 47.358663827], "type": "Point"}, "properties": {"address": "Bubenbergstrasse 1", "electric": 5, "id": "pb_83", "manual": 6, "name": "Comerge", "provider": "publibike", "timeStamp": "03/14/2020, 01:05:15", "zip": 8045}, "type": "Feature"}, {"geometry": {"coordinates": [8.5412505, 47.3789825], "type": "Point"}, "properties": {"address": "Museumstrasse 2", "electric": 15, "id": "pb_84", "manual": 20, "name": "Landesmuseum", "provider": "publibike", "timeStamp": "03/14/2020, 01:05:15", "zip": 8001}, "type": "Feature"}, {"geometry": {"coordinates": [8.5235479, 47.3716661], "type": "Point"}, "properties": {"address": "Birmensdorferstrasse 80", "electric": 5, "id": "pb_85", "manual": 6, "name": "Bahnhof Wiedikon", "provider": "publibike", "timeStamp": "03/14/2020, 01:05:15", "zip": 8003}, "type": "Feature"}, {"geometry": {"coordinates": [8.506822854, 47.40781197], "type": "Point"}, "properties": {"address": "Stefano-Franscini-Platz 5", "electric": 1, "id": "pb_86", "manual": 0, "name": "ETH H\u00f6nggerberg", "provider": "publibike", "timeStamp": "03/14/2020, 01:05:15", "zip": 8093}, "type": "Feature"}, {"geometry": {"coordinates": [8.536101, 47.371083], "type": "Point"}, "properties": {"address": "Pelikanplatz 5", "electric": 1, "id": "pb_87", "manual": 7, "name": "Pelikanplatz", "provider": "publibike", "timeStamp": "03/14/2020, 01:05:15", "zip": 8001}, "type": "Feature"}, {"geometry": {"coordinates": [8.5257822, 47.3651936], "type": "Point"}, "properties": {"address": "H\u00fcrlimannplatz 90", "electric": 3, "id": "pb_88", "manual": 7, "name": "H\u00fcrlimannplatz", "provider": "publibike", "timeStamp": "03/14/2020, 01:05:15", "zip": 8002}, "type": "Feature"}, {"geometry": {"coordinates": [8.5313344, 47.3713591], "type": "Point"}, "properties": {"address": "Selnaustrasse 32", "electric": 3, "id": "pb_89", "manual": 5, "name": "Stauffacherbr\u00fccke", "provider": "publibike", "timeStamp": "03/14/2020, 01:05:15", "zip": 8001}, "type": "Feature"}, {"geometry": {"coordinates": [8.5056978, 47.3917964], "type": "Point"}, "properties": {"address": "Sportweg 25", "electric": 0, "id": "pb_90", "manual": 1, "name": "Sportweg", "provider": "publibike", "timeStamp": "03/14/2020, 01:05:15", "zip": 8005}, "type": "Feature"}, {"geometry": {"coordinates": [8.5181701, 47.3917837], "type": "Point"}, "properties": {"address": "Hardturmstrasse 11", "electric": 1, "id": "pb_91", "manual": 1, "name": "Puls 5", "provider": "publibike", "timeStamp": "03/14/2020, 01:05:15", "zip": 8005}, "type": "Feature"}, {"geometry": {"coordinates": [8.5286468, 47.3820827], "type": "Point"}, "properties": {"address": "R\u00f6ntgenstrasse 6", "electric": 1, "id": "pb_92", "manual": 5, "name": "R\u00f6ntgenstrasse", "provider": "publibike", "timeStamp": "03/14/2020, 01:05:15", "zip": 8005}, "type": "Feature"}, {"geometry": {"coordinates": [8.531935, 47.384918], "type": "Point"}, "properties": {"address": "Kornhausbr\u00fccke 1", "electric": 2, "id": "pb_93", "manual": 13, "name": "Limmatplatz", "provider": "publibike", "timeStamp": "03/14/2020, 01:05:15", "zip": 8005}, "type": "Feature"}, {"geometry": {"coordinates": [8.5354006, 47.3758639], "type": "Point"}, "properties": {"address": "Gessnerallee 15", "electric": 1, "id": "pb_94", "manual": 4, "name": "Gessnerallee", "provider": "publibike", "timeStamp": "03/14/2020, 01:05:15", "zip": 8001}, "type": "Feature"}, {"geometry": {"coordinates": [8.523818, 47.377148], "type": "Point"}, "properties": {"address": "Stauffacherstrasse 127", "electric": 1, "id": "pb_95", "manual": 3, "name": "B\u00e4ckeranlage", "provider": "publibike", "timeStamp": "03/14/2020, 01:05:15", "zip": 8004}, "type": "Feature"}, {"geometry": {"coordinates": [8.531836, 47.378548], "type": "Point"}, "properties": {"address": "Lagerstrasse 44", "electric": 0, "id": "pb_96", "manual": 12, "name": "Gustav-Gull-Platz", "provider": "publibike", "timeStamp": "03/14/2020, 01:05:15", "zip": 8004}, "type": "Feature"}, {"geometry": {"coordinates": [8.5104883, 47.3771535], "type": "Point"}, "properties": {"address": "Zurlindenstrasse 291", "electric": 0, "id": "pb_97", "manual": 8, "name": "Zurlindenstrasse", "provider": "publibike", "timeStamp": "03/14/2020, 01:05:15", "zip": 8003}, "type": "Feature"}, {"geometry": {"coordinates": [8.5333139, 47.3731102], "type": "Point"}, "properties": {"address": "Sihlstrasse 81", "electric": 1, "id": "pb_98", "manual": 2, "name": "Sihlstrasse", "provider": "publibike", "timeStamp": "03/14/2020, 01:05:15", "zip": 8001}, "type": "Feature"}, {"geometry": {"coordinates": [8.520532, 47.374951], "type": "Point"}, "properties": {"address": "Feldstrasse 24", "electric": 3, "id": "pb_99", "manual": 4, "name": "Kalkbreite", "provider": "publibike", "timeStamp": "03/14/2020, 01:05:15", "zip": 8004}, "type": "Feature"}, {"geometry": {"coordinates": [8.539046, 47.368064], "type": "Point"}, "properties": {"address": "Talstrasse 12", "electric": 0, "id": "pb_100", "manual": 3, "name": "Z\u00fcrcher Kantonalbank", "provider": "publibike", "timeStamp": "03/14/2020, 01:05:15", "zip": 8001}, "type": "Feature"}, {"geometry": {"coordinates": [8.5348427, 47.3625938], "type": "Point"}, "properties": {"address": "Breitingerstrasse 5", "electric": 0, "id": "pb_101", "manual": 1, "name": "Rentenanstalt", "provider": "publibike", "timeStamp": "03/14/2020, 01:05:15", "zip": 8002}, "type": "Feature"}, {"geometry": {"coordinates": [8.5166922, 47.3897772], "type": "Point"}, "properties": {"address": "Technoparkstrasse 4", "electric": 0, "id": "pb_102", "manual": 0, "name": "Turbinenplatz", "provider": "publibike", "timeStamp": "03/14/2020, 01:05:15", "zip": 8005}, "type": "Feature"}, {"geometry": {"coordinates": [8.539312, 47.3739964], "type": "Point"}, "properties": {"address": "Oetenbachgasse 14", "electric": 2, "id": "pb_104", "manual": 5, "name": "Rennweg", "provider": "publibike", "timeStamp": "03/14/2020, 01:05:15", "zip": 8001}, "type": "Feature"}, {"geometry": {"coordinates": [8.5360685, 47.3775022], "type": "Point"}, "properties": {"address": "Kasernenstrasse 101", "electric": 17, "id": "pb_105", "manual": 32, "name": "Sihlpost", "provider": "publibike", "timeStamp": "03/14/2020, 01:05:15", "zip": 8004}, "type": "Feature"}, {"geometry": {"coordinates": [8.53545, 47.382798], "type": "Point"}, "properties": {"address": "Ausstellungsstrasse 44", "electric": 0, "id": "pb_106", "manual": 6, "name": "Museum f\u00fcr Gestaltung", "provider": "publibike", "timeStamp": "03/14/2020, 01:05:15", "zip": 8005}, "type": "Feature"}, {"geometry": {"coordinates": [8.5306155, 47.3647902], "type": "Point"}, "properties": {"address": "Gutenbergstrasse 1", "electric": 8, "id": "pb_107", "manual": 4, "name": "Bederbr\u00fccke", "provider": "publibike", "timeStamp": "03/14/2020, 01:05:15", "zip": 8002}, "type": "Feature"}, {"geometry": {"coordinates": [8.518982, 47.386741], "type": "Point"}, "properties": {"address": "Geroldstrasse 4", "electric": 2, "id": "pb_108", "manual": 16, "name": "Bahnhof Hardbr\u00fccke", "provider": "publibike", "timeStamp": "03/14/2020, 01:05:15", "zip": 8005}, "type": "Feature"}, {"geometry": {"coordinates": [8.53001018, 47.37247535], "type": "Point"}, "properties": {"address": "Werdstrasse 21", "electric": 0, "id": "pb_109", "manual": 5, "name": "Tamedia", "provider": "publibike", "timeStamp": "03/14/2020, 01:05:15", "zip": 8004}, "type": "Feature"}, {"geometry": {"coordinates": [8.4860017, 47.396401], "type": "Point"}, "properties": {"address": "Gr\u00fcnauring 37", "electric": 11, "id": "pb_110", "manual": 1, "name": "Gr\u00fcnau", "provider": "publibike", "timeStamp": "03/14/2020, 01:05:15", "zip": 8064}, "type": "Feature"}, {"geometry": {"coordinates": [8.548519, 47.376756], "type": "Point"}, "properties": {"address": "R\u00e4mistrasse 101", "electric": 3, "id": "pb_111", "manual": 0, "name": "ETH Zentrum", "provider": "publibike", "timeStamp": "03/14/2020, 01:05:15", "zip": 8006}, "type": "Feature"}, {"geometry": {"coordinates": [8.520449, 47.388151], "type": "Point"}, "properties": {"address": "Josefstrasse 224", "electric": 0, "id": "pb_112", "manual": 2, "name": "Steinfelsareal", "provider": "publibike", "timeStamp": "03/14/2020, 01:05:15", "zip": 8005}, "type": "Feature"}, {"geometry": {"coordinates": [8.520482, 47.37209], "type": "Point"}, "properties": {"address": "Weststrasse 115", "electric": 2, "id": "pb_124", "manual": 4, "name": "Weststrasse", "provider": "publibike", "timeStamp": "03/14/2020, 01:05:15", "zip": 8003}, "type": "Feature"}, {"geometry": {"coordinates": [8.496727, 47.378521], "type": "Point"}, "properties": {"address": "Albisriederstrasse 200", "electric": 2, "id": "pb_125", "manual": 15, "name": "Utogrund", "provider": "publibike", "timeStamp": "03/14/2020, 01:05:15", "zip": 8047}, "type": "Feature"}, {"geometry": {"coordinates": [8.510418, 47.381356], "type": "Point"}, "properties": {"address": "Bullingerstrasse 73", "electric": 5, "id": "pb_126", "manual": 4, "name": "Hardau", "provider": "publibike", "timeStamp": "03/14/2020, 01:05:15", "zip": 8004}, "type": "Feature"}, {"geometry": {"coordinates": [8.525525, 47.361567], "type": "Point"}, "properties": {"address": "Klopstockstrasse 23", "electric": 2, "id": "pb_127", "manual": 8, "name": "Klopstockwiese", "provider": "publibike", "timeStamp": "03/14/2020, 01:05:15", "zip": 8002}, "type": "Feature"}, {"geometry": {"coordinates": [8.518143, 47.363148], "type": "Point"}, "properties": {"address": "Haldenstrasse 8", "electric": 1, "id": "pb_128", "manual": 2, "name": "Binz", "provider": "publibike", "timeStamp": "03/14/2020, 01:05:15", "zip": 8045}, "type": "Feature"}, {"geometry": {"coordinates": [8.542726, 47.379952], "type": "Point"}, "properties": {"address": "Walchestrasse 11", "electric": 6, "id": "pb_129", "manual": 1, "name": "Stampfenbachplatz", "provider": "publibike", "timeStamp": "03/14/2020, 01:05:15", "zip": 8006}, "type": "Feature"}, {"geometry": {"coordinates": [8.488108, 47.391366], "type": "Point"}, "properties": {"address": "Altstetterplatz 1", "electric": 4, "id": "pb_130", "manual": 2, "name": "Bahnhof Altstetten", "provider": "publibike", "timeStamp": "03/14/2020, 01:05:15", "zip": 8048}, "type": "Feature"}, {"geometry": {"coordinates": [8.554114, 47.365119], "type": "Point"}, "properties": {"address": "Kreuzplatz 2", "electric": 16, "id": "pb_131", "manual": 7, "name": "Kreuzplatz", "provider": "publibike", "timeStamp": "03/14/2020, 01:05:15", "zip": 8032}, "type": "Feature"}, {"geometry": {"coordinates": [8.549852, 47.35594], "type": "Point"}, "properties": {"address": "H\u00f6schgasse 3", "electric": 0, "id": "pb_132", "manual": 7, "name": "Blatterwiese", "provider": "publibike", "timeStamp": "03/14/2020, 01:05:15", "zip": 8008}, "type": "Feature"}, {"geometry": {"coordinates": [8.554501, 47.36162], "type": "Point"}, "properties": {"address": "Feldeggstrasse 80", "electric": 7, "id": "pb_133", "manual": 0, "name": "Villa Bleuler", "provider": "publibike", "timeStamp": "03/14/2020, 01:05:15", "zip": 8008}, "type": "Feature"}, {"geometry": {"coordinates": [8.557088, 47.358557], "type": "Point"}, "properties": {"address": "M\u00fchlebachstrasse 131", "electric": 2, "id": "pb_134", "manual": 4, "name": "M\u00fchlebachstrasse", "provider": "publibike", "timeStamp": "03/14/2020, 01:05:15", "zip": 8008}, "type": "Feature"}, {"geometry": {"coordinates": [8.547639, 47.361266], "type": "Point"}, "properties": {"address": "Utoquai 50", "electric": 5, "id": "pb_135", "manual": 2, "name": "Seebad Utoquai", "provider": "publibike", "timeStamp": "03/14/2020, 01:05:15", "zip": 8008}, "type": "Feature"}, {"geometry": {"coordinates": [8.548045, 47.370869], "type": "Point"}, "properties": {"address": "Heimplatz 1", "electric": 6, "id": "pb_137", "manual": 7, "name": "Kunsthaus", "provider": "publibike", "timeStamp": "03/14/2020, 01:05:15", "zip": 8001}, "type": "Feature"}, {"geometry": {"coordinates": [8.543447, 47.375933], "type": "Point"}, "properties": {"address": "Limmatquai 138", "electric": 0, "id": "pb_138", "manual": 0, "name": "Central", "provider": "publibike", "timeStamp": "03/14/2020, 01:05:15", "zip": 8001}, "type": "Feature"}, {"geometry": {"coordinates": [8.549356, 47.408827], "type": "Point"}, "properties": {"address": "Tramstrasse 35", "electric": 4, "id": "pb_139", "manual": 2, "name": "ewz Tramstrasse", "provider": "publibike", "timeStamp": "03/14/2020, 01:05:15", "zip": 8050}, "type": "Feature"}, {"geometry": {"coordinates": [8.533736, 47.366904], "type": "Point"}, "properties": {"address": "Bleicherweg 33", "electric": 2, "id": "pb_140", "manual": 2, "name": "Bleicherweg", "provider": "publibike", "timeStamp": "03/14/2020, 01:05:15", "zip": 8002}, "type": "Feature"}, {"geometry": {"coordinates": [8.544935, 47.366752], "type": "Point"}, "properties": {"address": "Bellevueplatz 2", "electric": 14, "id": "pb_141", "manual": 27, "name": "Bellevue", "provider": "publibike", "timeStamp": "03/14/2020, 01:05:15", "zip": 8001}, "type": "Feature"}, {"geometry": {"coordinates": [8.5285533, 47.3742296], "type": "Point"}, "properties": {"address": "Stauffacherstrasse 41", "electric": 0, "id": "pb_142", "manual": 2, "name": "Stauffacher", "provider": "publibike", "timeStamp": "03/14/2020, 01:05:15", "zip": 8004}, "type": "Feature"}, {"geometry": {"coordinates": [8.523722, 47.3899], "type": "Point"}, "properties": {"address": "Limmatstrasse 310", "electric": 2, "id": "pb_143", "manual": 11, "name": "Escher-Wyss-Platz", "provider": "publibike", "timeStamp": "03/14/2020, 01:05:15", "zip": 8005}, "type": "Feature"}, {"geometry": {"coordinates": [8.491061, 47.392336], "type": "Point"}, "properties": {"address": "Vulkanplatz 1", "electric": 2, "id": "pb_149", "manual": 11, "name": "Vulkanplatz", "provider": "publibike", "timeStamp": "03/14/2020, 01:05:15", "zip": 8048}, "type": "Feature"}, {"geometry": {"coordinates": [8.52306, 47.359872], "type": "Point"}, "properties": {"address": "Giessh\u00fcbelstrasse 15", "electric": 11, "id": "pb_150", "manual": 12, "name": "Utoplatz", "provider": "publibike", "timeStamp": "03/14/2020, 01:05:15", "zip": 8045}, "type": "Feature"}, {"geometry": {"coordinates": [8.486284, 47.387685], "type": "Point"}, "properties": {"address": "Lindenplatz 1", "electric": 11, "id": "pb_151", "manual": 5, "name": "Lindenplatz", "provider": "publibike", "timeStamp": "03/14/2020, 01:05:15", "zip": 8048}, "type": "Feature"}, {"geometry": {"coordinates": [8.49163, 47.389823], "type": "Point"}, "properties": {"address": "Hohlstrasse 563", "electric": 1, "id": "pb_152", "manual": 3, "name": "Luggweg", "provider": "publibike", "timeStamp": "03/14/2020, 01:05:15", "zip": 8048}, "type": "Feature"}, {"geometry": {"coordinates": [8.52174, 47.365272], "type": "Point"}, "properties": {"address": "Manessestrasse 87", "electric": 3, "id": "pb_153", "manual": 1, "name": "Manesseplatz", "provider": "publibike", "timeStamp": "03/14/2020, 01:05:15", "zip": 8045}, "type": "Feature"}, {"geometry": {"coordinates": [8.52714, 47.372329], "type": "Point"}, "properties": {"address": "Werdstrasse 75", "electric": 0, "id": "pb_154", "manual": 0, "name": "Werd", "provider": "publibike", "timeStamp": "03/14/2020, 01:05:15", "zip": 8004}, "type": "Feature"}, {"geometry": {"coordinates": [8.543042, 47.374711], "type": "Point"}, "properties": {"address": "Limmatquai 100", "electric": 0, "id": "pb_155", "manual": 0, "name": "Rudolf-Brun-Br\u00fccke", "provider": "publibike", "timeStamp": "03/14/2020, 01:05:15", "zip": 8001}, "type": "Feature"}, {"geometry": {"coordinates": [8.490837, 47.386596], "type": "Point"}, "properties": {"address": "Badenerstrasse 627", "electric": 4, "id": "pb_156", "manual": 14, "name": "Luggwegstrasse VBZ", "provider": "publibike", "timeStamp": "03/14/2020, 01:05:15", "zip": 8048}, "type": "Feature"}, {"geometry": {"coordinates": [8.535119, 47.355189], "type": "Point"}, "properties": {"address": "Mythenquai 95", "electric": 6, "id": "pb_157", "manual": 7, "name": "Strandbad Mythenquai", "provider": "publibike", "timeStamp": "03/14/2020, 01:05:15", "zip": 8002}, "type": "Feature"}, {"geometry": {"coordinates": [8.545505, 47.373675], "type": "Point"}, "properties": {"address": "Predigerpatz 21", "electric": 0, "id": "pb_158", "manual": 5, "name": "Predigerplatz", "provider": "publibike", "timeStamp": "03/14/2020, 01:05:15", "zip": 8001}, "type": "Feature"}, {"geometry": {"coordinates": [8.515558, 47.371868], "type": "Point"}, "properties": {"address": "Aemtlerstrasse 23", "electric": 5, "id": "pb_159", "manual": 7, "name": "Zwinglihaus", "provider": "publibike", "timeStamp": "03/14/2020, 01:05:15", "zip": 8003}, "type": "Feature"}, {"geometry": {"coordinates": [8.524629, 47.386072], "type": "Point"}, "properties": {"address": "Josefstrasse 188", "electric": 10, "id": "pb_160", "manual": 6, "name": "Josefwiese", "provider": "publibike", "timeStamp": "03/14/2020, 01:05:15", "zip": 8005}, "type": "Feature"}, {"geometry": {"coordinates": [8.527138, 47.387531], "type": "Point"}, "properties": {"address": "R\u00f6ntgenstrasse 87", "electric": 3, "id": "pb_164", "manual": 7, "name": "Markthalle", "provider": "publibike", "timeStamp": "03/14/2020, 01:05:15", "zip": 8005}, "type": "Feature"}, {"geometry": {"coordinates": [8.552717, 47.359978], "type": "Point"}, "properties": {"address": "Seefeldstrasse 96", "electric": 6, "id": "pb_263", "manual": 6, "name": "Feldeggstrasse", "provider": "publibike", "timeStamp": "03/14/2020, 01:05:15", "zip": 8008}, "type": "Feature"}, {"geometry": {"coordinates": [8.553189, 47.353198], "type": "Point"}, "properties": {"address": "Bellerivestrasse 170", "electric": 5, "id": "pb_264", "manual": 3, "name": "Lake Side", "provider": "publibike", "timeStamp": "03/14/2020, 01:05:15", "zip": 8008}, "type": "Feature"}, {"geometry": {"coordinates": [8.543437, 47.369256], "type": "Point"}, "properties": {"address": "Limmatquai 18", "electric": 0, "id": "pb_265", "manual": 0, "name": "Helmhaus", "provider": "publibike", "timeStamp": "03/14/2020, 01:05:15", "zip": 8032}, "type": "Feature"}, {"geometry": {"coordinates": [8.516676, 47.375819], "type": "Point"}, "properties": {"address": "Badenerstrasse 246", "electric": 12, "id": "pb_266", "manual": 7, "name": "Lochergut", "provider": "publibike", "timeStamp": "03/14/2020, 01:05:15", "zip": 8004}, "type": "Feature"}, {"geometry": {"coordinates": [8.514605, 47.389862], "type": "Point"}, "properties": {"address": "Pfingstweidstrasse 60", "electric": 0, "id": "pb_273", "manual": 0, "name": "Westpark", "provider": "publibike", "timeStamp": "03/14/2020, 01:05:15", "zip": 8005}, "type": "Feature"}, {"geometry": {"coordinates": [8.541239126, 47.375991201], "type": "Point"}, "properties": {"address": "Beatenplatz 1", "electric": 0, "id": "pb_274", "manual": 4, "name": "Beatenplatz", "provider": "publibike", "timeStamp": "03/14/2020, 01:05:15", "zip": 8001}, "type": "Feature"}, {"geometry": {"coordinates": [8.5417135, 47.3942197], "type": "Point"}, "properties": {"address": "Scheuchzerstrasse 181", "electric": 7, "id": "pb_275", "manual": 1, "name": "Pauluskirche", "provider": "publibike", "timeStamp": "03/14/2020, 01:05:15", "zip": 8057}, "type": "Feature"}, {"geometry": {"coordinates": [8.5528182, 47.414558], "type": "Point"}, "properties": {"address": "Hagenholzstrasse 51", "electric": 2, "id": "pb_276", "manual": 10, "name": "Airgate", "provider": "publibike", "timeStamp": "03/14/2020, 01:05:15", "zip": 8050}, "type": "Feature"}, {"geometry": {"coordinates": [8.537816, 47.413514], "type": "Point"}, "properties": {"address": "Birchstrasse 183", "electric": 2, "id": "pb_277", "manual": 1, "name": "Lamprechtweg", "provider": "publibike", "timeStamp": "03/14/2020, 01:05:15", "zip": 8050}, "type": "Feature"}, {"geometry": {"coordinates": [8.545602, 47.417701], "type": "Point"}, "properties": {"address": "Felsenrainstrasse 2", "electric": 3, "id": "pb_278", "manual": 5, "name": "Emil-Oberh\u00e4nsli", "provider": "publibike", "timeStamp": "03/14/2020, 01:05:15", "zip": 8050}, "type": "Feature"}, {"geometry": {"coordinates": [8.533647, 47.39808], "type": "Point"}, "properties": {"address": "Bucheggplatz 2", "electric": 5, "id": "pb_279", "manual": 2, "name": "Bucheggplatz", "provider": "publibike", "timeStamp": "03/14/2020, 01:05:15", "zip": 8057}, "type": "Feature"}, {"geometry": {"coordinates": [8.523549, 47.392347], "type": "Point"}, "properties": {"address": "Wipkingerplatz 4", "electric": 1, "id": "pb_280", "manual": 1, "name": "Wipkingerplatz", "provider": "publibike", "timeStamp": "03/14/2020, 01:05:15", "zip": 8037}, "type": "Feature"}, {"geometry": {"coordinates": [8.548562, 47.36691], "type": "Point"}, "properties": {"address": "Galerie \u00fcber Gleis 2/3", "electric": 28, "id": "pb_285", "manual": 7, "name": "Bahnhof Stadelhofen", "provider": "publibike", "timeStamp": "03/14/2020, 01:05:15", "zip": 8001}, "type": "Feature"}, {"geometry": {"coordinates": [8.493822, 47.3985553], "type": "Point"}, "properties": {"address": "Meierwiesenstrasse 12-4", "electric": 3, "id": "pb_286", "manual": 5, "name": "T\u00fcffenwies", "provider": "publibike", "timeStamp": "03/14/2020, 01:05:15", "zip": 8064}, "type": "Feature"}, {"geometry": {"coordinates": [8.552432, 47.3801757], "type": "Point"}, "properties": {"address": "Hochstrasse 34", "electric": 0, "id": "pb_356", "manual": 1, "name": "Siriuswiese", "provider": "publibike", "timeStamp": "03/14/2020, 01:05:15", "zip": 8044}, "type": "Feature"}, {"geometry": {"coordinates": [8.527298, 47.370141], "type": "Point"}, "properties": {"address": "Hallwylstrasse 71", "electric": 0, "id": "pb_357", "manual": 0, "name": "Hallwylstrasse", "provider": "publibike", "timeStamp": "03/14/2020, 01:05:15", "zip": 8004}, "type": "Feature"}, {"geometry": {"coordinates": [8.5414185, 47.3972455], "type": "Point"}, "properties": {"address": "Schaffhauserstrasse 137", "electric": 5, "id": "pb_358", "manual": 1, "name": "Milchbuck", "provider": "publibike", "timeStamp": "03/14/2020, 01:05:15", "zip": 8057}, "type": "Feature"}, {"geometry": {"coordinates": [8.512381, 47.393409], "type": "Point"}, "properties": {"address": "Hardturmstrasse 161", "electric": 4, "id": "pb_359", "manual": 7, "name": "Fischerweg", "provider": "publibike", "timeStamp": "03/14/2020, 01:05:15", "zip": 8005}, "type": "Feature"}, {"geometry": {"coordinates": [8.5421457, 47.3876979], "type": "Point"}, "properties": {"address": "Turnerstrasse 47", "electric": 4, "id": "pb_360", "manual": 1, "name": "Kirche Unterstrass", "provider": "publibike", "timeStamp": "03/14/2020, 01:05:15", "zip": 8006}, "type": "Feature"}, {"geometry": {"coordinates": [8.522117, 47.394554], "type": "Point"}, "properties": {"address": "Dorfstrasse 40", "electric": 8, "id": "pb_361", "manual": 3, "name": "Dorfstrasse", "provider": "publibike", "timeStamp": "03/14/2020, 01:05:15", "zip": 8037}, "type": "Feature"}, {"geometry": {"coordinates": [8.530437, 47.37271], "type": "Point"}, "properties": {"address": "Werdstrasse 25", "electric": 2, "id": "pb_362", "manual": 4, "name": "Stauffachertor", "provider": "publibike", "timeStamp": "03/14/2020, 01:05:15", "zip": 8004}, "type": "Feature"}, {"geometry": {"coordinates": [8.541712, 47.416155], "type": "Point"}, "properties": {"address": "Eggb\u00fchlstrasse 21", "electric": 1, "id": "pb_363", "manual": 5, "name": "Wahlenpark", "provider": "publibike", "timeStamp": "03/14/2020, 01:05:15", "zip": 8050}, "type": "Feature"}, {"geometry": {"coordinates": [8.5595335, 47.3708387], "type": "Point"}, "properties": {"address": "Dolderstrasse 32", "electric": 4, "id": "pb_364", "manual": 3, "name": "Kinderspital", "provider": "publibike", "timeStamp": "03/14/2020, 01:05:15", "zip": 8032}, "type": "Feature"}, {"geometry": {"coordinates": [8.536433, 47.388689], "type": "Point"}, "properties": {"address": "Kornhausstrasse 30", "electric": 0, "id": "pb_365", "manual": 1, "name": "Kornhausstrasse", "provider": "publibike", "timeStamp": "03/14/2020, 01:05:15", "zip": 8006}, "type": "Feature"}, {"geometry": {"coordinates": [8.55033, 47.407098], "type": "Point"}, "properties": {"address": "Schwamendingenstrasse 41", "electric": 5, "id": "pb_366", "manual": 2, "name": "Dorflinde", "provider": "publibike", "timeStamp": "03/14/2020, 01:05:15", "zip": 8050}, "type": "Feature"}, {"geometry": {"coordinates": [8.560476, 47.368199], "type": "Point"}, "properties": {"address": "R\u00f6merhofplatz 5", "electric": 6, "id": "pb_367", "manual": 1, "name": "R\u00f6merhof", "provider": "publibike", "timeStamp": "03/14/2020, 01:05:15", "zip": 8032}, "type": "Feature"}, {"geometry": {"coordinates": [8.5609218, 47.3619068], "type": "Point"}, "properties": {"address": "Forchstrasse 99", "electric": 4, "id": "pb_368", "manual": 5, "name": "Hegibachplatz", "provider": "publibike", "timeStamp": "03/14/2020, 01:05:15", "zip": 8032}, "type": "Feature"}, {"geometry": {"coordinates": [8.5721264, 47.4039985], "type": "Point"}, "properties": {"address": "Winterthurerstrasse 519", "electric": 11, "id": "pb_370", "manual": 0, "name": "Schwamendingerplatz", "provider": "publibike", "timeStamp": "03/14/2020, 01:05:15", "zip": 8051}, "type": "Feature"}, {"geometry": {"coordinates": [8.520168, 47.378556], "type": "Point"}, "properties": {"address": "Herman-Greulich-Strasse 56", "electric": 0, "id": "pb_384", "manual": 0, "name": "Hermann-Greulich-Weg", "provider": "publibike", "timeStamp": "03/14/2020, 01:05:15", "zip": 8004}, "type": "Feature"}, {"geometry": {"coordinates": [8.547912, 47.384923], "type": "Point"}, "properties": {"address": "Culmannstrasse", "electric": 0, "id": "pb_386", "manual": 0, "name": "Rigiplatz", "provider": "publibike", "timeStamp": "03/14/2020, 01:05:15", "zip": 8006}, "type": "Feature"}, {"geometry": {"coordinates": [8.543768, 47.411057], "type": "Point"}, "properties": {"address": "Hofwiesenstrasse 369", "electric": 2, "id": "pb_387", "manual": 3, "name": "Bahnhof Oerlikon S\u00fcd", "provider": "publibike", "timeStamp": "03/14/2020, 01:05:15", "zip": 8050}, "type": "Feature"}, {"geometry": {"coordinates": [8.544185, 47.412732], "type": "Point"}, "properties": {"address": "Jungholzstrasse 6", "electric": 1, "id": "pb_388", "manual": 0, "name": "Max-Frisch-Platz", "provider": "publibike", "timeStamp": "03/14/2020, 01:05:15", "zip": 8050}, "type": "Feature"}, {"geometry": {"coordinates": [8.558096, 47.413032], "type": "Point"}, "properties": {"address": "Andreasstrasse", "electric": 7, "id": "pb_389", "manual": 6, "name": "Hunziker-Areal", "provider": "publibike", "timeStamp": "03/14/2020, 01:05:15", "zip": 8050}, "type": "Feature"}, {"geometry": {"coordinates": [8.533265, 47.412873], "type": "Point"}, "properties": {"address": "Regina-K\u00e4gi-Strasse 1", "electric": 1, "id": "pb_390", "manual": 3, "name": "Luis-H\u00e4fliger-Park", "provider": "publibike", "timeStamp": "03/14/2020, 01:05:15", "zip": 8050}, "type": "Feature"}, {"geometry": {"coordinates": [8.499265, 47.401852], "type": "Point"}, "properties": {"address": "Limmattalstrasse 177", "electric": 6, "id": "pb_391", "manual": 0, "name": "Meierhofplatz", "provider": "publibike", "timeStamp": "03/14/2020, 01:05:15", "zip": 8049}, "type": "Feature"}, {"geometry": {"coordinates": [8.528356, 47.393255], "type": "Point"}, "properties": {"address": "R\u00f6schibachstrasse 73", "electric": 4, "id": "pb_392", "manual": 5, "name": "R\u00f6schibachplatz", "provider": "publibike", "timeStamp": "03/14/2020, 01:05:15", "zip": 8037}, "type": "Feature"}, {"geometry": {"coordinates": [8.538067, 47.415721], "type": "Point"}, "properties": {"address": "Birchstrasse 191", "electric": 7, "id": "pb_393", "manual": 0, "name": "Oerliker Park", "provider": "publibike", "timeStamp": "03/14/2020, 01:05:15", "zip": 8050}, "type": "Feature"}, {"geometry": {"coordinates": [8.5420304, 47.3669233], "type": "Point"}, "properties": {"address": "Stadthausquai 1", "electric": 1, "id": "pb_395", "manual": 11, "name": "B\u00fcrkliplatz", "provider": "publibike", "timeStamp": "03/14/2020, 01:05:15", "zip": 8001}, "type": "Feature"}, {"geometry": {"coordinates": [8.535767, 47.409881], "type": "Point"}, "properties": {"address": "Regensbergstrasse 195", "electric": 1, "id": "pb_396", "manual": 3, "name": "Holunderhof", "provider": "publibike", "timeStamp": "03/14/2020, 01:05:15", "zip": 8050}, "type": "Feature"}, {"geometry": {"coordinates": [8.5116245, 47.3616199], "type": "Point"}, "properties": {"address": "Grubenstrasse 42", "electric": 1, "id": "pb_431", "manual": 0, "name": "Binz Center", "provider": "publibike", "timeStamp": "03/14/2020, 01:05:15", "zip": 8045}, "type": "Feature"}, {"geometry": {"coordinates": [8.547195, 47.382089], "type": "Point"}, "properties": {"address": "Nelkenstrasse 24", "electric": 5, "id": "pb_430", "manual": 1, "name": "Stapferstube", "provider": "publibike", "timeStamp": "03/14/2020, 01:05:15", "zip": 8006}, "type": "Feature"}, {"geometry": {"coordinates": [8.5787183, 47.4039845], "type": "Point"}, "properties": {"address": "Kronwiesenstrasse 35", "electric": 5, "id": "pb_426", "manual": 4, "name": "Kronwiesen", "provider": "publibike", "timeStamp": "03/14/2020, 01:05:15", "zip": 8051}, "type": "Feature"}, {"geometry": {"coordinates": [8.508131, 47.420757], "type": "Point"}, "properties": {"address": "Riedenhaldenstrasse 20-18", "electric": 5, "id": "pb_425", "manual": 4, "name": "Bahnhof Affoltern", "provider": "publibike", "timeStamp": "03/14/2020, 01:05:15", "zip": 8046}, "type": "Feature"}, {"geometry": {"coordinates": [8.532464, 47.406988], "type": "Point"}, "properties": {"address": "K\u00fcnzlistrasse 41", "electric": 7, "id": "pb_424", "manual": 1, "name": "Birchd\u00f6rfli", "provider": "publibike", "timeStamp": "03/14/2020, 01:05:15", "zip": 8057}, "type": "Feature"}, {"geometry": {"coordinates": [8.5777038, 47.4080095], "type": "Point"}, "properties": {"address": "Luegislandstrasse 412", "electric": 5, "id": "pb_429", "manual": 3, "name": "Luegisland", "provider": "publibike", "timeStamp": "03/14/2020, 01:05:15", "zip": 8051}, "type": "Feature"}, {"geometry": {"coordinates": [8.58841, 47.40158], "type": "Point"}, "properties": {"address": "Hirzenbachstrasse 2-4", "electric": 12, "id": "pb_428", "manual": 7, "name": "Hirzenbachstrasse", "provider": "publibike", "timeStamp": "03/14/2020, 01:05:15", "zip": 8051}, "type": "Feature"}, {"geometry": {"coordinates": [8.5563463, 47.4095467], "type": "Point"}, "properties": {"address": "K\u00fchriedweg", "electric": 4, "id": "pb_445", "manual": 4, "name": "Hallenbad Oerlikon", "provider": "publibike", "timeStamp": "03/14/2020, 01:05:15", "zip": 8050}, "type": "Feature"}, {"geometry": {"coordinates": [8.537971, 47.364871], "type": "Point"}, "properties": {"address": "General-Guisan-Quai 17", "electric": 6, "id": "pb_454", "manual": 1, "name": "General-Guisan-Quai", "provider": "publibike", "timeStamp": "03/14/2020, 01:05:15", "zip": 8002}, "type": "Feature"}, {"geometry": {"coordinates": [8.560587, 47.350578], "type": "Point"}, "properties": {"address": "Bellerivestrasse 245", "electric": 7, "id": "pb_450", "manual": 7, "name": "Bahnhof Tiefenbrunnen", "provider": "publibike", "timeStamp": "03/14/2020, 01:05:15", "zip": 8008}, "type": "Feature"}, {"geometry": {"coordinates": [8.5269416, 47.3563719], "type": "Point"}, "properties": {"address": "Waffenplatzstrasse 89", "electric": 2, "id": "pb_452", "manual": 4, "name": "Rieterplatz", "provider": "publibike", "timeStamp": "03/14/2020, 01:05:15", "zip": 8002}, "type": "Feature"}, {"geometry": {"coordinates": [8.514176, 47.3663708], "type": "Point"}, "properties": {"address": "Talwiesenstrasse 92", "electric": 8, "id": "pb_446", "manual": 1, "name": "Binzallee", "provider": "publibike", "timeStamp": "03/14/2020, 01:05:15", "zip": 8055}, "type": "Feature"}, {"geometry": {"coordinates": [8.5070564, 47.371455], "type": "Point"}, "properties": {"address": "Gutstrasse 87", "electric": 9, "id": "pb_447", "manual": 4, "name": "Gutstrasse", "provider": "publibike", "timeStamp": "03/14/2020, 01:05:15", "zip": 8055}, "type": "Feature"}, {"geometry": {"coordinates": [8.4941268, 47.3836391], "type": "Point"}, "properties": {"address": "Flurstrasse 62", "electric": 8, "id": "pb_453", "manual": 2, "name": "Flurpark", "provider": "publibike", "timeStamp": "03/14/2020, 01:05:15", "zip": 8048}, "type": "Feature"}, {"geometry": {"coordinates": [8.500343, 47.380778], "type": "Point"}, "properties": {"address": "Edelweissstrasse 32", "electric": 1, "id": "pb_448", "manual": 5, "name": "Bl\u00fcemliquartier", "provider": "publibike", "timeStamp": "03/14/2020, 01:05:15", "zip": 8048}, "type": "Feature"}, {"geometry": {"coordinates": [8.528796, 47.383858], "type": "Point"}, "properties": {"address": "Gasometerstrasse 24", "electric": 10, "id": "pb_449", "manual": 8, "name": "Gasometerstrasse", "provider": "publibike", "timeStamp": "03/14/2020, 01:05:15", "zip": 8005}, "type": "Feature"}, {"geometry": {"coordinates": [8.4981964, 47.3859194], "type": "Point"}, "properties": {"address": "Baslerstrasse 57", "electric": 13, "id": "pb_455", "manual": 3, "name": "Letzipark", "provider": "publibike", "timeStamp": "03/14/2020, 01:05:15", "zip": 8048}, "type": "Feature"}, {"geometry": {"coordinates": [8.515252, 47.381915], "type": "Point"}, "properties": {"address": "Sihlfeldstrasse 175", "electric": 5, "id": "pb_451", "manual": 14, "name": "Hardplatz", "provider": "publibike", "timeStamp": "03/14/2020, 01:05:15", "zip": 8004}, "type": "Feature"}, {"geometry": {"coordinates": [8.5064743, 47.4188324], "type": "Point"}, "properties": {"address": "Wehntalerstrasse 541", "electric": 5, "id": "pb_427", "manual": 1, "name": "Zehntenhausplatz", "provider": "publibike", "timeStamp": "03/14/2020, 01:05:15", "zip": 8046}, "type": "Feature"}, {"geometry": {"coordinates": [8.537729, 47.379719], "type": "Point"}, "properties": {"address": "Sihlquai/HB", "electric": 0, "id": "pb_513", "manual": 24, "name": "Sihlquai", "provider": "publibike", "timeStamp": "03/14/2020, 01:05:15", "zip": 8005}, "type": "Feature"}, {"geometry": {"coordinates": [8.596202, 47.397885], "type": "Point"}, "properties": {"address": "Bahnhof Stettbach", "electric": 6, "id": "pb_514", "manual": 0, "name": "Bahnhof Stettbach", "provider": "publibike", "timeStamp": "03/14/2020, 01:05:15", "zip": 8051}, "type": "Feature"}, {"geometry": {"coordinates": [8.5543974, 47.3690153], "type": "Point"}, "properties": {"address": "Kasinostrasse 10", "electric": 7, "id": "pb_515", "manual": 1, "name": "Hottingerplatz", "provider": "publibike", "timeStamp": "03/14/2020, 01:05:15", "zip": 8032}, "type": "Feature"}, {"geometry": {"coordinates": [8.534444, 47.351525], "type": "Point"}, "properties": {"address": "Mobile Station Z\u00fcrich 1", "electric": 0, "id": "pb_282", "manual": 0, "name": "Theaterspektakel", "provider": "publibike", "timeStamp": "03/14/2020, 01:05:15", "zip": 8002}, "type": "Feature"}, {"geometry": {"coordinates": [8.516257, 47.367656], "type": "Point"}, "properties": {"address": "Goldbrunnenstrasse 54", "electric": 14, "id": "pb_538", "manual": 0, "name": "Kirche B\u00fchl", "provider": "publibike", "timeStamp": "03/14/2020, 01:05:15", "zip": 8055}, "type": "Feature"}, {"geometry": {"coordinates": [8.555639, 47.416873], "type": "Point"}, "properties": {"address": "Leutschenbachstrasse 50", "electric": 6, "id": "pb_537", "manual": 7, "name": "Leutschenpark", "provider": "publibike", "timeStamp": "03/14/2020, 01:05:15", "zip": 8050}, "type": "Feature"}, {"geometry": {"coordinates": [8.546464, 47.403822], "type": "Point"}, "properties": {"address": "Berninastrasse 45", "electric": 11, "id": "pb_540", "manual": 3, "name": "Berninaplatz", "provider": "publibike", "timeStamp": "03/14/2020, 01:05:15", "zip": 8057}, "type": "Feature"}, {"geometry": {"coordinates": [8.523134, 47.369004], "type": "Point"}, "properties": {"address": "Erlachstrasse 3", "electric": 4, "id": "pb_385", "manual": 5, "name": "Aegerten", "provider": "publibike", "timeStamp": "03/14/2020, 01:05:15", "zip": 8003}, "type": "Feature"}, {"geometry": {"coordinates": [8.49038, 47.381591], "type": "Point"}, "properties": {"address": "Rautistrasse 60", "electric": 15, "id": "pb_536", "manual": 2, "name": "Freilager", "provider": "publibike", "timeStamp": "03/14/2020, 01:05:15", "zip": 8048}, "type": "Feature"}, {"geometry": {"coordinates": [8.496511, 47.375247], "type": "Point"}, "properties": {"address": "Letzigraben 139", "electric": 7, "id": "pb_444", "manual": 6, "name": "Sackzelg", "provider": "publibike", "timeStamp": "03/14/2020, 01:05:15", "zip": 8047}, "type": "Feature"}, {"geometry": {"coordinates": [8.58131, 47.402801], "type": "Point"}, "properties": {"address": "Altwiesenstrasse 104", "electric": 3, "id": "pb_539", "manual": 3, "name": "Glattwiesen", "provider": "publibike", "timeStamp": "03/14/2020, 01:05:15", "zip": 8051}, "type": "Feature"}, {"geometry": {"coordinates": [8.52689, 47.3767], "type": "Point"}, "properties": {"address": "Molkenstrasse 5", "electric": 7, "id": "pb_560", "manual": 11, "name": "Helvetiaplatz", "provider": "publibike", "timeStamp": "03/14/2020, 01:05:15", "zip": 8004}, "type": "Feature"}, {"geometry": {"coordinates": [8.525602, 47.374241], "type": "Point"}, "properties": {"address": "Badenerstrasse 90", "electric": 4, "id": "pb_559", "manual": 3, "name": "Bezirksgeb\u00e4ude", "provider": "publibike", "timeStamp": "03/14/2020, 01:05:15", "zip": 8004}, "type": "Feature"}, {"geometry": {"coordinates": [8.535082, 47.345248], "type": "Point"}, "properties": {"address": "Bachstrasse 15", "electric": 6, "id": "pb_564", "manual": 6, "name": "GZ Wollishofen", "provider": "publibike", "timeStamp": "03/14/2020, 01:05:15", "zip": 8038}, "type": "Feature"}, {"geometry": {"coordinates": [8.514841, 47.370238], "type": "Point"}, "properties": {"address": "Schrennengasse 37", "electric": 2, "id": "pb_562", "manual": 6, "name": "Goldbrunnenplatz", "provider": "publibike", "timeStamp": "03/14/2020, 01:05:15", "zip": 8003}, "type": "Feature"}, {"geometry": {"coordinates": [8.514138, 47.374206], "type": "Point"}, "properties": {"address": "Idaplatz 4", "electric": 2, "id": "pb_557", "manual": 11, "name": "Idaplatz", "provider": "publibike", "timeStamp": "03/14/2020, 01:05:15", "zip": 8003}, "type": "Feature"}, {"geometry": {"coordinates": [8.518432, 47.369549], "type": "Point"}, "properties": {"address": "Brinerstrasse 2", "electric": 0, "id": "pb_558", "manual": 2, "name": "Schmiede Wiedikon", "provider": "publibike", "timeStamp": "03/14/2020, 01:05:15", "zip": 8003}, "type": "Feature"}, {"geometry": {"coordinates": [8.537546, 47.391289], "type": "Point"}, "properties": {"address": "Rotbuchstrasse 15", "electric": 1, "id": "pb_556", "manual": 0, "name": "Schaffhauserplatz", "provider": "publibike", "timeStamp": "03/14/2020, 01:05:15", "zip": 8006}, "type": "Feature"}, {"geometry": {"coordinates": [8.541541, 47.413733], "type": "Point"}, "properties": {"address": "Therese-Giehse-Strasse 11", "electric": 0, "id": "pb_561", "manual": 0, "name": "Center Eleven", "provider": "publibike", "timeStamp": "03/14/2020, 01:05:15", "zip": 8050}, "type": "Feature"}, {"geometry": {"coordinates": [8.534227, 47.360004], "type": "Point"}, "properties": {"address": "Alfred Escher-Strasse 76", "electric": 1, "id": "pb_563", "manual": 1, "name": "Mythenschloss", "provider": "publibike", "timeStamp": "03/14/2020, 01:05:15", "zip": 8002}, "type": "Feature"}, {"geometry": {"coordinates": [8.50373, 47.396172], "type": "Point"}, "properties": {"address": "Hardeggstrasse 6", "electric": 4, "id": "pb_566", "manual": 1, "name": "Am Wasser", "provider": "publibike", "timeStamp": "03/14/2020, 01:05:15", "zip": 8049}, "type": "Feature"}, {"geometry": {"coordinates": [8.532432, 47.381174], "type": "Point"}, "properties": {"address": "Klingenstrasse 9", "electric": 0, "id": "pb_565", "manual": 8, "name": "Zollstrasse", "provider": "publibike", "timeStamp": "03/14/2020, 01:05:15", "zip": 8005}, "type": "Feature"}, {"geometry": {"coordinates": [8.497982, 47.381447], "type": "Point"}, "properties": {"address": "Dennlerstrasse 23", "electric": 2, "id": "pb_567", "manual": 5, "name": "Dennlerstrasse", "provider": "publibike", "timeStamp": "03/14/2020, 01:05:15", "zip": 8047}, "type": "Feature"}, {"geometry": {"coordinates": [8.528049, 47.347701], "type": "Point"}, "properties": {"address": "Mutschellenstrasse 114", "electric": 10, "id": "pb_568", "manual": 2, "name": "Jugendherberge", "provider": "publibike", "timeStamp": "03/14/2020, 01:05:15", "zip": 8038}, "type": "Feature"}, {"geometry": {"coordinates": [8.539016, 47.405751], "type": "Point"}, "properties": {"address": "Ringstrasse 82", "electric": 5, "id": "pb_569", "manual": 3, "name": "Freibad Allenmoos", "provider": "publibike", "timeStamp": "03/14/2020, 01:05:15", "zip": 8057}, "type": "Feature"}, {"geometry": {"coordinates": [8.534974, 47.402164], "type": "Point"}, "properties": {"address": "Brache Guggach", "electric": 0, "id": "pb_572", "manual": 0, "name": "Radiostudio", "provider": "publibike", "timeStamp": "03/14/2020, 01:05:15", "zip": 8057}, "type": "Feature"}, {"geometry": {"coordinates": [8.547901, 47.375556], "type": "Point"}, "properties": {"address": "Karl-Schmid-Strasse 4", "electric": 0, "id": "pb_571", "manual": 0, "name": "ETH/Zoologisches Museum", "provider": "publibike", "timeStamp": "03/14/2020, 01:05:15", "zip": 8006}, "type": "Feature"}, {"geometry": {"coordinates": [8.567282, 47.376232], "type": "Point"}, "properties": {"charge": 43, "id": "smide_111", "name": "ZH253763", "provider": "smide", "range": 21.0, "size": 17, "time": "03/17/2020, 20:29:45"}, "type": "Feature"}, {"geometry": {"coordinates": [8.493836, 47.400248], "type": "Point"}, "properties": {"charge": 100, "id": "smide_1", "name": "ZH253776", "provider": "smide", "range": 50.0, "size": 17, "time": "03/17/2020, 20:29:45"}, "type": "Feature"}, {"geometry": {"coordinates": [8.54317, 47.384572], "type": "Point"}, "properties": {"charge": 21, "id": "smide_28", "name": "ZH253831", "provider": "smide", "range": 10.0, "size": 17, "time": "03/17/2020, 20:29:45"}, "type": "Feature"}, {"geometry": {"coordinates": [8.537926, 47.40088], "type": "Point"}, "properties": {"charge": 87, "id": "smide_14", "name": "ZH253749", "provider": "smide", "range": 43.0, "size": 20, "time": "03/17/2020, 20:29:45"}, "type": "Feature"}, {"geometry": {"coordinates": [8.538332, 47.37276], "type": "Point"}, "properties": {"charge": 60, "id": "smide_130", "name": "ZH253847", "provider": "smide", "range": 30.0, "size": 20, "time": "03/17/2020, 20:29:45"}, "type": "Feature"}, {"geometry": {"coordinates": [8.53162, 47.395553], "type": "Point"}, "properties": {"charge": 87, "id": "smide_107", "name": "ZH253819", "provider": "smide", "range": 43.0, "size": 17, "time": "03/17/2020, 20:29:45"}, "type": "Feature"}, {"geometry": {"coordinates": [8.574882, 47.344268], "type": "Point"}, "properties": {"charge": 59, "id": "smide_136", "name": "ZH253682", "provider": "smide", "range": 29.0, "size": 17, "time": "03/17/2020, 20:29:45"}, "type": "Feature"}, {"geometry": {"coordinates": [8.489601, 47.379931], "type": "Point"}, "properties": {"charge": 100, "id": "smide_73", "name": "ZH261379", "provider": "smide", "range": 50.0, "size": 20, "time": "03/17/2020, 20:29:45"}, "type": "Feature"}, {"geometry": {"coordinates": [8.559711, 47.413105], "type": "Point"}, "properties": {"charge": 100, "id": "smide_158", "name": "ZH253870", "provider": "smide", "range": 50.0, "size": 20, "time": "03/17/2020, 20:29:45"}, "type": "Feature"}, {"geometry": {"coordinates": [8.537111, 47.342872], "type": "Point"}, "properties": {"charge": 100, "id": "smide_100", "name": "ZH253862", "provider": "smide", "range": 50.0, "size": 20, "time": "03/17/2020, 20:29:45"}, "type": "Feature"}, {"geometry": {"coordinates": [8.512983, 47.389555], "type": "Point"}, "properties": {"charge": 99, "id": "smide_134", "name": "ZH253741", "provider": "smide", "range": 49.0, "size": 20, "time": "03/17/2020, 20:29:45"}, "type": "Feature"}, {"geometry": {"coordinates": [8.55908, 47.41496], "type": "Point"}, "properties": {"charge": 71, "id": "smide_141", "name": "ZH253800", "provider": "smide", "range": 35.0, "size": 20, "time": "03/17/2020, 20:29:45"}, "type": "Feature"}, {"geometry": {"coordinates": [8.529258, 47.33603], "type": "Point"}, "properties": {"charge": 89, "id": "smide_149", "name": "ZH253743", "provider": "smide", "range": 44.0, "size": 20, "time": "03/17/2020, 20:29:45"}, "type": "Feature"}, {"geometry": {"coordinates": [8.549536, 47.413056], "type": "Point"}, "properties": {"charge": 92, "id": "smide_16", "name": "ZH253713", "provider": "smide", "range": 46.0, "size": 20, "time": "03/17/2020, 20:29:45"}, "type": "Feature"}, {"geometry": {"coordinates": [8.561488, 47.414896], "type": "Point"}, "properties": {"charge": 88, "id": "smide_74", "name": "ZH253693", "provider": "smide", "range": 44.0, "size": 20, "time": "03/17/2020, 20:29:45"}, "type": "Feature"}, {"geometry": {"coordinates": [8.534148, 47.378771], "type": "Point"}, "properties": {"charge": 58, "id": "smide_33", "name": "ZH253782", "provider": "smide", "range": 28.0, "size": 20, "time": "03/17/2020, 20:29:45"}, "type": "Feature"}, {"geometry": {"coordinates": [8.567358, 47.37856], "type": "Point"}, "properties": {"charge": 95, "id": "smide_161", "name": "ZH253691", "provider": "smide", "range": 47.0, "size": 20, "time": "03/17/2020, 20:29:45"}, "type": "Feature"}, {"geometry": {"coordinates": [8.56412, 47.369263], "type": "Point"}, "properties": {"charge": 100, "id": "smide_183", "name": "ZH253868", "provider": "smide", "range": 50.0, "size": 17, "time": "03/17/2020, 20:29:45"}, "type": "Feature"}, {"geometry": {"coordinates": [8.549529, 47.389864], "type": "Point"}, "properties": {"charge": 99, "id": "smide_42", "name": "ZH253846", "provider": "smide", "range": 49.0, "size": 20, "time": "03/17/2020, 20:29:45"}, "type": "Feature"}, {"geometry": {"coordinates": [8.552427, 47.373972], "type": "Point"}, "properties": {"charge": 30, "id": "smide_4", "name": "ZH253740", "provider": "smide", "range": 15.0, "size": 20, "time": "03/17/2020, 20:29:45"}, "type": "Feature"}, {"geometry": {"coordinates": [8.554307, 47.373964], "type": "Point"}, "properties": {"charge": 21, "id": "smide_160", "name": "ZH253722", "provider": "smide", "range": 10.0, "size": 17, "time": "03/17/2020, 20:29:45"}, "type": "Feature"}, {"geometry": {"coordinates": [8.498711, 47.425526], "type": "Point"}, "properties": {"charge": 63, "id": "smide_137", "name": "ZH258502", "provider": "smide", "range": 31.0, "size": 17, "time": "03/17/2020, 20:29:45"}, "type": "Feature"}, {"geometry": {"coordinates": [8.524041, 47.36853], "type": "Point"}, "properties": {"charge": 60, "id": "smide_55", "name": "ZH253875", "provider": "smide", "range": 30.0, "size": 17, "time": "03/17/2020, 20:29:45"}, "type": "Feature"}, {"geometry": {"coordinates": [8.571864, 47.381844], "type": "Point"}, "properties": {"charge": 100, "id": "smide_96", "name": "ZH256146", "provider": "smide", "range": 50.0, "size": 20, "time": "03/17/2020, 20:29:45"}, "type": "Feature"}, {"geometry": {"coordinates": [8.528976, 47.34648], "type": "Point"}, "properties": {"charge": 72, "id": "smide_58", "name": "ZH259246", "provider": "smide", "range": 36.0, "size": 20, "time": "03/17/2020, 20:29:45"}, "type": "Feature"}, {"geometry": {"coordinates": [8.496173, 47.381364], "type": "Point"}, "properties": {"charge": 50, "id": "smide_54", "name": "ZH253874", "provider": "smide", "range": 25.0, "size": 20, "time": "03/17/2020, 20:29:45"}, "type": "Feature"}, {"geometry": {"coordinates": [8.532434, 47.397368], "type": "Point"}, "properties": {"charge": 73, "id": "smide_175", "name": "ZH253730", "provider": "smide", "range": 36.0, "size": 17, "time": "03/17/2020, 20:29:45"}, "type": "Feature"}, {"geometry": {"coordinates": [8.504726, 47.39391], "type": "Point"}, "properties": {"charge": 100, "id": "smide_162", "name": "ZH253760", "provider": "smide", "range": 50.0, "size": 17, "time": "03/17/2020, 20:29:45"}, "type": "Feature"}, {"geometry": {"coordinates": [8.494478, 47.367804], "type": "Point"}, "properties": {"charge": 52, "id": "smide_95", "name": "ZH253773", "provider": "smide", "range": 26.0, "size": 17, "time": "03/17/2020, 20:29:45"}, "type": "Feature"}, {"geometry": {"coordinates": [8.546412, 47.367468], "type": "Point"}, "properties": {"charge": 75, "id": "smide_163", "name": "ZH256147", "provider": "smide", "range": 37.0, "size": 20, "time": "03/17/2020, 20:29:45"}, "type": "Feature"}, {"geometry": {"coordinates": [8.509748, 47.392008], "type": "Point"}, "properties": {"charge": 84, "id": "smide_112", "name": "ZH263530", "provider": "smide", "range": 42.0, "size": 20, "time": "03/17/2020, 20:29:45"}, "type": "Feature"}, {"geometry": {"coordinates": [8.565092, 47.370884], "type": "Point"}, "properties": {"charge": 74, "id": "smide_122", "name": "ZH253850", "provider": "smide", "range": 37.0, "size": 20, "time": "03/17/2020, 20:29:45"}, "type": "Feature"}, {"geometry": {"coordinates": [8.57491, 47.373303], "type": "Point"}, "properties": {"charge": 83, "id": "smide_38", "name": "ZH253851", "provider": "smide", "range": 41.0, "size": 20, "time": "03/17/2020, 20:29:45"}, "type": "Feature"}, {"geometry": {"coordinates": [8.555217, 47.380472], "type": "Point"}, "properties": {"charge": 64, "id": "smide_6", "name": "ZH253787", "provider": "smide", "range": 32.0, "size": 17, "time": "03/17/2020, 20:29:45"}, "type": "Feature"}, {"geometry": {"coordinates": [8.540308, 47.388708], "type": "Point"}, "properties": {"charge": 99, "id": "smide_18", "name": "ZH253859", "provider": "smide", "range": 49.0, "size": 17, "time": "03/17/2020, 20:29:45"}, "type": "Feature"}, {"geometry": {"coordinates": [8.539227, 47.377324], "type": "Point"}, "properties": {"charge": 95, "id": "smide_192", "name": "ZH253706", "provider": "smide", "range": 47.0, "size": 20, "time": "03/17/2020, 20:29:45"}, "type": "Feature"}, {"geometry": {"coordinates": [8.53295, 47.409548], "type": "Point"}, "properties": {"charge": 57, "id": "smide_39", "name": "ZH253714", "provider": "smide", "range": 28.0, "size": 20, "time": "03/17/2020, 20:29:45"}, "type": "Feature"}, {"geometry": {"coordinates": [8.564436, 47.369603], "type": "Point"}, "properties": {"charge": 45, "id": "smide_85", "name": "ZH253729", "provider": "smide", "range": 22.0, "size": 17, "time": "03/17/2020, 20:29:45"}, "type": "Feature"}, {"geometry": {"coordinates": [8.550625, 47.392552], "type": "Point"}, "properties": {"charge": 76, "id": "smide_29", "name": "ZH253723", "provider": "smide", "range": 38.0, "size": 17, "time": "03/17/2020, 20:29:45"}, "type": "Feature"}, {"geometry": {"coordinates": [8.556168, 47.364216], "type": "Point"}, "properties": {"charge": 69, "id": "smide_132", "name": "ZH253857", "provider": "smide", "range": 34.0, "size": 17, "time": "03/17/2020, 20:29:45"}, "type": "Feature"}, {"geometry": {"coordinates": [8.498204, 47.3582], "type": "Point"}, "properties": {"charge": 15, "id": "smide_46", "name": "ZH253843", "provider": "smide", "range": 7.0, "size": 20, "time": "03/17/2020, 20:29:45"}, "type": "Feature"}, {"geometry": {"coordinates": [8.51816, 47.3859066666667], "type": "Point"}, "properties": {"charge": 80, "id": "bird_ff4ffc94-4afc-4b82-8684-9cc5166f4fb2", "provider": "bird", "timeStamp": "03/17/2020, 20:10:19"}, "type": "Feature"}, {"geometry": {"coordinates": [8.51823333333333, 47.385955], "type": "Point"}, "properties": {"charge": 57, "id": "bird_4ff01b3c-61c4-41b3-905d-a011964ef24f", "provider": "bird", "timeStamp": "03/17/2020, 20:10:19"}, "type": "Feature"}, {"geometry": {"coordinates": [8.51838, 47.3860783333333], "type": "Point"}, "properties": {"charge": 37, "id": "bird_afa6b4bb-d11a-47e2-b2af-8ed5b5327f43", "provider": "bird", "timeStamp": "03/17/2020, 20:10:19"}, "type": "Feature"}, {"geometry": {"coordinates": [8.51869166666667, 47.3863066666667], "type": "Point"}, "properties": {"charge": 92, "id": "bird_3665ac5f-36e6-4b22-a43f-9ba9122d1294", "provider": "bird", "timeStamp": "03/17/2020, 20:10:19"}, "type": "Feature"}, {"geometry": {"coordinates": [8.54232833333333, 47.3853383333333], "type": "Point"}, "properties": {"charge": 72, "id": "bird_e4ad5c05-4343-4ff4-aa9f-af3bae4c936b", "provider": "bird", "timeStamp": "03/17/2020, 20:10:19"}, "type": "Feature"}, {"geometry": {"coordinates": [8.51877333333333, 47.386345], "type": "Point"}, "properties": {"charge": 69, "id": "bird_b60d39b5-fdbd-452c-a614-c4416f12cefc", "provider": "bird", "timeStamp": "03/17/2020, 20:10:19"}, "type": "Feature"}, {"geometry": {"coordinates": [8.51713166666667, 47.3754466666667], "type": "Point"}, "properties": {"charge": 76, "id": "bird_88d15ef9-ebff-40f3-88bc-e1f7a6a8cdfb", "provider": "bird", "timeStamp": "03/17/2020, 20:10:19"}, "type": "Feature"}, {"geometry": {"coordinates": [8.51717833333333, 47.3754233333333], "type": "Point"}, "properties": {"charge": 43, "id": "bird_5139b51a-f124-476e-a90f-aa3eac01c476", "provider": "bird", "timeStamp": "03/17/2020, 20:10:19"}, "type": "Feature"}, {"geometry": {"coordinates": [8.543455, 47.3763583333333], "type": "Point"}, "properties": {"charge": 28, "id": "bird_fc68a7f1-f810-4dd1-96b4-b2d382d61474", "provider": "bird", "timeStamp": "03/17/2020, 20:10:19"}, "type": "Feature"}, {"geometry": {"coordinates": [8.52102833333333, 47.3876683333333], "type": "Point"}, "properties": {"charge": 21, "id": "bird_878a9d87-cfca-4a23-b3e9-0a62481b417a", "provider": "bird", "timeStamp": "03/17/2020, 20:10:19"}, "type": "Feature"}, {"geometry": {"coordinates": [8.515835, 47.3785816666667], "type": "Point"}, "properties": {"charge": 80, "id": "bird_82d89881-0818-4e8c-a999-51cbca9ec800", "provider": "bird", "timeStamp": "03/17/2020, 20:10:19"}, "type": "Feature"}, {"geometry": {"coordinates": [8.516155, 47.3777316666667], "type": "Point"}, "properties": {"charge": 54, "id": "bird_3573285d-2f2d-4846-a4f5-055812149e1f", "provider": "bird", "timeStamp": "03/17/2020, 20:10:19"}, "type": "Feature"}, {"geometry": {"coordinates": [8.51854833333333, 47.38572], "type": "Point"}, "properties": {"charge": 96, "id": "bird_db9be011-636b-446d-af11-85715fbe3f47", "provider": "bird", "timeStamp": "03/17/2020, 20:10:19"}, "type": "Feature"}, {"geometry": {"coordinates": [8.51581833333333, 47.3794783333333], "type": "Point"}, "properties": {"charge": 39, "id": "bird_9a169e05-b7ed-4bb8-94db-e2434a1f1034", "provider": "bird", "timeStamp": "03/17/2020, 20:10:19"}, "type": "Feature"}, {"geometry": {"coordinates": [8.52332833333333, 47.3884583333333], "type": "Point"}, "properties": {"charge": 34, "id": "bird_d965bbd0-597e-4b79-b823-8779ea6bcf2a", "provider": "bird", "timeStamp": "03/17/2020, 20:10:19"}, "type": "Feature"}, {"geometry": {"coordinates": [8.51856166666667, 47.385635], "type": "Point"}, "properties": {"charge": 82, "id": "bird_80877944-3b9b-4be8-a777-bba4e910710d", "provider": "bird", "timeStamp": "03/17/2020, 20:10:19"}, "type": "Feature"}, {"geometry": {"coordinates": [8.51593166666667, 47.3794983333333], "type": "Point"}, "properties": {"charge": 61, "id": "bird_a16958da-6900-4acb-9197-86e8ddc051de", "provider": "bird", "timeStamp": "03/17/2020, 20:10:19"}, "type": "Feature"}, {"geometry": {"coordinates": [8.53217166666667, 47.370575], "type": "Point"}, "properties": {"charge": 27, "id": "bird_e24a1b5b-52d9-4b57-b5cf-cfbf6c495813", "provider": "bird", "timeStamp": "03/17/2020, 20:10:19"}, "type": "Feature"}, {"geometry": {"coordinates": [8.53953, 47.373055], "type": "Point"}, "properties": {"charge": 24, "id": "bird_216bd804-1ec3-49f0-b954-926a07a60b5b", "provider": "bird", "timeStamp": "03/17/2020, 20:10:19"}, "type": "Feature"}, {"geometry": {"coordinates": [8.51637333333333, 47.377835], "type": "Point"}, "properties": {"charge": 17, "id": "bird_6fa36e3b-9bfe-4ecf-a38c-7008a2d25e99", "provider": "bird", "timeStamp": "03/17/2020, 20:10:19"}, "type": "Feature"}, {"geometry": {"coordinates": [8.523535, 47.3883166666667], "type": "Point"}, "properties": {"charge": 81, "id": "bird_b84f421f-9790-4ce7-96fe-20592dabbc42", "provider": "bird", "timeStamp": "03/17/2020, 20:10:19"}, "type": "Feature"}, {"geometry": {"coordinates": [8.516285, 47.3814133333333], "type": "Point"}, "properties": {"charge": 88, "id": "bird_81622a1a-bb69-4f7c-a636-99e02c313484", "provider": "bird", "timeStamp": "03/17/2020, 20:10:19"}, "type": "Feature"}, {"geometry": {"coordinates": [8.516415, 47.3815416666667], "type": "Point"}, "properties": {"charge": 51, "id": "bird_3463e0a1-bd10-41a9-bd11-ede3d9178dab", "provider": "bird", "timeStamp": "03/17/2020, 20:10:19"}, "type": "Feature"}, {"geometry": {"coordinates": [8.526145, 47.388905], "type": "Point"}, "properties": {"charge": 43, "id": "bird_6192cb39-59bf-4ac4-9758-0e7f882a4cbd", "provider": "bird", "timeStamp": "03/17/2020, 20:10:19"}, "type": "Feature"}, {"geometry": {"coordinates": [8.516315, 47.3795883333333], "type": "Point"}, "properties": {"charge": 37, "id": "bird_3d0ff65e-c0bc-4ee0-963d-f0c68b41642f", "provider": "bird", "timeStamp": "03/17/2020, 20:10:19"}, "type": "Feature"}, {"geometry": {"coordinates": [8.52538666666667, 47.3887333333333], "type": "Point"}, "properties": {"charge": 34, "id": "bird_900efa12-850a-49df-9216-0d18ab807422", "provider": "bird", "timeStamp": "03/17/2020, 20:10:19"}, "type": "Feature"}, {"geometry": {"coordinates": [8.54191166666667, 47.3755716666667], "type": "Point"}, "properties": {"charge": 38, "id": "bird_83e0ebdf-d9a4-46b1-b92f-f1d04cdc9430", "provider": "bird", "timeStamp": "03/17/2020, 20:10:19"}, "type": "Feature"}, {"geometry": {"coordinates": [8.51782, 47.3759683333333], "type": "Point"}, "properties": {"charge": 51, "id": "bird_55d796c1-7d90-4a58-9cb7-7e7a9c36a284", "provider": "bird", "timeStamp": "03/17/2020, 20:10:19"}, "type": "Feature"}, {"geometry": {"coordinates": [8.51926666666666, 47.3855316666667], "type": "Point"}, "properties": {"charge": 92, "id": "bird_31a2074b-ef8f-4cf5-93f3-6f00da443133", "provider": "bird", "timeStamp": "03/17/2020, 20:10:19"}, "type": "Feature"}, {"geometry": {"coordinates": [8.52300166666667, 47.3877416666667], "type": "Point"}, "properties": {"charge": 84, "id": "bird_30cbde3f-5390-4024-85e9-f31b7349580a", "provider": "bird", "timeStamp": "03/17/2020, 20:10:19"}, "type": "Feature"}, {"geometry": {"coordinates": [8.51696833333333, 47.3782766666667], "type": "Point"}, "properties": {"charge": 84, "id": "bird_8c832dfe-8682-4ec7-a7e3-657737d041f8", "provider": "bird", "timeStamp": "03/17/2020, 20:10:19"}, "type": "Feature"}, {"geometry": {"coordinates": [8.53637, 47.3721283333333], "type": "Point"}, "properties": {"charge": 31, "id": "bird_eb1acd58-9e8d-4dd7-b01f-6057c081f815", "provider": "bird", "timeStamp": "03/17/2020, 20:10:19"}, "type": "Feature"}, {"geometry": {"coordinates": [8.52741833333333, 47.3713066666667], "type": "Point"}, "properties": {"charge": 78, "id": "bird_47cc1c16-4454-43f6-96df-a80e174dfc67", "provider": "bird", "timeStamp": "03/17/2020, 20:10:19"}, "type": "Feature"}, {"geometry": {"coordinates": [8.52381333333333, 47.3877216666667], "type": "Point"}, "properties": {"charge": 42, "id": "bird_65b013ef-3512-44a0-91d9-dede68bfae9e", "provider": "bird", "timeStamp": "03/17/2020, 20:10:19"}, "type": "Feature"}, {"geometry": {"coordinates": [8.53008666666667, 47.3712233333333], "type": "Point"}, "properties": {"charge": 26, "id": "bird_b841df7f-f112-442c-a15d-ddf11e36e8c2", "provider": "bird", "timeStamp": "03/17/2020, 20:10:19"}, "type": "Feature"}, {"geometry": {"coordinates": [8.52344833333333, 47.3724716666667], "type": "Point"}, "properties": {"charge": 18, "id": "bird_d034866d-8e38-4374-a6c5-c5e5c6eef2ba", "provider": "bird", "timeStamp": "03/17/2020, 20:10:19"}, "type": "Feature"}, {"geometry": {"coordinates": [8.522825, 47.3727833333333], "type": "Point"}, "properties": {"charge": 46, "id": "bird_6c28c69b-cbeb-4821-a194-036c508ff72c", "provider": "bird", "timeStamp": "03/17/2020, 20:10:19"}, "type": "Feature"}, {"geometry": {"coordinates": [8.51936166666667, 47.3751366666667], "type": "Point"}, "properties": {"charge": 33, "id": "bird_5715b4c5-1786-40d5-a652-db0e4c388317", "provider": "bird", "timeStamp": "03/17/2020, 20:10:19"}, "type": "Feature"}, {"geometry": {"coordinates": [8.523, 47.3727266666667], "type": "Point"}, "properties": {"charge": 18, "id": "bird_e0da6dda-528f-4385-8b46-bef8843f4213", "provider": "bird", "timeStamp": "03/17/2020, 20:10:19"}, "type": "Feature"}, {"geometry": {"coordinates": [8.54083, 47.375355], "type": "Point"}, "properties": {"charge": 26, "id": "bird_130a4823-efd7-4e5d-9d92-24418572797f", "provider": "bird", "timeStamp": "03/17/2020, 20:10:19"}, "type": "Feature"}, {"geometry": {"coordinates": [8.523825, 47.3875733333333], "type": "Point"}, "properties": {"charge": 43, "id": "bird_d40e2bce-bf27-4c17-89b9-8d3381e76d44", "provider": "bird", "timeStamp": "03/17/2020, 20:10:19"}, "type": "Feature"}, {"geometry": {"coordinates": [8.537805, 47.3732116666667], "type": "Point"}, "properties": {"charge": 35, "id": "bird_cbf8c26a-c013-4c2c-bad5-327019e01f6e", "provider": "bird", "timeStamp": "03/17/2020, 20:10:19"}, "type": "Feature"}, {"geometry": {"coordinates": [8.54164333333333, 47.3768316666667], "type": "Point"}, "properties": {"charge": 69, "id": "bird_a70b8d19-a6bb-434f-bb34-5ef3a7ef8a95", "provider": "bird", "timeStamp": "03/17/2020, 20:10:19"}, "type": "Feature"}, {"geometry": {"coordinates": [8.524255, 47.3875466666667], "type": "Point"}, "properties": {"charge": 40, "id": "bird_55215d1a-758e-40f3-9999-20289fa5fe91", "provider": "bird", "timeStamp": "03/17/2020, 20:10:19"}, "type": "Feature"}, {"geometry": {"coordinates": [8.52258, 47.3868183333333], "type": "Point"}, "properties": {"charge": 73, "id": "bird_b0f462b9-cc7b-4436-9db6-bab127e96a95", "provider": "bird", "timeStamp": "03/17/2020, 20:10:19"}, "type": "Feature"}, {"geometry": {"coordinates": [8.54154, 47.3768383333333], "type": "Point"}, "properties": {"charge": 74, "id": "bird_3b0e101a-35ba-4b2c-8767-0efa8cf127ef", "provider": "bird", "timeStamp": "03/17/2020, 20:10:19"}, "type": "Feature"}, {"geometry": {"coordinates": [8.53672333333333, 47.3729316666667], "type": "Point"}, "properties": {"charge": 55, "id": "bird_c9a57f98-f2da-49a0-9bda-b6b01ff26edf", "provider": "bird", "timeStamp": "03/17/2020, 20:10:19"}, "type": "Feature"}, {"geometry": {"coordinates": [8.53668166666667, 47.3729216666667], "type": "Point"}, "properties": {"charge": 53, "id": "bird_fbe33735-4266-4a0b-b58e-636c35f37c2c", "provider": "bird", "timeStamp": "03/17/2020, 20:10:19"}, "type": "Feature"}, {"geometry": {"coordinates": [8.529045, 47.371685], "type": "Point"}, "properties": {"charge": 80, "id": "bird_381eeb4d-e710-4e14-9bd4-84511772d2d7", "provider": "bird", "timeStamp": "03/17/2020, 20:10:19"}, "type": "Feature"}, {"geometry": {"coordinates": [8.53673666666667, 47.3730583333333], "type": "Point"}, "properties": {"charge": 36, "id": "bird_7abb1d27-81a4-4374-af64-ef478151d251", "provider": "bird", "timeStamp": "03/17/2020, 20:10:19"}, "type": "Feature"}, {"geometry": {"coordinates": [8.53671333333333, 47.3730616666667], "type": "Point"}, "properties": {"charge": 38, "id": "bird_365cb52d-5e44-48a2-a9c4-e4992e37d321", "provider": "bird", "timeStamp": "03/17/2020, 20:10:19"}, "type": "Feature"}, {"geometry": {"coordinates": [8.52155666666667, 47.38601], "type": "Point"}, "properties": {"charge": 17, "id": "bird_51f1caca-f376-4a49-b6bb-8f0e213d7d91", "provider": "bird", "timeStamp": "03/17/2020, 20:10:19"}, "type": "Feature"}, {"geometry": {"coordinates": [8.53684166666667, 47.3731233333333], "type": "Point"}, "properties": {"charge": 34, "id": "bird_d741b196-d260-4b06-812a-d9538dc0e438", "provider": "bird", "timeStamp": "03/17/2020, 20:10:19"}, "type": "Feature"}, {"geometry": {"coordinates": [8.51962666666667, 47.3756183333333], "type": "Point"}, "properties": {"charge": 28, "id": "bird_a3bc6c3d-4e5e-40f9-b16f-eb6d57f3aca3", "provider": "bird", "timeStamp": "03/17/2020, 20:10:19"}, "type": "Feature"}, {"geometry": {"coordinates": [8.53679666666667, 47.3731233333333], "type": "Point"}, "properties": {"charge": 44, "id": "bird_68a815a0-ddd7-4223-acf9-25c81eec1089", "provider": "bird", "timeStamp": "03/17/2020, 20:10:19"}, "type": "Feature"}, {"geometry": {"coordinates": [8.52714833333333, 47.38802], "type": "Point"}, "properties": {"charge": 13, "id": "bird_f7f4e1c2-09c6-42f9-b63f-af0b908dd384", "provider": "bird", "timeStamp": "03/17/2020, 20:10:19"}, "type": "Feature"}, {"geometry": {"coordinates": [8.522415, 47.3864166666667], "type": "Point"}, "properties": {"charge": 46, "id": "bird_1ddc8f12-2833-402d-99ab-157db7a66597", "provider": "bird", "timeStamp": "03/17/2020, 20:10:19"}, "type": "Feature"}, {"geometry": {"coordinates": [8.54172166666667, 47.382095], "type": "Point"}, "properties": {"charge": 28, "id": "bird_fbac9a12-843f-45cb-96d6-7a65f3f740f8", "provider": "bird", "timeStamp": "03/17/2020, 20:10:19"}, "type": "Feature"}, {"geometry": {"coordinates": [8.54126666666667, 47.3773116666667], "type": "Point"}, "properties": {"charge": 39, "id": "bird_9d83ba3b-ebee-4047-8326-c8237c08ed6d", "provider": "bird", "timeStamp": "03/17/2020, 20:10:19"}, "type": "Feature"}, {"geometry": {"coordinates": [8.54120333333333, 47.37732], "type": "Point"}, "properties": {"charge": 60, "id": "bird_fc08ce0b-69aa-42c2-84fd-921184234ae2", "provider": "bird", "timeStamp": "03/17/2020, 20:10:19"}, "type": "Feature"}, {"geometry": {"coordinates": [8.54104166666667, 47.37709], "type": "Point"}, "properties": {"charge": 38, "id": "bird_a1110022-ea59-4e3e-8851-3e439dd1f496", "provider": "bird", "timeStamp": "03/17/2020, 20:10:19"}, "type": "Feature"}, {"geometry": {"coordinates": [8.52507166666667, 47.3727383333333], "type": "Point"}, "properties": {"charge": 58, "id": "bird_f1d0a0cd-10a3-43ce-a2bb-c2e10c687740", "provider": "bird", "timeStamp": "03/17/2020, 20:10:19"}, "type": "Feature"}, {"geometry": {"coordinates": [8.54059166666667, 47.37648], "type": "Point"}, "properties": {"charge": 20, "id": "bird_1272e6b0-d139-4abd-9dbe-51b1428d01c5", "provider": "bird", "timeStamp": "03/17/2020, 20:10:19"}, "type": "Feature"}, {"geometry": {"coordinates": [8.518255, 47.37994], "type": "Point"}, "properties": {"charge": 62, "id": "bird_65e90dac-46a1-4d05-8590-d8b837a22d1b", "provider": "bird", "timeStamp": "03/17/2020, 20:10:19"}, "type": "Feature"}, {"geometry": {"coordinates": [8.53456, 47.3727566666667], "type": "Point"}, "properties": {"charge": 92, "id": "bird_3a21f817-0268-4917-9b8a-cf0fee73c3e1", "provider": "bird", "timeStamp": "03/17/2020, 20:10:19"}, "type": "Feature"}, {"geometry": {"coordinates": [8.53449666666667, 47.37278], "type": "Point"}, "properties": {"charge": 94, "id": "bird_93600034-6fe5-4341-b758-d8064088cc7c", "provider": "bird", "timeStamp": "03/17/2020, 20:10:19"}, "type": "Feature"}, {"geometry": {"coordinates": [8.53443833333333, 47.3728216666667], "type": "Point"}, "properties": {"charge": 78, "id": "bird_adc10ebf-7cbe-4b92-8265-de411bad6e4b", "provider": "bird", "timeStamp": "03/17/2020, 20:10:19"}, "type": "Feature"}, {"geometry": {"coordinates": [8.53617333333333, 47.3734816666667], "type": "Point"}, "properties": {"charge": 40, "id": "bird_056d5bc0-637f-4846-a233-f3ca4ac59e55", "provider": "bird", "timeStamp": "03/17/2020, 20:10:19"}, "type": "Feature"}, {"geometry": {"coordinates": [8.53434166666667, 47.3728516666667], "type": "Point"}, "properties": {"charge": 96, "id": "bird_8cac9f0b-94c0-4d81-86da-7b3bd438b729", "provider": "bird", "timeStamp": "03/17/2020, 20:10:19"}, "type": "Feature"}, {"geometry": {"coordinates": [8.534465, 47.3729133333333], "type": "Point"}, "properties": {"charge": 83, "id": "bird_356d0749-053e-41d9-83f3-2a6275803b05", "provider": "bird", "timeStamp": "03/17/2020, 20:10:19"}, "type": "Feature"}, {"geometry": {"coordinates": [8.52790333333333, 47.3724333333333], "type": "Point"}, "properties": {"charge": 35, "id": "bird_3c23e93d-10bd-4542-bb41-d256c8f9aa3d", "provider": "bird", "timeStamp": "03/17/2020, 20:10:19"}, "type": "Feature"}, {"geometry": {"coordinates": [8.53684666666667, 47.3738816666667], "type": "Point"}, "properties": {"charge": 24, "id": "bird_c544237d-0fc3-45cd-b897-f9c8fd67f22b", "provider": "bird", "timeStamp": "03/17/2020, 20:10:19"}, "type": "Feature"}, {"geometry": {"coordinates": [8.53682, 47.3739783333333], "type": "Point"}, "properties": {"charge": 36, "id": "bird_e640059c-5dd4-4cc4-899c-3e3f6acd1257", "provider": "bird", "timeStamp": "03/17/2020, 20:10:19"}, "type": "Feature"}, {"geometry": {"coordinates": [8.53674166666667, 47.373955], "type": "Point"}, "properties": {"charge": 38, "id": "bird_b2bf9e65-c6f4-46a7-81f5-988ef5ca3a81", "provider": "bird", "timeStamp": "03/17/2020, 20:10:19"}, "type": "Feature"}, {"geometry": {"coordinates": [8.51978333333333, 47.3770683333333], "type": "Point"}, "properties": {"charge": 13, "id": "bird_73189baa-51fc-4a91-b26e-6ebbc7fcc042", "provider": "bird", "timeStamp": "03/17/2020, 20:10:19"}, "type": "Feature"}, {"geometry": {"coordinates": [8.52566666666667, 47.3868783333333], "type": "Point"}, "properties": {"charge": 56, "id": "bird_fa561a24-d4a5-4bb8-bc18-1abec3180026", "provider": "bird", "timeStamp": "03/17/2020, 20:10:19"}, "type": "Feature"}, {"geometry": {"coordinates": [8.52904166666667, 47.3727], "type": "Point"}, "properties": {"charge": 44, "id": "bird_df802906-c453-42fe-9d83-d48fec99139e", "provider": "bird", "timeStamp": "03/17/2020, 20:10:19"}, "type": "Feature"}, {"geometry": {"coordinates": [8.53484166666667, 47.3735166666667], "type": "Point"}, "properties": {"charge": 69, "id": "bird_a8436f64-e525-4689-8bcb-1f9f09de6ee8", "provider": "bird", "timeStamp": "03/17/2020, 20:10:19"}, "type": "Feature"}, {"geometry": {"coordinates": [8.53334166666667, 47.3731416666667], "type": "Point"}, "properties": {"charge": 53, "id": "bird_8762a16c-b838-47da-a888-13bf17c6b064", "provider": "bird", "timeStamp": "03/17/2020, 20:10:19"}, "type": "Feature"}, {"geometry": {"coordinates": [8.52945666666667, 47.387195], "type": "Point"}, "properties": {"charge": 61, "id": "bird_a782aa5a-911d-468b-98f1-febc0f8f2475", "provider": "bird", "timeStamp": "03/17/2020, 20:10:19"}, "type": "Feature"}, {"geometry": {"coordinates": [8.53077833333333, 47.3728566666667], "type": "Point"}, "properties": {"charge": 33, "id": "bird_39a917fd-08f4-4f01-8e14-400e333cddeb", "provider": "bird", "timeStamp": "03/17/2020, 20:10:19"}, "type": "Feature"}, {"geometry": {"coordinates": [8.52754833333333, 47.3731616666667], "type": "Point"}, "properties": {"charge": 28, "id": "bird_e415045f-c019-49ff-b21c-f3955e4eb956", "provider": "bird", "timeStamp": "03/17/2020, 20:10:19"}, "type": "Feature"}, {"geometry": {"coordinates": [8.519635, 47.3803483333333], "type": "Point"}, "properties": {"charge": 36, "id": "bird_32f8ff4a-d0ba-46aa-b2fe-bbf5654ea7e7", "provider": "bird", "timeStamp": "03/17/2020, 20:10:19"}, "type": "Feature"}, {"geometry": {"coordinates": [8.53903333333333, 47.3834233333333], "type": "Point"}, "properties": {"charge": 16, "id": "bird_a2772406-ad8c-44c9-bbbd-2b5369af88e3", "provider": "bird", "timeStamp": "03/17/2020, 20:10:19"}, "type": "Feature"}, {"geometry": {"coordinates": [8.53911166666667, 47.37711], "type": "Point"}, "properties": {"charge": 88, "id": "bird_8055aac0-63d2-45a9-87cd-504b6a94bc6a", "provider": "bird", "timeStamp": "03/17/2020, 20:10:19"}, "type": "Feature"}, {"geometry": {"coordinates": [8.524075, 47.374585], "type": "Point"}, "properties": {"charge": 60, "id": "bird_8cb82570-0e9f-42f4-a694-a44982adf142", "provider": "bird", "timeStamp": "03/17/2020, 20:10:19"}, "type": "Feature"}, {"geometry": {"coordinates": [8.52403333333333, 47.3746216666667], "type": "Point"}, "properties": {"charge": 40, "id": "bird_b60d1e9d-09d1-4013-8e93-05a97ea81b0e", "provider": "bird", "timeStamp": "03/17/2020, 20:10:19"}, "type": "Feature"}, {"geometry": {"coordinates": [8.52422166666667, 47.37453], "type": "Point"}, "properties": {"charge": 91, "id": "bird_d3950f7e-2c81-4025-b2b4-0f4cd16d78ef", "provider": "bird", "timeStamp": "03/17/2020, 20:10:19"}, "type": "Feature"}, {"geometry": {"coordinates": [8.52423666666667, 47.374535], "type": "Point"}, "properties": {"charge": 91, "id": "bird_1b8ff286-8252-4226-ad6b-bfe1f4ff1a32", "provider": "bird", "timeStamp": "03/17/2020, 20:10:19"}, "type": "Feature"}, {"geometry": {"coordinates": [8.52776166666667, 47.3734633333333], "type": "Point"}, "properties": {"charge": 28, "id": "bird_95ec039d-b1d5-4518-87eb-ac3485f489ba", "provider": "bird", "timeStamp": "03/17/2020, 20:10:19"}, "type": "Feature"}, {"geometry": {"coordinates": [8.537325, 47.375485], "type": "Point"}, "properties": {"charge": 57, "id": "bird_9c01e34d-ce4d-4aaf-9db1-b04847f98d76", "provider": "bird", "timeStamp": "03/17/2020, 20:10:19"}, "type": "Feature"}, {"geometry": {"coordinates": [8.53190166666667, 47.3734433333333], "type": "Point"}, "properties": {"charge": 62, "id": "bird_06f38ebc-2988-4500-81e0-af7b815350c8", "provider": "bird", "timeStamp": "03/17/2020, 20:10:19"}, "type": "Feature"}, {"geometry": {"coordinates": [8.53729, 47.3755066666667], "type": "Point"}, "properties": {"charge": 60, "id": "bird_d4fd7bab-00f2-44e1-bf02-0a18c86f0b39", "provider": "bird", "timeStamp": "03/17/2020, 20:10:19"}, "type": "Feature"}, {"geometry": {"coordinates": [8.52426666666667, 47.3745766666667], "type": "Point"}, "properties": {"charge": 93, "id": "bird_f1666d56-48e7-4020-9e64-5e011553f8f9", "provider": "bird", "timeStamp": "03/17/2020, 20:10:19"}, "type": "Feature"}, {"geometry": {"coordinates": [8.535745, 47.3854133333333], "type": "Point"}, "properties": {"charge": 57, "id": "bird_aa238333-9e79-4b07-8d19-bbd302b0336f", "provider": "bird", "timeStamp": "03/17/2020, 20:10:19"}, "type": "Feature"}, {"geometry": {"coordinates": [8.52051333333333, 47.37822], "type": "Point"}, "properties": {"charge": 82, "id": "bird_9e74d39b-26db-445c-b1cb-94b89cd3d92a", "provider": "bird", "timeStamp": "03/17/2020, 20:10:19"}, "type": "Feature"}, {"geometry": {"coordinates": [8.5243, 47.3746333333333], "type": "Point"}, "properties": {"charge": 91, "id": "bird_5b4324fc-c4a7-46a3-aae3-0492770ba0e9", "provider": "bird", "timeStamp": "03/17/2020, 20:10:19"}, "type": "Feature"}, {"geometry": {"coordinates": [8.53000166666667, 47.3733983333333], "type": "Point"}, "properties": {"charge": 30, "id": "bird_89da8285-5ad9-4127-9049-a47b63606100", "provider": "bird", "timeStamp": "03/17/2020, 20:10:19"}, "type": "Feature"}, {"geometry": {"coordinates": [8.52291666666667, 47.3755333333333], "type": "Point"}, "properties": {"charge": 73, "id": "bird_e606f500-eedf-4266-91af-8eb38ad59148", "provider": "bird", "timeStamp": "03/17/2020, 20:10:19"}, "type": "Feature"}, {"geometry": {"coordinates": [8.53711833333333, 47.37556], "type": "Point"}, "properties": {"charge": 81, "id": "bird_96ca26fc-6722-46e0-ac46-6257b2b16527", "provider": "bird", "timeStamp": "03/17/2020, 20:10:19"}, "type": "Feature"}, {"geometry": {"coordinates": [8.53605833333333, 47.374905], "type": "Point"}, "properties": {"charge": 35, "id": "bird_da1e3791-7d67-409d-8632-e06b3c979232", "provider": "bird", "timeStamp": "03/17/2020, 20:10:19"}, "type": "Feature"}, {"geometry": {"coordinates": [8.53700833333333, 47.3755], "type": "Point"}, "properties": {"charge": 82, "id": "bird_014dee11-d06d-4720-85b3-2c0eea0c8b60", "provider": "bird", "timeStamp": "03/17/2020, 20:10:19"}, "type": "Feature"}, {"geometry": {"coordinates": [8.52841666666667, 47.37355], "type": "Point"}, "properties": {"charge": 43, "id": "bird_5ce25fad-07b0-462a-a3b0-453d74e278a7", "provider": "bird", "timeStamp": "03/17/2020, 20:10:19"}, "type": "Feature"}, {"geometry": {"coordinates": [8.52520666666667, 47.374325], "type": "Point"}, "properties": {"charge": 93, "id": "bird_7a36514f-f40d-4d56-a2be-e417e879a6ae", "provider": "bird", "timeStamp": "03/17/2020, 20:10:19"}, "type": "Feature"}, {"geometry": {"coordinates": [8.52525166666667, 47.3743283333333], "type": "Point"}, "properties": {"charge": 96, "id": "bird_c354d05a-d0cb-44e0-a5e4-93f3fca2c702", "provider": "bird", "timeStamp": "03/17/2020, 20:10:19"}, "type": "Feature"}, {"geometry": {"coordinates": [8.525495, 47.374245], "type": "Point"}, "properties": {"charge": 61, "id": "bird_2b8e5760-8cab-4ca9-942a-1674143ee9dd", "provider": "bird", "timeStamp": "03/17/2020, 20:10:19"}, "type": "Feature"}, {"geometry": {"coordinates": [8.53690666666667, 47.37547], "type": "Point"}, "properties": {"charge": 88, "id": "bird_593cca23-d538-441f-a885-7b1a184d9ed4", "provider": "bird", "timeStamp": "03/17/2020, 20:10:19"}, "type": "Feature"}, {"geometry": {"coordinates": [8.52524, 47.3743633333333], "type": "Point"}, "properties": {"charge": 56, "id": "bird_7c4bd238-a35e-4850-bd20-6b9582274455", "provider": "bird", "timeStamp": "03/17/2020, 20:10:19"}, "type": "Feature"}, {"geometry": {"coordinates": [8.52555333333333, 47.3742516666667], "type": "Point"}, "properties": {"charge": 44, "id": "bird_f2ed6f55-37f2-43b4-80c6-3fa12b2b5609", "provider": "bird", "timeStamp": "03/17/2020, 20:10:19"}, "type": "Feature"}, {"geometry": {"coordinates": [8.52124333333333, 47.3773733333333], "type": "Point"}, "properties": {"charge": 35, "id": "bird_73b4f862-ae2a-4437-b624-f38c951a1e4c", "provider": "bird", "timeStamp": "03/17/2020, 20:10:19"}, "type": "Feature"}, {"geometry": {"coordinates": [8.52980064273933, 47.3735202899478], "type": "Point"}, "properties": {"charge": 96, "id": "bird_b389f72c-4982-46e6-8148-78d056a09fd6", "provider": "bird", "timeStamp": "03/17/2020, 20:10:19"}, "type": "Feature"}, {"geometry": {"coordinates": [8.52536333333333, 47.3743433333333], "type": "Point"}, "properties": {"charge": 93, "id": "bird_137be5cc-6810-45d0-928a-0529f4458f83", "provider": "bird", "timeStamp": "03/17/2020, 20:10:19"}, "type": "Feature"}, {"geometry": {"coordinates": [8.52939, 47.3735466666667], "type": "Point"}, "properties": {"charge": 43, "id": "bird_dc8e4797-edda-4e37-9ddb-a9685b3ea0bc", "provider": "bird", "timeStamp": "03/17/2020, 20:10:19"}, "type": "Feature"}, {"geometry": {"coordinates": [8.525285, 47.3744016666667], "type": "Point"}, "properties": {"charge": 91, "id": "bird_79c62eb2-ec8c-4a66-ae9c-05a2582af993", "provider": "bird", "timeStamp": "03/17/2020, 20:10:19"}, "type": "Feature"}, {"geometry": {"coordinates": [8.525315, 47.3744016666667], "type": "Point"}, "properties": {"charge": 52, "id": "bird_a03cd6ad-6e28-432e-86e3-c6199c525bbd", "provider": "bird", "timeStamp": "03/17/2020, 20:10:19"}, "type": "Feature"}, {"geometry": {"coordinates": [8.53037666666667, 47.3737033333333], "type": "Point"}, "properties": {"charge": 78, "id": "bird_4bb88b3d-5430-4b05-b0e9-a903169a0a01", "provider": "bird", "timeStamp": "03/17/2020, 20:10:19"}, "type": "Feature"}, {"geometry": {"coordinates": [8.53031, 47.3737266666667], "type": "Point"}, "properties": {"charge": 73, "id": "bird_d758a645-1f44-4343-81eb-93fb1f10914b", "provider": "bird", "timeStamp": "03/17/2020, 20:10:19"}, "type": "Feature"}, {"geometry": {"coordinates": [8.534165, 47.3745616666667], "type": "Point"}, "properties": {"charge": 55, "id": "bird_1ffc7979-4d62-4441-a010-a9d4011a7c45", "provider": "bird", "timeStamp": "03/17/2020, 20:10:19"}, "type": "Feature"}, {"geometry": {"coordinates": [8.52399333333333, 47.3758283333333], "type": "Point"}, "properties": {"charge": 45, "id": "bird_8d40f779-5f78-4b77-8f00-839e32435a53", "provider": "bird", "timeStamp": "03/17/2020, 20:10:19"}, "type": "Feature"}, {"geometry": {"coordinates": [8.524985, 47.3758083333333], "type": "Point"}, "properties": {"charge": 63, "id": "bird_ebd7dd43-98c4-4471-99bc-8063dd31352b", "provider": "bird", "timeStamp": "03/17/2020, 20:10:19"}, "type": "Feature"}, {"geometry": {"coordinates": [8.52228166666667, 47.37875], "type": "Point"}, "properties": {"charge": 42, "id": "bird_909da7e3-fecd-4364-be4d-9e03a803883f", "provider": "bird", "timeStamp": "03/17/2020, 20:10:19"}, "type": "Feature"}, {"geometry": {"coordinates": [8.52697333333333, 47.3848683333333], "type": "Point"}, "properties": {"charge": 31, "id": "bird_0f924078-65eb-464b-948c-e10426413c6c", "provider": "bird", "timeStamp": "03/17/2020, 20:10:19"}, "type": "Feature"}, {"geometry": {"coordinates": [8.52473833333333, 47.3761833333333], "type": "Point"}, "properties": {"charge": 35, "id": "bird_96a2c157-a54e-4dee-8fab-7869150eb7f8", "provider": "bird", "timeStamp": "03/17/2020, 20:10:19"}, "type": "Feature"}, {"geometry": {"coordinates": [8.53747166666667, 47.381225], "type": "Point"}, "properties": {"charge": 40, "id": "bird_8a024899-ba08-409a-aacc-8ace285ac56c", "provider": "bird", "timeStamp": "03/17/2020, 20:10:19"}, "type": "Feature"}, {"geometry": {"coordinates": [8.53763333333333, 47.3793866666667], "type": "Point"}, "properties": {"charge": 94, "id": "bird_7f86d26a-bb0a-4dfe-8977-48e0e1be8136", "provider": "bird", "timeStamp": "03/17/2020, 20:10:19"}, "type": "Feature"}, {"geometry": {"coordinates": [8.537625, 47.3793866666667], "type": "Point"}, "properties": {"charge": 91, "id": "bird_49352495-a97e-49a7-ad08-6e5ba256c35f", "provider": "bird", "timeStamp": "03/17/2020, 20:10:19"}, "type": "Feature"}, {"geometry": {"coordinates": [8.522405, 47.3801533333333], "type": "Point"}, "properties": {"charge": 73, "id": "bird_8d3cee12-35c8-4a4e-8e0e-559277bdc474", "provider": "bird", "timeStamp": "03/17/2020, 20:10:19"}, "type": "Feature"}, {"geometry": {"coordinates": [8.53675333333333, 47.3776433333333], "type": "Point"}, "properties": {"charge": 22, "id": "bird_a83d6f3f-11dc-42ae-90ac-8aa2dfbc0e3a", "provider": "bird", "timeStamp": "03/17/2020, 20:10:19"}, "type": "Feature"}, {"geometry": {"coordinates": [8.53697, 47.37796], "type": "Point"}, "properties": {"charge": 22, "id": "bird_c6267b85-7091-4da8-b111-99a39f4c3e6f", "provider": "bird", "timeStamp": "03/17/2020, 20:10:19"}, "type": "Feature"}, {"geometry": {"coordinates": [8.53675833333333, 47.3776583333333], "type": "Point"}, "properties": {"charge": 15, "id": "bird_593cbe74-d831-44bd-966c-0f301320bc29", "provider": "bird", "timeStamp": "03/17/2020, 20:10:19"}, "type": "Feature"}, {"geometry": {"coordinates": [8.52253333333333, 47.3790816666667], "type": "Point"}, "properties": {"charge": 40, "id": "bird_23d92899-65b5-4db7-9628-75ede415948b", "provider": "bird", "timeStamp": "03/17/2020, 20:10:19"}, "type": "Feature"}, {"geometry": {"coordinates": [8.53115666666667, 47.3850783333333], "type": "Point"}, "properties": {"charge": 54, "id": "bird_c009f83e-26a4-4876-a21c-1a961e3c34e5", "provider": "bird", "timeStamp": "03/17/2020, 20:10:19"}, "type": "Feature"}, {"geometry": {"coordinates": [8.53676166666667, 47.3777433333333], "type": "Point"}, "properties": {"charge": 25, "id": "bird_d56738df-18fe-446c-b2dd-728c6f6c76b9", "provider": "bird", "timeStamp": "03/17/2020, 20:10:19"}, "type": "Feature"}, {"geometry": {"coordinates": [8.53747333333333, 47.379395], "type": "Point"}, "properties": {"charge": 89, "id": "bird_dd068cd7-5e98-4e75-bcc2-7fd0709bcf7e", "provider": "bird", "timeStamp": "03/17/2020, 20:10:19"}, "type": "Feature"}, {"geometry": {"coordinates": [8.536775, 47.3777816666667], "type": "Point"}, "properties": {"charge": 33, "id": "bird_8f99155e-3c72-49b2-be32-d207e2ff0170", "provider": "bird", "timeStamp": "03/17/2020, 20:10:19"}, "type": "Feature"}, {"geometry": {"coordinates": [8.5269, 47.3753583333333], "type": "Point"}, "properties": {"charge": 37, "id": "bird_b9094e80-fd22-498f-af21-2f2f1e005af9", "provider": "bird", "timeStamp": "03/17/2020, 20:10:19"}, "type": "Feature"}, {"geometry": {"coordinates": [8.53747333333333, 47.3794216666667], "type": "Point"}, "properties": {"charge": 89, "id": "bird_dfc82844-70d1-463a-b0f7-4715fab5e476", "provider": "bird", "timeStamp": "03/17/2020, 20:10:19"}, "type": "Feature"}, {"geometry": {"coordinates": [8.53128166666667, 47.3850133333333], "type": "Point"}, "properties": {"charge": 91, "id": "bird_27f48756-a5b9-4d67-bb77-315624d0e9ad", "provider": "bird", "timeStamp": "03/17/2020, 20:10:19"}, "type": "Feature"}, {"geometry": {"coordinates": [8.53192666666667, 47.38491], "type": "Point"}, "properties": {"charge": 25, "id": "bird_d62f6ef2-0977-4f91-aa95-ca99e2bb4f8e", "provider": "bird", "timeStamp": "03/17/2020, 20:10:19"}, "type": "Feature"}, {"geometry": {"coordinates": [8.53679166666667, 47.3780666666667], "type": "Point"}, "properties": {"charge": 87, "id": "bird_021a1fcf-bfa3-4bfb-853c-1dec103faefe", "provider": "bird", "timeStamp": "03/17/2020, 20:10:19"}, "type": "Feature"}, {"geometry": {"coordinates": [8.53677, 47.378055], "type": "Point"}, "properties": {"charge": 24, "id": "bird_7f45cfbe-8690-4066-a027-74626e28da54", "provider": "bird", "timeStamp": "03/17/2020, 20:10:19"}, "type": "Feature"}, {"geometry": {"coordinates": [8.52311166666667, 47.3783683333333], "type": "Point"}, "properties": {"charge": 48, "id": "bird_0a85ce6d-3997-4987-996e-19699254820e", "provider": "bird", "timeStamp": "03/17/2020, 20:10:19"}, "type": "Feature"}, {"geometry": {"coordinates": [8.53721166666667, 47.379555], "type": "Point"}, "properties": {"charge": 78, "id": "bird_d7fb95cd-dba7-43cd-9346-34679784e4a8", "provider": "bird", "timeStamp": "03/17/2020, 20:10:19"}, "type": "Feature"}, {"geometry": {"coordinates": [8.53720333333333, 47.3795316666667], "type": "Point"}, "properties": {"charge": 91, "id": "bird_887fa7c0-3c9b-4956-bcb6-ef5c6c1dd05a", "provider": "bird", "timeStamp": "03/17/2020, 20:10:19"}, "type": "Feature"}, {"geometry": {"coordinates": [8.53716833333333, 47.379895], "type": "Point"}, "properties": {"charge": 37, "id": "bird_ba87ebe6-6e21-433b-9943-0980cfa8b2d5", "provider": "bird", "timeStamp": "03/17/2020, 20:10:19"}, "type": "Feature"}, {"geometry": {"coordinates": [8.53712833333333, 47.3795316666667], "type": "Point"}, "properties": {"charge": 38, "id": "bird_0cc20cac-09ff-4f55-aeff-0483bae19daf", "provider": "bird", "timeStamp": "03/17/2020, 20:10:19"}, "type": "Feature"}, {"geometry": {"coordinates": [8.537155, 47.3800316666667], "type": "Point"}, "properties": {"charge": 28, "id": "bird_dfd98df6-7fdf-4a53-a6bc-461f9b5433b2", "provider": "bird", "timeStamp": "03/17/2020, 20:10:19"}, "type": "Feature"}, {"geometry": {"coordinates": [8.536285, 47.3777283333333], "type": "Point"}, "properties": {"charge": 39, "id": "bird_67b77c56-31b5-4e0b-acb8-a0d02247c473", "provider": "bird", "timeStamp": "03/17/2020, 20:10:19"}, "type": "Feature"}, {"geometry": {"coordinates": [8.53141666666667, 47.3847], "type": "Point"}, "properties": {"charge": 96, "id": "bird_227a2e11-d3d7-498d-a20b-2adccb25bcc6", "provider": "bird", "timeStamp": "03/17/2020, 20:10:19"}, "type": "Feature"}, {"geometry": {"coordinates": [8.53707833333333, 47.3801733333333], "type": "Point"}, "properties": {"charge": 26, "id": "bird_deacb8b3-edbf-46cf-ab75-b3a884c3a729", "provider": "bird", "timeStamp": "03/17/2020, 20:10:19"}, "type": "Feature"}, {"geometry": {"coordinates": [8.53611333333333, 47.3776166666667], "type": "Point"}, "properties": {"charge": 84, "id": "bird_c3fbb54b-b31a-4661-a878-6b58cbaed2a9", "provider": "bird", "timeStamp": "03/17/2020, 20:10:19"}, "type": "Feature"}, {"geometry": {"coordinates": [8.525775, 47.3761933333333], "type": "Point"}, "properties": {"charge": 40, "id": "bird_1c11a498-9514-4568-ad01-e3adae75b42c", "provider": "bird", "timeStamp": "03/17/2020, 20:10:19"}, "type": "Feature"}, {"geometry": {"coordinates": [8.53689, 47.3797], "type": "Point"}, "properties": {"charge": 48, "id": "bird_f1045457-0a72-4089-a3ab-ba0e0cbff803", "provider": "bird", "timeStamp": "03/17/2020, 20:10:19"}, "type": "Feature"}, {"geometry": {"coordinates": [8.53599333333333, 47.377815], "type": "Point"}, "properties": {"charge": 33, "id": "bird_0f03d9d9-a6bf-45a8-8423-bf365b11d4a3", "provider": "bird", "timeStamp": "03/17/2020, 20:10:19"}, "type": "Feature"}, {"geometry": {"coordinates": [8.532185, 47.3843616666667], "type": "Point"}, "properties": {"charge": 94, "id": "bird_70d4f955-8641-4c74-a5d4-6251794b9a8a", "provider": "bird", "timeStamp": "03/17/2020, 20:10:19"}, "type": "Feature"}, {"geometry": {"coordinates": [8.52411, 47.3777316666667], "type": "Point"}, "properties": {"charge": 31, "id": "bird_27bebedf-1bbc-46e0-9f21-ccfab9099fd8", "provider": "bird", "timeStamp": "03/17/2020, 20:10:19"}, "type": "Feature"}, {"geometry": {"coordinates": [8.53194666666667, 47.3843833333333], "type": "Point"}, "properties": {"charge": 91, "id": "bird_7ee533cc-7789-40ea-b927-29c924b7b0d2", "provider": "bird", "timeStamp": "03/17/2020, 20:10:19"}, "type": "Feature"}, {"geometry": {"coordinates": [8.53177, 47.3844116666667], "type": "Point"}, "properties": {"charge": 93, "id": "bird_c3dcec9c-1327-4bac-99a4-39aeb680f535", "provider": "bird", "timeStamp": "03/17/2020, 20:10:19"}, "type": "Feature"}, {"geometry": {"coordinates": [8.53207, 47.3843416666667], "type": "Point"}, "properties": {"charge": 94, "id": "bird_57d45f7a-d989-4478-bb1c-e5a762042362", "provider": "bird", "timeStamp": "03/17/2020, 20:10:19"}, "type": "Feature"}, {"geometry": {"coordinates": [8.52612833333333, 47.3837316666667], "type": "Point"}, "properties": {"charge": 28, "id": "bird_7c5a7fdd-2d25-49e8-9739-591d6f207b49", "provider": "bird", "timeStamp": "03/17/2020, 20:10:19"}, "type": "Feature"}, {"geometry": {"coordinates": [8.532045, 47.3843383333333], "type": "Point"}, "properties": {"charge": 71, "id": "bird_14f7b844-4f95-4d5a-b298-a8ef4a1f9d3c", "provider": "bird", "timeStamp": "03/17/2020, 20:10:19"}, "type": "Feature"}, {"geometry": {"coordinates": [8.532135, 47.384315], "type": "Point"}, "properties": {"charge": 96, "id": "bird_350f5580-fcd8-4f0c-afbe-0a77810cff70", "provider": "bird", "timeStamp": "03/17/2020, 20:10:19"}, "type": "Feature"}, {"geometry": {"coordinates": [8.53603, 47.3780133333333], "type": "Point"}, "properties": {"charge": 87, "id": "bird_fdb0e175-30a2-42f1-b704-fe89abd4266a", "provider": "bird", "timeStamp": "03/17/2020, 20:10:19"}, "type": "Feature"}, {"geometry": {"coordinates": [8.52611666666667, 47.3836933333333], "type": "Point"}, "properties": {"charge": 49, "id": "bird_2ac503e3-1cdb-4d06-8b33-43a60d5d85dd", "provider": "bird", "timeStamp": "03/17/2020, 20:10:19"}, "type": "Feature"}, {"geometry": {"coordinates": [8.52634833333333, 47.3762783333333], "type": "Point"}, "properties": {"charge": 42, "id": "bird_d69cb14c-4d18-4063-a6f7-b1fd5758d610", "provider": "bird", "timeStamp": "03/17/2020, 20:10:19"}, "type": "Feature"}, {"geometry": {"coordinates": [8.53136166666667, 47.3843683333333], "type": "Point"}, "properties": {"charge": 89, "id": "bird_b2f7d13d-554a-4b89-817e-1e31328db144", "provider": "bird", "timeStamp": "03/17/2020, 20:10:19"}, "type": "Feature"}, {"geometry": {"coordinates": [8.53563333333333, 47.3776933333333], "type": "Point"}, "properties": {"charge": 28, "id": "bird_8cc86989-5803-43fd-b19a-640c367aa34e", "provider": "bird", "timeStamp": "03/17/2020, 20:10:19"}, "type": "Feature"}, {"geometry": {"coordinates": [8.53143833333333, 47.384335], "type": "Point"}, "properties": {"charge": 92, "id": "bird_3f018b58-27c5-447e-aaad-6c9d0c4588c3", "provider": "bird", "timeStamp": "03/17/2020, 20:10:19"}, "type": "Feature"}, {"geometry": {"coordinates": [8.53627, 47.3811983333333], "type": "Point"}, "properties": {"charge": 29, "id": "bird_e015c91d-41eb-442b-92d3-d2f2ac2ef47a", "provider": "bird", "timeStamp": "03/17/2020, 20:10:19"}, "type": "Feature"}, {"geometry": {"coordinates": [8.53553333333333, 47.3777583333333], "type": "Point"}, "properties": {"charge": 80, "id": "bird_bdd62bf3-d7e0-47bc-a6bc-0000b24707be", "provider": "bird", "timeStamp": "03/17/2020, 20:10:19"}, "type": "Feature"}, {"geometry": {"coordinates": [8.53577666666667, 47.378075], "type": "Point"}, "properties": {"charge": 27, "id": "bird_8304a821-3de6-46f6-9549-d507b8e2bc30", "provider": "bird", "timeStamp": "03/17/2020, 20:10:19"}, "type": "Feature"}, {"geometry": {"coordinates": [8.535705, 47.37807], "type": "Point"}, "properties": {"charge": 75, "id": "bird_0351d114-f299-4d50-8d58-da8ccf51fecd", "provider": "bird", "timeStamp": "03/17/2020, 20:10:19"}, "type": "Feature"}, {"geometry": {"coordinates": [8.52425166666667, 47.3784483333333], "type": "Point"}, "properties": {"charge": 56, "id": "bird_732c9643-788f-4438-a9bd-c901e27a3457", "provider": "bird", "timeStamp": "03/17/2020, 20:10:19"}, "type": "Feature"}, {"geometry": {"coordinates": [8.53563833333333, 47.3782883333333], "type": "Point"}, "properties": {"charge": 91, "id": "bird_66b35fd1-cb0c-4717-9d5c-349631cfc29d", "provider": "bird", "timeStamp": "03/17/2020, 20:10:19"}, "type": "Feature"}, {"geometry": {"coordinates": [8.535385, 47.3780066666667], "type": "Point"}, "properties": {"charge": 83, "id": "bird_2845a375-bea8-42b3-9d70-3506e1ed091c", "provider": "bird", "timeStamp": "03/17/2020, 20:10:19"}, "type": "Feature"}, {"geometry": {"coordinates": [8.53545333333333, 47.3781083333333], "type": "Point"}, "properties": {"charge": 82, "id": "bird_d7b9a68f-2566-42d4-aed8-a5553760f4a1", "provider": "bird", "timeStamp": "03/17/2020, 20:10:19"}, "type": "Feature"}, {"geometry": {"coordinates": [8.52979, 47.3758966666667], "type": "Point"}, "properties": {"charge": 43, "id": "bird_3d02cc8c-8a47-48f8-8ccd-1e919cb3a10b", "provider": "bird", "timeStamp": "03/17/2020, 20:10:19"}, "type": "Feature"}, {"geometry": {"coordinates": [8.52416666666667, 47.3799283333333], "type": "Point"}, "properties": {"charge": 82, "id": "bird_d8f79375-3185-4c78-a733-b297033a242d", "provider": "bird", "timeStamp": "03/17/2020, 20:10:19"}, "type": "Feature"}, {"geometry": {"coordinates": [8.524175, 47.379955], "type": "Point"}, "properties": {"charge": 24, "id": "bird_76f0838a-2fb9-4d64-a720-d5ab189a9b14", "provider": "bird", "timeStamp": "03/17/2020, 20:10:19"}, "type": "Feature"}, {"geometry": {"coordinates": [8.52620166666667, 47.377025], "type": "Point"}, "properties": {"charge": 56, "id": "bird_0e1b3d6b-7dbd-45d5-84e7-aedadd2b6da1", "provider": "bird", "timeStamp": "03/17/2020, 20:10:19"}, "type": "Feature"}, {"geometry": {"coordinates": [8.53306333333333, 47.3766816666667], "type": "Point"}, "properties": {"charge": 31, "id": "bird_f262fe0b-0175-4ff4-8a4d-408c46742ee1", "provider": "bird", "timeStamp": "03/17/2020, 20:10:19"}, "type": "Feature"}, {"geometry": {"coordinates": [8.52955166666667, 47.3761633333333], "type": "Point"}, "properties": {"charge": 28, "id": "bird_6133d3be-1348-47c0-bebb-06858752ad23", "provider": "bird", "timeStamp": "03/17/2020, 20:10:19"}, "type": "Feature"}, {"geometry": {"coordinates": [8.52640666666667, 47.3772816666667], "type": "Point"}, "properties": {"charge": 84, "id": "bird_ac02b1d7-327d-45e5-8a89-8d5d02640e4f", "provider": "bird", "timeStamp": "03/17/2020, 20:10:19"}, "type": "Feature"}, {"geometry": {"coordinates": [8.52656666666667, 47.3772233333333], "type": "Point"}, "properties": {"charge": 89, "id": "bird_0922ee4f-1343-4c73-96d0-558fa8b7e4e7", "provider": "bird", "timeStamp": "03/17/2020, 20:10:19"}, "type": "Feature"}, {"geometry": {"coordinates": [8.526505, 47.3772616666667], "type": "Point"}, "properties": {"charge": 87, "id": "bird_500b705a-3389-4be5-ad25-53e5e69194e1", "provider": "bird", "timeStamp": "03/17/2020, 20:10:19"}, "type": "Feature"}, {"geometry": {"coordinates": [8.52670666666667, 47.3771516666667], "type": "Point"}, "properties": {"charge": 93, "id": "bird_462e7e2b-b80a-4eb2-b883-c9d332e3def8", "provider": "bird", "timeStamp": "03/17/2020, 20:10:19"}, "type": "Feature"}, {"geometry": {"coordinates": [8.52670333333333, 47.3771583333333], "type": "Point"}, "properties": {"charge": 89, "id": "bird_8f1f688f-3a88-40cb-bb41-13ae23fabdac", "provider": "bird", "timeStamp": "03/17/2020, 20:10:19"}, "type": "Feature"}, {"geometry": {"coordinates": [8.526675, 47.377185], "type": "Point"}, "properties": {"charge": 55, "id": "bird_01d71bbc-b678-4787-9357-5eb228a3357c", "provider": "bird", "timeStamp": "03/17/2020, 20:10:19"}, "type": "Feature"}, {"geometry": {"coordinates": [8.526605, 47.37725], "type": "Point"}, "properties": {"charge": 93, "id": "bird_2cc07e4c-5719-4214-8040-1484a1d8c6d0", "provider": "bird", "timeStamp": "03/17/2020, 20:10:19"}, "type": "Feature"}, {"geometry": {"coordinates": [8.52978166666667, 47.38358], "type": "Point"}, "properties": {"charge": 28, "id": "bird_963fee1c-41aa-4c31-8685-8d016234824e", "provider": "bird", "timeStamp": "03/17/2020, 20:10:19"}, "type": "Feature"}, {"geometry": {"coordinates": [8.527585, 47.3831183333333], "type": "Point"}, "properties": {"charge": 71, "id": "bird_4d0dfd66-5ab4-4813-9e8d-8d561af9ef8b", "provider": "bird", "timeStamp": "03/17/2020, 20:10:19"}, "type": "Feature"}, {"geometry": {"coordinates": [8.52769, 47.3768883333333], "type": "Point"}, "properties": {"charge": 70, "id": "bird_f98e6c2d-7cac-4a77-a7c6-57dfdfbf20e0", "provider": "bird", "timeStamp": "03/17/2020, 20:10:19"}, "type": "Feature"}, {"geometry": {"coordinates": [8.52773, 47.3768883333333], "type": "Point"}, "properties": {"charge": 72, "id": "bird_6b865246-5e3f-4c79-b35b-17d8b29101ad", "provider": "bird", "timeStamp": "03/17/2020, 20:10:19"}, "type": "Feature"}, {"geometry": {"coordinates": [8.526525, 47.3774683333333], "type": "Point"}, "properties": {"charge": 29, "id": "bird_8754ed8b-c5a4-4950-ac6d-8faf34b198c4", "provider": "bird", "timeStamp": "03/17/2020, 20:10:19"}, "type": "Feature"}, {"geometry": {"coordinates": [8.53428, 47.3818733333333], "type": "Point"}, "properties": {"charge": 37, "id": "bird_a0398244-98c4-418c-a7e8-2df34a09a2fa", "provider": "bird", "timeStamp": "03/17/2020, 20:10:19"}, "type": "Feature"}, {"geometry": {"coordinates": [8.53063833333333, 47.3833883333333], "type": "Point"}, "properties": {"charge": 91, "id": "bird_fc43f22d-b6d6-484f-8c79-a755d7e31fe4", "provider": "bird", "timeStamp": "03/17/2020, 20:10:19"}, "type": "Feature"}, {"geometry": {"coordinates": [8.526905, 47.3773233333333], "type": "Point"}, "properties": {"charge": 52, "id": "bird_abb369d2-71f8-406a-a15f-0849e1048782", "provider": "bird", "timeStamp": "03/17/2020, 20:10:19"}, "type": "Feature"}, {"geometry": {"coordinates": [8.53057833333333, 47.3833433333333], "type": "Point"}, "properties": {"charge": 92, "id": "bird_937b9245-bcf6-4a4e-8de9-5f89dc3b3d34", "provider": "bird", "timeStamp": "03/17/2020, 20:10:19"}, "type": "Feature"}, {"geometry": {"coordinates": [8.534605, 47.3811683333333], "type": "Point"}, "properties": {"charge": 25, "id": "bird_98a7eae6-e94c-4d79-b0f3-12382a1d4b98", "provider": "bird", "timeStamp": "03/17/2020, 20:10:19"}, "type": "Feature"},