{"features": [{"geometry": {"coordinates": [8.540062, 47.374392], "type": "Point"}, "properties": {"address": "Uraniastrasse 7", "electric": 4, "id": "pb_60", "manual": 9, "name": "Demo Station Werdm\u00fchleplatz", "provider": "publibike", "timeStamp": "02/18/2020, 12:48:49", "zip": 8001}, "type": "Feature"}, {"geometry": {"coordinates": [8.5452956, 47.4099615], "type": "Point"}, "properties": {"address": "Querstrasse 8", "electric": 2, "id": "pb_61", "manual": 7, "name": "Marktplatz", "provider": "publibike", "timeStamp": "02/18/2020, 12:48:49", "zip": 8050}, "type": "Feature"}, {"geometry": {"coordinates": [8.5156327, 47.3795837], "type": "Point"}, "properties": {"address": "Bullingerstrasse 5", "electric": 0, "id": "pb_80", "manual": 1, "name": "Bullingerplatz", "provider": "publibike", "timeStamp": "02/18/2020, 12:48:49", "zip": 8004}, "type": "Feature"}, {"geometry": {"coordinates": [8.5104051, 47.3899342], "type": "Point"}, "properties": {"address": "Pfingstweidstrasse 96e", "electric": 5, "id": "pb_81", "manual": 3, "name": "Herdern", "provider": "publibike", "timeStamp": "02/18/2020, 12:48:49", "zip": 8001}, "type": "Feature"}, {"geometry": {"coordinates": [8.535718, 47.359675], "type": "Point"}, "properties": {"address": "Mythenquai 50", "electric": 24, "id": "pb_82", "manual": 19, "name": "Hafen Enge", "provider": "publibike", "timeStamp": "02/18/2020, 12:48:49", "zip": 8002}, "type": "Feature"}, {"geometry": {"coordinates": [8.520370505, 47.358663827], "type": "Point"}, "properties": {"address": "Bubenbergstrasse 1", "electric": 2, "id": "pb_83", "manual": 9, "name": "Comerge", "provider": "publibike", "timeStamp": "02/18/2020, 12:48:49", "zip": 8045}, "type": "Feature"}, {"geometry": {"coordinates": [8.5412505, 47.3789825], "type": "Point"}, "properties": {"address": "Museumstrasse 2", "electric": 10, "id": "pb_84", "manual": 10, "name": "Landesmuseum", "provider": "publibike", "timeStamp": "02/18/2020, 12:48:49", "zip": 8001}, "type": "Feature"}, {"geometry": {"coordinates": [8.5235479, 47.3716661], "type": "Point"}, "properties": {"address": "Birmensdorferstrasse 80", "electric": 0, "id": "pb_85", "manual": 0, "name": "Bahnhof Wiedikon", "provider": "publibike", "timeStamp": "02/18/2020, 12:48:49", "zip": 8003}, "type": "Feature"}, {"geometry": {"coordinates": [8.506822854, 47.40781197], "type": "Point"}, "properties": {"address": "Stefano-Franscini-Platz 5", "electric": 33, "id": "pb_86", "manual": 1, "name": "ETH H\u00f6nggerberg", "provider": "publibike", "timeStamp": "02/18/2020, 12:48:49", "zip": 8093}, "type": "Feature"}, {"geometry": {"coordinates": [8.536101, 47.371083], "type": "Point"}, "properties": {"address": "Pelikanplatz 5", "electric": 0, "id": "pb_87", "manual": 5, "name": "Pelikanplatz", "provider": "publibike", "timeStamp": "02/18/2020, 12:48:49", "zip": 8001}, "type": "Feature"}, {"geometry": {"coordinates": [8.5257822, 47.3651936], "type": "Point"}, "properties": {"address": "H\u00fcrlimannplatz 90", "electric": 45, "id": "pb_88", "manual": 22, "name": "H\u00fcrlimannplatz", "provider": "publibike", "timeStamp": "02/18/2020, 12:48:49", "zip": 8002}, "type": "Feature"}, {"geometry": {"coordinates": [8.5313344, 47.3713591], "type": "Point"}, "properties": {"address": "Selnaustrasse 32", "electric": 6, "id": "pb_89", "manual": 7, "name": "Stauffacherbr\u00fccke", "provider": "publibike", "timeStamp": "02/18/2020, 12:48:49", "zip": 8001}, "type": "Feature"}, {"geometry": {"coordinates": [8.5056978, 47.3917964], "type": "Point"}, "properties": {"address": "Sportweg 25", "electric": 2, "id": "pb_90", "manual": 11, "name": "Sportweg", "provider": "publibike", "timeStamp": "02/18/2020, 12:48:49", "zip": 8005}, "type": "Feature"}, {"geometry": {"coordinates": [8.5181701, 47.3917837], "type": "Point"}, "properties": {"address": "Hardturmstrasse 11", "electric": 0, "id": "pb_91", "manual": 4, "name": "Puls 5", "provider": "publibike", "timeStamp": "02/18/2020, 12:48:49", "zip": 8005}, "type": "Feature"}, {"geometry": {"coordinates": [8.5286468, 47.3820827], "type": "Point"}, "properties": {"address": "R\u00f6ntgenstrasse 6", "electric": 3, "id": "pb_92", "manual": 15, "name": "R\u00f6ntgenstrasse", "provider": "publibike", "timeStamp": "02/18/2020, 12:48:49", "zip": 8005}, "type": "Feature"}, {"geometry": {"coordinates": [8.531935, 47.384918], "type": "Point"}, "properties": {"address": "Kornhausbr\u00fccke 1", "electric": 0, "id": "pb_93", "manual": 0, "name": "Limmatplatz", "provider": "publibike", "timeStamp": "02/18/2020, 12:48:49", "zip": 8005}, "type": "Feature"}, {"geometry": {"coordinates": [8.5354006, 47.3758639], "type": "Point"}, "properties": {"address": "Gessnerallee 15", "electric": 5, "id": "pb_94", "manual": 2, "name": "Gessnerallee", "provider": "publibike", "timeStamp": "02/18/2020, 12:48:49", "zip": 8001}, "type": "Feature"}, {"geometry": {"coordinates": [8.523818, 47.377148], "type": "Point"}, "properties": {"address": "Stauffacherstrasse 127", "electric": 0, "id": "pb_95", "manual": 2, "name": "B\u00e4ckeranlage", "provider": "publibike", "timeStamp": "02/18/2020, 12:48:49", "zip": 8004}, "type": "Feature"}, {"geometry": {"coordinates": [8.531836, 47.378548], "type": "Point"}, "properties": {"address": "Lagerstrasse 44", "electric": 6, "id": "pb_96", "manual": 26, "name": "Gustav-Gull-Platz", "provider": "publibike", "timeStamp": "02/18/2020, 12:48:49", "zip": 8004}, "type": "Feature"}, {"geometry": {"coordinates": [8.5104883, 47.3771535], "type": "Point"}, "properties": {"address": "Zurlindenstrasse 291", "electric": 0, "id": "pb_97", "manual": 3, "name": "Zurlindenstrasse", "provider": "publibike", "timeStamp": "02/18/2020, 12:48:49", "zip": 8003}, "type": "Feature"}, {"geometry": {"coordinates": [8.5333139, 47.3731102], "type": "Point"}, "properties": {"address": "Sihlstrasse 81", "electric": 3, "id": "pb_98", "manual": 7, "name": "Sihlstrasse", "provider": "publibike", "timeStamp": "02/18/2020, 12:48:49", "zip": 8001}, "type": "Feature"}, {"geometry": {"coordinates": [8.520532, 47.374951], "type": "Point"}, "properties": {"address": "Feldstrasse 24", "electric": 5, "id": "pb_99", "manual": 1, "name": "Kalkbreite", "provider": "publibike", "timeStamp": "02/18/2020, 12:48:49", "zip": 8004}, "type": "Feature"}, {"geometry": {"coordinates": [8.539046, 47.368064], "type": "Point"}, "properties": {"address": "Talstrasse 12", "electric": 9, "id": "pb_100", "manual": 5, "name": "Z\u00fcrcher Kantonalbank", "provider": "publibike", "timeStamp": "02/18/2020, 12:48:49", "zip": 8001}, "type": "Feature"}, {"geometry": {"coordinates": [8.5348427, 47.3625938], "type": "Point"}, "properties": {"address": "Breitingerstrasse 5", "electric": 4, "id": "pb_101", "manual": 5, "name": "Rentenanstalt", "provider": "publibike", "timeStamp": "02/18/2020, 12:48:49", "zip": 8002}, "type": "Feature"}, {"geometry": {"coordinates": [8.5166922, 47.3897772], "type": "Point"}, "properties": {"address": "Technoparkstrasse 4", "electric": 5, "id": "pb_102", "manual": 6, "name": "Turbinenplatz", "provider": "publibike", "timeStamp": "02/18/2020, 12:48:49", "zip": 8005}, "type": "Feature"}, {"geometry": {"coordinates": [8.539312, 47.3739964], "type": "Point"}, "properties": {"address": "Oetenbachgasse 14", "electric": 10, "id": "pb_104", "manual": 7, "name": "Rennweg", "provider": "publibike", "timeStamp": "02/18/2020, 12:48:49", "zip": 8001}, "type": "Feature"}, {"geometry": {"coordinates": [8.5360685, 47.3775022], "type": "Point"}, "properties": {"address": "Kasernenstrasse 101", "electric": 11, "id": "pb_105", "manual": 39, "name": "Sihlpost", "provider": "publibike", "timeStamp": "02/18/2020, 12:48:49", "zip": 8004}, "type": "Feature"}, {"geometry": {"coordinates": [8.53545, 47.382798], "type": "Point"}, "properties": {"address": "Ausstellungsstrasse 44", "electric": 3, "id": "pb_106", "manual": 9, "name": "Museum f\u00fcr Gestaltung", "provider": "publibike", "timeStamp": "02/18/2020, 12:48:49", "zip": 8005}, "type": "Feature"}, {"geometry": {"coordinates": [8.5306155, 47.3647902], "type": "Point"}, "properties": {"address": "Gutenbergstrasse 1", "electric": 0, "id": "pb_107", "manual": 1, "name": "Bederbr\u00fccke", "provider": "publibike", "timeStamp": "02/18/2020, 12:48:49", "zip": 8002}, "type": "Feature"}, {"geometry": {"coordinates": [8.518982, 47.386741], "type": "Point"}, "properties": {"address": "Geroldstrasse 4", "electric": 5, "id": "pb_108", "manual": 15, "name": "Bahnhof Hardbr\u00fccke", "provider": "publibike", "timeStamp": "02/18/2020, 12:48:49", "zip": 8005}, "type": "Feature"}, {"geometry": {"coordinates": [8.53001018, 47.37247535], "type": "Point"}, "properties": {"address": "Werdstrasse 21", "electric": 3, "id": "pb_109", "manual": 3, "name": "Tamedia", "provider": "publibike", "timeStamp": "02/18/2020, 12:48:49", "zip": 8004}, "type": "Feature"}, {"geometry": {"coordinates": [8.4860017, 47.396401], "type": "Point"}, "properties": {"address": "Gr\u00fcnauring 37", "electric": 11, "id": "pb_110", "manual": 2, "name": "Gr\u00fcnau", "provider": "publibike", "timeStamp": "02/18/2020, 12:48:49", "zip": 8064}, "type": "Feature"}, {"geometry": {"coordinates": [8.548519, 47.376756], "type": "Point"}, "properties": {"address": "R\u00e4mistrasse 101", "electric": 83, "id": "pb_111", "manual": 5, "name": "ETH Zentrum", "provider": "publibike", "timeStamp": "02/18/2020, 12:48:49", "zip": 8006}, "type": "Feature"}, {"geometry": {"coordinates": [8.520449, 47.388151], "type": "Point"}, "properties": {"address": "Josefstrasse 224", "electric": 3, "id": "pb_112", "manual": 3, "name": "Steinfelsareal", "provider": "publibike", "timeStamp": "02/18/2020, 12:48:49", "zip": 8005}, "type": "Feature"}, {"geometry": {"coordinates": [8.520482, 47.37209], "type": "Point"}, "properties": {"address": "Weststrasse 115", "electric": 1, "id": "pb_124", "manual": 5, "name": "Weststrasse", "provider": "publibike", "timeStamp": "02/18/2020, 12:48:49", "zip": 8003}, "type": "Feature"}, {"geometry": {"coordinates": [8.496727, 47.378521], "type": "Point"}, "properties": {"address": "Albisriederstrasse 200", "electric": 2, "id": "pb_125", "manual": 3, "name": "Utogrund", "provider": "publibike", "timeStamp": "02/18/2020, 12:48:49", "zip": 8047}, "type": "Feature"}, {"geometry": {"coordinates": [8.510418, 47.381356], "type": "Point"}, "properties": {"address": "Bullingerstrasse 73", "electric": 2, "id": "pb_126", "manual": 8, "name": "Hardau", "provider": "publibike", "timeStamp": "02/18/2020, 12:48:49", "zip": 8004}, "type": "Feature"}, {"geometry": {"coordinates": [8.525525, 47.361567], "type": "Point"}, "properties": {"address": "Klopstockstrasse 23", "electric": 4, "id": "pb_127", "manual": 3, "name": "Klopstockwiese", "provider": "publibike", "timeStamp": "02/18/2020, 12:48:49", "zip": 8002}, "type": "Feature"}, {"geometry": {"coordinates": [8.518143, 47.363148], "type": "Point"}, "properties": {"address": "Haldenstrasse 8", "electric": 0, "id": "pb_128", "manual": 0, "name": "Binz", "provider": "publibike", "timeStamp": "02/18/2020, 12:48:49", "zip": 8045}, "type": "Feature"}, {"geometry": {"coordinates": [8.542726, 47.379952], "type": "Point"}, "properties": {"address": "Walchestrasse 11", "electric": 6, "id": "pb_129", "manual": 2, "name": "Stampfenbachplatz", "provider": "publibike", "timeStamp": "02/18/2020, 12:48:49", "zip": 8006}, "type": "Feature"}, {"geometry": {"coordinates": [8.488108, 47.391366], "type": "Point"}, "properties": {"address": "Altstetterplatz 1", "electric": 8, "id": "pb_130", "manual": 4, "name": "Bahnhof Altstetten", "provider": "publibike", "timeStamp": "02/18/2020, 12:48:49", "zip": 8048}, "type": "Feature"}, {"geometry": {"coordinates": [8.554114, 47.365119], "type": "Point"}, "properties": {"address": "Kreuzplatz 2", "electric": 0, "id": "pb_131", "manual": 3, "name": "Kreuzplatz", "provider": "publibike", "timeStamp": "02/18/2020, 12:48:49", "zip": 8032}, "type": "Feature"}, {"geometry": {"coordinates": [8.549852, 47.35594], "type": "Point"}, "properties": {"address": "H\u00f6schgasse 3", "electric": 0, "id": "pb_132", "manual": 0, "name": "Blatterwiese", "provider": "publibike", "timeStamp": "02/18/2020, 12:48:49", "zip": 8008}, "type": "Feature"}, {"geometry": {"coordinates": [8.554501, 47.36162], "type": "Point"}, "properties": {"address": "Feldeggstrasse 80", "electric": 0, "id": "pb_133", "manual": 7, "name": "Villa Bleuler", "provider": "publibike", "timeStamp": "02/18/2020, 12:48:49", "zip": 8008}, "type": "Feature"}, {"geometry": {"coordinates": [8.557088, 47.358557], "type": "Point"}, "properties": {"address": "M\u00fchlebachstrasse 131", "electric": 0, "id": "pb_134", "manual": 1, "name": "M\u00fchlebachstrasse", "provider": "publibike", "timeStamp": "02/18/2020, 12:48:49", "zip": 8008}, "type": "Feature"}, {"geometry": {"coordinates": [8.547639, 47.361266], "type": "Point"}, "properties": {"address": "Utoquai 50", "electric": 4, "id": "pb_135", "manual": 7, "name": "Seebad Utoquai", "provider": "publibike", "timeStamp": "02/18/2020, 12:48:49", "zip": 8008}, "type": "Feature"}, {"geometry": {"coordinates": [8.548045, 47.370869], "type": "Point"}, "properties": {"address": "Heimplatz 1", "electric": 7, "id": "pb_137", "manual": 5, "name": "Kunsthaus", "provider": "publibike", "timeStamp": "02/18/2020, 12:48:49", "zip": 8001}, "type": "Feature"}, {"geometry": {"coordinates": [8.543447, 47.375933], "type": "Point"}, "properties": {"address": "Limmatquai 138", "electric": 7, "id": "pb_138", "manual": 14, "name": "Central", "provider": "publibike", "timeStamp": "02/18/2020, 12:48:49", "zip": 8001}, "type": "Feature"}, {"geometry": {"coordinates": [8.549356, 47.408827], "type": "Point"}, "properties": {"address": "Tramstrasse 35", "electric": 3, "id": "pb_139", "manual": 8, "name": "ewz Tramstrasse", "provider": "publibike", "timeStamp": "02/18/2020, 12:48:49", "zip": 8050}, "type": "Feature"}, {"geometry": {"coordinates": [8.533736, 47.366904], "type": "Point"}, "properties": {"address": "Bleicherweg 33", "electric": 5, "id": "pb_140", "manual": 18, "name": "Bleicherweg", "provider": "publibike", "timeStamp": "02/18/2020, 12:48:49", "zip": 8002}, "type": "Feature"}, {"geometry": {"coordinates": [8.544935, 47.366752], "type": "Point"}, "properties": {"address": "Bellevueplatz 2", "electric": 8, "id": "pb_141", "manual": 16, "name": "Bellevue", "provider": "publibike", "timeStamp": "02/18/2020, 12:48:49", "zip": 8001}, "type": "Feature"}, {"geometry": {"coordinates": [8.5285533, 47.3742296], "type": "Point"}, "properties": {"address": "Stauffacherstrasse 41", "electric": 0, "id": "pb_142", "manual": 3, "name": "Stauffacher", "provider": "publibike", "timeStamp": "02/18/2020, 12:48:49", "zip": 8004}, "type": "Feature"}, {"geometry": {"coordinates": [8.523722, 47.3899], "type": "Point"}, "properties": {"address": "Limmatstrasse 310", "electric": 1, "id": "pb_143", "manual": 4, "name": "Escher-Wyss-Platz", "provider": "publibike", "timeStamp": "02/18/2020, 12:48:49", "zip": 8005}, "type": "Feature"}, {"geometry": {"coordinates": [8.491061, 47.392336], "type": "Point"}, "properties": {"address": "Vulkanplatz 1", "electric": 5, "id": "pb_149", "manual": 4, "name": "Vulkanplatz", "provider": "publibike", "timeStamp": "02/18/2020, 12:48:49", "zip": 8048}, "type": "Feature"}, {"geometry": {"coordinates": [8.52306, 47.359872], "type": "Point"}, "properties": {"address": "Giessh\u00fcbelstrasse 15", "electric": 0, "id": "pb_150", "manual": 0, "name": "Utoplatz", "provider": "publibike", "timeStamp": "02/18/2020, 12:48:49", "zip": 8045}, "type": "Feature"}, {"geometry": {"coordinates": [8.486284, 47.387685], "type": "Point"}, "properties": {"address": "Lindenplatz 1", "electric": 2, "id": "pb_151", "manual": 4, "name": "Lindenplatz", "provider": "publibike", "timeStamp": "02/18/2020, 12:48:49", "zip": 8048}, "type": "Feature"}, {"geometry": {"coordinates": [8.49163, 47.389823], "type": "Point"}, "properties": {"address": "Hohlstrasse 563", "electric": 7, "id": "pb_152", "manual": 1, "name": "Luggweg", "provider": "publibike", "timeStamp": "02/18/2020, 12:48:49", "zip": 8048}, "type": "Feature"}, {"geometry": {"coordinates": [8.52174, 47.365272], "type": "Point"}, "properties": {"address": "Manessestrasse 87", "electric": 1, "id": "pb_153", "manual": 0, "name": "Manesseplatz", "provider": "publibike", "timeStamp": "02/18/2020, 12:48:49", "zip": 8045}, "type": "Feature"}, {"geometry": {"coordinates": [8.52714, 47.372329], "type": "Point"}, "properties": {"address": "Werdstrasse 75", "electric": 1, "id": "pb_154", "manual": 4, "name": "Werd", "provider": "publibike", "timeStamp": "02/18/2020, 12:48:49", "zip": 8004}, "type": "Feature"}, {"geometry": {"coordinates": [8.543042, 47.374711], "type": "Point"}, "properties": {"address": "Limmatquai 100", "electric": 0, "id": "pb_155", "manual": 0, "name": "Rudolf-Brun-Br\u00fccke", "provider": "publibike", "timeStamp": "02/18/2020, 12:48:49", "zip": 8001}, "type": "Feature"}, {"geometry": {"coordinates": [8.490837, 47.386596], "type": "Point"}, "properties": {"address": "Badenerstrasse 627", "electric": 8, "id": "pb_156", "manual": 1, "name": "Luggwegstrasse VBZ", "provider": "publibike", "timeStamp": "02/18/2020, 12:48:49", "zip": 8048}, "type": "Feature"}, {"geometry": {"coordinates": [8.535119, 47.355189], "type": "Point"}, "properties": {"address": "Mythenquai 95", "electric": 0, "id": "pb_157", "manual": 0, "name": "Strandbad Mythenquai", "provider": "publibike", "timeStamp": "02/18/2020, 12:48:49", "zip": 8002}, "type": "Feature"}, {"geometry": {"coordinates": [8.545505, 47.373675], "type": "Point"}, "properties": {"address": "Predigerpatz 21", "electric": 3, "id": "pb_158", "manual": 13, "name": "Predigerplatz", "provider": "publibike", "timeStamp": "02/18/2020, 12:48:49", "zip": 8001}, "type": "Feature"}, {"geometry": {"coordinates": [8.515558, 47.371868], "type": "Point"}, "properties": {"address": "Aemtlerstrasse 23", "electric": 1, "id": "pb_159", "manual": 0, "name": "Zwinglihaus", "provider": "publibike", "timeStamp": "02/18/2020, 12:48:49", "zip": 8003}, "type": "Feature"}, {"geometry": {"coordinates": [8.524629, 47.386072], "type": "Point"}, "properties": {"address": "Josefstrasse 188", "electric": 2, "id": "pb_160", "manual": 1, "name": "Josefwiese", "provider": "publibike", "timeStamp": "02/18/2020, 12:48:49", "zip": 8005}, "type": "Feature"}, {"geometry": {"coordinates": [8.527138, 47.387531], "type": "Point"}, "properties": {"address": "R\u00f6ntgenstrasse 87", "electric": 0, "id": "pb_164", "manual": 5, "name": "Markthalle", "provider": "publibike", "timeStamp": "02/18/2020, 12:48:49", "zip": 8005}, "type": "Feature"}, {"geometry": {"coordinates": [8.552717, 47.359978], "type": "Point"}, "properties": {"address": "Seefeldstrasse 96", "electric": 0, "id": "pb_263", "manual": 6, "name": "Feldeggstrasse", "provider": "publibike", "timeStamp": "02/18/2020, 12:48:49", "zip": 8008}, "type": "Feature"}, {"geometry": {"coordinates": [8.553189, 47.353198], "type": "Point"}, "properties": {"address": "Bellerivestrasse 170", "electric": 0, "id": "pb_264", "manual": 0, "name": "Lake Side", "provider": "publibike", "timeStamp": "02/18/2020, 12:48:49", "zip": 8008}, "type": "Feature"}, {"geometry": {"coordinates": [8.543437, 47.369256], "type": "Point"}, "properties": {"address": "Limmatquai 18", "electric": 0, "id": "pb_265", "manual": 0, "name": "Helmhaus", "provider": "publibike", "timeStamp": "02/18/2020, 12:48:49", "zip": 8032}, "type": "Feature"}, {"geometry": {"coordinates": [8.516676, 47.375819], "type": "Point"}, "properties": {"address": "Badenerstrasse 246", "electric": 3, "id": "pb_266", "manual": 3, "name": "Lochergut", "provider": "publibike", "timeStamp": "02/18/2020, 12:48:49", "zip": 8004}, "type": "Feature"}, {"geometry": {"coordinates": [8.514605, 47.389862], "type": "Point"}, "properties": {"address": "Pfingstweidstrasse 60", "electric": 5, "id": "pb_273", "manual": 9, "name": "Westpark", "provider": "publibike", "timeStamp": "02/18/2020, 12:48:49", "zip": 8005}, "type": "Feature"}, {"geometry": {"coordinates": [8.541239126, 47.375991201], "type": "Point"}, "properties": {"address": "Beatenplatz 1", "electric": 6, "id": "pb_274", "manual": 5, "name": "Beatenplatz", "provider": "publibike", "timeStamp": "02/18/2020, 12:48:49", "zip": 8001}, "type": "Feature"}, {"geometry": {"coordinates": [8.5417135, 47.3942197], "type": "Point"}, "properties": {"address": "Scheuchzerstrasse 181", "electric": 2, "id": "pb_275", "manual": 0, "name": "Pauluskirche", "provider": "publibike", "timeStamp": "02/18/2020, 12:48:49", "zip": 8057}, "type": "Feature"}, {"geometry": {"coordinates": [8.5528182, 47.414558], "type": "Point"}, "properties": {"address": "Hagenholzstrasse 51", "electric": 9, "id": "pb_276", "manual": 11, "name": "Airgate", "provider": "publibike", "timeStamp": "02/18/2020, 12:48:49", "zip": 8050}, "type": "Feature"}, {"geometry": {"coordinates": [8.537816, 47.413514], "type": "Point"}, "properties": {"address": "Birchstrasse 183", "electric": 7, "id": "pb_277", "manual": 1, "name": "Lamprechtweg", "provider": "publibike", "timeStamp": "02/18/2020, 12:48:49", "zip": 8050}, "type": "Feature"}, {"geometry": {"coordinates": [8.545602, 47.417701], "type": "Point"}, "properties": {"address": "Felsenrainstrasse 2", "electric": 0, "id": "pb_278", "manual": 2, "name": "Emil-Oberh\u00e4nsli", "provider": "publibike", "timeStamp": "02/18/2020, 12:48:49", "zip": 8050}, "type": "Feature"}, {"geometry": {"coordinates": [8.533647, 47.39808], "type": "Point"}, "properties": {"address": "Bucheggplatz 2", "electric": 0, "id": "pb_279", "manual": 0, "name": "Bucheggplatz", "provider": "publibike", "timeStamp": "02/18/2020, 12:48:49", "zip": 8057}, "type": "Feature"}, {"geometry": {"coordinates": [8.523549, 47.392347], "type": "Point"}, "properties": {"address": "Wipkingerplatz 4", "electric": 1, "id": "pb_280", "manual": 1, "name": "Wipkingerplatz", "provider": "publibike", "timeStamp": "02/18/2020, 12:48:49", "zip": 8037}, "type": "Feature"}, {"geometry": {"coordinates": [8.548562, 47.36691], "type": "Point"}, "properties": {"address": "Galerie \u00fcber Gleis 2/3", "electric": 0, "id": "pb_285", "manual": 0, "name": "Bahnhof Stadelhofen", "provider": "publibike", "timeStamp": "02/18/2020, 12:48:49", "zip": 8001}, "type": "Feature"}, {"geometry": {"coordinates": [8.493822, 47.3985553], "type": "Point"}, "properties": {"address": "Meierwiesenstrasse 12-4", "electric": 5, "id": "pb_286", "manual": 2, "name": "T\u00fcffenwies", "provider": "publibike", "timeStamp": "02/18/2020, 12:48:49", "zip": 8064}, "type": "Feature"}, {"geometry": {"coordinates": [8.552432, 47.3801757], "type": "Point"}, "properties": {"address": "Hochstrasse 34", "electric": 3, "id": "pb_356", "manual": 0, "name": "Siriuswiese", "provider": "publibike", "timeStamp": "02/18/2020, 12:48:49", "zip": 8044}, "type": "Feature"}, {"geometry": {"coordinates": [8.527298, 47.370141], "type": "Point"}, "properties": {"address": "Hallwylstrasse 71", "electric": 0, "id": "pb_357", "manual": 0, "name": "Hallwylstrasse", "provider": "publibike", "timeStamp": "02/18/2020, 12:48:49", "zip": 8004}, "type": "Feature"}, {"geometry": {"coordinates": [8.5414185, 47.3972455], "type": "Point"}, "properties": {"address": "Schaffhauserstrasse 137", "electric": 2, "id": "pb_358", "manual": 0, "name": "Milchbuck", "provider": "publibike", "timeStamp": "02/18/2020, 12:48:49", "zip": 8057}, "type": "Feature"}, {"geometry": {"coordinates": [8.512381, 47.393409], "type": "Point"}, "properties": {"address": "Hardturmstrasse 161", "electric": 2, "id": "pb_359", "manual": 3, "name": "Fischerweg", "provider": "publibike", "timeStamp": "02/18/2020, 12:48:49", "zip": 8005}, "type": "Feature"}, {"geometry": {"coordinates": [8.5421457, 47.3876979], "type": "Point"}, "properties": {"address": "Turnerstrasse 47", "electric": 0, "id": "pb_360", "manual": 2, "name": "Kirche Unterstrass", "provider": "publibike", "timeStamp": "02/18/2020, 12:48:49", "zip": 8006}, "type": "Feature"}, {"geometry": {"coordinates": [8.522117, 47.394554], "type": "Point"}, "properties": {"address": "Dorfstrasse 40", "electric": 0, "id": "pb_361", "manual": 2, "name": "Dorfstrasse", "provider": "publibike", "timeStamp": "02/18/2020, 12:48:49", "zip": 8037}, "type": "Feature"}, {"geometry": {"coordinates": [8.530437, 47.37271], "type": "Point"}, "properties": {"address": "Werdstrasse 25", "electric": 1, "id": "pb_362", "manual": 4, "name": "Stauffachertor", "provider": "publibike", "timeStamp": "02/18/2020, 12:48:49", "zip": 8004}, "type": "Feature"}, {"geometry": {"coordinates": [8.541712, 47.416155], "type": "Point"}, "properties": {"address": "Eggb\u00fchlstrasse 21", "electric": 3, "id": "pb_363", "manual": 0, "name": "Wahlenpark", "provider": "publibike", "timeStamp": "02/18/2020, 12:48:49", "zip": 8050}, "type": "Feature"}, {"geometry": {"coordinates": [8.5595335, 47.3708387], "type": "Point"}, "properties": {"address": "Dolderstrasse 32", "electric": 0, "id": "pb_364", "manual": 1, "name": "Kinderspital", "provider": "publibike", "timeStamp": "02/18/2020, 12:48:49", "zip": 8032}, "type": "Feature"}, {"geometry": {"coordinates": [8.536433, 47.388689], "type": "Point"}, "properties": {"address": "Kornhausstrasse 30", "electric": 2, "id": "pb_365", "manual": 0, "name": "Kornhausstrasse", "provider": "publibike", "timeStamp": "02/18/2020, 12:48:49", "zip": 8006}, "type": "Feature"}, {"geometry": {"coordinates": [8.55033, 47.407098], "type": "Point"}, "properties": {"address": "Schwamendingenstrasse 41", "electric": 0, "id": "pb_366", "manual": 0, "name": "Dorflinde", "provider": "publibike", "timeStamp": "02/18/2020, 12:48:49", "zip": 8050}, "type": "Feature"}, {"geometry": {"coordinates": [8.560476, 47.368199], "type": "Point"}, "properties": {"address": "R\u00f6merhofplatz 5", "electric": 1, "id": "pb_367", "manual": 0, "name": "R\u00f6merhof", "provider": "publibike", "timeStamp": "02/18/2020, 12:48:49", "zip": 8032}, "type": "Feature"}, {"geometry": {"coordinates": [8.5609218, 47.3619068], "type": "Point"}, "properties": {"address": "Forchstrasse 99", "electric": 3, "id": "pb_368", "manual": 1, "name": "Hegibachplatz", "provider": "publibike", "timeStamp": "02/18/2020, 12:48:49", "zip": 8032}, "type": "Feature"}, {"geometry": {"coordinates": [8.5721264, 47.4039985], "type": "Point"}, "properties": {"address": "Winterthurerstrasse 519", "electric": 1, "id": "pb_370", "manual": 4, "name": "Schwamendingerplatz", "provider": "publibike", "timeStamp": "02/18/2020, 12:48:49", "zip": 8051}, "type": "Feature"}, {"geometry": {"coordinates": [8.520168, 47.378556], "type": "Point"}, "properties": {"address": "Herman-Greulich-Strasse 56", "electric": 0, "id": "pb_384", "manual": 4, "name": "Hermann-Greulich-Weg", "provider": "publibike", "timeStamp": "02/18/2020, 12:48:49", "zip": 8004}, "type": "Feature"}, {"geometry": {"coordinates": [8.547912, 47.384923], "type": "Point"}, "properties": {"address": "Culmannstrasse", "electric": 1, "id": "pb_386", "manual": 1, "name": "Rigiplatz", "provider": "publibike", "timeStamp": "02/18/2020, 12:48:49", "zip": 8006}, "type": "Feature"}, {"geometry": {"coordinates": [8.543768, 47.411057], "type": "Point"}, "properties": {"address": "Hofwiesenstrasse 369", "electric": 7, "id": "pb_387", "manual": 7, "name": "Bahnhof Oerlikon S\u00fcd", "provider": "publibike", "timeStamp": "02/18/2020, 12:48:49", "zip": 8050}, "type": "Feature"}, {"geometry": {"coordinates": [8.544185, 47.412732], "type": "Point"}, "properties": {"address": "Jungholzstrasse 6", "electric": 8, "id": "pb_388", "manual": 3, "name": "Max-Frisch-Platz", "provider": "publibike", "timeStamp": "02/18/2020, 12:48:49", "zip": 8050}, "type": "Feature"}, {"geometry": {"coordinates": [8.558096, 47.413032], "type": "Point"}, "properties": {"address": "Andreasstrasse", "electric": 1, "id": "pb_389", "manual": 0, "name": "Hunziker-Areal", "provider": "publibike", "timeStamp": "02/18/2020, 12:48:49", "zip": 8050}, "type": "Feature"}, {"geometry": {"coordinates": [8.533265, 47.412873], "type": "Point"}, "properties": {"address": "Regina-K\u00e4gi-Strasse 1", "electric": 3, "id": "pb_390", "manual": 7, "name": "Luis-H\u00e4fliger-Park", "provider": "publibike", "timeStamp": "02/18/2020, 12:48:49", "zip": 8050}, "type": "Feature"}, {"geometry": {"coordinates": [8.499265, 47.401852], "type": "Point"}, "properties": {"address": "Limmattalstrasse 177", "electric": 3, "id": "pb_391", "manual": 2, "name": "Meierhofplatz", "provider": "publibike", "timeStamp": "02/18/2020, 12:48:49", "zip": 8049}, "type": "Feature"}, {"geometry": {"coordinates": [8.528356, 47.393255], "type": "Point"}, "properties": {"address": "R\u00f6schibachstrasse 73", "electric": 1, "id": "pb_392", "manual": 0, "name": "R\u00f6schibachplatz", "provider": "publibike", "timeStamp": "02/18/2020, 12:48:49", "zip": 8037}, "type": "Feature"}, {"geometry": {"coordinates": [8.538067, 47.415721], "type": "Point"}, "properties": {"address": "Birchstrasse 191", "electric": 2, "id": "pb_393", "manual": 0, "name": "Oerliker Park", "provider": "publibike", "timeStamp": "02/18/2020, 12:48:49", "zip": 8050}, "type": "Feature"}, {"geometry": {"coordinates": [8.5420304, 47.3669233], "type": "Point"}, "properties": {"address": "Stadthausquai 1", "electric": 5, "id": "pb_395", "manual": 10, "name": "B\u00fcrkliplatz", "provider": "publibike", "timeStamp": "02/18/2020, 12:48:49", "zip": 8001}, "type": "Feature"}, {"geometry": {"coordinates": [8.535767, 47.409881], "type": "Point"}, "properties": {"address": "Regensbergstrasse 195", "electric": 0, "id": "pb_396", "manual": 1, "name": "Holunderhof", "provider": "publibike", "timeStamp": "02/18/2020, 12:48:49", "zip": 8050}, "type": "Feature"}, {"geometry": {"coordinates": [8.5116245, 47.3616199], "type": "Point"}, "properties": {"address": "Grubenstrasse 42", "electric": 5, "id": "pb_431", "manual": 2, "name": "Binz Center", "provider": "publibike", "timeStamp": "02/18/2020, 12:48:49", "zip": 8045}, "type": "Feature"}, {"geometry": {"coordinates": [8.547195, 47.382089], "type": "Point"}, "properties": {"address": "Nelkenstrasse 24", "electric": 2, "id": "pb_430", "manual": 0, "name": "Stapferstube", "provider": "publibike", "timeStamp": "02/18/2020, 12:48:49", "zip": 8006}, "type": "Feature"}, {"geometry": {"coordinates": [8.5787183, 47.4039845], "type": "Point"}, "properties": {"address": "Kronwiesenstrasse 35", "electric": 0, "id": "pb_426", "manual": 0, "name": "Kronwiesen", "provider": "publibike", "timeStamp": "02/18/2020, 12:48:49", "zip": 8051}, "type": "Feature"}, {"geometry": {"coordinates": [8.508131, 47.420757], "type": "Point"}, "properties": {"address": "Riedenhaldenstrasse 20-18", "electric": 1, "id": "pb_425", "manual": 3, "name": "Bahnhof Affoltern", "provider": "publibike", "timeStamp": "02/18/2020, 12:48:49", "zip": 8046}, "type": "Feature"}, {"geometry": {"coordinates": [8.532464, 47.406988], "type": "Point"}, "properties": {"address": "K\u00fcnzlistrasse 41", "electric": 2, "id": "pb_424", "manual": 1, "name": "Birchd\u00f6rfli", "provider": "publibike", "timeStamp": "02/18/2020, 12:48:49", "zip": 8057}, "type": "Feature"}, {"geometry": {"coordinates": [8.5777038, 47.4080095], "type": "Point"}, "properties": {"address": "Luegislandstrasse 412", "electric": 2, "id": "pb_429", "manual": 1, "name": "Luegisland", "provider": "publibike", "timeStamp": "02/18/2020, 12:48:49", "zip": 8051}, "type": "Feature"}, {"geometry": {"coordinates": [8.58841, 47.40158], "type": "Point"}, "properties": {"address": "Hirzenbachstrasse 2-4", "electric": 0, "id": "pb_428", "manual": 0, "name": "Hirzenbachstrasse", "provider": "publibike", "timeStamp": "02/18/2020, 12:48:49", "zip": 8051}, "type": "Feature"}, {"geometry": {"coordinates": [8.5563463, 47.4095467], "type": "Point"}, "properties": {"address": "K\u00fchriedweg", "electric": 0, "id": "pb_445", "manual": 5, "name": "Hallenbad Oerlikon", "provider": "publibike", "timeStamp": "02/18/2020, 12:48:49", "zip": 8050}, "type": "Feature"}, {"geometry": {"coordinates": [8.537971, 47.364871], "type": "Point"}, "properties": {"address": "General-Guisan-Quai 17", "electric": 1, "id": "pb_454", "manual": 12, "name": "General-Guisan-Quai", "provider": "publibike", "timeStamp": "02/18/2020, 12:48:49", "zip": 8002}, "type": "Feature"}, {"geometry": {"coordinates": [8.560587, 47.350578], "type": "Point"}, "properties": {"address": "Bellerivestrasse 245", "electric": 6, "id": "pb_450", "manual": 11, "name": "Bahnhof Tiefenbrunnen", "provider": "publibike", "timeStamp": "02/18/2020, 12:48:49", "zip": 8008}, "type": "Feature"}, {"geometry": {"coordinates": [8.5269416, 47.3563719], "type": "Point"}, "properties": {"address": "Waffenplatzstrasse 89", "electric": 0, "id": "pb_452", "manual": 0, "name": "Rieterplatz", "provider": "publibike", "timeStamp": "02/18/2020, 12:48:49", "zip": 8002}, "type": "Feature"}, {"geometry": {"coordinates": [8.514176, 47.3663708], "type": "Point"}, "properties": {"address": "Talwiesenstrasse 92", "electric": 0, "id": "pb_446", "manual": 0, "name": "Binzallee", "provider": "publibike", "timeStamp": "02/18/2020, 12:48:49", "zip": 8055}, "type": "Feature"}, {"geometry": {"coordinates": [8.5070564, 47.371455], "type": "Point"}, "properties": {"address": "Gutstrasse 87", "electric": 1, "id": "pb_447", "manual": 0, "name": "Gutstrasse", "provider": "publibike", "timeStamp": "02/18/2020, 12:48:49", "zip": 8055}, "type": "Feature"}, {"geometry": {"coordinates": [8.4941268, 47.3836391], "type": "Point"}, "properties": {"address": "Flurstrasse 62", "electric": 3, "id": "pb_453", "manual": 12, "name": "Flurpark", "provider": "publibike", "timeStamp": "02/18/2020, 12:48:49", "zip": 8048}, "type": "Feature"}, {"geometry": {"coordinates": [8.500343, 47.380778], "type": "Point"}, "properties": {"address": "Edelweissstrasse 32", "electric": 2, "id": "pb_448", "manual": 2, "name": "Bl\u00fcemliquartier", "provider": "publibike", "timeStamp": "02/18/2020, 12:48:49", "zip": 8048}, "type": "Feature"}, {"geometry": {"coordinates": [8.528796, 47.383858], "type": "Point"}, "properties": {"address": "Gasometerstrasse 24", "electric": 0, "id": "pb_449", "manual": 3, "name": "Gasometerstrasse", "provider": "publibike", "timeStamp": "02/18/2020, 12:48:49", "zip": 8005}, "type": "Feature"}, {"geometry": {"coordinates": [8.4981964, 47.3859194], "type": "Point"}, "properties": {"address": "Baslerstrasse 57", "electric": 7, "id": "pb_455", "manual": 11, "name": "Letzipark", "provider": "publibike", "timeStamp": "02/18/2020, 12:48:49", "zip": 8048}, "type": "Feature"}, {"geometry": {"coordinates": [8.515252, 47.381915], "type": "Point"}, "properties": {"address": "Sihlfeldstrasse 175", "electric": 0, "id": "pb_451", "manual": 3, "name": "Hardplatz", "provider": "publibike", "timeStamp": "02/18/2020, 12:48:49", "zip": 8004}, "type": "Feature"}, {"geometry": {"coordinates": [8.5064743, 47.4188324], "type": "Point"}, "properties": {"address": "Wehntalerstrasse 541", "electric": 1, "id": "pb_427", "manual": 8, "name": "Zehntenhausplatz", "provider": "publibike", "timeStamp": "02/18/2020, 12:48:49", "zip": 8046}, "type": "Feature"}, {"geometry": {"coordinates": [8.537729, 47.379719], "type": "Point"}, "properties": {"address": "Sihlquai/HB", "electric": 2, "id": "pb_513", "manual": 1, "name": "Sihlquai", "provider": "publibike", "timeStamp": "02/18/2020, 12:48:49", "zip": 8005}, "type": "Feature"}, {"geometry": {"coordinates": [8.596202, 47.397885], "type": "Point"}, "properties": {"address": "Bahnhof Stettbach", "electric": 4, "id": "pb_514", "manual": 0, "name": "Bahnhof Stettbach", "provider": "publibike", "timeStamp": "02/18/2020, 12:48:49", "zip": 8051}, "type": "Feature"}, {"geometry": {"coordinates": [8.5543974, 47.3690153], "type": "Point"}, "properties": {"address": "Kasinostrasse 10", "electric": 0, "id": "pb_515", "manual": 0, "name": "Hottingerplatz", "provider": "publibike", "timeStamp": "02/18/2020, 12:48:49", "zip": 8032}, "type": "Feature"}, {"geometry": {"coordinates": [8.534444, 47.351525], "type": "Point"}, "properties": {"address": "Mobile Station Z\u00fcrich 1", "electric": 0, "id": "pb_282", "manual": 0, "name": "Theaterspektakel", "provider": "publibike", "timeStamp": "02/18/2020, 12:48:49", "zip": 8002}, "type": "Feature"}, {"geometry": {"coordinates": [8.516257, 47.367656], "type": "Point"}, "properties": {"address": "Goldbrunnenstrasse 54", "electric": 4, "id": "pb_538", "manual": 0, "name": "Kirche B\u00fchl", "provider": "publibike", "timeStamp": "02/18/2020, 12:48:49", "zip": 8055}, "type": "Feature"}, {"geometry": {"coordinates": [8.555639, 47.416873], "type": "Point"}, "properties": {"address": "Leutschenbachstrasse 50", "electric": 4, "id": "pb_537", "manual": 6, "name": "Leutschenpark", "provider": "publibike", "timeStamp": "02/18/2020, 12:48:49", "zip": 8050}, "type": "Feature"}, {"geometry": {"coordinates": [8.546464, 47.403822], "type": "Point"}, "properties": {"address": "Berninastrasse 45", "electric": 0, "id": "pb_540", "manual": 2, "name": "Berninaplatz", "provider": "publibike", "timeStamp": "02/18/2020, 12:48:49", "zip": 8057}, "type": "Feature"}, {"geometry": {"coordinates": [8.523134, 47.369004], "type": "Point"}, "properties": {"address": "Erlachstrasse 3", "electric": 0, "id": "pb_385", "manual": 1, "name": "Aegerten", "provider": "publibike", "timeStamp": "02/18/2020, 12:48:49", "zip": 8003}, "type": "Feature"}, {"geometry": {"coordinates": [8.49038, 47.381591], "type": "Point"}, "properties": {"address": "Rautistrasse 60", "electric": 0, "id": "pb_536", "manual": 0, "name": "Freilager", "provider": "publibike", "timeStamp": "02/18/2020, 12:48:49", "zip": 8048}, "type": "Feature"}, {"geometry": {"coordinates": [8.496511, 47.375247], "type": "Point"}, "properties": {"address": "Letzigraben 139", "electric": 2, "id": "pb_444", "manual": 6, "name": "Sackzelg", "provider": "publibike", "timeStamp": "02/18/2020, 12:48:49", "zip": 8047}, "type": "Feature"}, {"geometry": {"coordinates": [8.58131, 47.402801], "type": "Point"}, "properties": {"address": "Altwiesenstrasse 104", "electric": 0, "id": "pb_539", "manual": 1, "name": "Glattwiesen", "provider": "publibike", "timeStamp": "02/18/2020, 12:48:49", "zip": 8051}, "type": "Feature"}, {"geometry": {"coordinates": [8.52689, 47.3767], "type": "Point"}, "properties": {"address": "Molkenstrasse 5", "electric": 6, "id": "pb_560", "manual": 2, "name": "Helvetiaplatz", "provider": "publibike", "timeStamp": "02/18/2020, 12:48:49", "zip": 8004}, "type": "Feature"}, {"geometry": {"coordinates": [8.525602, 47.374241], "type": "Point"}, "properties": {"address": "Badenerstrasse 90", "electric": 0, "id": "pb_559", "manual": 2, "name": "Bezirksgeb\u00e4ude", "provider": "publibike", "timeStamp": "02/18/2020, 12:48:49", "zip": 8004}, "type": "Feature"}, {"geometry": {"coordinates": [8.535082, 47.345248], "type": "Point"}, "properties": {"address": "Bachstrasse 15", "electric": 2, "id": "pb_564", "manual": 5, "name": "GZ Wollishofen", "provider": "publibike", "timeStamp": "02/18/2020, 12:48:49", "zip": 8038}, "type": "Feature"}, {"geometry": {"coordinates": [8.514841, 47.370238], "type": "Point"}, "properties": {"address": "Schrennengasse 37", "electric": 0, "id": "pb_562", "manual": 0, "name": "Goldbrunnenplatz", "provider": "publibike", "timeStamp": "02/18/2020, 12:48:49", "zip": 8003}, "type": "Feature"}, {"geometry": {"coordinates": [8.514138, 47.374206], "type": "Point"}, "properties": {"address": "Idaplatz 4", "electric": 0, "id": "pb_557", "manual": 3, "name": "Idaplatz", "provider": "publibike", "timeStamp": "02/18/2020, 12:48:49", "zip": 8003}, "type": "Feature"}, {"geometry": {"coordinates": [8.518432, 47.369549], "type": "Point"}, "properties": {"address": "Brinerstrasse 2", "electric": 0, "id": "pb_558", "manual": 1, "name": "Schmiede Wiedikon", "provider": "publibike", "timeStamp": "02/18/2020, 12:48:49", "zip": 8003}, "type": "Feature"}, {"geometry": {"coordinates": [8.537546, 47.391289], "type": "Point"}, "properties": {"address": "Rotbuchstrasse 15", "electric": 0, "id": "pb_556", "manual": 0, "name": "Schaffhauserplatz", "provider": "publibike", "timeStamp": "02/18/2020, 12:48:49", "zip": 8006}, "type": "Feature"}, {"geometry": {"coordinates": [8.541541, 47.413733], "type": "Point"}, "properties": {"address": "Therese-Giehse-Strasse 11", "electric": 0, "id": "pb_561", "manual": 1, "name": "Center Eleven", "provider": "publibike", "timeStamp": "02/18/2020, 12:48:49", "zip": 8050}, "type": "Feature"}, {"geometry": {"coordinates": [8.534227, 47.360004], "type": "Point"}, "properties": {"address": "Alfred Escher-Strasse 76", "electric": 19, "id": "pb_563", "manual": 7, "name": "Mythenschloss", "provider": "publibike", "timeStamp": "02/18/2020, 12:48:49", "zip": 8002}, "type": "Feature"}, {"geometry": {"coordinates": [8.50373, 47.396172], "type": "Point"}, "properties": {"address": "Hardeggstrasse 6", "electric": 2, "id": "pb_566", "manual": 4, "name": "Am Wasser", "provider": "publibike", "timeStamp": "02/18/2020, 12:48:49", "zip": 8049}, "type": "Feature"}, {"geometry": {"coordinates": [8.532432, 47.381174], "type": "Point"}, "properties": {"address": "Klingenstrasse 9", "electric": 0, "id": "pb_565", "manual": 4, "name": "Zollstrasse", "provider": "publibike", "timeStamp": "02/18/2020, 12:48:49", "zip": 8005}, "type": "Feature"}, {"geometry": {"coordinates": [8.497982, 47.381447], "type": "Point"}, "properties": {"address": "Dennlerstrasse 23", "electric": 2, "id": "pb_567", "manual": 2, "name": "Dennlerstrasse", "provider": "publibike", "timeStamp": "02/18/2020, 12:48:49", "zip": 8047}, "type": "Feature"}, {"geometry": {"coordinates": [8.528049, 47.347701], "type": "Point"}, "properties": {"address": "Mutschellenstrasse 114", "electric": 0, "id": "pb_568", "manual": 0, "name": "Jugendherberge", "provider": "publibike", "timeStamp": "02/18/2020, 12:48:49", "zip": 8038}, "type": "Feature"}, {"geometry": {"coordinates": [8.539016, 47.405751], "type": "Point"}, "properties": {"address": "Ringstrasse 82", "electric": 0, "id": "pb_569", "manual": 1, "name": "Freibad Allenmoos", "provider": "publibike", "timeStamp": "02/18/2020, 12:48:49", "zip": 8057}, "type": "Feature"}, {"geometry": {"coordinates": [8.534974, 47.402164], "type": "Point"}, "properties": {"address": "Brache Guggach", "electric": 0, "id": "pb_572", "manual": 1, "name": "Radiostudio", "provider": "publibike", "timeStamp": "02/18/2020, 12:48:49", "zip": 8057}, "type": "Feature"}, {"geometry": {"coordinates": [8.547901, 47.375556], "type": "Point"}, "properties": {"address": "Karl-Schmid-Strasse 4", "electric": 19, "id": "pb_571", "manual": 1, "name": "ETH/Zoologisches Museum", "provider": "publibike", "timeStamp": "02/18/2020, 12:48:49", "zip": 8006}, "type": "Feature"}, {"geometry": {"coordinates": [8.485946, 47.395896], "type": "Point"}, "properties": {"charge": 76, "id": "smide_2901", "name": "ZH 267278", "provider": "smide", "range": 38.0, "size": 20, "time": "02/18/2020, 12:48:23"}, "type": "Feature"}, {"geometry": {"coordinates": [8.518246, 47.357828], "type": "Point"}, "properties": {"charge": 26, "id": "smide_2880", "name": "ZH267289", "provider": "smide", "range": 13.0, "size": 17, "time": "02/18/2020, 12:48:23"}, "type": "Feature"}, {"geometry": {"coordinates": [8.527503, 47.369105], "type": "Point"}, "properties": {"charge": 80, "id": "smide_2861", "name": "ZH 267096", "provider": "smide", "range": 40.0, "size": 17, "time": "02/18/2020, 12:48:23"}, "type": "Feature"}, {"geometry": {"coordinates": [8.513161, 47.361845], "type": "Point"}, "properties": {"charge": 48, "id": "smide_2856", "name": "ZH 267101", "provider": "smide", "range": 24.0, "size": 17, "time": "02/18/2020, 12:48:23"}, "type": "Feature"}, {"geometry": {"coordinates": [8.501605, 47.36152], "type": "Point"}, "properties": {"charge": 99, "id": "smide_2854", "name": "ZH 267103", "provider": "smide", "range": 49.0, "size": 17, "time": "02/18/2020, 12:48:23"}, "type": "Feature"}, {"geometry": {"coordinates": [8.56102, 47.415113], "type": "Point"}, "properties": {"charge": 70, "id": "smide_2795", "name": "ZH 266885", "provider": "smide", "range": 35.0, "size": 17, "time": "02/18/2020, 12:48:23"}, "type": "Feature"}, {"geometry": {"coordinates": [8.506978, 47.360888], "type": "Point"}, "properties": {"charge": 97, "id": "smide_2793", "name": "ZH266883", "provider": "smide", "range": 48.0, "size": 17, "time": "02/18/2020, 12:48:23"}, "type": "Feature"}, {"geometry": {"coordinates": [8.506451, 47.359415], "type": "Point"}, "properties": {"charge": 100, "id": "smide_2785", "name": "ZH266875", "provider": "smide", "range": 50.0, "size": 17, "time": "02/18/2020, 12:48:23"}, "type": "Feature"}, {"geometry": {"coordinates": [8.536155, 47.377583], "type": "Point"}, "properties": {"charge": 71, "id": "smide_2780", "name": "ST1 X #1", "provider": "smide", "range": 35.0, "size": 17, "time": "02/18/2020, 12:48:23"}, "type": "Feature"}, {"geometry": {"coordinates": [8.517783, 47.360972], "type": "Point"}, "properties": {"charge": 88, "id": "smide_2775", "name": "ZH267283", "provider": "smide", "range": 44.0, "size": 20, "time": "02/18/2020, 12:48:23"}, "type": "Feature"}, {"geometry": {"coordinates": [8.543306, 47.372896], "type": "Point"}, "properties": {"charge": 67, "id": "smide_2763", "name": "ZH266641", "provider": "smide", "range": 33.0, "size": 17, "time": "02/18/2020, 12:48:23"}, "type": "Feature"}, {"geometry": {"coordinates": [8.542298, 47.411593], "type": "Point"}, "properties": {"charge": 48, "id": "smide_2761", "name": "ZH266642", "provider": "smide", "range": 24.0, "size": 20, "time": "02/18/2020, 12:48:23"}, "type": "Feature"}, {"geometry": {"coordinates": [8.548642, 47.374628], "type": "Point"}, "properties": {"charge": 41, "id": "smide_2759", "name": "ZH266639", "provider": "smide", "range": 20.0, "size": 17, "time": "02/18/2020, 12:48:23"}, "type": "Feature"}, {"geometry": {"coordinates": [8.532079, 47.378272], "type": "Point"}, "properties": {"charge": 99, "id": "smide_2758", "name": "ZH266638 M", "provider": "smide", "range": 49.0, "size": 17, "time": "02/18/2020, 12:48:23"}, "type": "Feature"}, {"geometry": {"coordinates": [8.517242, 47.389844], "type": "Point"}, "properties": {"charge": 23, "id": "smide_2752", "name": "BE343856", "provider": "smide", "range": 11.0, "size": 17, "time": "02/18/2020, 12:48:23"}, "type": "Feature"}, {"geometry": {"coordinates": [8.507076, 47.382844], "type": "Point"}, "properties": {"charge": 90, "id": "smide_2751", "name": "BE343857", "provider": "smide", "range": 45.0, "size": 17, "time": "02/18/2020, 12:48:23"}, "type": "Feature"}, {"geometry": {"coordinates": [8.526357, 47.336388], "type": "Point"}, "properties": {"charge": 100, "id": "smide_2749", "name": "BE343867", "provider": "smide", "range": 50.0, "size": 17, "time": "02/18/2020, 12:48:23"}, "type": "Feature"}, {"geometry": {"coordinates": [8.522611, 47.367936], "type": "Point"}, "properties": {"charge": 72, "id": "smide_2748", "name": "BE335758", "provider": "smide", "range": 36.0, "size": 17, "time": "02/18/2020, 12:48:23"}, "type": "Feature"}, {"geometry": {"coordinates": [8.567147, 47.382776], "type": "Point"}, "properties": {"charge": 100, "id": "smide_2746", "name": "BE335817", "provider": "smide", "range": 50.0, "size": 17, "time": "02/18/2020, 12:48:23"}, "type": "Feature"}, {"geometry": {"coordinates": [8.540812, 47.36906], "type": "Point"}, "properties": {"charge": 45, "id": "smide_2747", "name": "BE335820", "provider": "smide", "range": 22.0, "size": 17, "time": "02/18/2020, 12:48:23"}, "type": "Feature"}, {"geometry": {"coordinates": [8.508879, 47.410164], "type": "Point"}, "properties": {"charge": 71, "id": "smide_2743", "name": "BE343864", "provider": "smide", "range": 35.0, "size": 17, "time": "02/18/2020, 12:48:23"}, "type": "Feature"}, {"geometry": {"coordinates": [8.537195, 47.336712], "type": "Point"}, "properties": {"charge": 21, "id": "smide_2742", "name": "BE343866", "provider": "smide", "range": 10.0, "size": 17, "time": "02/18/2020, 12:48:23"}, "type": "Feature"}, {"geometry": {"coordinates": [8.551235, 47.35656], "type": "Point"}, "properties": {"charge": 41, "id": "smide_2741", "name": "BE343874", "provider": "smide", "range": 20.0, "size": 17, "time": "02/18/2020, 12:48:23"}, "type": "Feature"}, {"geometry": {"coordinates": [8.53686, 47.373066], "type": "Point"}, "properties": {"charge": 41, "id": "smide_2738", "name": "BE343865", "provider": "smide", "range": 20.0, "size": 17, "time": "02/18/2020, 12:48:23"}, "type": "Feature"}, {"geometry": {"coordinates": [8.507965, 47.391056], "type": "Point"}, "properties": {"charge": 100, "id": "smide_2734", "name": "BE343876", "provider": "smide", "range": 50.0, "size": 17, "time": "02/18/2020, 12:48:23"}, "type": "Feature"}, {"geometry": {"coordinates": [8.55254, 47.381692], "type": "Point"}, "properties": {"charge": 65, "id": "smide_2733", "name": "BE343873", "provider": "smide", "range": 32.0, "size": 17, "time": "02/18/2020, 12:48:23"}, "type": "Feature"}, {"geometry": {"coordinates": [8.580084, 47.350972], "type": "Point"}, "properties": {"charge": 36, "id": "smide_2729", "name": "BE343878", "provider": "smide", "range": 18.0, "size": 17, "time": "02/18/2020, 12:48:23"}, "type": "Feature"}, {"geometry": {"coordinates": [8.506721, 47.407725], "type": "Point"}, "properties": {"charge": 47, "id": "smide_2718", "name": "ZH259019", "provider": "smide", "range": 23.0, "size": 20, "time": "02/18/2020, 12:48:23"}, "type": "Feature"}, {"geometry": {"coordinates": [8.53579, 47.402328], "type": "Point"}, "properties": {"charge": 56, "id": "smide_2716", "name": "ZH254606", "provider": "smide", "range": 28.0, "size": 17, "time": "02/18/2020, 12:48:23"}, "type": "Feature"}, {"geometry": {"coordinates": [8.521476, 47.366812], "type": "Point"}, "properties": {"charge": 77, "id": "smide_2715", "name": "ZH254605", "provider": "smide", "range": 38.0, "size": 17, "time": "02/18/2020, 12:48:23"}, "type": "Feature"}, {"geometry": {"coordinates": [8.564774, 47.40716], "type": "Point"}, "properties": {"charge": 50, "id": "smide_2714", "name": "ZH256461", "provider": "smide", "range": 25.0, "size": 17, "time": "02/18/2020, 12:48:23"}, "type": "Feature"}, {"geometry": {"coordinates": [8.506835, 47.360476], "type": "Point"}, "properties": {"charge": 100, "id": "smide_2710", "name": "ZH256460", "provider": "smide", "range": 50.0, "size": 17, "time": "02/18/2020, 12:48:23"}, "type": "Feature"}, {"geometry": {"coordinates": [8.518181, 47.339024], "type": "Point"}, "properties": {"charge": 79, "id": "smide_2712", "name": "ZH256462", "provider": "smide", "range": 39.0, "size": 17, "time": "02/18/2020, 12:48:23"}, "type": "Feature"}, {"geometry": {"coordinates": [8.55907, 47.414876], "type": "Point"}, "properties": {"charge": 100, "id": "smide_2711", "name": "ZH256463", "provider": "smide", "range": 50.0, "size": 17, "time": "02/18/2020, 12:48:23"}, "type": "Feature"}, {"geometry": {"coordinates": [8.536083, 47.37082], "type": "Point"}, "properties": {"charge": 77, "id": "smide_2709", "name": "ZH256466", "provider": "smide", "range": 38.0, "size": 20, "time": "02/18/2020, 12:48:23"}, "type": "Feature"}, {"geometry": {"coordinates": [8.492447, 47.36944], "type": "Point"}, "properties": {"charge": 74, "id": "smide_2707", "name": "ZH256467", "provider": "smide", "range": 37.0, "size": 20, "time": "02/18/2020, 12:48:23"}, "type": "Feature"}, {"geometry": {"coordinates": [8.512867, 47.391876], "type": "Point"}, "properties": {"charge": 80, "id": "smide_2708", "name": "ZH256464", "provider": "smide", "range": 40.0, "size": 17, "time": "02/18/2020, 12:48:23"}, "type": "Feature"}, {"geometry": {"coordinates": [8.539682, 47.387172], "type": "Point"}, "properties": {"charge": 100, "id": "smide_2706", "name": "ZH256322", "provider": "smide", "range": 50.0, "size": 20, "time": "02/18/2020, 12:48:23"}, "type": "Feature"}, {"geometry": {"coordinates": [8.514495, 47.357584], "type": "Point"}, "properties": {"charge": 100, "id": "smide_2701", "name": "ZH256468", "provider": "smide", "range": 50.0, "size": 20, "time": "02/18/2020, 12:48:23"}, "type": "Feature"}, {"geometry": {"coordinates": [8.544956, 47.400924], "type": "Point"}, "properties": {"charge": 97, "id": "smide_2697", "name": "ZH254629", "provider": "smide", "range": 48.0, "size": 20, "time": "02/18/2020, 12:48:23"}, "type": "Feature"}, {"geometry": {"coordinates": [8.553929, 47.41318], "type": "Point"}, "properties": {"charge": 98, "id": "smide_2696", "name": "ZH254616", "provider": "smide", "range": 49.0, "size": 20, "time": "02/18/2020, 12:48:23"}, "type": "Feature"}, {"geometry": {"coordinates": [8.513345, 47.376541], "type": "Point"}, "properties": {"charge": 77, "id": "smide_2691", "name": "ZH254622", "provider": "smide", "range": 38.0, "size": 20, "time": "02/18/2020, 12:48:23"}, "type": "Feature"}, {"geometry": {"coordinates": [8.492831, 47.388965], "type": "Point"}, "properties": {"charge": 65, "id": "smide_2690", "name": "ZH254625", "provider": "smide", "range": 32.0, "size": 20, "time": "02/18/2020, 12:48:23"}, "type": "Feature"}, {"geometry": {"coordinates": [8.55351, 47.397492], "type": "Point"}, "properties": {"charge": 31, "id": "smide_2687", "name": "ZH263529", "provider": "smide", "range": 15.0, "size": 20, "time": "02/18/2020, 12:48:23"}, "type": "Feature"}, {"geometry": {"coordinates": [8.560632, 47.416756], "type": "Point"}, "properties": {"charge": 61, "id": "smide_2686", "name": "ZH263288", "provider": "smide", "range": 30.0, "size": 20, "time": "02/18/2020, 12:48:23"}, "type": "Feature"}, {"geometry": {"coordinates": [8.50194, 47.369168], "type": "Point"}, "properties": {"charge": 73, "id": "smide_2684", "name": "ZH254626", "provider": "smide", "range": 36.0, "size": 20, "time": "02/18/2020, 12:48:23"}, "type": "Feature"}, {"geometry": {"coordinates": [8.558803, 47.414748], "type": "Point"}, "properties": {"charge": 100, "id": "smide_2683", "name": "ZH254620", "provider": "smide", "range": 50.0, "size": 20, "time": "02/18/2020, 12:48:23"}, "type": "Feature"}, {"geometry": {"coordinates": [8.520098, 47.369892], "type": "Point"}, "properties": {"charge": 51, "id": "smide_2680", "name": "ZH254619", "provider": "smide", "range": 25.0, "size": 20, "time": "02/18/2020, 12:48:23"}, "type": "Feature"}, {"geometry": {"coordinates": [8.573859, 47.352892], "type": "Point"}, "properties": {"charge": 77, "id": "smide_2679", "name": "ZH258489", "provider": "smide", "range": 38.0, "size": 17, "time": "02/18/2020, 12:48:23"}, "type": "Feature"}, {"geometry": {"coordinates": [8.507636, 47.391064], "type": "Point"}, "properties": {"charge": 87, "id": "smide_2674", "name": "ZH258654", "provider": "smide", "range": 43.0, "size": 17, "time": "02/18/2020, 12:48:23"}, "type": "Feature"}, {"geometry": {"coordinates": [8.544087, 47.39194], "type": "Point"}, "properties": {"charge": 90, "id": "smide_2671", "name": "ZH258645", "provider": "smide", "range": 45.0, "size": 17, "time": "02/18/2020, 12:48:23"}, "type": "Feature"}, {"geometry": {"coordinates": [8.57039, 47.410792], "type": "Point"}, "properties": {"charge": 56, "id": "smide_2666", "name": "ZH258653", "provider": "smide", "range": 28.0, "size": 17, "time": "02/18/2020, 12:48:23"}, "type": "Feature"}, {"geometry": {"coordinates": [8.582793, 47.35098], "type": "Point"}, "properties": {"charge": 89, "id": "smide_2665", "name": "ZH258644", "provider": "smide", "range": 44.0, "size": 17, "time": "02/18/2020, 12:48:23"}, "type": "Feature"}, {"geometry": {"coordinates": [8.507212, 47.406876], "type": "Point"}, "properties": {"charge": 28, "id": "smide_2664", "name": "ZH258652", "provider": "smide", "range": 14.0, "size": 17, "time": "02/18/2020, 12:48:23"}, "type": "Feature"}, {"geometry": {"coordinates": [8.47508, 47.385368], "type": "Point"}, "properties": {"charge": 76, "id": "smide_2663", "name": "ZH258649", "provider": "smide", "range": 38.0, "size": 17, "time": "02/18/2020, 12:48:23"}, "type": "Feature"}, {"geometry": {"coordinates": [8.506916, 47.36042], "type": "Point"}, "properties": {"charge": 99, "id": "smide_2662", "name": "ZH258643", "provider": "smide", "range": 49.0, "size": 17, "time": "02/18/2020, 12:48:23"}, "type": "Feature"}, {"geometry": {"coordinates": [8.517695, 47.358684], "type": "Point"}, "properties": {"charge": 98, "id": "smide_2660", "name": "ZH258647", "provider": "smide", "range": 49.0, "size": 17, "time": "02/18/2020, 12:48:23"}, "type": "Feature"}, {"geometry": {"coordinates": [8.5704, 47.351666], "type": "Point"}, "properties": {"charge": 57, "id": "smide_2657", "name": "ZH257936", "provider": "smide", "range": 28.0, "size": 17, "time": "02/18/2020, 12:48:23"}, "type": "Feature"}, {"geometry": {"coordinates": [8.576508, 47.351364], "type": "Point"}, "properties": {"charge": 90, "id": "smide_2647", "name": "ZH257932", "provider": "smide", "range": 45.0, "size": 20, "time": "02/18/2020, 12:48:23"}, "type": "Feature"}, {"geometry": {"coordinates": [8.537092, 47.371256], "type": "Point"}, "properties": {"charge": 19, "id": "smide_2645", "name": "ZH257933", "provider": "smide", "range": 9.0, "size": 20, "time": "02/18/2020, 12:48:23"}, "type": "Feature"}, {"geometry": {"coordinates": [8.544786, 47.366315], "type": "Point"}, "properties": {"charge": 97, "id": "smide_3", "name": "ZH253765", "provider": "smide", "range": 48.0, "size": 20, "time": "02/18/2020, 12:48:23"}, "type": "Feature"}, {"geometry": {"coordinates": [8.51123, 47.361905], "type": "Point"}, "properties": {"charge": 85, "id": "smide_105", "name": "ZH253804", "provider": "smide", "range": 42.0, "size": 17, "time": "02/18/2020, 12:48:23"}, "type": "Feature"}, {"geometry": {"coordinates": [8.531686, 47.384932], "type": "Point"}, "properties": {"charge": 87, "id": "smide_77", "name": "ZH261548", "provider": "smide", "range": 43.0, "size": 20, "time": "02/18/2020, 12:48:23"}, "type": "Feature"}, {"geometry": {"coordinates": [8.500635, 47.369668], "type": "Point"}, "properties": {"charge": 100, "id": "smide_197", "name": "ZH253864", "provider": "smide", "range": 50.0, "size": 20, "time": "02/18/2020, 12:48:23"}, "type": "Feature"}, {"geometry": {"coordinates": [8.511038, 47.366918], "type": "Point"}, "properties": {"charge": 75, "id": "smide_199", "name": "ZH253766", "provider": "smide", "range": 37.0, "size": 20, "time": "02/18/2020, 12:48:23"}, "type": "Feature"}, {"geometry": {"coordinates": [8.525783, 47.365144], "type": "Point"}, "properties": {"charge": 36, "id": "smide_8", "name": "ZH253861", "provider": "smide", "range": 18.0, "size": 17, "time": "02/18/2020, 12:48:23"}, "type": "Feature"}, {"geometry": {"coordinates": [8.557713, 47.376616], "type": "Point"}, "properties": {"charge": 66, "id": "smide_201", "name": "ZH253698", "provider": "smide", "range": 33.0, "size": 17, "time": "02/18/2020, 12:48:23"}, "type": "Feature"}, {"geometry": {"coordinates": [8.497828, 47.386428], "type": "Point"}, "properties": {"charge": 75, "id": "smide_71", "name": "ZH253742", "provider": "smide", "range": 37.0, "size": 20, "time": "02/18/2020, 12:48:23"}, "type": "Feature"}, {"geometry": {"coordinates": [8.488346, 47.374464], "type": "Point"}, "properties": {"charge": 77, "id": "smide_101", "name": "ZH253814", "provider": "smide", "range": 38.0, "size": 17, "time": "02/18/2020, 12:48:23"}, "type": "Feature"}, {"geometry": {"coordinates": [8.515887, 47.370624], "type": "Point"}, "properties": {"charge": 84, "id": "smide_9", "name": "ZH253796", "provider": "smide", "range": 42.0, "size": 17, "time": "02/18/2020, 12:48:23"}, "type": "Feature"}, {"geometry": {"coordinates": [8.530579, 47.368568], "type": "Point"}, "properties": {"charge": 60, "id": "smide_143", "name": "ZH253778", "provider": "smide", "range": 30.0, "size": 17, "time": "02/18/2020, 12:48:23"}, "type": "Feature"}, {"geometry": {"coordinates": [8.533726, 47.375318], "type": "Point"}, "properties": {"charge": 77, "id": "smide_180", "name": "ZH253824", "provider": "smide", "range": 38.0, "size": 20, "time": "02/18/2020, 12:48:23"}, "type": "Feature"}, {"geometry": {"coordinates": [8.551889, 47.414592], "type": "Point"}, "properties": {"charge": 100, "id": "smide_20", "name": "ZH253770", "provider": "smide", "range": 50.0, "size": 20, "time": "02/18/2020, 12:48:23"}, "type": "Feature"}, {"geometry": {"coordinates": [8.575928, 47.3532], "type": "Point"}, "properties": {"charge": 10, "id": "smide_30", "name": "ZH253813", "provider": "smide", "range": 5.0, "size": 20, "time": "02/18/2020, 12:48:23"}, "type": "Feature"}, {"geometry": {"coordinates": [8.511526, 47.408976], "type": "Point"}, "properties": {"charge": 67, "id": "smide_10", "name": "ZH253855", "provider": "smide", "range": 33.0, "size": 17, "time": "02/18/2020, 12:48:23"}, "type": "Feature"}, {"geometry": {"coordinates": [8.51325, 47.391828], "type": "Point"}, "properties": {"charge": 100, "id": "smide_179", "name": "ZH253687", "provider": "smide", "range": 50.0, "size": 20, "time": "02/18/2020, 12:48:23"}, "type": "Feature"}, {"geometry": {"coordinates": [8.488155, 47.384733], "type": "Point"}, "properties": {"charge": 63, "id": "smide_79", "name": "ZH253711", "provider": "smide", "range": 31.0, "size": 20, "time": "02/18/2020, 12:48:23"}, "type": "Feature"}, {"geometry": {"coordinates": [8.531011, 47.384928], "type": "Point"}, "properties": {"charge": 95, "id": "smide_84", "name": "ZH253733", "provider": "smide", "range": 47.0, "size": 17, "time": "02/18/2020, 12:48:23"}, "type": "Feature"}, {"geometry": {"coordinates": [8.559037, 47.41478], "type": "Point"}, "properties": {"charge": 100, "id": "smide_35", "name": "ZH253755", "provider": "smide", "range": 50.0, "size": 20, "time": "02/18/2020, 12:48:23"}, "type": "Feature"}, {"geometry": {"coordinates": [8.520394, 47.372552], "type": "Point"}, "properties": {"charge": 35, "id": "smide_119", "name": "ZH253686", "provider": "smide", "range": 17.0, "size": 20, "time": "02/18/2020, 12:48:23"}, "type": "Feature"}, {"geometry": {"coordinates": [8.54347, 47.37546], "type": "Point"}, "properties": {"charge": 80, "id": "smide_76", "name": "ZH253764", "provider": "smide", "range": 40.0, "size": 17, "time": "02/18/2020, 12:48:23"}, "type": "Feature"}, {"geometry": {"coordinates": [8.509002, 47.393828], "type": "Point"}, "properties": {"charge": 56, "id": "smide_129", "name": "ZH261378", "provider": "smide", "range": 28.0, "size": 17, "time": "02/18/2020, 12:48:23"}, "type": "Feature"}, {"geometry": {"coordinates": [8.551581, 47.356365], "type": "Point"}, "properties": {"charge": 66, "id": "smide_49", "name": "ZH253873", "provider": "smide", "range": 33.0, "size": 17, "time": "02/18/2020, 12:48:23"}, "type": "Feature"}, {"geometry": {"coordinates": [8.546937, 47.397656], "type": "Point"}, "properties": {"charge": 71, "id": "smide_94", "name": "ZH253754", "provider": "smide", "range": 35.0, "size": 17, "time": "02/18/2020, 12:48:23"}, "type": "Feature"}, {"geometry": {"coordinates": [8.518973, 47.365988], "type": "Point"}, "properties": {"charge": 95, "id": "smide_37", "name": "ZH261377", "provider": "smide", "range": 47.0, "size": 20, "time": "02/18/2020, 12:48:23"}, "type": "Feature"}, {"geometry": {"coordinates": [8.560935, 47.383058], "type": "Point"}, "properties": {"charge": 10, "id": "smide_191", "name": "ZH253762", "provider": "smide", "range": 5.0, "size": 17, "time": "02/18/2020, 12:48:23"}, "type": "Feature"}, {"geometry": {"coordinates": [8.47453, 47.385795], "type": "Point"}, "properties": {"charge": 72, "id": "smide_202", "name": "ZH253830", "provider": "smide", "range": 36.0, "size": 17, "time": "02/18/2020, 12:48:23"}, "type": "Feature"}, {"geometry": {"coordinates": [8.501922, 47.369064], "type": "Point"}, "properties": {"charge": 100, "id": "smide_56", "name": "ZH261442", "provider": "smide", "range": 50.0, "size": 20, "time": "02/18/2020, 12:48:23"}, "type": "Feature"}, {"geometry": {"coordinates": [8.510613, 47.395168], "type": "Point"}, "properties": {"charge": 90, "id": "smide_47", "name": "ZH253858", "provider": "smide", "range": 45.0, "size": 17, "time": "02/18/2020, 12:48:23"}, "type": "Feature"}, {"geometry": {"coordinates": [8.513485, 47.393504], "type": "Point"}, "properties": {"charge": 95, "id": "smide_150", "name": "ZH253703", "provider": "smide", "range": 47.0, "size": 20, "time": "02/18/2020, 12:48:23"}, "type": "Feature"}, {"geometry": {"coordinates": [8.530211, 47.411708], "type": "Point"}, "properties": {"charge": 76, "id": "smide_66", "name": "ZH253818", "provider": "smide", "range": 38.0, "size": 20, "time": "02/18/2020, 12:48:23"}, "type": "Feature"}, {"geometry": {"coordinates": [8.496913, 47.362801], "type": "Point"}, "properties": {"charge": 58, "id": "smide_17", "name": "ZH253793", "provider": "smide", "range": 28.0, "size": 17, "time": "02/18/2020, 12:48:23"}, "type": "Feature"}, {"geometry": {"coordinates": [8.506595, 47.407826], "type": "Point"}, "properties": {"charge": 53, "id": "smide_145", "name": "ZH253780", "provider": "smide", "range": 26.0, "size": 20, "time": "02/18/2020, 12:48:23"}, "type": "Feature"}, {"geometry": {"coordinates": [8.573525, 47.352296], "type": "Point"}, "properties": {"charge": 42, "id": "smide_203", "name": "ZH261547", "provider": "smide", "range": 21.0, "size": 17, "time": "02/18/2020, 12:48:23"}, "type": "Feature"}, {"geometry": {"coordinates": [8.573794, 47.35282], "type": "Point"}, "properties": {"charge": 55, "id": "smide_21", "name": "ZH253841", "provider": "smide", "range": 27.0, "size": 17, "time": "02/18/2020, 12:48:23"}, "type": "Feature"}, {"geometry": {"coordinates": [8.542863, 47.373124], "type": "Point"}, "properties": {"charge": 14, "id": "smide_164", "name": "ZH253775", "provider": "smide", "range": 7.0, "size": 17, "time": "02/18/2020, 12:48:23"}, "type": "Feature"}, {"geometry": {"coordinates": [8.513061, 47.39182], "type": "Point"}, "properties": {"charge": 20, "id": "smide_189", "name": "ZH253845", "provider": "smide", "range": 10.0, "size": 20, "time": "02/18/2020, 12:48:23"}, "type": "Feature"}, {"geometry": {"coordinates": [8.540392, 47.36712], "type": "Point"}, "properties": {"charge": 78, "id": "smide_81", "name": "ZH253753", "provider": "smide", "range": 39.0, "size": 17, "time": "02/18/2020, 12:48:23"}, "type": "Feature"}, {"geometry": {"coordinates": [8.565737, 47.371248], "type": "Point"}, "properties": {"charge": 95, "id": "smide_171", "name": "ZH253689", "provider": "smide", "range": 47.0, "size": 20, "time": "02/18/2020, 12:48:23"}, "type": "Feature"}, {"geometry": {"coordinates": [8.502365, 47.365896], "type": "Point"}, "properties": {"charge": 100, "id": "smide_93", "name": "ZH253681", "provider": "smide", "range": 50.0, "size": 17, "time": "02/18/2020, 12:48:23"}, "type": "Feature"}, {"geometry": {"coordinates": [8.551389, 47.414916], "type": "Point"}, "properties": {"charge": 84, "id": "smide_67", "name": "ZH253779", "provider": "smide", "range": 42.0, "size": 17, "time": "02/18/2020, 12:48:23"}, "type": "Feature"}, {"geometry": {"coordinates": [8.477055, 47.38993], "type": "Point"}, "properties": {"charge": 89, "id": "smide_118", "name": "ZH253759", "provider": "smide", "range": 44.0, "size": 20, "time": "02/18/2020, 12:48:23"}, "type": "Feature"}, {"geometry": {"coordinates": [8.530708, 47.348188], "type": "Point"}, "properties": {"charge": 20, "id": "smide_142", "name": "ZH258745", "provider": "smide", "range": 10.0, "size": 17, "time": "02/18/2020, 12:48:23"}, "type": "Feature"}, {"geometry": {"coordinates": [8.538333, 47.37406], "type": "Point"}, "properties": {"charge": 16, "id": "smide_126", "name": "ZH268400", "provider": "smide", "range": 8.0, "size": 17, "time": "02/18/2020, 12:48:23"}, "type": "Feature"}, {"geometry": {"coordinates": [8.507518, 47.39267], "type": "Point"}, "properties": {"charge": 38, "id": "smide_44", "name": "ZH253837", "provider": "smide", "range": 19.0, "size": 17, "time": "02/18/2020, 12:48:23"}, "type": "Feature"}, {"geometry": {"coordinates": [8.484015, 47.394646], "type": "Point"}, "properties": {"charge": 51, "id": "smide_98", "name": "ZH256321", "provider": "smide", "range": 25.0, "size": 17, "time": "02/18/2020, 12:48:23"}, "type": "Feature"}, {"geometry": {"coordinates": [8.541426, 47.366473], "type": "Point"}, "properties": {"charge": 38, "id": "smide_57", "name": "ZH253772", "provider": "smide", "range": 19.0, "size": 17, "time": "02/18/2020, 12:48:23"}, "type": "Feature"}, {"geometry": {"coordinates": [8.542881, 47.3733], "type": "Point"}, "properties": {"charge": 100, "id": "smide_154", "name": "ZH253744", "provider": "smide", "range": 50.0, "size": 20, "time": "02/18/2020, 12:48:23"}, "type": "Feature"}, {"geometry": {"coordinates": [8.55059, 47.365728], "type": "Point"}, "properties": {"charge": 67, "id": "smide_7", "name": "ZH256289", "provider": "smide", "range": 33.0, "size": 20, "time": "02/18/2020, 12:48:23"}, "type": "Feature"}, {"geometry": {"coordinates": [8.537748, 47.412376], "type": "Point"}, "properties": {"charge": 76, "id": "smide_92", "name": "ZH253798", "provider": "smide", "range": 38.0, "size": 17, "time": "02/18/2020, 12:48:23"}, "type": "Feature"}, {"geometry": {"coordinates": [8.494153, 47.383452], "type": "Point"}, "properties": {"charge": 89, "id": "smide_111", "name": "ZH253763", "provider": "smide", "range": 44.0, "size": 17, "time": "02/18/2020, 12:48:23"}, "type": "Feature"}, {"geometry": {"coordinates": [8.562312, 47.371272], "type": "Point"}, "properties": {"charge": 17, "id": "smide_40", "name": "ZH253690", "provider": "smide", "range": 8.0, "size": 20, "time": "02/18/2020, 12:48:23"}, "type": "Feature"}, {"geometry": {"coordinates": [8.502003, 47.369024], "type": "Point"}, "properties": {"charge": 46, "id": "smide_1", "name": "ZH253776", "provider": "smide", "range": 23.0, "size": 17, "time": "02/18/2020, 12:48:23"}, "type": "Feature"}, {"geometry": {"coordinates": [8.531657, 47.353648], "type": "Point"}, "properties": {"charge": 67, "id": "smide_28", "name": "ZH253831", "provider": "smide", "range": 33.0, "size": 17, "time": "02/18/2020, 12:48:23"}, "type": "Feature"}, {"geometry": {"coordinates": [8.549178, 47.405325], "type": "Point"}, "properties": {"charge": 98, "id": "smide_14", "name": "ZH253749", "provider": "smide", "range": 49.0, "size": 20, "time": "02/18/2020, 12:48:23"}, "type": "Feature"}, {"geometry": {"coordinates": [8.532268, 47.397348], "type": "Point"}, "properties": {"charge": 100, "id": "smide_130", "name": "ZH253847", "provider": "smide", "range": 50.0, "size": 20, "time": "02/18/2020, 12:48:23"}, "type": "Feature"}, {"geometry": {"coordinates": [8.514456, 47.357183], "type": "Point"}, "properties": {"charge": 100, "id": "smide_24", "name": "ZH253696", "provider": "smide", "range": 50.0, "size": 20, "time": "02/18/2020, 12:48:23"}, "type": "Feature"}, {"geometry": {"coordinates": [8.502093, 47.36904], "type": "Point"}, "properties": {"charge": 80, "id": "smide_107", "name": "ZH253819", "provider": "smide", "range": 40.0, "size": 17, "time": "02/18/2020, 12:48:23"}, "type": "Feature"}, {"geometry": {"coordinates": [8.514338, 47.357228], "type": "Point"}, "properties": {"charge": 90, "id": "smide_83", "name": "ZH253869", "provider": "smide", "range": 45.0, "size": 20, "time": "02/18/2020, 12:48:23"}, "type": "Feature"}, {"geometry": {"coordinates": [8.558416, 47.37162], "type": "Point"}, "properties": {"charge": 88, "id": "smide_205", "name": "ZH253805", "provider": "smide", "range": 44.0, "size": 17, "time": "02/18/2020, 12:48:23"}, "type": "Feature"}, {"geometry": {"coordinates": [8.501892, 47.36918], "type": "Point"}, "properties": {"charge": 63, "id": "smide_193", "name": "ZH253738", "provider": "smide", "range": 31.0, "size": 20, "time": "02/18/2020, 12:48:23"}, "type": "Feature"}, {"geometry": {"coordinates": [8.547711, 47.412175], "type": "Point"}, "properties": {"charge": 75, "id": "smide_73", "name": "ZH261379", "provider": "smide", "range": 37.0, "size": 20, "time": "02/18/2020, 12:48:23"}, "type": "Feature"}, {"geometry": {"coordinates": [8.53644, 47.368333], "type": "Point"}, "properties": {"charge": 94, "id": "smide_158", "name": "ZH253870", "provider": "smide", "range": 47.0, "size": 20, "time": "02/18/2020, 12:48:23"}, "type": "Feature"}, {"geometry": {"coordinates": [8.490379, 47.3792], "type": "Point"}, "properties": {"charge": 32, "id": "smide_100", "name": "ZH253862", "provider": "smide", "range": 16.0, "size": 20, "time": "02/18/2020, 12:48:23"}, "type": "Feature"}, {"geometry": {"coordinates": [8.546616, 47.367323], "type": "Point"}, "properties": {"charge": 100, "id": "smide_134", "name": "ZH253741", "provider": "smide", "range": 50.0, "size": 20, "time": "02/18/2020, 12:48:23"}, "type": "Feature"}, {"geometry": {"coordinates": [8.552501, 47.375635], "type": "Point"}, "properties": {"charge": 23, "id": "smide_149", "name": "ZH253743", "provider": "smide", "range": 11.0, "size": 20, "time": "02/18/2020, 12:48:23"}, "type": "Feature"}, {"geometry": {"coordinates": [8.573027, 47.351324], "type": "Point"}, "properties": {"charge": 55, "id": "smide_16", "name": "ZH253713", "provider": "smide", "range": 27.0, "size": 20, "time": "02/18/2020, 12:48:23"}, "type": "Feature"}, {"geometry": {"coordinates": [8.508673, 47.41008], "type": "Point"}, "properties": {"charge": 84, "id": "smide_161", "name": "ZH253691", "provider": "smide", "range": 42.0, "size": 20, "time": "02/18/2020, 12:48:23"}, "type": "Feature"}, {"geometry": {"coordinates": [8.539956, 47.378684], "type": "Point"}, "properties": {"charge": 99, "id": "smide_42", "name": "ZH253846", "provider": "smide", "range": 49.0, "size": 20, "time": "02/18/2020, 12:48:23"}, "type": "Feature"}, {"geometry": {"coordinates": [8.530968, 47.369376], "type": "Point"}, "properties": {"charge": 51, "id": "smide_4", "name": "ZH253740", "provider": "smide", "range": 25.0, "size": 20, "time": "02/18/2020, 12:48:23"}, "type": "Feature"}, {"geometry": {"coordinates": [8.477596, 47.389933], "type": "Point"}, "properties": {"charge": 100, "id": "smide_137", "name": "ZH258502", "provider": "smide", "range": 50.0, "size": 17, "time": "02/18/2020, 12:48:23"}, "type": "Feature"}, {"geometry": {"coordinates": [8.548831, 47.376398], "type": "Point"}, "properties": {"charge": 54, "id": "smide_55", "name": "ZH253875", "provider": "smide", "range": 27.0, "size": 17, "time": "02/18/2020, 12:48:23"}, "type": "Feature"}, {"geometry": {"coordinates": [8.47826, 47.391768], "type": "Point"}, "properties": {"charge": 38, "id": "smide_96", "name": "ZH256146", "provider": "smide", "range": 19.0, "size": 20, "time": "02/18/2020, 12:48:23"}, "type": "Feature"}, {"geometry": {"coordinates": [8.5318, 47.371724], "type": "Point"}, "properties": {"charge": 40, "id": "smide_58", "name": "ZH259246", "provider": "smide", "range": 20.0, "size": 20, "time": "02/18/2020, 12:48:23"}, "type": "Feature"}, {"geometry": {"coordinates": [8.524428, 47.351392], "type": "Point"}, "properties": {"charge": 61, "id": "smide_54", "name": "ZH253874", "provider": "smide", "range": 30.0, "size": 20, "time": "02/18/2020, 12:48:23"}, "type": "Feature"}, {"geometry": {"coordinates": [8.514135, 47.39342], "type": "Point"}, "properties": {"charge": 75, "id": "smide_175", "name": "ZH253730", "provider": "smide", "range": 37.0, "size": 17, "time": "02/18/2020, 12:48:23"}, "type": "Feature"}, {"geometry": {"coordinates": [8.517193, 47.428283], "type": "Point"}, "properties": {"charge": 26, "id": "smide_162", "name": "ZH253760", "provider": "smide", "range": 13.0, "size": 17, "time": "02/18/2020, 12:48:23"}, "type": "Feature"}, {"geometry": {"coordinates": [8.548766, 47.37696], "type": "Point"}, "properties": {"charge": 78, "id": "smide_95", "name": "ZH253773", "provider": "smide", "range": 39.0, "size": 17, "time": "02/18/2020, 12:48:23"}, "type": "Feature"}, {"geometry": {"coordinates": [8.528979, 47.387852], "type": "Point"}, "properties": {"charge": 83, "id": "smide_163", "name": "ZH256147", "provider": "smide", "range": 41.0, "size": 20, "time": "02/18/2020, 12:48:23"}, "type": "Feature"}, {"geometry": {"coordinates": [8.508399, 47.382404], "type": "Point"}, "properties": {"charge": 67, "id": "smide_112", "name": "ZH263530", "provider": "smide", "range": 33.0, "size": 20, "time": "02/18/2020, 12:48:23"}, "type": "Feature"}, {"geometry": {"coordinates": [8.560266, 47.414315], "type": "Point"}, "properties": {"charge": 76, "id": "smide_38", "name": "ZH253851", "provider": "smide", "range": 38.0, "size": 20, "time": "02/18/2020, 12:48:23"}, "type": "Feature"}, {"geometry": {"coordinates": [8.568245, 47.367832], "type": "Point"}, "properties": {"charge": 100, "id": "smide_6", "name": "ZH253787", "provider": "smide", "range": 50.0, "size": 17, "time": "02/18/2020, 12:48:23"}, "type": "Feature"}, {"geometry": {"coordinates": [8.512464, 47.362924], "type": "Point"}, "properties": {"charge": 59, "id": "smide_18", "name": "ZH253859", "provider": "smide", "range": 29.0, "size": 17, "time": "02/18/2020, 12:48:23"}, "type": "Feature"}, {"geometry": {"coordinates": [8.512735, 47.359904], "type": "Point"}, "properties": {"charge": 90, "id": "smide_12", "name": "ZH253685", "provider": "smide", "range": 45.0, "size": 17, "time": "02/18/2020, 12:48:23"}, "type": "Feature"}, {"geometry": {"coordinates": [8.491374, 47.371584], "type": "Point"}, "properties": {"charge": 63, "id": "smide_192", "name": "ZH253706", "provider": "smide", "range": 31.0, "size": 20, "time": "02/18/2020, 12:48:23"}, "type": "Feature"}, {"geometry": {"coordinates": [8.531905, 47.373224], "type": "Point"}, "properties": {"charge": 84, "id": "smide_39", "name": "ZH253714", "provider": "smide", "range": 42.0, "size": 20, "time": "02/18/2020, 12:48:23"}, "type": "Feature"}, {"geometry": {"coordinates": [8.506593, 47.407645], "type": "Point"}, "properties": {"charge": 90, "id": "smide_5", "name": "ZH261443", "provider": "smide", "range": 45.0, "size": 20, "time": "02/18/2020, 12:48:23"}, "type": "Feature"}, {"geometry": {"coordinates": [8.53537, 47.363766], "type": "Point"}, "properties": {"charge": 100, "id": "smide_85", "name": "ZH253729", "provider": "smide", "range": 50.0, "size": 17, "time": "02/18/2020, 12:48:23"}, "type": "Feature"}, {"geometry": {"coordinates": [8.524182, 47.357752], "type": "Point"}, "properties": {"charge": 99, "id": "smide_48", "name": "ZH253849", "provider": "smide", "range": 49.0, "size": 20, "time": "02/18/2020, 12:48:23"}, "type": "Feature"}, {"geometry": {"coordinates": [8.560363, 47.405776], "type": "Point"}, "properties": {"charge": 100, "id": "smide_46", "name": "ZH253843", "provider": "smide", "range": 50.0, "size": 20, "time": "02/18/2020, 12:48:23"}, "type": "Feature"}, {"geometry": {"coordinates": [8.54337833333333, 47.3752983333333], "type": "Point"}, "properties": {"charge": 62, "id": "bird_29976ceb-0f80-4faa-9951-74130fe83df1", "provider": "bird", "timeStamp": "02/18/2020, 12:48:23"}, "type": "Feature"}, {"geometry": {"coordinates": [8.54335166666667, 47.3752783333333], "type": "Point"}, "properties": {"charge": 84, "id": "bird_3071b1d7-fdb1-4e52-b38a-f1c745c46746", "provider": "bird", "timeStamp": "02/18/2020, 12:48:23"}, "type": "Feature"}, {"geometry": {"coordinates": [8.53534833333333, 47.3705366666667], "type": "Point"}, "properties": {"charge": 36, "id": "bird_34efb98c-9f74-4008-b81d-4d06c24f6652", "provider": "bird", "timeStamp": "02/18/2020, 12:48:23"}, "type": "Feature"}, {"geometry": {"coordinates": [8.51823833333333, 47.386265], "type": "Point"}, "properties": {"charge": 69, "id": "bird_836476dd-9c73-489b-b19a-c257173b90c4", "provider": "bird", "timeStamp": "02/18/2020, 12:48:23"}, "type": "Feature"}, {"geometry": {"coordinates": [8.51755, 47.3856083333333], "type": "Point"}, "properties": {"charge": 69, "id": "bird_b4a386cb-7783-4a40-84ce-51c6320e191c", "provider": "bird", "timeStamp": "02/18/2020, 12:48:23"}, "type": "Feature"}, {"geometry": {"coordinates": [8.51654333333333, 47.3756133333333], "type": "Point"}, "properties": {"charge": 96, "id": "bird_9fe71094-4996-4840-89ce-7489c7c38852", "provider": "bird", "timeStamp": "02/18/2020, 12:48:23"}, "type": "Feature"}, {"geometry": {"coordinates": [8.51771166666667, 47.3857233333333], "type": "Point"}, "properties": {"charge": 70, "id": "bird_42b606e7-2ccb-4bcf-b55d-36bbeeed78d6", "provider": "bird", "timeStamp": "02/18/2020, 12:48:23"}, "type": "Feature"}, {"geometry": {"coordinates": [8.51584833333333, 47.3768266666667], "type": "Point"}, "properties": {"charge": 60, "id": "bird_bb523d6b-c441-4c8c-b292-52d816c883d2", "provider": "bird", "timeStamp": "02/18/2020, 12:48:23"}, "type": "Feature"}, {"geometry": {"coordinates": [8.51671166666667, 47.3755333333333], "type": "Point"}, "properties": {"charge": 100, "id": "bird_75d9812c-f445-4296-b9ec-0bbeb37200a4", "provider": "bird", "timeStamp": "02/18/2020, 12:48:23"}, "type": "Feature"}, {"geometry": {"coordinates": [8.518625, 47.3735616666667], "type": "Point"}, "properties": {"charge": 27, "id": "bird_ecf43019-8d92-472a-807c-cdf45b3b7e1e", "provider": "bird", "timeStamp": "02/18/2020, 12:48:23"}, "type": "Feature"}, {"geometry": {"coordinates": [8.53529, 47.3706316666667], "type": "Point"}, "properties": {"charge": 61, "id": "bird_ff19ffc4-a5aa-4c0b-bf10-c7ea0d32c9da", "provider": "bird", "timeStamp": "02/18/2020, 12:48:23"}, "type": "Feature"}, {"geometry": {"coordinates": [8.52316166666666, 47.3711666666667], "type": "Point"}, "properties": {"charge": 100, "id": "bird_80d2c7f6-d0dd-417a-9277-99e0814cd313", "provider": "bird", "timeStamp": "02/18/2020, 12:48:23"}, "type": "Feature"}, {"geometry": {"coordinates": [8.52353833333333, 47.3710433333333], "type": "Point"}, "properties": {"charge": 100, "id": "bird_1ad02816-eea0-49f1-9386-bd969377d47c", "provider": "bird", "timeStamp": "02/18/2020, 12:48:23"}, "type": "Feature"}, {"geometry": {"coordinates": [8.52382833333333, 47.3709833333333], "type": "Point"}, "properties": {"charge": 100, "id": "bird_7c14857e-1533-4ec4-96ed-b92e7ae06197", "provider": "bird", "timeStamp": "02/18/2020, 12:48:23"}, "type": "Feature"}, {"geometry": {"coordinates": [8.52322, 47.3711883333333], "type": "Point"}, "properties": {"charge": 96, "id": "bird_4f8fbde0-15a3-4277-aca4-47a26316f8ef", "provider": "bird", "timeStamp": "02/18/2020, 12:48:23"}, "type": "Feature"}, {"geometry": {"coordinates": [8.53523666666667, 47.37072], "type": "Point"}, "properties": {"charge": 79, "id": "bird_17eab720-0628-4797-97a3-56e6bc1af213", "provider": "bird", "timeStamp": "02/18/2020, 12:48:23"}, "type": "Feature"}, {"geometry": {"coordinates": [8.537975, 47.3883366666667], "type": "Point"}, "properties": {"charge": 63, "id": "bird_8978f4b1-89c1-407b-ac91-60a0b4db561c", "provider": "bird", "timeStamp": "02/18/2020, 12:48:23"}, "type": "Feature"}, {"geometry": {"coordinates": [8.51673166666667, 47.3757816666667], "type": "Point"}, "properties": {"charge": 48, "id": "bird_36dc4ff7-b7ef-4628-a6ca-950e5dab33c1", "provider": "bird", "timeStamp": "02/18/2020, 12:48:23"}, "type": "Feature"}, {"geometry": {"coordinates": [8.51674, 47.3757933333333], "type": "Point"}, "properties": {"charge": 99, "id": "bird_05f47a05-0789-4ba3-b6d8-73ef72bc5953", "provider": "bird", "timeStamp": "02/18/2020, 12:48:23"}, "type": "Feature"}, {"geometry": {"coordinates": [8.51674666666667, 47.375805], "type": "Point"}, "properties": {"charge": 17, "id": "bird_55e6964f-169e-46f6-b4a8-4a84b5101f5f", "provider": "bird", "timeStamp": "02/18/2020, 12:48:23"}, "type": "Feature"}, {"geometry": {"coordinates": [8.523435, 47.371235], "type": "Point"}, "properties": {"charge": 97, "id": "bird_aaf7d85b-1a20-4779-a25d-b32f0c9c3ad4", "provider": "bird", "timeStamp": "02/18/2020, 12:48:23"}, "type": "Feature"}, {"geometry": {"coordinates": [8.52352, 47.3712083333333], "type": "Point"}, "properties": {"charge": 100, "id": "bird_9eeb9916-f634-4e8a-9465-7a11237dbdef", "provider": "bird", "timeStamp": "02/18/2020, 12:48:23"}, "type": "Feature"}, {"geometry": {"coordinates": [8.51860833333333, 47.3860016666667], "type": "Point"}, "properties": {"charge": 100, "id": "bird_4b2b50f5-f0ae-411e-bc7e-dcbb58771493", "provider": "bird", "timeStamp": "02/18/2020, 12:48:23"}, "type": "Feature"}, {"geometry": {"coordinates": [8.53588166666667, 47.3711283333333], "type": "Point"}, "properties": {"charge": 80, "id": "bird_e77eddbf-72d6-4987-b37b-6132bb2abf54", "provider": "bird", "timeStamp": "02/18/2020, 12:48:23"}, "type": "Feature"}, {"geometry": {"coordinates": [8.51863166666667, 47.3743216666667], "type": "Point"}, "properties": {"charge": 26, "id": "bird_74443bcf-f488-4b3e-8c61-120f38e69ceb", "provider": "bird", "timeStamp": "02/18/2020, 12:48:23"}, "type": "Feature"}, {"geometry": {"coordinates": [8.54377333333333, 47.3821183333333], "type": "Point"}, "properties": {"charge": 19, "id": "bird_1db49398-a216-454a-8bce-1ba76cef2ed0", "provider": "bird", "timeStamp": "02/18/2020, 12:48:23"}, "type": "Feature"}, {"geometry": {"coordinates": [8.517345, 47.375755], "type": "Point"}, "properties": {"charge": 100, "id": "bird_645d0f8a-1b60-4d7a-aed4-9a8e5229b62f", "provider": "bird", "timeStamp": "02/18/2020, 12:48:23"}, "type": "Feature"}, {"geometry": {"coordinates": [8.52351833333333, 47.38847], "type": "Point"}, "properties": {"charge": 22, "id": "bird_1db97f08-15ca-4a7b-aa63-9e1b7b85b3c2", "provider": "bird", "timeStamp": "02/18/2020, 12:48:23"}, "type": "Feature"}, {"geometry": {"coordinates": [8.51605666666667, 47.378875], "type": "Point"}, "properties": {"charge": 17, "id": "bird_666425b2-144f-4242-8da4-eee7cfa99a71", "provider": "bird", "timeStamp": "02/18/2020, 12:48:23"}, "type": "Feature"}, {"geometry": {"coordinates": [8.51832333333333, 47.3851783333333], "type": "Point"}, "properties": {"charge": 34, "id": "bird_57edb333-68b1-4b6e-b04a-f676766bd0c7", "provider": "bird", "timeStamp": "02/18/2020, 12:48:23"}, "type": "Feature"}, {"geometry": {"coordinates": [8.540035, 47.3865666666667], "type": "Point"}, "properties": {"charge": 20, "id": "bird_a6accda5-0a04-4c74-a339-59f690b58eb2", "provider": "bird", "timeStamp": "02/18/2020, 12:48:23"}, "type": "Feature"}, {"geometry": {"coordinates": [8.52019833333333, 47.3733216666667], "type": "Point"}, "properties": {"charge": 16, "id": "bird_da223d28-1892-4182-93c0-72628e119bd9", "provider": "bird", "timeStamp": "02/18/2020, 12:48:23"}, "type": "Feature"}, {"geometry": {"coordinates": [8.54081833333333, 47.3741233333333], "type": "Point"}, "properties": {"charge": 12, "id": "bird_cb7722fe-fb6f-4540-a88a-2a1da2002e8d", "provider": "bird", "timeStamp": "02/18/2020, 12:48:23"}, "type": "Feature"}, {"geometry": {"coordinates": [8.53631666666667, 47.3882333333333], "type": "Point"}, "properties": {"charge": 79, "id": "bird_4de656ee-7003-4d1c-9ef9-acdf0b0dfee5", "provider": "bird", "timeStamp": "02/18/2020, 12:48:23"}, "type": "Feature"}, {"geometry": {"coordinates": [8.52621, 47.38884], "type": "Point"}, "properties": {"charge": 43, "id": "bird_c3ef8dab-5fea-4087-b0ce-b845d483c704", "provider": "bird", "timeStamp": "02/18/2020, 12:48:23"}, "type": "Feature"}, {"geometry": {"coordinates": [8.53218333333333, 47.370975], "type": "Point"}, "properties": {"charge": 18, "id": "bird_0e4b171e-163c-4369-94da-ff879a06e696", "provider": "bird", "timeStamp": "02/18/2020, 12:48:23"}, "type": "Feature"}, {"geometry": {"coordinates": [8.53644833333333, 47.38794], "type": "Point"}, "properties": {"charge": 35, "id": "bird_844d9700-4128-4fb8-8976-08f9e2564f28", "provider": "bird", "timeStamp": "02/18/2020, 12:48:23"}, "type": "Feature"}, {"geometry": {"coordinates": [8.52583666666667, 47.3885466666667], "type": "Point"}, "properties": {"charge": 30, "id": "bird_d1e40569-6abb-4cb0-84fa-4aa09209d835", "provider": "bird", "timeStamp": "02/18/2020, 12:48:23"}, "type": "Feature"}, {"geometry": {"coordinates": [8.543275, 47.3796116666667], "type": "Point"}, "properties": {"charge": 36, "id": "bird_47a3abe3-ddb2-4a1a-a829-6970f52b290e", "provider": "bird", "timeStamp": "02/18/2020, 12:48:23"}, "type": "Feature"}, {"geometry": {"coordinates": [8.51698, 47.381385], "type": "Point"}, "properties": {"charge": 29, "id": "bird_6703431f-e004-4ede-a1a6-4d3a95f9ca67", "provider": "bird", "timeStamp": "02/18/2020, 12:48:23"}, "type": "Feature"}, {"geometry": {"coordinates": [8.51879833333333, 47.375305], "type": "Point"}, "properties": {"charge": 67, "id": "bird_13ccdffc-b33f-4b75-80ce-41107b553247", "provider": "bird", "timeStamp": "02/18/2020, 12:48:23"}, "type": "Feature"}, {"geometry": {"coordinates": [8.54171333333333, 47.376065], "type": "Point"}, "properties": {"charge": 35, "id": "bird_574bc3c9-9b86-4193-87b8-124f40578bae", "provider": "bird", "timeStamp": "02/18/2020, 12:48:23"}, "type": "Feature"}, {"geometry": {"coordinates": [8.52393, 47.3877633333333], "type": "Point"}, "properties": {"charge": 51, "id": "bird_69da0387-1e73-418a-8279-65ee83d7a222", "provider": "bird", "timeStamp": "02/18/2020, 12:48:23"}, "type": "Feature"}, {"geometry": {"coordinates": [8.51727833333333, 47.3814816666667], "type": "Point"}, "properties": {"charge": 60, "id": "bird_9fd66be3-3db5-4bb6-b278-211e616045a3", "provider": "bird", "timeStamp": "02/18/2020, 12:48:23"}, "type": "Feature"}, {"geometry": {"coordinates": [8.531615, 47.3713533333333], "type": "Point"}, "properties": {"charge": 42, "id": "bird_737cc9a2-8ec6-4376-bd1f-57750b61f2f0", "provider": "bird", "timeStamp": "02/18/2020, 12:48:23"}, "type": "Feature"}, {"geometry": {"coordinates": [8.517225, 47.379085], "type": "Point"}, "properties": {"charge": 18, "id": "bird_8539229e-d677-412e-9f2d-c77c311a378d", "provider": "bird", "timeStamp": "02/18/2020, 12:48:23"}, "type": "Feature"}, {"geometry": {"coordinates": [8.54187, 47.3767883333333], "type": "Point"}, "properties": {"charge": 20, "id": "bird_1ee3c62b-8c01-462b-ad5a-64d8d2467ad1", "provider": "bird", "timeStamp": "02/18/2020, 12:48:23"}, "type": "Feature"}, {"geometry": {"coordinates": [8.52457, 47.3877566666667], "type": "Point"}, "properties": {"charge": 80, "id": "bird_a1dd847d-b0ca-4852-8d59-c6a8c5d8deb4", "provider": "bird", "timeStamp": "02/18/2020, 12:48:23"}, "type": "Feature"}, {"geometry": {"coordinates": [8.527305, 47.371635], "type": "Point"}, "properties": {"charge": 99, "id": "bird_4f6aca42-a530-44a9-9845-fcf387727e2e", "provider": "bird", "timeStamp": "02/18/2020, 12:48:23"}, "type": "Feature"}, {"geometry": {"coordinates": [8.52589166666667, 47.37191], "type": "Point"}, "properties": {"charge": 60, "id": "bird_77e82837-bf1a-4040-ae9b-acf3cf28ed15", "provider": "bird", "timeStamp": "02/18/2020, 12:48:23"}, "type": "Feature"}, {"geometry": {"coordinates": [8.52597, 47.38808], "type": "Point"}, "properties": {"charge": 80, "id": "bird_3318ba3a-3e0c-4b2d-bbd0-90e83a9f34e9", "provider": "bird", "timeStamp": "02/18/2020, 12:48:23"}, "type": "Feature"}, {"geometry": {"coordinates": [8.53714833333333, 47.37313], "type": "Point"}, "properties": {"charge": 48, "id": "bird_3fdd5f33-6acd-4769-bdce-e59733246ff2", "provider": "bird", "timeStamp": "02/18/2020, 12:48:23"}, "type": "Feature"}, {"geometry": {"coordinates": [8.52060333333333, 47.37453], "type": "Point"}, "properties": {"charge": 99, "id": "bird_b5a83a5f-7bf7-4890-8a8b-445ab9f0e7b4", "provider": "bird", "timeStamp": "02/18/2020, 12:48:23"}, "type": "Feature"}, {"geometry": {"coordinates": [8.53686333333333, 47.37304], "type": "Point"}, "properties": {"charge": 92, "id": "bird_6e904d69-d055-4fc1-8329-b9f472e2b146", "provider": "bird", "timeStamp": "02/18/2020, 12:48:23"}, "type": "Feature"}, {"geometry": {"coordinates": [8.52059, 47.3746416666667], "type": "Point"}, "properties": {"charge": 61, "id": "bird_350eab1c-defa-47c5-8f6d-5d169f813356", "provider": "bird", "timeStamp": "02/18/2020, 12:48:23"}, "type": "Feature"}, {"geometry": {"coordinates": [8.52064, 47.3746383333333], "type": "Point"}, "properties": {"charge": 98, "id": "bird_28d4266a-39a1-4f9a-92f3-76be45cf70f9", "provider": "bird", "timeStamp": "02/18/2020, 12:48:23"}, "type": "Feature"}, {"geometry": {"coordinates": [8.54178833333333, 47.377765], "type": "Point"}, "properties": {"charge": 44, "id": "bird_0f0d4c13-dcee-4459-a8c8-b0a79fc3774b", "provider": "bird", "timeStamp": "02/18/2020, 12:48:23"}, "type": "Feature"}, {"geometry": {"coordinates": [8.53969666666667, 47.3749966666667], "type": "Point"}, "properties": {"charge": 54, "id": "bird_15c3bd67-3930-43fd-874c-97dc96401018", "provider": "bird", "timeStamp": "02/18/2020, 12:48:23"}, "type": "Feature"}, {"geometry": {"coordinates": [8.52266833333333, 47.38654], "type": "Point"}, "properties": {"charge": 15, "id": "bird_b1bbe4b8-7246-445b-9def-c6ca072be58a", "provider": "bird", "timeStamp": "02/18/2020, 12:48:23"}, "type": "Feature"}, {"geometry": {"coordinates": [8.52371833333333, 47.387005], "type": "Point"}, "properties": {"charge": 70, "id": "bird_d89879f0-3528-427c-b36c-265affff4053", "provider": "bird", "timeStamp": "02/18/2020, 12:48:23"}, "type": "Feature"}, {"geometry": {"coordinates": [8.52705833333333, 47.38794], "type": "Point"}, "properties": {"charge": 76, "id": "bird_659b1f2a-8473-4e25-8f6e-0a4ea03ab6ed", "provider": "bird", "timeStamp": "02/18/2020, 12:48:23"}, "type": "Feature"}, {"geometry": {"coordinates": [8.54123166666667, 47.377105], "type": "Point"}, "properties": {"charge": 34, "id": "bird_684694df-1de0-4a2f-844f-e0e120ef034e", "provider": "bird", "timeStamp": "02/18/2020, 12:48:23"}, "type": "Feature"}, {"geometry": {"coordinates": [8.54088, 47.376595], "type": "Point"}, "properties": {"charge": 54, "id": "bird_af88e37b-cddc-4cb1-8226-0b6fbd245e3f", "provider": "bird", "timeStamp": "02/18/2020, 12:48:23"}, "type": "Feature"}, {"geometry": {"coordinates": [8.525775, 47.3875316666667], "type": "Point"}, "properties": {"charge": 18, "id": "bird_614c9e38-798c-4d6c-8980-ee19964c5a1b", "provider": "bird", "timeStamp": "02/18/2020, 12:48:23"}, "type": "Feature"}, {"geometry": {"coordinates": [8.54024833333333, 47.3759083333333], "type": "Point"}, "properties": {"charge": 35, "id": "bird_f332e875-f6b4-4e92-8725-6d164fc7f5dc", "provider": "bird", "timeStamp": "02/18/2020, 12:48:23"}, "type": "Feature"}, {"geometry": {"coordinates": [8.52934, 47.37196], "type": "Point"}, "properties": {"charge": 96, "id": "bird_0dcb5a96-9799-47ff-9577-a2355f019ad1", "provider": "bird", "timeStamp": "02/18/2020, 12:48:23"}, "type": "Feature"}, {"geometry": {"coordinates": [8.54117, 47.37725], "type": "Point"}, "properties": {"charge": 63, "id": "bird_74a9002e-983c-4007-af40-e94130d8c740", "provider": "bird", "timeStamp": "02/18/2020, 12:48:23"}, "type": "Feature"}, {"geometry": {"coordinates": [8.52154, 47.3743783333333], "type": "Point"}, "properties": {"charge": 100, "id": "bird_f93b7123-e780-40ae-995e-e528e59fc43c", "provider": "bird", "timeStamp": "02/18/2020, 12:48:23"}, "type": "Feature"}, {"geometry": {"coordinates": [8.52161166666667, 47.3743483333333], "type": "Point"}, "properties": {"charge": 100, "id": "bird_f879b0b8-1a48-4ede-bbf8-e6c26d7fda03", "provider": "bird", "timeStamp": "02/18/2020, 12:48:23"}, "type": "Feature"}, {"geometry": {"coordinates": [8.53521333333333, 47.3728216666667], "type": "Point"}, "properties": {"charge": 28, "id": "bird_5f2e2423-f5fa-466c-a372-71c4d129b67e", "provider": "bird", "timeStamp": "02/18/2020, 12:48:23"}, "type": "Feature"}, {"geometry": {"coordinates": [8.522855, 47.3863266666667], "type": "Point"}, "properties": {"charge": 66, "id": "bird_dba4e506-ea65-4e97-8965-d5249223f180", "provider": "bird", "timeStamp": "02/18/2020, 12:48:23"}, "type": "Feature"}, {"geometry": {"coordinates": [8.53430333333333, 47.3725933333333], "type": "Point"}, "properties": {"charge": 33, "id": "bird_7337b8db-fc9c-4ec6-bcb1-4fd2302c24e1", "provider": "bird", "timeStamp": "02/18/2020, 12:48:23"}, "type": "Feature"}, {"geometry": {"coordinates": [8.526545, 47.3875816666667], "type": "Point"}, "properties": {"charge": 15, "id": "bird_d23d39e0-c155-4b77-adb1-b5b4b73b581a", "provider": "bird", "timeStamp": "02/18/2020, 12:48:23"}, "type": "Feature"}, {"geometry": {"coordinates": [8.54058333333333, 47.3767966666667], "type": "Point"}, "properties": {"charge": 66, "id": "bird_0b6fd732-0acf-445a-8290-4edc07aedd06", "provider": "bird", "timeStamp": "02/18/2020, 12:48:23"}, "type": "Feature"}, {"geometry": {"coordinates": [8.53695666666667, 47.3737266666667], "type": "Point"}, "properties": {"charge": 51, "id": "bird_f7e6e0f0-d42e-4860-b176-835438adac2e", "provider": "bird", "timeStamp": "02/18/2020, 12:48:23"}, "type": "Feature"}, {"geometry": {"coordinates": [8.54057, 47.3768233333333], "type": "Point"}, "properties": {"charge": 28, "id": "bird_7165f7a9-c388-4143-ae93-dba81c43dd52", "provider": "bird", "timeStamp": "02/18/2020, 12:48:23"}, "type": "Feature"}, {"geometry": {"coordinates": [8.53296833333333, 47.3724366666667], "type": "Point"}, "properties": {"charge": 20, "id": "bird_04f0a03d-7c69-4bc1-b5b1-6677b6ffbaa8", "provider": "bird", "timeStamp": "02/18/2020, 12:48:23"}, "type": "Feature"}, {"geometry": {"coordinates": [8.525025, 47.3729666666667], "type": "Point"}, "properties": {"charge": 37, "id": "bird_b7cf2cd2-60aa-49d6-8ee7-cbb1ce497f2d", "provider": "bird", "timeStamp": "02/18/2020, 12:48:23"}, "type": "Feature"}, {"geometry": {"coordinates": [8.52131166666667, 47.3851166666667], "type": "Point"}, "properties": {"charge": 19, "id": "bird_a7d3c444-3fde-44f6-a415-d7c148bb426b", "provider": "bird", "timeStamp": "02/18/2020, 12:48:23"}, "type": "Feature"}, {"geometry": {"coordinates": [8.52160333333333, 47.3853183333333], "type": "Point"}, "properties": {"charge": 45, "id": "bird_a526efd5-a6f4-4490-bab0-c26ed40ea239", "provider": "bird", "timeStamp": "02/18/2020, 12:48:23"}, "type": "Feature"}, {"geometry": {"coordinates": [8.53477166666667, 47.3729316666667], "type": "Point"}, "properties": {"charge": 46, "id": "bird_d89ba30d-7086-4d67-be56-bf75ba2b5499", "provider": "bird", "timeStamp": "02/18/2020, 12:48:23"}, "type": "Feature"}, {"geometry": {"coordinates": [8.54048, 47.3768466666667], "type": "Point"}, "properties": {"charge": 19, "id": "bird_2fb3413f-66d2-41b5-b6bf-a4777fdc9bcb", "provider": "bird", "timeStamp": "02/18/2020, 12:48:23"}, "type": "Feature"}, {"geometry": {"coordinates": [8.51861333333333, 47.3808866666667], "type": "Point"}, "properties": {"charge": 34, "id": "bird_baa9be10-7b84-41d8-85c1-10c3246afc80", "provider": "bird", "timeStamp": "02/18/2020, 12:48:23"}, "type": "Feature"}, {"geometry": {"coordinates": [8.54044, 47.3768416666667], "type": "Point"}, "properties": {"charge": 29, "id": "bird_39c77797-9a4d-4ad5-b916-b3f0fe0bfaea", "provider": "bird", "timeStamp": "02/18/2020, 12:48:23"}, "type": "Feature"}, {"geometry": {"coordinates": [8.52365166666667, 47.386425], "type": "Point"}, "properties": {"charge": 46, "id": "bird_65a38f87-20e1-4dda-84a0-98c71ccd8310", "provider": "bird", "timeStamp": "02/18/2020, 12:48:23"}, "type": "Feature"}, {"geometry": {"coordinates": [8.53295166666667, 47.372535], "type": "Point"}, "properties": {"charge": 19, "id": "bird_4260f924-69eb-428c-a9c8-ead4600bc44d", "provider": "bird", "timeStamp": "02/18/2020, 12:48:23"}, "type": "Feature"}, {"geometry": {"coordinates": [8.533245, 47.372665], "type": "Point"}, "properties": {"charge": 51, "id": "bird_7390eecb-5954-4075-be09-f1fc875280aa", "provider": "bird", "timeStamp": "02/18/2020, 12:48:23"}, "type": "Feature"}, {"geometry": {"coordinates": [8.52769666666667, 47.3874633333333], "type": "Point"}, "properties": {"charge": 69, "id": "bird_0c60069c-42bf-489c-8274-cf27b9926802", "provider": "bird", "timeStamp": "02/18/2020, 12:48:23"}, "type": "Feature"}, {"geometry": {"coordinates": [8.52573, 47.3869316666667], "type": "Point"}, "properties": {"charge": 47, "id": "bird_2a42a3ea-32b5-4341-8fe3-4a748b93a098", "provider": "bird", "timeStamp": "02/18/2020, 12:48:23"}, "type": "Feature"}, {"geometry": {"coordinates": [8.529295, 47.372505], "type": "Point"}, "properties": {"charge": 29, "id": "bird_87f26475-4fb2-4010-ba9d-505fb1f84195", "provider": "bird", "timeStamp": "02/18/2020, 12:48:23"}, "type": "Feature"},