{"features": [{"geometry": {"coordinates": [8.540062, 47.374392], "type": "Point"}, "properties": {"address": "Uraniastrasse 7", "electric": 4, "id": "pb_60", "manual": 9, "name": "Demo Station Werdm\u00fchleplatz", "provider": "publibike", "timeStamp": "02/17/2020, 14:09:04", "zip": 8001}, "type": "Feature"}, {"geometry": {"coordinates": [8.5452956, 47.4099615], "type": "Point"}, "properties": {"address": "Querstrasse 8", "electric": 1, "id": "pb_61", "manual": 7, "name": "Marktplatz", "provider": "publibike", "timeStamp": "02/17/2020, 14:09:04", "zip": 8050}, "type": "Feature"}, {"geometry": {"coordinates": [8.5156327, 47.3795837], "type": "Point"}, "properties": {"address": "Bullingerstrasse 5", "electric": 0, "id": "pb_80", "manual": 5, "name": "Bullingerplatz", "provider": "publibike", "timeStamp": "02/17/2020, 14:09:04", "zip": 8004}, "type": "Feature"}, {"geometry": {"coordinates": [8.5104051, 47.3899342], "type": "Point"}, "properties": {"address": "Pfingstweidstrasse 96e", "electric": 3, "id": "pb_81", "manual": 4, "name": "Herdern", "provider": "publibike", "timeStamp": "02/17/2020, 14:09:04", "zip": 8001}, "type": "Feature"}, {"geometry": {"coordinates": [8.535718, 47.359675], "type": "Point"}, "properties": {"address": "Mythenquai 50", "electric": 14, "id": "pb_82", "manual": 15, "name": "Hafen Enge", "provider": "publibike", "timeStamp": "02/17/2020, 14:09:04", "zip": 8002}, "type": "Feature"}, {"geometry": {"coordinates": [8.520370505, 47.358663827], "type": "Point"}, "properties": {"address": "Bubenbergstrasse 1", "electric": 4, "id": "pb_83", "manual": 10, "name": "Comerge", "provider": "publibike", "timeStamp": "02/17/2020, 14:09:04", "zip": 8045}, "type": "Feature"}, {"geometry": {"coordinates": [8.5412505, 47.3789825], "type": "Point"}, "properties": {"address": "Museumstrasse 2", "electric": 4, "id": "pb_84", "manual": 9, "name": "Landesmuseum", "provider": "publibike", "timeStamp": "02/17/2020, 14:09:04", "zip": 8001}, "type": "Feature"}, {"geometry": {"coordinates": [8.5235479, 47.3716661], "type": "Point"}, "properties": {"address": "Birmensdorferstrasse 80", "electric": 0, "id": "pb_85", "manual": 2, "name": "Bahnhof Wiedikon", "provider": "publibike", "timeStamp": "02/17/2020, 14:09:04", "zip": 8003}, "type": "Feature"}, {"geometry": {"coordinates": [8.506822854, 47.40781197], "type": "Point"}, "properties": {"address": "Stefano-Franscini-Platz 5", "electric": 15, "id": "pb_86", "manual": 0, "name": "ETH H\u00f6nggerberg", "provider": "publibike", "timeStamp": "02/17/2020, 14:09:04", "zip": 8093}, "type": "Feature"}, {"geometry": {"coordinates": [8.536101, 47.371083], "type": "Point"}, "properties": {"address": "Pelikanplatz 5", "electric": 0, "id": "pb_87", "manual": 5, "name": "Pelikanplatz", "provider": "publibike", "timeStamp": "02/17/2020, 14:09:04", "zip": 8001}, "type": "Feature"}, {"geometry": {"coordinates": [8.5257822, 47.3651936], "type": "Point"}, "properties": {"address": "H\u00fcrlimannplatz 90", "electric": 38, "id": "pb_88", "manual": 22, "name": "H\u00fcrlimannplatz", "provider": "publibike", "timeStamp": "02/17/2020, 14:09:04", "zip": 8002}, "type": "Feature"}, {"geometry": {"coordinates": [8.5313344, 47.3713591], "type": "Point"}, "properties": {"address": "Selnaustrasse 32", "electric": 7, "id": "pb_89", "manual": 6, "name": "Stauffacherbr\u00fccke", "provider": "publibike", "timeStamp": "02/17/2020, 14:09:04", "zip": 8001}, "type": "Feature"}, {"geometry": {"coordinates": [8.5056978, 47.3917964], "type": "Point"}, "properties": {"address": "Sportweg 25", "electric": 2, "id": "pb_90", "manual": 9, "name": "Sportweg", "provider": "publibike", "timeStamp": "02/17/2020, 14:09:04", "zip": 8005}, "type": "Feature"}, {"geometry": {"coordinates": [8.5181701, 47.3917837], "type": "Point"}, "properties": {"address": "Hardturmstrasse 11", "electric": 3, "id": "pb_91", "manual": 5, "name": "Puls 5", "provider": "publibike", "timeStamp": "02/17/2020, 14:09:04", "zip": 8005}, "type": "Feature"}, {"geometry": {"coordinates": [8.5286468, 47.3820827], "type": "Point"}, "properties": {"address": "R\u00f6ntgenstrasse 6", "electric": 5, "id": "pb_92", "manual": 9, "name": "R\u00f6ntgenstrasse", "provider": "publibike", "timeStamp": "02/17/2020, 14:09:04", "zip": 8005}, "type": "Feature"}, {"geometry": {"coordinates": [8.531935, 47.384918], "type": "Point"}, "properties": {"address": "Kornhausbr\u00fccke 1", "electric": 0, "id": "pb_93", "manual": 5, "name": "Limmatplatz", "provider": "publibike", "timeStamp": "02/17/2020, 14:09:04", "zip": 8005}, "type": "Feature"}, {"geometry": {"coordinates": [8.5354006, 47.3758639], "type": "Point"}, "properties": {"address": "Gessnerallee 15", "electric": 0, "id": "pb_94", "manual": 1, "name": "Gessnerallee", "provider": "publibike", "timeStamp": "02/17/2020, 14:09:04", "zip": 8001}, "type": "Feature"}, {"geometry": {"coordinates": [8.523818, 47.377148], "type": "Point"}, "properties": {"address": "Stauffacherstrasse 127", "electric": 0, "id": "pb_95", "manual": 8, "name": "B\u00e4ckeranlage", "provider": "publibike", "timeStamp": "02/17/2020, 14:09:04", "zip": 8004}, "type": "Feature"}, {"geometry": {"coordinates": [8.531836, 47.378548], "type": "Point"}, "properties": {"address": "Lagerstrasse 44", "electric": 20, "id": "pb_96", "manual": 19, "name": "Gustav-Gull-Platz", "provider": "publibike", "timeStamp": "02/17/2020, 14:09:04", "zip": 8004}, "type": "Feature"}, {"geometry": {"coordinates": [8.5104883, 47.3771535], "type": "Point"}, "properties": {"address": "Zurlindenstrasse 291", "electric": 0, "id": "pb_97", "manual": 2, "name": "Zurlindenstrasse", "provider": "publibike", "timeStamp": "02/17/2020, 14:09:04", "zip": 8003}, "type": "Feature"}, {"geometry": {"coordinates": [8.5333139, 47.3731102], "type": "Point"}, "properties": {"address": "Sihlstrasse 81", "electric": 5, "id": "pb_98", "manual": 4, "name": "Sihlstrasse", "provider": "publibike", "timeStamp": "02/17/2020, 14:09:04", "zip": 8001}, "type": "Feature"}, {"geometry": {"coordinates": [8.520532, 47.374951], "type": "Point"}, "properties": {"address": "Feldstrasse 24", "electric": 1, "id": "pb_99", "manual": 1, "name": "Kalkbreite", "provider": "publibike", "timeStamp": "02/17/2020, 14:09:04", "zip": 8004}, "type": "Feature"}, {"geometry": {"coordinates": [8.539046, 47.368064], "type": "Point"}, "properties": {"address": "Talstrasse 12", "electric": 7, "id": "pb_100", "manual": 2, "name": "Z\u00fcrcher Kantonalbank", "provider": "publibike", "timeStamp": "02/17/2020, 14:09:04", "zip": 8001}, "type": "Feature"}, {"geometry": {"coordinates": [8.5348427, 47.3625938], "type": "Point"}, "properties": {"address": "Breitingerstrasse 5", "electric": 4, "id": "pb_101", "manual": 5, "name": "Rentenanstalt", "provider": "publibike", "timeStamp": "02/17/2020, 14:09:04", "zip": 8002}, "type": "Feature"}, {"geometry": {"coordinates": [8.5166922, 47.3897772], "type": "Point"}, "properties": {"address": "Technoparkstrasse 4", "electric": 3, "id": "pb_102", "manual": 4, "name": "Turbinenplatz", "provider": "publibike", "timeStamp": "02/17/2020, 14:09:04", "zip": 8005}, "type": "Feature"}, {"geometry": {"coordinates": [8.539312, 47.3739964], "type": "Point"}, "properties": {"address": "Oetenbachgasse 14", "electric": 12, "id": "pb_104", "manual": 6, "name": "Rennweg", "provider": "publibike", "timeStamp": "02/17/2020, 14:09:04", "zip": 8001}, "type": "Feature"}, {"geometry": {"coordinates": [8.5360685, 47.3775022], "type": "Point"}, "properties": {"address": "Kasernenstrasse 101", "electric": 7, "id": "pb_105", "manual": 33, "name": "Sihlpost", "provider": "publibike", "timeStamp": "02/17/2020, 14:09:04", "zip": 8004}, "type": "Feature"}, {"geometry": {"coordinates": [8.53545, 47.382798], "type": "Point"}, "properties": {"address": "Ausstellungsstrasse 44", "electric": 2, "id": "pb_106", "manual": 9, "name": "Museum f\u00fcr Gestaltung", "provider": "publibike", "timeStamp": "02/17/2020, 14:09:04", "zip": 8005}, "type": "Feature"}, {"geometry": {"coordinates": [8.5306155, 47.3647902], "type": "Point"}, "properties": {"address": "Gutenbergstrasse 1", "electric": 1, "id": "pb_107", "manual": 3, "name": "Bederbr\u00fccke", "provider": "publibike", "timeStamp": "02/17/2020, 14:09:04", "zip": 8002}, "type": "Feature"}, {"geometry": {"coordinates": [8.518982, 47.386741], "type": "Point"}, "properties": {"address": "Geroldstrasse 4", "electric": 4, "id": "pb_108", "manual": 13, "name": "Bahnhof Hardbr\u00fccke", "provider": "publibike", "timeStamp": "02/17/2020, 14:09:04", "zip": 8005}, "type": "Feature"}, {"geometry": {"coordinates": [8.53001018, 47.37247535], "type": "Point"}, "properties": {"address": "Werdstrasse 21", "electric": 10, "id": "pb_109", "manual": 2, "name": "Tamedia", "provider": "publibike", "timeStamp": "02/17/2020, 14:09:04", "zip": 8004}, "type": "Feature"}, {"geometry": {"coordinates": [8.4860017, 47.396401], "type": "Point"}, "properties": {"address": "Gr\u00fcnauring 37", "electric": 10, "id": "pb_110", "manual": 2, "name": "Gr\u00fcnau", "provider": "publibike", "timeStamp": "02/17/2020, 14:09:04", "zip": 8064}, "type": "Feature"}, {"geometry": {"coordinates": [8.548519, 47.376756], "type": "Point"}, "properties": {"address": "R\u00e4mistrasse 101", "electric": 60, "id": "pb_111", "manual": 2, "name": "ETH Zentrum", "provider": "publibike", "timeStamp": "02/17/2020, 14:09:04", "zip": 8006}, "type": "Feature"}, {"geometry": {"coordinates": [8.520449, 47.388151], "type": "Point"}, "properties": {"address": "Josefstrasse 224", "electric": 6, "id": "pb_112", "manual": 4, "name": "Steinfelsareal", "provider": "publibike", "timeStamp": "02/17/2020, 14:09:04", "zip": 8005}, "type": "Feature"}, {"geometry": {"coordinates": [8.520482, 47.37209], "type": "Point"}, "properties": {"address": "Weststrasse 115", "electric": 2, "id": "pb_124", "manual": 7, "name": "Weststrasse", "provider": "publibike", "timeStamp": "02/17/2020, 14:09:04", "zip": 8003}, "type": "Feature"}, {"geometry": {"coordinates": [8.496727, 47.378521], "type": "Point"}, "properties": {"address": "Albisriederstrasse 200", "electric": 2, "id": "pb_125", "manual": 1, "name": "Utogrund", "provider": "publibike", "timeStamp": "02/17/2020, 14:09:04", "zip": 8047}, "type": "Feature"}, {"geometry": {"coordinates": [8.510418, 47.381356], "type": "Point"}, "properties": {"address": "Bullingerstrasse 73", "electric": 5, "id": "pb_126", "manual": 10, "name": "Hardau", "provider": "publibike", "timeStamp": "02/17/2020, 14:09:04", "zip": 8004}, "type": "Feature"}, {"geometry": {"coordinates": [8.525525, 47.361567], "type": "Point"}, "properties": {"address": "Klopstockstrasse 23", "electric": 8, "id": "pb_127", "manual": 1, "name": "Klopstockwiese", "provider": "publibike", "timeStamp": "02/17/2020, 14:09:04", "zip": 8002}, "type": "Feature"}, {"geometry": {"coordinates": [8.518143, 47.363148], "type": "Point"}, "properties": {"address": "Haldenstrasse 8", "electric": 0, "id": "pb_128", "manual": 2, "name": "Binz", "provider": "publibike", "timeStamp": "02/17/2020, 14:09:04", "zip": 8045}, "type": "Feature"}, {"geometry": {"coordinates": [8.542726, 47.379952], "type": "Point"}, "properties": {"address": "Walchestrasse 11", "electric": 5, "id": "pb_129", "manual": 2, "name": "Stampfenbachplatz", "provider": "publibike", "timeStamp": "02/17/2020, 14:09:04", "zip": 8006}, "type": "Feature"}, {"geometry": {"coordinates": [8.488108, 47.391366], "type": "Point"}, "properties": {"address": "Altstetterplatz 1", "electric": 11, "id": "pb_130", "manual": 3, "name": "Bahnhof Altstetten", "provider": "publibike", "timeStamp": "02/17/2020, 14:09:04", "zip": 8048}, "type": "Feature"}, {"geometry": {"coordinates": [8.554114, 47.365119], "type": "Point"}, "properties": {"address": "Kreuzplatz 2", "electric": 5, "id": "pb_131", "manual": 3, "name": "Kreuzplatz", "provider": "publibike", "timeStamp": "02/17/2020, 14:09:04", "zip": 8032}, "type": "Feature"}, {"geometry": {"coordinates": [8.549852, 47.35594], "type": "Point"}, "properties": {"address": "H\u00f6schgasse 3", "electric": 0, "id": "pb_132", "manual": 0, "name": "Blatterwiese", "provider": "publibike", "timeStamp": "02/17/2020, 14:09:04", "zip": 8008}, "type": "Feature"}, {"geometry": {"coordinates": [8.554501, 47.36162], "type": "Point"}, "properties": {"address": "Feldeggstrasse 80", "electric": 0, "id": "pb_133", "manual": 6, "name": "Villa Bleuler", "provider": "publibike", "timeStamp": "02/17/2020, 14:09:04", "zip": 8008}, "type": "Feature"}, {"geometry": {"coordinates": [8.557088, 47.358557], "type": "Point"}, "properties": {"address": "M\u00fchlebachstrasse 131", "electric": 1, "id": "pb_134", "manual": 2, "name": "M\u00fchlebachstrasse", "provider": "publibike", "timeStamp": "02/17/2020, 14:09:04", "zip": 8008}, "type": "Feature"}, {"geometry": {"coordinates": [8.547639, 47.361266], "type": "Point"}, "properties": {"address": "Utoquai 50", "electric": 2, "id": "pb_135", "manual": 6, "name": "Seebad Utoquai", "provider": "publibike", "timeStamp": "02/17/2020, 14:09:04", "zip": 8008}, "type": "Feature"}, {"geometry": {"coordinates": [8.548045, 47.370869], "type": "Point"}, "properties": {"address": "Heimplatz 1", "electric": 10, "id": "pb_137", "manual": 4, "name": "Kunsthaus", "provider": "publibike", "timeStamp": "02/17/2020, 14:09:04", "zip": 8001}, "type": "Feature"}, {"geometry": {"coordinates": [8.543447, 47.375933], "type": "Point"}, "properties": {"address": "Limmatquai 138", "electric": 3, "id": "pb_138", "manual": 10, "name": "Central", "provider": "publibike", "timeStamp": "02/17/2020, 14:09:04", "zip": 8001}, "type": "Feature"}, {"geometry": {"coordinates": [8.549356, 47.408827], "type": "Point"}, "properties": {"address": "Tramstrasse 35", "electric": 3, "id": "pb_139", "manual": 8, "name": "ewz Tramstrasse", "provider": "publibike", "timeStamp": "02/17/2020, 14:09:04", "zip": 8050}, "type": "Feature"}, {"geometry": {"coordinates": [8.533736, 47.366904], "type": "Point"}, "properties": {"address": "Bleicherweg 33", "electric": 1, "id": "pb_140", "manual": 15, "name": "Bleicherweg", "provider": "publibike", "timeStamp": "02/17/2020, 14:09:04", "zip": 8002}, "type": "Feature"}, {"geometry": {"coordinates": [8.544935, 47.366752], "type": "Point"}, "properties": {"address": "Bellevueplatz 2", "electric": 0, "id": "pb_141", "manual": 26, "name": "Bellevue", "provider": "publibike", "timeStamp": "02/17/2020, 14:09:04", "zip": 8001}, "type": "Feature"}, {"geometry": {"coordinates": [8.5285533, 47.3742296], "type": "Point"}, "properties": {"address": "Stauffacherstrasse 41", "electric": 1, "id": "pb_142", "manual": 8, "name": "Stauffacher", "provider": "publibike", "timeStamp": "02/17/2020, 14:09:04", "zip": 8004}, "type": "Feature"}, {"geometry": {"coordinates": [8.523722, 47.3899], "type": "Point"}, "properties": {"address": "Limmatstrasse 310", "electric": 2, "id": "pb_143", "manual": 1, "name": "Escher-Wyss-Platz", "provider": "publibike", "timeStamp": "02/17/2020, 14:09:04", "zip": 8005}, "type": "Feature"}, {"geometry": {"coordinates": [8.491061, 47.392336], "type": "Point"}, "properties": {"address": "Vulkanplatz 1", "electric": 7, "id": "pb_149", "manual": 3, "name": "Vulkanplatz", "provider": "publibike", "timeStamp": "02/17/2020, 14:09:04", "zip": 8048}, "type": "Feature"}, {"geometry": {"coordinates": [8.52306, 47.359872], "type": "Point"}, "properties": {"address": "Giessh\u00fcbelstrasse 15", "electric": 0, "id": "pb_150", "manual": 0, "name": "Utoplatz", "provider": "publibike", "timeStamp": "02/17/2020, 14:09:04", "zip": 8045}, "type": "Feature"}, {"geometry": {"coordinates": [8.486284, 47.387685], "type": "Point"}, "properties": {"address": "Lindenplatz 1", "electric": 0, "id": "pb_151", "manual": 8, "name": "Lindenplatz", "provider": "publibike", "timeStamp": "02/17/2020, 14:09:04", "zip": 8048}, "type": "Feature"}, {"geometry": {"coordinates": [8.49163, 47.389823], "type": "Point"}, "properties": {"address": "Hohlstrasse 563", "electric": 8, "id": "pb_152", "manual": 1, "name": "Luggweg", "provider": "publibike", "timeStamp": "02/17/2020, 14:09:04", "zip": 8048}, "type": "Feature"}, {"geometry": {"coordinates": [8.52174, 47.365272], "type": "Point"}, "properties": {"address": "Manessestrasse 87", "electric": 1, "id": "pb_153", "manual": 4, "name": "Manesseplatz", "provider": "publibike", "timeStamp": "02/17/2020, 14:09:04", "zip": 8045}, "type": "Feature"}, {"geometry": {"coordinates": [8.52714, 47.372329], "type": "Point"}, "properties": {"address": "Werdstrasse 75", "electric": 1, "id": "pb_154", "manual": 8, "name": "Werd", "provider": "publibike", "timeStamp": "02/17/2020, 14:09:04", "zip": 8004}, "type": "Feature"}, {"geometry": {"coordinates": [8.543042, 47.374711], "type": "Point"}, "properties": {"address": "Limmatquai 100", "electric": 0, "id": "pb_155", "manual": 0, "name": "Rudolf-Brun-Br\u00fccke", "provider": "publibike", "timeStamp": "02/17/2020, 14:09:04", "zip": 8001}, "type": "Feature"}, {"geometry": {"coordinates": [8.490837, 47.386596], "type": "Point"}, "properties": {"address": "Badenerstrasse 627", "electric": 7, "id": "pb_156", "manual": 0, "name": "Luggwegstrasse VBZ", "provider": "publibike", "timeStamp": "02/17/2020, 14:09:04", "zip": 8048}, "type": "Feature"}, {"geometry": {"coordinates": [8.535119, 47.355189], "type": "Point"}, "properties": {"address": "Mythenquai 95", "electric": 0, "id": "pb_157", "manual": 2, "name": "Strandbad Mythenquai", "provider": "publibike", "timeStamp": "02/17/2020, 14:09:04", "zip": 8002}, "type": "Feature"}, {"geometry": {"coordinates": [8.545505, 47.373675], "type": "Point"}, "properties": {"address": "Predigerpatz 21", "electric": 3, "id": "pb_158", "manual": 13, "name": "Predigerplatz", "provider": "publibike", "timeStamp": "02/17/2020, 14:09:04", "zip": 8001}, "type": "Feature"}, {"geometry": {"coordinates": [8.515558, 47.371868], "type": "Point"}, "properties": {"address": "Aemtlerstrasse 23", "electric": 0, "id": "pb_159", "manual": 0, "name": "Zwinglihaus", "provider": "publibike", "timeStamp": "02/17/2020, 14:09:04", "zip": 8003}, "type": "Feature"}, {"geometry": {"coordinates": [8.524629, 47.386072], "type": "Point"}, "properties": {"address": "Josefstrasse 188", "electric": 0, "id": "pb_160", "manual": 0, "name": "Josefwiese", "provider": "publibike", "timeStamp": "02/17/2020, 14:09:04", "zip": 8005}, "type": "Feature"}, {"geometry": {"coordinates": [8.527138, 47.387531], "type": "Point"}, "properties": {"address": "R\u00f6ntgenstrasse 87", "electric": 0, "id": "pb_164", "manual": 0, "name": "Markthalle", "provider": "publibike", "timeStamp": "02/17/2020, 14:09:04", "zip": 8005}, "type": "Feature"}, {"geometry": {"coordinates": [8.552717, 47.359978], "type": "Point"}, "properties": {"address": "Seefeldstrasse 96", "electric": 4, "id": "pb_263", "manual": 5, "name": "Feldeggstrasse", "provider": "publibike", "timeStamp": "02/17/2020, 14:09:04", "zip": 8008}, "type": "Feature"}, {"geometry": {"coordinates": [8.553189, 47.353198], "type": "Point"}, "properties": {"address": "Bellerivestrasse 170", "electric": 0, "id": "pb_264", "manual": 0, "name": "Lake Side", "provider": "publibike", "timeStamp": "02/17/2020, 14:09:04", "zip": 8008}, "type": "Feature"}, {"geometry": {"coordinates": [8.543437, 47.369256], "type": "Point"}, "properties": {"address": "Limmatquai 18", "electric": 0, "id": "pb_265", "manual": 0, "name": "Helmhaus", "provider": "publibike", "timeStamp": "02/17/2020, 14:09:04", "zip": 8032}, "type": "Feature"}, {"geometry": {"coordinates": [8.516676, 47.375819], "type": "Point"}, "properties": {"address": "Badenerstrasse 246", "electric": 0, "id": "pb_266", "manual": 1, "name": "Lochergut", "provider": "publibike", "timeStamp": "02/17/2020, 14:09:04", "zip": 8004}, "type": "Feature"}, {"geometry": {"coordinates": [8.514605, 47.389862], "type": "Point"}, "properties": {"address": "Pfingstweidstrasse 60", "electric": 9, "id": "pb_273", "manual": 9, "name": "Westpark", "provider": "publibike", "timeStamp": "02/17/2020, 14:09:04", "zip": 8005}, "type": "Feature"}, {"geometry": {"coordinates": [8.541239126, 47.375991201], "type": "Point"}, "properties": {"address": "Beatenplatz 1", "electric": 6, "id": "pb_274", "manual": 6, "name": "Beatenplatz", "provider": "publibike", "timeStamp": "02/17/2020, 14:09:04", "zip": 8001}, "type": "Feature"}, {"geometry": {"coordinates": [8.5417135, 47.3942197], "type": "Point"}, "properties": {"address": "Scheuchzerstrasse 181", "electric": 1, "id": "pb_275", "manual": 3, "name": "Pauluskirche", "provider": "publibike", "timeStamp": "02/17/2020, 14:09:04", "zip": 8057}, "type": "Feature"}, {"geometry": {"coordinates": [8.5528182, 47.414558], "type": "Point"}, "properties": {"address": "Hagenholzstrasse 51", "electric": 9, "id": "pb_276", "manual": 9, "name": "Airgate", "provider": "publibike", "timeStamp": "02/17/2020, 14:09:04", "zip": 8050}, "type": "Feature"}, {"geometry": {"coordinates": [8.537816, 47.413514], "type": "Point"}, "properties": {"address": "Birchstrasse 183", "electric": 7, "id": "pb_277", "manual": 1, "name": "Lamprechtweg", "provider": "publibike", "timeStamp": "02/17/2020, 14:09:04", "zip": 8050}, "type": "Feature"}, {"geometry": {"coordinates": [8.545602, 47.417701], "type": "Point"}, "properties": {"address": "Felsenrainstrasse 2", "electric": 2, "id": "pb_278", "manual": 2, "name": "Emil-Oberh\u00e4nsli", "provider": "publibike", "timeStamp": "02/17/2020, 14:09:04", "zip": 8050}, "type": "Feature"}, {"geometry": {"coordinates": [8.533647, 47.39808], "type": "Point"}, "properties": {"address": "Bucheggplatz 2", "electric": 3, "id": "pb_279", "manual": 1, "name": "Bucheggplatz", "provider": "publibike", "timeStamp": "02/17/2020, 14:09:04", "zip": 8057}, "type": "Feature"}, {"geometry": {"coordinates": [8.523549, 47.392347], "type": "Point"}, "properties": {"address": "Wipkingerplatz 4", "electric": 3, "id": "pb_280", "manual": 2, "name": "Wipkingerplatz", "provider": "publibike", "timeStamp": "02/17/2020, 14:09:04", "zip": 8037}, "type": "Feature"}, {"geometry": {"coordinates": [8.548562, 47.36691], "type": "Point"}, "properties": {"address": "Galerie \u00fcber Gleis 2/3", "electric": 1, "id": "pb_285", "manual": 2, "name": "Bahnhof Stadelhofen", "provider": "publibike", "timeStamp": "02/17/2020, 14:09:04", "zip": 8001}, "type": "Feature"}, {"geometry": {"coordinates": [8.493822, 47.3985553], "type": "Point"}, "properties": {"address": "Meierwiesenstrasse 12-4", "electric": 8, "id": "pb_286", "manual": 1, "name": "T\u00fcffenwies", "provider": "publibike", "timeStamp": "02/17/2020, 14:09:04", "zip": 8064}, "type": "Feature"}, {"geometry": {"coordinates": [8.552432, 47.3801757], "type": "Point"}, "properties": {"address": "Hochstrasse 34", "electric": 4, "id": "pb_356", "manual": 0, "name": "Siriuswiese", "provider": "publibike", "timeStamp": "02/17/2020, 14:09:04", "zip": 8044}, "type": "Feature"}, {"geometry": {"coordinates": [8.527298, 47.370141], "type": "Point"}, "properties": {"address": "Hallwylstrasse 71", "electric": 2, "id": "pb_357", "manual": 1, "name": "Hallwylstrasse", "provider": "publibike", "timeStamp": "02/17/2020, 14:09:04", "zip": 8004}, "type": "Feature"}, {"geometry": {"coordinates": [8.5414185, 47.3972455], "type": "Point"}, "properties": {"address": "Schaffhauserstrasse 137", "electric": 6, "id": "pb_358", "manual": 1, "name": "Milchbuck", "provider": "publibike", "timeStamp": "02/17/2020, 14:09:04", "zip": 8057}, "type": "Feature"}, {"geometry": {"coordinates": [8.512381, 47.393409], "type": "Point"}, "properties": {"address": "Hardturmstrasse 161", "electric": 1, "id": "pb_359", "manual": 4, "name": "Fischerweg", "provider": "publibike", "timeStamp": "02/17/2020, 14:09:04", "zip": 8005}, "type": "Feature"}, {"geometry": {"coordinates": [8.5421457, 47.3876979], "type": "Point"}, "properties": {"address": "Turnerstrasse 47", "electric": 4, "id": "pb_360", "manual": 2, "name": "Kirche Unterstrass", "provider": "publibike", "timeStamp": "02/17/2020, 14:09:04", "zip": 8006}, "type": "Feature"}, {"geometry": {"coordinates": [8.522117, 47.394554], "type": "Point"}, "properties": {"address": "Dorfstrasse 40", "electric": 1, "id": "pb_361", "manual": 2, "name": "Dorfstrasse", "provider": "publibike", "timeStamp": "02/17/2020, 14:09:04", "zip": 8037}, "type": "Feature"}, {"geometry": {"coordinates": [8.530437, 47.37271], "type": "Point"}, "properties": {"address": "Werdstrasse 25", "electric": 4, "id": "pb_362", "manual": 4, "name": "Stauffachertor", "provider": "publibike", "timeStamp": "02/17/2020, 14:09:04", "zip": 8004}, "type": "Feature"}, {"geometry": {"coordinates": [8.541712, 47.416155], "type": "Point"}, "properties": {"address": "Eggb\u00fchlstrasse 21", "electric": 3, "id": "pb_363", "manual": 1, "name": "Wahlenpark", "provider": "publibike", "timeStamp": "02/17/2020, 14:09:04", "zip": 8050}, "type": "Feature"}, {"geometry": {"coordinates": [8.5595335, 47.3708387], "type": "Point"}, "properties": {"address": "Dolderstrasse 32", "electric": 1, "id": "pb_364", "manual": 0, "name": "Kinderspital", "provider": "publibike", "timeStamp": "02/17/2020, 14:09:04", "zip": 8032}, "type": "Feature"}, {"geometry": {"coordinates": [8.536433, 47.388689], "type": "Point"}, "properties": {"address": "Kornhausstrasse 30", "electric": 0, "id": "pb_365", "manual": 2, "name": "Kornhausstrasse", "provider": "publibike", "timeStamp": "02/17/2020, 14:09:04", "zip": 8006}, "type": "Feature"}, {"geometry": {"coordinates": [8.55033, 47.407098], "type": "Point"}, "properties": {"address": "Schwamendingenstrasse 41", "electric": 0, "id": "pb_366", "manual": 7, "name": "Dorflinde", "provider": "publibike", "timeStamp": "02/17/2020, 14:09:04", "zip": 8050}, "type": "Feature"}, {"geometry": {"coordinates": [8.560476, 47.368199], "type": "Point"}, "properties": {"address": "R\u00f6merhofplatz 5", "electric": 4, "id": "pb_367", "manual": 2, "name": "R\u00f6merhof", "provider": "publibike", "timeStamp": "02/17/2020, 14:09:04", "zip": 8032}, "type": "Feature"}, {"geometry": {"coordinates": [8.5609218, 47.3619068], "type": "Point"}, "properties": {"address": "Forchstrasse 99", "electric": 3, "id": "pb_368", "manual": 2, "name": "Hegibachplatz", "provider": "publibike", "timeStamp": "02/17/2020, 14:09:04", "zip": 8032}, "type": "Feature"}, {"geometry": {"coordinates": [8.5721264, 47.4039985], "type": "Point"}, "properties": {"address": "Winterthurerstrasse 519", "electric": 2, "id": "pb_370", "manual": 4, "name": "Schwamendingerplatz", "provider": "publibike", "timeStamp": "02/17/2020, 14:09:04", "zip": 8051}, "type": "Feature"}, {"geometry": {"coordinates": [8.520168, 47.378556], "type": "Point"}, "properties": {"address": "Herman-Greulich-Strasse 56", "electric": 0, "id": "pb_384", "manual": 1, "name": "Hermann-Greulich-Weg", "provider": "publibike", "timeStamp": "02/17/2020, 14:09:04", "zip": 8004}, "type": "Feature"}, {"geometry": {"coordinates": [8.547912, 47.384923], "type": "Point"}, "properties": {"address": "Culmannstrasse", "electric": 1, "id": "pb_386", "manual": 0, "name": "Rigiplatz", "provider": "publibike", "timeStamp": "02/17/2020, 14:09:04", "zip": 8006}, "type": "Feature"}, {"geometry": {"coordinates": [8.543768, 47.411057], "type": "Point"}, "properties": {"address": "Hofwiesenstrasse 369", "electric": 4, "id": "pb_387", "manual": 4, "name": "Bahnhof Oerlikon S\u00fcd", "provider": "publibike", "timeStamp": "02/17/2020, 14:09:04", "zip": 8050}, "type": "Feature"}, {"geometry": {"coordinates": [8.544185, 47.412732], "type": "Point"}, "properties": {"address": "Jungholzstrasse 6", "electric": 0, "id": "pb_388", "manual": 3, "name": "Max-Frisch-Platz", "provider": "publibike", "timeStamp": "02/17/2020, 14:09:04", "zip": 8050}, "type": "Feature"}, {"geometry": {"coordinates": [8.558096, 47.413032], "type": "Point"}, "properties": {"address": "Andreasstrasse", "electric": 1, "id": "pb_389", "manual": 0, "name": "Hunziker-Areal", "provider": "publibike", "timeStamp": "02/17/2020, 14:09:04", "zip": 8050}, "type": "Feature"}, {"geometry": {"coordinates": [8.533265, 47.412873], "type": "Point"}, "properties": {"address": "Regina-K\u00e4gi-Strasse 1", "electric": 4, "id": "pb_390", "manual": 7, "name": "Luis-H\u00e4fliger-Park", "provider": "publibike", "timeStamp": "02/17/2020, 14:09:04", "zip": 8050}, "type": "Feature"}, {"geometry": {"coordinates": [8.499265, 47.401852], "type": "Point"}, "properties": {"address": "Limmattalstrasse 177", "electric": 2, "id": "pb_391", "manual": 0, "name": "Meierhofplatz", "provider": "publibike", "timeStamp": "02/17/2020, 14:09:04", "zip": 8049}, "type": "Feature"}, {"geometry": {"coordinates": [8.528356, 47.393255], "type": "Point"}, "properties": {"address": "R\u00f6schibachstrasse 73", "electric": 11, "id": "pb_392", "manual": 0, "name": "R\u00f6schibachplatz", "provider": "publibike", "timeStamp": "02/17/2020, 14:09:04", "zip": 8037}, "type": "Feature"}, {"geometry": {"coordinates": [8.538067, 47.415721], "type": "Point"}, "properties": {"address": "Birchstrasse 191", "electric": 6, "id": "pb_393", "manual": 0, "name": "Oerliker Park", "provider": "publibike", "timeStamp": "02/17/2020, 14:09:04", "zip": 8050}, "type": "Feature"}, {"geometry": {"coordinates": [8.5420304, 47.3669233], "type": "Point"}, "properties": {"address": "Stadthausquai 1", "electric": 6, "id": "pb_395", "manual": 9, "name": "B\u00fcrkliplatz", "provider": "publibike", "timeStamp": "02/17/2020, 14:09:04", "zip": 8001}, "type": "Feature"}, {"geometry": {"coordinates": [8.535767, 47.409881], "type": "Point"}, "properties": {"address": "Regensbergstrasse 195", "electric": 1, "id": "pb_396", "manual": 3, "name": "Holunderhof", "provider": "publibike", "timeStamp": "02/17/2020, 14:09:04", "zip": 8050}, "type": "Feature"}, {"geometry": {"coordinates": [8.5116245, 47.3616199], "type": "Point"}, "properties": {"address": "Grubenstrasse 42", "electric": 7, "id": "pb_431", "manual": 3, "name": "Binz Center", "provider": "publibike", "timeStamp": "02/17/2020, 14:09:04", "zip": 8045}, "type": "Feature"}, {"geometry": {"coordinates": [8.547195, 47.382089], "type": "Point"}, "properties": {"address": "Nelkenstrasse 24", "electric": 0, "id": "pb_430", "manual": 1, "name": "Stapferstube", "provider": "publibike", "timeStamp": "02/17/2020, 14:09:04", "zip": 8006}, "type": "Feature"}, {"geometry": {"coordinates": [8.5787183, 47.4039845], "type": "Point"}, "properties": {"address": "Kronwiesenstrasse 35", "electric": 2, "id": "pb_426", "manual": 2, "name": "Kronwiesen", "provider": "publibike", "timeStamp": "02/17/2020, 14:09:04", "zip": 8051}, "type": "Feature"}, {"geometry": {"coordinates": [8.508131, 47.420757], "type": "Point"}, "properties": {"address": "Riedenhaldenstrasse 20-18", "electric": 11, "id": "pb_425", "manual": 6, "name": "Bahnhof Affoltern", "provider": "publibike", "timeStamp": "02/17/2020, 14:09:04", "zip": 8046}, "type": "Feature"}, {"geometry": {"coordinates": [8.532464, 47.406988], "type": "Point"}, "properties": {"address": "K\u00fcnzlistrasse 41", "electric": 0, "id": "pb_424", "manual": 1, "name": "Birchd\u00f6rfli", "provider": "publibike", "timeStamp": "02/17/2020, 14:09:04", "zip": 8057}, "type": "Feature"}, {"geometry": {"coordinates": [8.5777038, 47.4080095], "type": "Point"}, "properties": {"address": "Luegislandstrasse 412", "electric": 4, "id": "pb_429", "manual": 1, "name": "Luegisland", "provider": "publibike", "timeStamp": "02/17/2020, 14:09:04", "zip": 8051}, "type": "Feature"}, {"geometry": {"coordinates": [8.58841, 47.40158], "type": "Point"}, "properties": {"address": "Hirzenbachstrasse 2-4", "electric": 5, "id": "pb_428", "manual": 0, "name": "Hirzenbachstrasse", "provider": "publibike", "timeStamp": "02/17/2020, 14:09:04", "zip": 8051}, "type": "Feature"}, {"geometry": {"coordinates": [8.5563463, 47.4095467], "type": "Point"}, "properties": {"address": "K\u00fchriedweg", "electric": 1, "id": "pb_445", "manual": 3, "name": "Hallenbad Oerlikon", "provider": "publibike", "timeStamp": "02/17/2020, 14:09:04", "zip": 8050}, "type": "Feature"}, {"geometry": {"coordinates": [8.537971, 47.364871], "type": "Point"}, "properties": {"address": "General-Guisan-Quai 17", "electric": 4, "id": "pb_454", "manual": 12, "name": "General-Guisan-Quai", "provider": "publibike", "timeStamp": "02/17/2020, 14:09:04", "zip": 8002}, "type": "Feature"}, {"geometry": {"coordinates": [8.560587, 47.350578], "type": "Point"}, "properties": {"address": "Bellerivestrasse 245", "electric": 7, "id": "pb_450", "manual": 11, "name": "Bahnhof Tiefenbrunnen", "provider": "publibike", "timeStamp": "02/17/2020, 14:09:04", "zip": 8008}, "type": "Feature"}, {"geometry": {"coordinates": [8.5269416, 47.3563719], "type": "Point"}, "properties": {"address": "Waffenplatzstrasse 89", "electric": 0, "id": "pb_452", "manual": 0, "name": "Rieterplatz", "provider": "publibike", "timeStamp": "02/17/2020, 14:09:04", "zip": 8002}, "type": "Feature"}, {"geometry": {"coordinates": [8.514176, 47.3663708], "type": "Point"}, "properties": {"address": "Talwiesenstrasse 92", "electric": 0, "id": "pb_446", "manual": 0, "name": "Binzallee", "provider": "publibike", "timeStamp": "02/17/2020, 14:09:04", "zip": 8055}, "type": "Feature"}, {"geometry": {"coordinates": [8.5070564, 47.371455], "type": "Point"}, "properties": {"address": "Gutstrasse 87", "electric": 3, "id": "pb_447", "manual": 2, "name": "Gutstrasse", "provider": "publibike", "timeStamp": "02/17/2020, 14:09:04", "zip": 8055}, "type": "Feature"}, {"geometry": {"coordinates": [8.4941268, 47.3836391], "type": "Point"}, "properties": {"address": "Flurstrasse 62", "electric": 5, "id": "pb_453", "manual": 9, "name": "Flurpark", "provider": "publibike", "timeStamp": "02/17/2020, 14:09:04", "zip": 8048}, "type": "Feature"}, {"geometry": {"coordinates": [8.500343, 47.380778], "type": "Point"}, "properties": {"address": "Edelweissstrasse 32", "electric": 4, "id": "pb_448", "manual": 2, "name": "Bl\u00fcemliquartier", "provider": "publibike", "timeStamp": "02/17/2020, 14:09:04", "zip": 8048}, "type": "Feature"}, {"geometry": {"coordinates": [8.528796, 47.383858], "type": "Point"}, "properties": {"address": "Gasometerstrasse 24", "electric": 1, "id": "pb_449", "manual": 4, "name": "Gasometerstrasse", "provider": "publibike", "timeStamp": "02/17/2020, 14:09:04", "zip": 8005}, "type": "Feature"}, {"geometry": {"coordinates": [8.4981964, 47.3859194], "type": "Point"}, "properties": {"address": "Baslerstrasse 57", "electric": 8, "id": "pb_455", "manual": 10, "name": "Letzipark", "provider": "publibike", "timeStamp": "02/17/2020, 14:09:04", "zip": 8048}, "type": "Feature"}, {"geometry": {"coordinates": [8.515252, 47.381915], "type": "Point"}, "properties": {"address": "Sihlfeldstrasse 175", "electric": 0, "id": "pb_451", "manual": 3, "name": "Hardplatz", "provider": "publibike", "timeStamp": "02/17/2020, 14:09:04", "zip": 8004}, "type": "Feature"}, {"geometry": {"coordinates": [8.5064743, 47.4188324], "type": "Point"}, "properties": {"address": "Wehntalerstrasse 541", "electric": 5, "id": "pb_427", "manual": 8, "name": "Zehntenhausplatz", "provider": "publibike", "timeStamp": "02/17/2020, 14:09:04", "zip": 8046}, "type": "Feature"}, {"geometry": {"coordinates": [8.537729, 47.379719], "type": "Point"}, "properties": {"address": "Sihlquai/HB", "electric": 0, "id": "pb_513", "manual": 1, "name": "Sihlquai", "provider": "publibike", "timeStamp": "02/17/2020, 14:09:04", "zip": 8005}, "type": "Feature"}, {"geometry": {"coordinates": [8.596202, 47.397885], "type": "Point"}, "properties": {"address": "Bahnhof Stettbach", "electric": 2, "id": "pb_514", "manual": 1, "name": "Bahnhof Stettbach", "provider": "publibike", "timeStamp": "02/17/2020, 14:09:04", "zip": 8051}, "type": "Feature"}, {"geometry": {"coordinates": [8.5543974, 47.3690153], "type": "Point"}, "properties": {"address": "Kasinostrasse 10", "electric": 1, "id": "pb_515", "manual": 0, "name": "Hottingerplatz", "provider": "publibike", "timeStamp": "02/17/2020, 14:09:04", "zip": 8032}, "type": "Feature"}, {"geometry": {"coordinates": [8.534444, 47.351525], "type": "Point"}, "properties": {"address": "Mobile Station Z\u00fcrich 1", "electric": 0, "id": "pb_282", "manual": 0, "name": "Theaterspektakel", "provider": "publibike", "timeStamp": "02/17/2020, 14:09:04", "zip": 8002}, "type": "Feature"}, {"geometry": {"coordinates": [8.516257, 47.367656], "type": "Point"}, "properties": {"address": "Goldbrunnenstrasse 54", "electric": 1, "id": "pb_538", "manual": 0, "name": "Kirche B\u00fchl", "provider": "publibike", "timeStamp": "02/17/2020, 14:09:04", "zip": 8055}, "type": "Feature"}, {"geometry": {"coordinates": [8.555639, 47.416873], "type": "Point"}, "properties": {"address": "Leutschenbachstrasse 50", "electric": 4, "id": "pb_537", "manual": 7, "name": "Leutschenpark", "provider": "publibike", "timeStamp": "02/17/2020, 14:09:04", "zip": 8050}, "type": "Feature"}, {"geometry": {"coordinates": [8.546464, 47.403822], "type": "Point"}, "properties": {"address": "Berninastrasse 45", "electric": 3, "id": "pb_540", "manual": 2, "name": "Berninaplatz", "provider": "publibike", "timeStamp": "02/17/2020, 14:09:04", "zip": 8057}, "type": "Feature"}, {"geometry": {"coordinates": [8.523134, 47.369004], "type": "Point"}, "properties": {"address": "Erlachstrasse 3", "electric": 0, "id": "pb_385", "manual": 0, "name": "Aegerten", "provider": "publibike", "timeStamp": "02/17/2020, 14:09:04", "zip": 8003}, "type": "Feature"}, {"geometry": {"coordinates": [8.49038, 47.381591], "type": "Point"}, "properties": {"address": "Rautistrasse 60", "electric": 1, "id": "pb_536", "manual": 1, "name": "Freilager", "provider": "publibike", "timeStamp": "02/17/2020, 14:09:04", "zip": 8048}, "type": "Feature"}, {"geometry": {"coordinates": [8.496511, 47.375247], "type": "Point"}, "properties": {"address": "Letzigraben 139", "electric": 2, "id": "pb_444", "manual": 6, "name": "Sackzelg", "provider": "publibike", "timeStamp": "02/17/2020, 14:09:04", "zip": 8047}, "type": "Feature"}, {"geometry": {"coordinates": [8.58131, 47.402801], "type": "Point"}, "properties": {"address": "Altwiesenstrasse 104", "electric": 0, "id": "pb_539", "manual": 1, "name": "Glattwiesen", "provider": "publibike", "timeStamp": "02/17/2020, 14:09:04", "zip": 8051}, "type": "Feature"}, {"geometry": {"coordinates": [8.52689, 47.3767], "type": "Point"}, "properties": {"address": "Molkenstrasse 5", "electric": 0, "id": "pb_560", "manual": 2, "name": "Helvetiaplatz", "provider": "publibike", "timeStamp": "02/17/2020, 14:09:04", "zip": 8004}, "type": "Feature"}, {"geometry": {"coordinates": [8.525602, 47.374241], "type": "Point"}, "properties": {"address": "Badenerstrasse 90", "electric": 0, "id": "pb_559", "manual": 5, "name": "Bezirksgeb\u00e4ude", "provider": "publibike", "timeStamp": "02/17/2020, 14:09:04", "zip": 8004}, "type": "Feature"}, {"geometry": {"coordinates": [8.535082, 47.345248], "type": "Point"}, "properties": {"address": "Bachstrasse 15", "electric": 2, "id": "pb_564", "manual": 3, "name": "GZ Wollishofen", "provider": "publibike", "timeStamp": "02/17/2020, 14:09:04", "zip": 8038}, "type": "Feature"}, {"geometry": {"coordinates": [8.514841, 47.370238], "type": "Point"}, "properties": {"address": "Schrennengasse 37", "electric": 0, "id": "pb_562", "manual": 0, "name": "Goldbrunnenplatz", "provider": "publibike", "timeStamp": "02/17/2020, 14:09:04", "zip": 8003}, "type": "Feature"}, {"geometry": {"coordinates": [8.514138, 47.374206], "type": "Point"}, "properties": {"address": "Idaplatz 4", "electric": 0, "id": "pb_557", "manual": 1, "name": "Idaplatz", "provider": "publibike", "timeStamp": "02/17/2020, 14:09:04", "zip": 8003}, "type": "Feature"}, {"geometry": {"coordinates": [8.518432, 47.369549], "type": "Point"}, "properties": {"address": "Brinerstrasse 2", "electric": 0, "id": "pb_558", "manual": 1, "name": "Schmiede Wiedikon", "provider": "publibike", "timeStamp": "02/17/2020, 14:09:04", "zip": 8003}, "type": "Feature"}, {"geometry": {"coordinates": [8.537546, 47.391289], "type": "Point"}, "properties": {"address": "Rotbuchstrasse 15", "electric": 3, "id": "pb_556", "manual": 0, "name": "Schaffhauserplatz", "provider": "publibike", "timeStamp": "02/17/2020, 14:09:04", "zip": 8006}, "type": "Feature"}, {"geometry": {"coordinates": [8.541541, 47.413733], "type": "Point"}, "properties": {"address": "Therese-Giehse-Strasse 11", "electric": 2, "id": "pb_561", "manual": 4, "name": "Center Eleven", "provider": "publibike", "timeStamp": "02/17/2020, 14:09:04", "zip": 8050}, "type": "Feature"}, {"geometry": {"coordinates": [8.534227, 47.360004], "type": "Point"}, "properties": {"address": "Alfred Escher-Strasse 76", "electric": 19, "id": "pb_563", "manual": 9, "name": "Mythenschloss", "provider": "publibike", "timeStamp": "02/17/2020, 14:09:04", "zip": 8002}, "type": "Feature"}, {"geometry": {"coordinates": [8.50373, 47.396172], "type": "Point"}, "properties": {"address": "Hardeggstrasse 6", "electric": 3, "id": "pb_566", "manual": 6, "name": "Am Wasser", "provider": "publibike", "timeStamp": "02/17/2020, 14:09:04", "zip": 8049}, "type": "Feature"}, {"geometry": {"coordinates": [8.532432, 47.381174], "type": "Point"}, "properties": {"address": "Klingenstrasse 9", "electric": 1, "id": "pb_565", "manual": 1, "name": "Zollstrasse", "provider": "publibike", "timeStamp": "02/17/2020, 14:09:04", "zip": 8005}, "type": "Feature"}, {"geometry": {"coordinates": [8.497982, 47.381447], "type": "Point"}, "properties": {"address": "Dennlerstrasse 23", "electric": 3, "id": "pb_567", "manual": 1, "name": "Dennlerstrasse", "provider": "publibike", "timeStamp": "02/17/2020, 14:09:04", "zip": 8047}, "type": "Feature"}, {"geometry": {"coordinates": [8.528049, 47.347701], "type": "Point"}, "properties": {"address": "Mutschellenstrasse 114", "electric": 1, "id": "pb_568", "manual": 1, "name": "Jugendherberge", "provider": "publibike", "timeStamp": "02/17/2020, 14:09:04", "zip": 8038}, "type": "Feature"}, {"geometry": {"coordinates": [8.539016, 47.405751], "type": "Point"}, "properties": {"address": "Ringstrasse 82", "electric": 3, "id": "pb_569", "manual": 1, "name": "Freibad Allenmoos", "provider": "publibike", "timeStamp": "02/17/2020, 14:09:04", "zip": 8057}, "type": "Feature"}, {"geometry": {"coordinates": [8.534974, 47.402164], "type": "Point"}, "properties": {"address": "Brache Guggach", "electric": 4, "id": "pb_572", "manual": 1, "name": "Radiostudio", "provider": "publibike", "timeStamp": "02/17/2020, 14:09:04", "zip": 8057}, "type": "Feature"}, {"geometry": {"coordinates": [8.547901, 47.375556], "type": "Point"}, "properties": {"address": "Karl-Schmid-Strasse 4", "electric": 12, "id": "pb_571", "manual": 1, "name": "ETH/Zoologisches Museum", "provider": "publibike", "timeStamp": "02/17/2020, 14:09:04", "zip": 8006}, "type": "Feature"}, {"geometry": {"coordinates": [8.484641, 47.394368], "type": "Point"}, "properties": {"charge": 83, "id": "smide_2901", "name": "ZH 267278", "provider": "smide", "range": 41.0, "size": 20, "time": "02/17/2020, 14:08:35"}, "type": "Feature"}, {"geometry": {"coordinates": [8.514305, 47.357263], "type": "Point"}, "properties": {"charge": 32, "id": "smide_2880", "name": "ZH267289", "provider": "smide", "range": 16.0, "size": 17, "time": "02/17/2020, 14:08:35"}, "type": "Feature"}, {"geometry": {"coordinates": [8.518321, 47.367428], "type": "Point"}, "properties": {"charge": 15, "id": "smide_2871", "name": "ZH 267086", "provider": "smide", "range": 7.0, "size": 20, "time": "02/17/2020, 14:08:35"}, "type": "Feature"}, {"geometry": {"coordinates": [8.511596, 47.430598], "type": "Point"}, "properties": {"charge": 73, "id": "smide_2867", "name": "ZH 267090", "provider": "smide", "range": 36.0, "size": 20, "time": "02/17/2020, 14:08:35"}, "type": "Feature"}, {"geometry": {"coordinates": [8.51937, 47.37282], "type": "Point"}, "properties": {"charge": 87, "id": "smide_2861", "name": "ZH 267096", "provider": "smide", "range": 43.0, "size": 17, "time": "02/17/2020, 14:08:35"}, "type": "Feature"}, {"geometry": {"coordinates": [8.501941, 47.36227], "type": "Point"}, "properties": {"charge": 100, "id": "smide_2854", "name": "ZH 267103", "provider": "smide", "range": 50.0, "size": 17, "time": "02/17/2020, 14:08:35"}, "type": "Feature"}, {"geometry": {"coordinates": [8.569878, 47.328908], "type": "Point"}, "properties": {"charge": 16, "id": "smide_2831", "name": "ZH 267180", "provider": "smide", "range": 8.0, "size": 20, "time": "02/17/2020, 14:08:35"}, "type": "Feature"}, {"geometry": {"coordinates": [8.558088, 47.352648], "type": "Point"}, "properties": {"charge": 67, "id": "smide_2795", "name": "ZH 266885", "provider": "smide", "range": 33.0, "size": 17, "time": "02/17/2020, 14:08:35"}, "type": "Feature"}, {"geometry": {"coordinates": [8.50227, 47.362128], "type": "Point"}, "properties": {"charge": 100, "id": "smide_2793", "name": "ZH266883", "provider": "smide", "range": 50.0, "size": 17, "time": "02/17/2020, 14:08:35"}, "type": "Feature"}, {"geometry": {"coordinates": [8.50653, 47.360965], "type": "Point"}, "properties": {"charge": 49, "id": "smide_2785", "name": "ZH266875", "provider": "smide", "range": 24.0, "size": 17, "time": "02/17/2020, 14:08:35"}, "type": "Feature"}, {"geometry": {"coordinates": [8.530071, 47.377513], "type": "Point"}, "properties": {"charge": 78, "id": "smide_2780", "name": "ST1 X #1", "provider": "smide", "range": 39.0, "size": 17, "time": "02/17/2020, 14:08:35"}, "type": "Feature"}, {"geometry": {"coordinates": [8.532527, 47.377312], "type": "Point"}, "properties": {"charge": 17, "id": "smide_2773", "name": "ZH266561", "provider": "smide", "range": 8.0, "size": 17, "time": "02/17/2020, 14:08:35"}, "type": "Feature"}, {"geometry": {"coordinates": [8.54066, 47.369028], "type": "Point"}, "properties": {"charge": 87, "id": "smide_2763", "name": "ZH266641", "provider": "smide", "range": 43.0, "size": 17, "time": "02/17/2020, 14:08:35"}, "type": "Feature"}, {"geometry": {"coordinates": [8.524033, 47.37862], "type": "Point"}, "properties": {"charge": 75, "id": "smide_2761", "name": "ZH266642", "provider": "smide", "range": 37.0, "size": 20, "time": "02/17/2020, 14:08:35"}, "type": "Feature"}, {"geometry": {"coordinates": [8.546538, 47.376684], "type": "Point"}, "properties": {"charge": 59, "id": "smide_2759", "name": "ZH266639", "provider": "smide", "range": 29.0, "size": 17, "time": "02/17/2020, 14:08:35"}, "type": "Feature"}, {"geometry": {"coordinates": [8.512627, 47.390604], "type": "Point"}, "properties": {"charge": 73, "id": "smide_2752", "name": "BE343856", "provider": "smide", "range": 36.0, "size": 17, "time": "02/17/2020, 14:08:35"}, "type": "Feature"}, {"geometry": {"coordinates": [8.544203, 47.413736], "type": "Point"}, "properties": {"charge": 100, "id": "smide_2751", "name": "BE343857", "provider": "smide", "range": 50.0, "size": 17, "time": "02/17/2020, 14:08:35"}, "type": "Feature"}, {"geometry": {"coordinates": [8.522637, 47.367896], "type": "Point"}, "properties": {"charge": 76, "id": "smide_2748", "name": "BE335758", "provider": "smide", "range": 38.0, "size": 17, "time": "02/17/2020, 14:08:35"}, "type": "Feature"}, {"geometry": {"coordinates": [8.567182, 47.38278], "type": "Point"}, "properties": {"charge": 100, "id": "smide_2746", "name": "BE335817", "provider": "smide", "range": 50.0, "size": 17, "time": "02/17/2020, 14:08:35"}, "type": "Feature"}, {"geometry": {"coordinates": [8.54091, 47.36904], "type": "Point"}, "properties": {"charge": 45, "id": "smide_2747", "name": "BE335820", "provider": "smide", "range": 22.0, "size": 17, "time": "02/17/2020, 14:08:35"}, "type": "Feature"}, {"geometry": {"coordinates": [8.509074, 47.41012], "type": "Point"}, "properties": {"charge": 80, "id": "smide_2743", "name": "BE343864", "provider": "smide", "range": 40.0, "size": 17, "time": "02/17/2020, 14:08:35"}, "type": "Feature"}, {"geometry": {"coordinates": [8.536022, 47.344944], "type": "Point"}, "properties": {"charge": 28, "id": "smide_2742", "name": "BE343866", "provider": "smide", "range": 14.0, "size": 17, "time": "02/17/2020, 14:08:35"}, "type": "Feature"}, {"geometry": {"coordinates": [8.551174, 47.356628], "type": "Point"}, "properties": {"charge": 44, "id": "smide_2741", "name": "BE343874", "provider": "smide", "range": 22.0, "size": 17, "time": "02/17/2020, 14:08:35"}, "type": "Feature"}, {"geometry": {"coordinates": [8.535921, 47.373631], "type": "Point"}, "properties": {"charge": 59, "id": "smide_2738", "name": "BE343865", "provider": "smide", "range": 29.0, "size": 17, "time": "02/17/2020, 14:08:35"}, "type": "Feature"}, {"geometry": {"coordinates": [8.549767, 47.377284], "type": "Point"}, "properties": {"charge": 100, "id": "smide_2737", "name": "BE336149", "provider": "smide", "range": 50.0, "size": 17, "time": "02/17/2020, 14:08:35"}, "type": "Feature"}, {"geometry": {"coordinates": [8.508, 47.391092], "type": "Point"}, "properties": {"charge": 100, "id": "smide_2734", "name": "BE343876", "provider": "smide", "range": 50.0, "size": 17, "time": "02/17/2020, 14:08:35"}, "type": "Feature"}, {"geometry": {"coordinates": [8.550658, 47.381088], "type": "Point"}, "properties": {"charge": 86, "id": "smide_2733", "name": "BE343873", "provider": "smide", "range": 43.0, "size": 17, "time": "02/17/2020, 14:08:35"}, "type": "Feature"}, {"geometry": {"coordinates": [8.492757, 47.38396], "type": "Point"}, "properties": {"charge": 48, "id": "smide_2732", "name": "BE343870", "provider": "smide", "range": 24.0, "size": 17, "time": "02/17/2020, 14:08:35"}, "type": "Feature"}, {"geometry": {"coordinates": [8.546462, 47.367136], "type": "Point"}, "properties": {"charge": 49, "id": "smide_2729", "name": "BE343878", "provider": "smide", "range": 24.0, "size": 17, "time": "02/17/2020, 14:08:35"}, "type": "Feature"}, {"geometry": {"coordinates": [8.511015, 47.377013], "type": "Point"}, "properties": {"charge": 35, "id": "smide_2725", "name": "ZH261545", "provider": "smide", "range": 17.0, "size": 0, "time": "02/17/2020, 14:08:35"}, "type": "Feature"}, {"geometry": {"coordinates": [8.506985, 47.407475], "type": "Point"}, "properties": {"charge": 47, "id": "smide_2718", "name": "ZH259019", "provider": "smide", "range": 23.0, "size": 20, "time": "02/17/2020, 14:08:35"}, "type": "Feature"}, {"geometry": {"coordinates": [8.49441, 47.383206], "type": "Point"}, "properties": {"charge": 77, "id": "smide_2716", "name": "ZH254606", "provider": "smide", "range": 38.0, "size": 17, "time": "02/17/2020, 14:08:35"}, "type": "Feature"}, {"geometry": {"coordinates": [8.530642, 47.368532], "type": "Point"}, "properties": {"charge": 45, "id": "smide_2715", "name": "ZH254605", "provider": "smide", "range": 22.0, "size": 17, "time": "02/17/2020, 14:08:35"}, "type": "Feature"}, {"geometry": {"coordinates": [8.564704, 47.407156], "type": "Point"}, "properties": {"charge": 52, "id": "smide_2714", "name": "ZH256461", "provider": "smide", "range": 26.0, "size": 17, "time": "02/17/2020, 14:08:35"}, "type": "Feature"}, {"geometry": {"coordinates": [8.506597, 47.360572], "type": "Point"}, "properties": {"charge": 100, "id": "smide_2710", "name": "ZH256460", "provider": "smide", "range": 50.0, "size": 17, "time": "02/17/2020, 14:08:35"}, "type": "Feature"}, {"geometry": {"coordinates": [8.50206, 47.369844], "type": "Point"}, "properties": {"charge": 97, "id": "smide_2712", "name": "ZH256462", "provider": "smide", "range": 48.0, "size": 17, "time": "02/17/2020, 14:08:35"}, "type": "Feature"}, {"geometry": {"coordinates": [8.559223, 47.41486], "type": "Point"}, "properties": {"charge": 73, "id": "smide_2711", "name": "ZH256463", "provider": "smide", "range": 36.0, "size": 17, "time": "02/17/2020, 14:08:35"}, "type": "Feature"}, {"geometry": {"coordinates": [8.543421, 47.37273], "type": "Point"}, "properties": {"charge": 100, "id": "smide_2709", "name": "ZH256466", "provider": "smide", "range": 50.0, "size": 20, "time": "02/17/2020, 14:08:35"}, "type": "Feature"}, {"geometry": {"coordinates": [8.49237, 47.369352], "type": "Point"}, "properties": {"charge": 83, "id": "smide_2707", "name": "ZH256467", "provider": "smide", "range": 41.0, "size": 20, "time": "02/17/2020, 14:08:35"}, "type": "Feature"}, {"geometry": {"coordinates": [8.484756, 47.374496], "type": "Point"}, "properties": {"charge": 100, "id": "smide_2708", "name": "ZH256464", "provider": "smide", "range": 50.0, "size": 17, "time": "02/17/2020, 14:08:35"}, "type": "Feature"}, {"geometry": {"coordinates": [8.514505, 47.357512], "type": "Point"}, "properties": {"charge": 45, "id": "smide_2701", "name": "ZH256468", "provider": "smide", "range": 22.0, "size": 20, "time": "02/17/2020, 14:08:35"}, "type": "Feature"}, {"geometry": {"coordinates": [8.530421, 47.371545], "type": "Point"}, "properties": {"charge": 84, "id": "smide_2691", "name": "ZH254622", "provider": "smide", "range": 42.0, "size": 20, "time": "02/17/2020, 14:08:35"}, "type": "Feature"}, {"geometry": {"coordinates": [8.519043, 47.391048], "type": "Point"}, "properties": {"charge": 77, "id": "smide_2690", "name": "ZH254625", "provider": "smide", "range": 38.0, "size": 20, "time": "02/17/2020, 14:08:35"}, "type": "Feature"}, {"geometry": {"coordinates": [8.553496, 47.397512], "type": "Point"}, "properties": {"charge": 31, "id": "smide_2687", "name": "ZH263529", "provider": "smide", "range": 15.0, "size": 20, "time": "02/17/2020, 14:08:35"}, "type": "Feature"}, {"geometry": {"coordinates": [8.547261, 47.419508], "type": "Point"}, "properties": {"charge": 67, "id": "smide_2686", "name": "ZH263288", "provider": "smide", "range": 33.0, "size": 20, "time": "02/17/2020, 14:08:35"}, "type": "Feature"}, {"geometry": {"coordinates": [8.541987, 47.37716], "type": "Point"}, "properties": {"charge": 97, "id": "smide_2684", "name": "ZH254626", "provider": "smide", "range": 48.0, "size": 20, "time": "02/17/2020, 14:08:35"}, "type": "Feature"}, {"geometry": {"coordinates": [8.557131, 47.372851], "type": "Point"}, "properties": {"charge": 64, "id": "smide_2683", "name": "ZH254620", "provider": "smide", "range": 32.0, "size": 20, "time": "02/17/2020, 14:08:35"}, "type": "Feature"}, {"geometry": {"coordinates": [8.532319, 47.384428], "type": "Point"}, "properties": {"charge": 73, "id": "smide_2680", "name": "ZH254619", "provider": "smide", "range": 36.0, "size": 20, "time": "02/17/2020, 14:08:35"}, "type": "Feature"}, {"geometry": {"coordinates": [8.573933, 47.352732], "type": "Point"}, "properties": {"charge": 77, "id": "smide_2679", "name": "ZH258489", "provider": "smide", "range": 38.0, "size": 17, "time": "02/17/2020, 14:08:35"}, "type": "Feature"}, {"geometry": {"coordinates": [8.502081, 47.368996], "type": "Point"}, "properties": {"charge": 90, "id": "smide_2674", "name": "ZH258654", "provider": "smide", "range": 45.0, "size": 17, "time": "02/17/2020, 14:08:35"}, "type": "Feature"}, {"geometry": {"coordinates": [8.545543, 47.403348], "type": "Point"}, "properties": {"charge": 70, "id": "smide_2666", "name": "ZH258653", "provider": "smide", "range": 35.0, "size": 17, "time": "02/17/2020, 14:08:35"}, "type": "Feature"}, {"geometry": {"coordinates": [8.582786, 47.350984], "type": "Point"}, "properties": {"charge": 95, "id": "smide_2665", "name": "ZH258644", "provider": "smide", "range": 47.0, "size": 17, "time": "02/17/2020, 14:08:35"}, "type": "Feature"}, {"geometry": {"coordinates": [8.519056, 47.399044], "type": "Point"}, "properties": {"charge": 46, "id": "smide_2664", "name": "ZH258652", "provider": "smide", "range": 23.0, "size": 17, "time": "02/17/2020, 14:08:35"}, "type": "Feature"}, {"geometry": {"coordinates": [8.483906, 47.396892], "type": "Point"}, "properties": {"charge": 100, "id": "smide_2663", "name": "ZH258649", "provider": "smide", "range": 50.0, "size": 17, "time": "02/17/2020, 14:08:35"}, "type": "Feature"}, {"geometry": {"coordinates": [8.506971, 47.360404], "type": "Point"}, "properties": {"charge": 100, "id": "smide_2662", "name": "ZH258643", "provider": "smide", "range": 50.0, "size": 17, "time": "02/17/2020, 14:08:35"}, "type": "Feature"}, {"geometry": {"coordinates": [8.548566, 47.3626], "type": "Point"}, "properties": {"charge": 40, "id": "smide_2648", "name": "ZH257930", "provider": "smide", "range": 20.0, "size": 20, "time": "02/17/2020, 14:08:35"}, "type": "Feature"}, {"geometry": {"coordinates": [8.570145, 47.352166], "type": "Point"}, "properties": {"charge": 61, "id": "smide_2657", "name": "ZH257936", "provider": "smide", "range": 30.0, "size": 17, "time": "02/17/2020, 14:08:35"}, "type": "Feature"}, {"geometry": {"coordinates": [8.570087, 47.352336], "type": "Point"}, "properties": {"charge": 100, "id": "smide_2647", "name": "ZH257932", "provider": "smide", "range": 50.0, "size": 20, "time": "02/17/2020, 14:08:35"}, "type": "Feature"}, {"geometry": {"coordinates": [8.51765, 47.391896], "type": "Point"}, "properties": {"charge": 37, "id": "smide_2645", "name": "ZH257933", "provider": "smide", "range": 18.0, "size": 20, "time": "02/17/2020, 14:08:35"}, "type": "Feature"}, {"geometry": {"coordinates": [8.514338, 47.357351], "type": "Point"}, "properties": {"charge": 20, "id": "smide_3", "name": "ZH253765", "provider": "smide", "range": 10.0, "size": 20, "time": "02/17/2020, 14:08:35"}, "type": "Feature"}, {"geometry": {"coordinates": [8.517605, 47.361565], "type": "Point"}, "properties": {"charge": 100, "id": "smide_105", "name": "ZH253804", "provider": "smide", "range": 50.0, "size": 17, "time": "02/17/2020, 14:08:35"}, "type": "Feature"}, {"geometry": {"coordinates": [8.516165, 47.385476], "type": "Point"}, "properties": {"charge": 28, "id": "smide_77", "name": "ZH261548", "provider": "smide", "range": 14.0, "size": 20, "time": "02/17/2020, 14:08:35"}, "type": "Feature"}, {"geometry": {"coordinates": [8.502146, 47.368948], "type": "Point"}, "properties": {"charge": 91, "id": "smide_200", "name": "ZH253801", "provider": "smide", "range": 45.0, "size": 20, "time": "02/17/2020, 14:08:35"}, "type": "Feature"}, {"geometry": {"coordinates": [8.500533, 47.369975], "type": "Point"}, "properties": {"charge": 100, "id": "smide_197", "name": "ZH253864", "provider": "smide", "range": 50.0, "size": 20, "time": "02/17/2020, 14:08:35"}, "type": "Feature"}, {"geometry": {"coordinates": [8.536151, 47.377556], "type": "Point"}, "properties": {"charge": 90, "id": "smide_199", "name": "ZH253766", "provider": "smide", "range": 45.0, "size": 20, "time": "02/17/2020, 14:08:35"}, "type": "Feature"}, {"geometry": {"coordinates": [8.490303, 47.386304], "type": "Point"}, "properties": {"charge": 56, "id": "smide_8", "name": "ZH253861", "provider": "smide", "range": 28.0, "size": 17, "time": "02/17/2020, 14:08:35"}, "type": "Feature"}, {"geometry": {"coordinates": [8.557738, 47.376795], "type": "Point"}, "properties": {"charge": 66, "id": "smide_201", "name": "ZH253698", "provider": "smide", "range": 33.0, "size": 17, "time": "02/17/2020, 14:08:35"}, "type": "Feature"}, {"geometry": {"coordinates": [8.548504, 47.385704], "type": "Point"}, "properties": {"charge": 40, "id": "smide_71", "name": "ZH253742", "provider": "smide", "range": 20.0, "size": 20, "time": "02/17/2020, 14:08:35"}, "type": "Feature"}, {"geometry": {"coordinates": [8.488336, 47.374488], "type": "Point"}, "properties": {"charge": 77, "id": "smide_101", "name": "ZH253814", "provider": "smide", "range": 38.0, "size": 17, "time": "02/17/2020, 14:08:35"}, "type": "Feature"}, {"geometry": {"coordinates": [8.550482, 47.377664], "type": "Point"}, "properties": {"charge": 91, "id": "smide_9", "name": "ZH253796", "provider": "smide", "range": 45.0, "size": 17, "time": "02/17/2020, 14:08:35"}, "type": "Feature"}, {"geometry": {"coordinates": [8.526903, 47.372084], "type": "Point"}, "properties": {"charge": 72, "id": "smide_143", "name": "ZH253778", "provider": "smide", "range": 36.0, "size": 17, "time": "02/17/2020, 14:08:35"}, "type": "Feature"}, {"geometry": {"coordinates": [8.525681, 47.374215], "type": "Point"}, "properties": {"charge": 95, "id": "smide_180", "name": "ZH253824", "provider": "smide", "range": 47.0, "size": 20, "time": "02/17/2020, 14:08:35"}, "type": "Feature"}, {"geometry": {"coordinates": [8.545012, 47.38926], "type": "Point"}, "properties": {"charge": 24, "id": "smide_20", "name": "ZH253770", "provider": "smide", "range": 12.0, "size": 20, "time": "02/17/2020, 14:08:35"}, "type": "Feature"}, {"geometry": {"coordinates": [8.575806, 47.353108], "type": "Point"}, "properties": {"charge": 16, "id": "smide_30", "name": "ZH253813", "provider": "smide", "range": 8.0, "size": 20, "time": "02/17/2020, 14:08:35"}, "type": "Feature"}, {"geometry": {"coordinates": [8.558995, 47.415308], "type": "Point"}, "properties": {"charge": 84, "id": "smide_10", "name": "ZH253855", "provider": "smide", "range": 42.0, "size": 17, "time": "02/17/2020, 14:08:35"}, "type": "Feature"}, {"geometry": {"coordinates": [8.513263, 47.39184], "type": "Point"}, "properties": {"charge": 100, "id": "smide_179", "name": "ZH253687", "provider": "smide", "range": 50.0, "size": 20, "time": "02/17/2020, 14:08:35"}, "type": "Feature"}, {"geometry": {"coordinates": [8.487426, 47.383725], "type": "Point"}, "properties": {"charge": 79, "id": "smide_79", "name": "ZH253711", "provider": "smide", "range": 39.0, "size": 20, "time": "02/17/2020, 14:08:35"}, "type": "Feature"}, {"geometry": {"coordinates": [8.502036, 47.368948], "type": "Point"}, "properties": {"charge": 100, "id": "smide_84", "name": "ZH253733", "provider": "smide", "range": 50.0, "size": 17, "time": "02/17/2020, 14:08:35"}, "type": "Feature"}, {"geometry": {"coordinates": [8.520377, 47.372496], "type": "Point"}, "properties": {"charge": 42, "id": "smide_119", "name": "ZH253686", "provider": "smide", "range": 21.0, "size": 20, "time": "02/17/2020, 14:08:35"}, "type": "Feature"}, {"geometry": {"coordinates": [8.564429, 47.371736], "type": "Point"}, "properties": {"charge": 88, "id": "smide_76", "name": "ZH253764", "provider": "smide", "range": 44.0, "size": 17, "time": "02/17/2020, 14:08:35"}, "type": "Feature"}, {"geometry": {"coordinates": [8.509464, 47.392104], "type": "Point"}, "properties": {"charge": 85, "id": "smide_129", "name": "ZH261378", "provider": "smide", "range": 42.0, "size": 17, "time": "02/17/2020, 14:08:35"}, "type": "Feature"}, {"geometry": {"coordinates": [8.551255, 47.356426], "type": "Point"}, "properties": {"charge": 69, "id": "smide_49", "name": "ZH253873", "provider": "smide", "range": 34.0, "size": 17, "time": "02/17/2020, 14:08:35"}, "type": "Feature"}, {"geometry": {"coordinates": [8.554602, 47.402972], "type": "Point"}, "properties": {"charge": 90, "id": "smide_94", "name": "ZH253754", "provider": "smide", "range": 45.0, "size": 17, "time": "02/17/2020, 14:08:35"}, "type": "Feature"}, {"geometry": {"coordinates": [8.518958, 47.366028], "type": "Point"}, "properties": {"charge": 95, "id": "smide_37", "name": "ZH261377", "provider": "smide", "range": 47.0, "size": 20, "time": "02/17/2020, 14:08:35"}, "type": "Feature"}, {"geometry": {"coordinates": [8.56077, 47.383291], "type": "Point"}, "properties": {"charge": 17, "id": "smide_191", "name": "ZH253762", "provider": "smide", "range": 8.0, "size": 17, "time": "02/17/2020, 14:08:35"}, "type": "Feature"}, {"geometry": {"coordinates": [8.474758, 47.385925], "type": "Point"}, "properties": {"charge": 77, "id": "smide_202", "name": "ZH253830", "provider": "smide", "range": 38.0, "size": 17, "time": "02/17/2020, 14:08:35"}, "type": "Feature"}, {"geometry": {"coordinates": [8.508566, 47.393853], "type": "Point"}, "properties": {"charge": 94, "id": "smide_47", "name": "ZH253858", "provider": "smide", "range": 47.0, "size": 17, "time": "02/17/2020, 14:08:35"}, "type": "Feature"}, {"geometry": {"coordinates": [8.513466, 47.393456], "type": "Point"}, "properties": {"charge": 97, "id": "smide_150", "name": "ZH253703", "provider": "smide", "range": 48.0, "size": 20, "time": "02/17/2020, 14:08:35"}, "type": "Feature"}, {"geometry": {"coordinates": [8.543197, 47.412216], "type": "Point"}, "properties": {"charge": 91, "id": "smide_66", "name": "ZH253818", "provider": "smide", "range": 45.0, "size": 20, "time": "02/17/2020, 14:08:35"}, "type": "Feature"}, {"geometry": {"coordinates": [8.497001, 47.362666], "type": "Point"}, "properties": {"charge": 62, "id": "smide_17", "name": "ZH253793", "provider": "smide", "range": 31.0, "size": 17, "time": "02/17/2020, 14:08:35"}, "type": "Feature"}, {"geometry": {"coordinates": [8.505955, 47.410486], "type": "Point"}, "properties": {"charge": 94, "id": "smide_145", "name": "ZH253780", "provider": "smide", "range": 47.0, "size": 20, "time": "02/17/2020, 14:08:35"}, "type": "Feature"}, {"geometry": {"coordinates": [8.573279, 47.352412], "type": "Point"}, "properties": {"charge": 42, "id": "smide_203", "name": "ZH261547", "provider": "smide", "range": 21.0, "size": 17, "time": "02/17/2020, 14:08:35"}, "type": "Feature"}, {"geometry": {"coordinates": [8.507884, 47.399084], "type": "Point"}, "properties": {"charge": 80, "id": "smide_21", "name": "ZH253841", "provider": "smide", "range": 40.0, "size": 17, "time": "02/17/2020, 14:08:35"}, "type": "Feature"}, {"geometry": {"coordinates": [8.486267, 47.391264], "type": "Point"}, "properties": {"charge": 42, "id": "smide_164", "name": "ZH253775", "provider": "smide", "range": 21.0, "size": 17, "time": "02/17/2020, 14:08:35"}, "type": "Feature"}, {"geometry": {"coordinates": [8.530985, 47.369504], "type": "Point"}, "properties": {"charge": 43, "id": "smide_189", "name": "ZH253845", "provider": "smide", "range": 21.0, "size": 20, "time": "02/17/2020, 14:08:35"}, "type": "Feature"}, {"geometry": {"coordinates": [8.507205, 47.40696], "type": "Point"}, "properties": {"charge": 100, "id": "smide_81", "name": "ZH253753", "provider": "smide", "range": 50.0, "size": 17, "time": "02/17/2020, 14:08:35"}, "type": "Feature"}, {"geometry": {"coordinates": [8.565726, 47.371264], "type": "Point"}, "properties": {"charge": 97, "id": "smide_171", "name": "ZH253689", "provider": "smide", "range": 48.0, "size": 20, "time": "02/17/2020, 14:08:35"}, "type": "Feature"}, {"geometry": {"coordinates": [8.50141, 47.366564], "type": "Point"}, "properties": {"charge": 51, "id": "smide_93", "name": "ZH253681", "provider": "smide", "range": 25.0, "size": 17, "time": "02/17/2020, 14:08:35"}, "type": "Feature"}, {"geometry": {"coordinates": [8.551908, 47.414724], "type": "Point"}, "properties": {"charge": 100, "id": "smide_67", "name": "ZH253779", "provider": "smide", "range": 50.0, "size": 17, "time": "02/17/2020, 14:08:35"}, "type": "Feature"}, {"geometry": {"coordinates": [8.476923, 47.390005], "type": "Point"}, "properties": {"charge": 93, "id": "smide_118", "name": "ZH253759", "provider": "smide", "range": 46.0, "size": 20, "time": "02/17/2020, 14:08:35"}, "type": "Feature"}, {"geometry": {"coordinates": [8.54869, 47.396488], "type": "Point"}, "properties": {"charge": 41, "id": "smide_166", "name": "ZH253728", "provider": "smide", "range": 20.0, "size": 17, "time": "02/17/2020, 14:08:35"}, "type": "Feature"}, {"geometry": {"coordinates": [8.545228, 47.386408], "type": "Point"}, "properties": {"charge": 20, "id": "smide_126", "name": "ZH268400", "provider": "smide", "range": 10.0, "size": 17, "time": "02/17/2020, 14:08:35"}, "type": "Feature"}, {"geometry": {"coordinates": [8.507465, 47.393198], "type": "Point"}, "properties": {"charge": 44, "id": "smide_44", "name": "ZH253837", "provider": "smide", "range": 22.0, "size": 17, "time": "02/17/2020, 14:08:35"}, "type": "Feature"}, {"geometry": {"coordinates": [8.475166, 47.38548], "type": "Point"}, "properties": {"charge": 59, "id": "smide_98", "name": "ZH256321", "provider": "smide", "range": 29.0, "size": 17, "time": "02/17/2020, 14:08:35"}, "type": "Feature"}, {"geometry": {"coordinates": [8.55431, 47.367265], "type": "Point"}, "properties": {"charge": 46, "id": "smide_57", "name": "ZH253772", "provider": "smide", "range": 23.0, "size": 17, "time": "02/17/2020, 14:08:35"}, "type": "Feature"}, {"geometry": {"coordinates": [8.542833, 47.373324], "type": "Point"}, "properties": {"charge": 100, "id": "smide_154", "name": "ZH253744", "provider": "smide", "range": 50.0, "size": 20, "time": "02/17/2020, 14:08:35"}, "type": "Feature"}, {"geometry": {"coordinates": [8.555949, 47.36946], "type": "Point"}, "properties": {"charge": 76, "id": "smide_7", "name": "ZH256289", "provider": "smide", "range": 38.0, "size": 20, "time": "02/17/2020, 14:08:35"}, "type": "Feature"}, {"geometry": {"coordinates": [8.53106, 47.393172], "type": "Point"}, "properties": {"charge": 83, "id": "smide_92", "name": "ZH253798", "provider": "smide", "range": 41.0, "size": 17, "time": "02/17/2020, 14:08:35"}, "type": "Feature"}, {"geometry": {"coordinates": [8.553722, 47.375928], "type": "Point"}, "properties": {"charge": 100, "id": "smide_111", "name": "ZH253763", "provider": "smide", "range": 50.0, "size": 17, "time": "02/17/2020, 14:08:35"}, "type": "Feature"}, {"geometry": {"coordinates": [8.547695, 47.377032], "type": "Point"}, "properties": {"charge": 49, "id": "smide_40", "name": "ZH253690", "provider": "smide", "range": 24.0, "size": 20, "time": "02/17/2020, 14:08:35"}, "type": "Feature"}, {"geometry": {"coordinates": [8.502049, 47.368996], "type": "Point"}, "properties": {"charge": 48, "id": "smide_1", "name": "ZH253776", "provider": "smide", "range": 24.0, "size": 17, "time": "02/17/2020, 14:08:35"}, "type": "Feature"}, {"geometry": {"coordinates": [8.531815, 47.353572], "type": "Point"}, "properties": {"charge": 75, "id": "smide_28", "name": "ZH253831", "provider": "smide", "range": 37.0, "size": 17, "time": "02/17/2020, 14:08:35"}, "type": "Feature"}, {"geometry": {"coordinates": [8.549016, 47.405665], "type": "Point"}, "properties": {"charge": 98, "id": "smide_14", "name": "ZH253749", "provider": "smide", "range": 49.0, "size": 20, "time": "02/17/2020, 14:08:35"}, "type": "Feature"}, {"geometry": {"coordinates": [8.538721, 47.377224], "type": "Point"}, "properties": {"charge": 42, "id": "smide_130", "name": "ZH253847", "provider": "smide", "range": 21.0, "size": 20, "time": "02/17/2020, 14:08:35"}, "type": "Feature"}, {"geometry": {"coordinates": [8.514335, 47.357468], "type": "Point"}, "properties": {"charge": 32, "id": "smide_24", "name": "ZH253696", "provider": "smide", "range": 16.0, "size": 20, "time": "02/17/2020, 14:08:35"}, "type": "Feature"}, {"geometry": {"coordinates": [8.559241, 47.41478], "type": "Point"}, "properties": {"charge": 100, "id": "smide_107", "name": "ZH253819", "provider": "smide", "range": 50.0, "size": 17, "time": "02/17/2020, 14:08:35"}, "type": "Feature"}, {"geometry": {"coordinates": [8.548522, 47.376932], "type": "Point"}, "properties": {"charge": 27, "id": "smide_136", "name": "ZH253682", "provider": "smide", "range": 13.0, "size": 17, "time": "02/17/2020, 14:08:35"}, "type": "Feature"}, {"geometry": {"coordinates": [8.573893, 47.352764], "type": "Point"}, "properties": {"charge": 91, "id": "smide_205", "name": "ZH253805", "provider": "smide", "range": 45.0, "size": 17, "time": "02/17/2020, 14:08:35"}, "type": "Feature"}, {"geometry": {"coordinates": [8.502126, 47.368948], "type": "Point"}, "properties": {"charge": 93, "id": "smide_193", "name": "ZH253738", "provider": "smide", "range": 46.0, "size": 20, "time": "02/17/2020, 14:08:35"}, "type": "Feature"}, {"geometry": {"coordinates": [8.553235, 47.414616], "type": "Point"}, "properties": {"charge": 86, "id": "smide_73", "name": "ZH261379", "provider": "smide", "range": 43.0, "size": 20, "time": "02/17/2020, 14:08:35"}, "type": "Feature"}, {"geometry": {"coordinates": [8.494763, 47.375384], "type": "Point"}, "properties": {"charge": 49, "id": "smide_100", "name": "ZH253862", "provider": "smide", "range": 24.0, "size": 20, "time": "02/17/2020, 14:08:35"}, "type": "Feature"}, {"geometry": {"coordinates": [8.530748, 47.341733], "type": "Point"}, "properties": {"charge": 100, "id": "smide_134", "name": "ZH253741", "provider": "smide", "range": 50.0, "size": 20, "time": "02/17/2020, 14:08:35"}, "type": "Feature"}, {"geometry": {"coordinates": [8.55951, 47.41493], "type": "Point"}, "properties": {"charge": 46, "id": "smide_141", "name": "ZH253800", "provider": "smide", "range": 23.0, "size": 20, "time": "02/17/2020, 14:08:35"}, "type": "Feature"}, {"geometry": {"coordinates": [8.552603, 47.375703], "type": "Point"}, "properties": {"charge": 32, "id": "smide_149", "name": "ZH253743", "provider": "smide", "range": 16.0, "size": 20, "time": "02/17/2020, 14:08:35"}, "type": "Feature"}, {"geometry": {"coordinates": [8.573079, 47.35122], "type": "Point"}, "properties": {"charge": 55, "id": "smide_16", "name": "ZH253713", "provider": "smide", "range": 27.0, "size": 20, "time": "02/17/2020, 14:08:35"}, "type": "Feature"}, {"geometry": {"coordinates": [8.518119, 47.388364], "type": "Point"}, "properties": {"charge": 22, "id": "smide_74", "name": "ZH253693", "provider": "smide", "range": 11.0, "size": 20, "time": "02/17/2020, 14:08:35"}, "type": "Feature"}, {"geometry": {"coordinates": [8.50215, 47.369108], "type": "Point"}, "properties": {"charge": 12, "id": "smide_33", "name": "ZH253782", "provider": "smide", "range": 6.0, "size": 20, "time": "02/17/2020, 14:08:35"}, "type": "Feature"}, {"geometry": {"coordinates": [8.526087, 47.36516], "type": "Point"}, "properties": {"charge": 79, "id": "smide_161", "name": "ZH253691", "provider": "smide", "range": 39.0, "size": 20, "time": "02/17/2020, 14:08:35"}, "type": "Feature"}, {"geometry": {"coordinates": [8.547102, 47.37052], "type": "Point"}, "properties": {"charge": 100, "id": "smide_42", "name": "ZH253846", "provider": "smide", "range": 50.0, "size": 20, "time": "02/17/2020, 14:08:35"}, "type": "Feature"}, {"geometry": {"coordinates": [8.522458, 47.371372], "type": "Point"}, "properties": {"charge": 74, "id": "smide_4", "name": "ZH253740", "provider": "smide", "range": 37.0, "size": 20, "time": "02/17/2020, 14:08:35"}, "type": "Feature"}, {"geometry": {"coordinates": [8.510037, 47.425536], "type": "Point"}, "properties": {"charge": 18, "id": "smide_160", "name": "ZH253722", "provider": "smide", "range": 9.0, "size": 17, "time": "02/17/2020, 14:08:35"}, "type": "Feature"}, {"geometry": {"coordinates": [8.477515, 47.389865], "type": "Point"}, "properties": {"charge": 100, "id": "smide_137", "name": "ZH258502", "provider": "smide", "range": 50.0, "size": 17, "time": "02/17/2020, 14:08:35"}, "type": "Feature"}, {"geometry": {"coordinates": [8.560029, 47.418444], "type": "Point"}, "properties": {"charge": 50, "id": "smide_178", "name": "ZH253803", "provider": "smide", "range": 25.0, "size": 17, "time": "02/17/2020, 14:08:35"}, "type": "Feature"}, {"geometry": {"coordinates": [8.506678, 47.408341], "type": "Point"}, "properties": {"charge": 54, "id": "smide_55", "name": "ZH253875", "provider": "smide", "range": 27.0, "size": 17, "time": "02/17/2020, 14:08:35"}, "type": "Feature"}, {"geometry": {"coordinates": [8.51801, 47.358588], "type": "Point"}, "properties": {"charge": 57, "id": "smide_96", "name": "ZH256146", "provider": "smide", "range": 28.0, "size": 20, "time": "02/17/2020, 14:08:35"}, "type": "Feature"}, {"geometry": {"coordinates": [8.516872, 47.389852], "type": "Point"}, "properties": {"charge": 91, "id": "smide_58", "name": "ZH259246", "provider": "smide", "range": 45.0, "size": 20, "time": "02/17/2020, 14:08:35"}, "type": "Feature"}, {"geometry": {"coordinates": [8.524426, 47.351384], "type": "Point"}, "properties": {"charge": 61, "id": "smide_54", "name": "ZH253874", "provider": "smide", "range": 30.0, "size": 20, "time": "02/17/2020, 14:08:35"}, "type": "Feature"}, {"geometry": {"coordinates": [8.514277, 47.393496], "type": "Point"}, "properties": {"charge": 75, "id": "smide_175", "name": "ZH253730", "provider": "smide", "range": 37.0, "size": 17, "time": "02/17/2020, 14:08:35"}, "type": "Feature"}, {"geometry": {"coordinates": [8.515686, 47.428931], "type": "Point"}, "properties": {"charge": 32, "id": "smide_162", "name": "ZH253760", "provider": "smide", "range": 16.0, "size": 17, "time": "02/17/2020, 14:08:35"}, "type": "Feature"}, {"geometry": {"coordinates": [8.528534, 47.3862], "type": "Point"}, "properties": {"charge": 86, "id": "smide_95", "name": "ZH253773", "provider": "smide", "range": 43.0, "size": 17, "time": "02/17/2020, 14:08:35"}, "type": "Feature"}, {"geometry": {"coordinates": [8.553315, 47.373584], "type": "Point"}, "properties": {"charge": 100, "id": "smide_163", "name": "ZH256147", "provider": "smide", "range": 50.0, "size": 20, "time": "02/17/2020, 14:08:35"}, "type": "Feature"}, {"geometry": {"coordinates": [8.508313, 47.38234], "type": "Point"}, "properties": {"charge": 69, "id": "smide_112", "name": "ZH263530", "provider": "smide", "range": 34.0, "size": 20, "time": "02/17/2020, 14:08:35"}, "type": "Feature"}, {"geometry": {"coordinates": [8.560933, 47.416273], "type": "Point"}, "properties": {"charge": 92, "id": "smide_38", "name": "ZH253851", "provider": "smide", "range": 46.0, "size": 20, "time": "02/17/2020, 14:08:35"}, "type": "Feature"}, {"geometry": {"coordinates": [8.568228, 47.367844], "type": "Point"}, "properties": {"charge": 100, "id": "smide_6", "name": "ZH253787", "provider": "smide", "range": 50.0, "size": 17, "time": "02/17/2020, 14:08:35"}, "type": "Feature"}, {"geometry": {"coordinates": [8.515798, 47.367744], "type": "Point"}, "properties": {"charge": 84, "id": "smide_18", "name": "ZH253859", "provider": "smide", "range": 42.0, "size": 17, "time": "02/17/2020, 14:08:35"}, "type": "Feature"}, {"geometry": {"coordinates": [8.514782, 47.392896], "type": "Point"}, "properties": {"charge": 100, "id": "smide_12", "name": "ZH253685", "provider": "smide", "range": 50.0, "size": 17, "time": "02/17/2020, 14:08:35"}, "type": "Feature"}, {"geometry": {"coordinates": [8.508072, 47.382468], "type": "Point"}, "properties": {"charge": 72, "id": "smide_192", "name": "ZH253706", "provider": "smide", "range": 36.0, "size": 20, "time": "02/17/2020, 14:08:35"}, "type": "Feature"}, {"geometry": {"coordinates": [8.513976, 47.387516], "type": "Point"}, "properties": {"charge": 94, "id": "smide_39", "name": "ZH253714", "provider": "smide", "range": 47.0, "size": 20, "time": "02/17/2020, 14:08:35"}, "type": "Feature"}, {"geometry": {"coordinates": [8.539956, 47.382455], "type": "Point"}, "properties": {"charge": 100, "id": "smide_5", "name": "ZH261443", "provider": "smide", "range": 50.0, "size": 20, "time": "02/17/2020, 14:08:35"}, "type": "Feature"}, {"geometry": {"coordinates": [8.538145, 47.373638], "type": "Point"}, "properties": {"charge": 100, "id": "smide_85", "name": "ZH253729", "provider": "smide", "range": 50.0, "size": 17, "time": "02/17/2020, 14:08:35"}, "type": "Feature"}, {"geometry": {"coordinates": [8.557179, 47.37736], "type": "Point"}, "properties": {"charge": 30, "id": "smide_29", "name": "ZH253723", "provider": "smide", "range": 15.0, "size": 17, "time": "02/17/2020, 14:08:35"}, "type": "Feature"}, {"geometry": {"coordinates": [8.522866, 47.359172], "type": "Point"}, "properties": {"charge": 12, "id": "smide_48", "name": "ZH253849", "provider": "smide", "range": 6.0, "size": 20, "time": "02/17/2020, 14:08:35"}, "type": "Feature"}, {"geometry": {"coordinates": [8.560282, 47.405756], "type": "Point"}, "properties": {"charge": 100, "id": "smide_46", "name": "ZH253843", "provider": "smide", "range": 50.0, "size": 20, "time": "02/17/2020, 14:08:35"}, "type": "Feature"}, {"geometry": {"coordinates": [8.54294, 47.3726116666667], "type": "Point"}, "properties": {"charge": 30, "id": "bird_bda44166-8917-4954-8921-0044172688fc", "provider": "bird", "timeStamp": "02/17/2020, 14:08:35"}, "type": "Feature"}, {"geometry": {"coordinates": [8.52741166666667, 47.36871], "type": "Point"}, "properties": {"charge": 64, "id": "bird_f3fef5ae-fdec-42ff-b1b5-b6303c4ee9d6", "provider": "bird", "timeStamp": "02/17/2020, 14:08:35"}, "type": "Feature"}, {"geometry": {"coordinates": [8.53935, 47.3894533333333], "type": "Point"}, "properties": {"charge": 12, "id": "bird_c1c44890-4b71-4d79-8f81-f514c5e43f6e", "provider": "bird", "timeStamp": "02/17/2020, 14:08:35"}, "type": "Feature"}, {"geometry": {"coordinates": [8.53135333333333, 47.36877], "type": "Point"}, "properties": {"charge": 62, "id": "bird_4ee4b848-b6b1-43dc-91c9-366768cf7b40", "provider": "bird", "timeStamp": "02/17/2020, 14:08:35"}, "type": "Feature"}, {"geometry": {"coordinates": [8.5453, 47.3756183333333], "type": "Point"}, "properties": {"charge": 13, "id": "bird_bb4bf912-ad09-47ca-8a26-8d0c02994f50", "provider": "bird", "timeStamp": "02/17/2020, 14:08:35"}, "type": "Feature"}, {"geometry": {"coordinates": [8.52152, 47.3896566666667], "type": "Point"}, "properties": {"charge": 93, "id": "bird_1b5dce11-e18f-4635-bb2a-a0dd68fa66c6", "provider": "bird", "timeStamp": "02/17/2020, 14:08:35"}, "type": "Feature"}, {"geometry": {"coordinates": [8.521885, 47.38979], "type": "Point"}, "properties": {"charge": 98, "id": "bird_c1156109-96b8-43fc-b235-6c881f63d121", "provider": "bird", "timeStamp": "02/17/2020, 14:08:35"}, "type": "Feature"}, {"geometry": {"coordinates": [8.52188666666667, 47.38979], "type": "Point"}, "properties": {"charge": 98, "id": "bird_aad3f990-dc6f-41a7-a05f-d20a9ab5f70b", "provider": "bird", "timeStamp": "02/17/2020, 14:08:35"}, "type": "Feature"}, {"geometry": {"coordinates": [8.52172666666667, 47.3896866666667], "type": "Point"}, "properties": {"charge": 96, "id": "bird_7d0b1349-7bf0-4ad1-b37b-f9f9e5d037a2", "provider": "bird", "timeStamp": "02/17/2020, 14:08:35"}, "type": "Feature"}, {"geometry": {"coordinates": [8.51944, 47.3886033333333], "type": "Point"}, "properties": {"charge": 85, "id": "bird_96761d02-361f-4913-9e56-bf5c60aa9dcf", "provider": "bird", "timeStamp": "02/17/2020, 14:08:35"}, "type": "Feature"}, {"geometry": {"coordinates": [8.54451166666667, 47.375355], "type": "Point"}, "properties": {"charge": 42, "id": "bird_8ee1bdac-b9be-4ab9-85b2-89e20a6180d0", "provider": "bird", "timeStamp": "02/17/2020, 14:08:35"}, "type": "Feature"}, {"geometry": {"coordinates": [8.51399, 47.3806983333333], "type": "Point"}, "properties": {"charge": 60, "id": "bird_362b5afe-222e-49f4-b52d-a2b53d40b5c7", "provider": "bird", "timeStamp": "02/17/2020, 14:08:35"}, "type": "Feature"}, {"geometry": {"coordinates": [8.519805, 47.3883666666667], "type": "Point"}, "properties": {"charge": 96, "id": "bird_093a118a-102a-4678-96db-5b80a0f1ab32", "provider": "bird", "timeStamp": "02/17/2020, 14:08:35"}, "type": "Feature"}, {"geometry": {"coordinates": [8.535445, 47.3698383333333], "type": "Point"}, "properties": {"charge": 33, "id": "bird_3691bcd4-9a84-4625-b03b-13a57bbf9576", "provider": "bird", "timeStamp": "02/17/2020, 14:08:35"}, "type": "Feature"}, {"geometry": {"coordinates": [8.51961, 47.3882033333333], "type": "Point"}, "properties": {"charge": 92, "id": "bird_2b98aef3-91cf-4845-ad24-7c3899cda70d", "provider": "bird", "timeStamp": "02/17/2020, 14:08:35"}, "type": "Feature"}, {"geometry": {"coordinates": [8.519935, 47.388355], "type": "Point"}, "properties": {"charge": 96, "id": "bird_293caefa-9cd0-4fca-acfd-180355c6dba8", "provider": "bird", "timeStamp": "02/17/2020, 14:08:35"}, "type": "Feature"}, {"geometry": {"coordinates": [8.53434166666667, 47.3696633333333], "type": "Point"}, "properties": {"charge": 29, "id": "bird_33fa427b-bcdb-4bc7-aba6-136b28badeee", "provider": "bird", "timeStamp": "02/17/2020, 14:08:35"}, "type": "Feature"}, {"geometry": {"coordinates": [8.54385166666667, 47.3851933333333], "type": "Point"}, "properties": {"charge": 71, "id": "bird_ad65f961-abb9-4664-9bc1-f6a0c0b208f0", "provider": "bird", "timeStamp": "02/17/2020, 14:08:35"}, "type": "Feature"}, {"geometry": {"coordinates": [8.51435166666667, 47.37843], "type": "Point"}, "properties": {"charge": 35, "id": "bird_8c1274a7-d183-44bf-b891-07699b8f37e6", "provider": "bird", "timeStamp": "02/17/2020, 14:08:35"}, "type": "Feature"}, {"geometry": {"coordinates": [8.53377666666667, 47.36964], "type": "Point"}, "properties": {"charge": 92, "id": "bird_41210054-2078-40ca-bd8c-ee832ad10cc9", "provider": "bird", "timeStamp": "02/17/2020, 14:08:35"}, "type": "Feature"}, {"geometry": {"coordinates": [8.54486, 47.3766016666667], "type": "Point"}, "properties": {"charge": 19, "id": "bird_f8f00dd8-5e53-48eb-a968-63b25274f243", "provider": "bird", "timeStamp": "02/17/2020, 14:08:35"}, "type": "Feature"}, {"geometry": {"coordinates": [8.54171833333333, 47.3730733333333], "type": "Point"}, "properties": {"charge": 46, "id": "bird_6a184347-7be9-4383-9709-e67c819d3918", "provider": "bird", "timeStamp": "02/17/2020, 14:08:35"}, "type": "Feature"}, {"geometry": {"coordinates": [8.54397333333333, 47.3753816666667], "type": "Point"}, "properties": {"charge": 66, "id": "bird_e618339c-9265-48ce-9e94-a4b5068bef0f", "provider": "bird", "timeStamp": "02/17/2020, 14:08:35"}, "type": "Feature"}, {"geometry": {"coordinates": [8.53140333333333, 47.3695483333333], "type": "Point"}, "properties": {"charge": 61, "id": "bird_f732b5ad-5e9c-4d63-86a3-6eafe1fd5e02", "provider": "bird", "timeStamp": "02/17/2020, 14:08:35"}, "type": "Feature"}, {"geometry": {"coordinates": [8.52051333333333, 47.388295], "type": "Point"}, "properties": {"charge": 96, "id": "bird_0a822436-88ce-4f28-9fbf-b3274b167730", "provider": "bird", "timeStamp": "02/17/2020, 14:08:35"}, "type": "Feature"}, {"geometry": {"coordinates": [8.52149333333333, 47.3712583333333], "type": "Point"}, "properties": {"charge": 33, "id": "bird_b2f5d4fd-65ec-4586-95d0-7aa361c5b27a", "provider": "bird", "timeStamp": "02/17/2020, 14:08:35"}, "type": "Feature"}, {"geometry": {"coordinates": [8.539485, 47.388195], "type": "Point"}, "properties": {"charge": 40, "id": "bird_0d59d6d5-202b-4960-8a27-1e3dee7393e1", "provider": "bird", "timeStamp": "02/17/2020, 14:08:35"}, "type": "Feature"}, {"geometry": {"coordinates": [8.544085, 47.3758283333333], "type": "Point"}, "properties": {"charge": 43, "id": "bird_2b5051f9-7db6-4ec0-ba37-89aa92dc87e7", "provider": "bird", "timeStamp": "02/17/2020, 14:08:35"}, "type": "Feature"}, {"geometry": {"coordinates": [8.53438, 47.3700216666667], "type": "Point"}, "properties": {"charge": 62, "id": "bird_4f34ab5b-65cd-4253-a349-eab87e0e5571", "provider": "bird", "timeStamp": "02/17/2020, 14:08:35"}, "type": "Feature"}, {"geometry": {"coordinates": [8.52030333333333, 47.3880266666667], "type": "Point"}, "properties": {"charge": 98, "id": "bird_42f43dce-a5d1-47bd-b70d-af4d68369943", "provider": "bird", "timeStamp": "02/17/2020, 14:08:35"}, "type": "Feature"}, {"geometry": {"coordinates": [8.54376, 47.3755333333333], "type": "Point"}, "properties": {"charge": 64, "id": "bird_8e1c51ec-9407-4441-9e20-66ec95efdc43", "provider": "bird", "timeStamp": "02/17/2020, 14:08:35"}, "type": "Feature"}, {"geometry": {"coordinates": [8.54066333333333, 47.3873483333333], "type": "Point"}, "properties": {"charge": 39, "id": "bird_e63eb2e4-52a0-43c1-bb36-56c899737036", "provider": "bird", "timeStamp": "02/17/2020, 14:08:35"}, "type": "Feature"}, {"geometry": {"coordinates": [8.53929833333333, 47.3718533333333], "type": "Point"}, "properties": {"charge": 28, "id": "bird_8f77137b-4a94-4f2f-adf2-47cca763d903", "provider": "bird", "timeStamp": "02/17/2020, 14:08:35"}, "type": "Feature"}, {"geometry": {"coordinates": [8.52030333333333, 47.3879283333333], "type": "Point"}, "properties": {"charge": 98, "id": "bird_b5f2cfaa-3085-4bfe-b1cc-13caf570aa7b", "provider": "bird", "timeStamp": "02/17/2020, 14:08:35"}, "type": "Feature"}, {"geometry": {"coordinates": [8.5395, 47.3719716666667], "type": "Point"}, "properties": {"charge": 62, "id": "bird_60de7599-dbc4-489e-a820-f7943be91901", "provider": "bird", "timeStamp": "02/17/2020, 14:08:35"}, "type": "Feature"}, {"geometry": {"coordinates": [8.53950833333333, 47.3720016666667], "type": "Point"}, "properties": {"charge": 45, "id": "bird_49e1a3cc-c6dc-41bd-b577-293d38adbe90", "provider": "bird", "timeStamp": "02/17/2020, 14:08:35"}, "type": "Feature"}, {"geometry": {"coordinates": [8.51748166666667, 47.3857883333333], "type": "Point"}, "properties": {"charge": 75, "id": "bird_6dcb6c9f-b877-43e1-87d3-f03415c7e849", "provider": "bird", "timeStamp": "02/17/2020, 14:08:35"}, "type": "Feature"}, {"geometry": {"coordinates": [8.51794, 47.3861466666667], "type": "Point"}, "properties": {"charge": 96, "id": "bird_836476dd-9c73-489b-b19a-c257173b90c4", "provider": "bird", "timeStamp": "02/17/2020, 14:08:35"}, "type": "Feature"}, {"geometry": {"coordinates": [8.54341666666667, 47.375325], "type": "Point"}, "properties": {"charge": 76, "id": "bird_8be46e2c-2d05-477c-a73f-268f113003d3", "provider": "bird", "timeStamp": "02/17/2020, 14:08:35"}, "type": "Feature"}, {"geometry": {"coordinates": [8.53526333333333, 47.370445], "type": "Point"}, "properties": {"charge": 33, "id": "bird_e39e9466-5470-4b95-8e3a-52688aae0986", "provider": "bird", "timeStamp": "02/17/2020, 14:08:35"}, "type": "Feature"}, {"geometry": {"coordinates": [8.53522, 47.37046], "type": "Point"}, "properties": {"charge": 71, "id": "bird_a74cce1c-6eeb-4fc2-9227-532bbd83c2fd", "provider": "bird", "timeStamp": "02/17/2020, 14:08:35"}, "type": "Feature"}, {"geometry": {"coordinates": [8.51763166666667, 47.3857], "type": "Point"}, "properties": {"charge": 85, "id": "bird_f7cee31c-ad55-4407-a475-26d59d1007c6", "provider": "bird", "timeStamp": "02/17/2020, 14:08:35"}, "type": "Feature"}, {"geometry": {"coordinates": [8.53542666666667, 47.37056], "type": "Point"}, "properties": {"charge": 54, "id": "bird_34efb98c-9f74-4008-b81d-4d06c24f6652", "provider": "bird", "timeStamp": "02/17/2020, 14:08:35"}, "type": "Feature"}, {"geometry": {"coordinates": [8.526955, 47.370095], "type": "Point"}, "properties": {"charge": 75, "id": "bird_234d18fc-b262-4095-a3f8-01738e0deee8", "provider": "bird", "timeStamp": "02/17/2020, 14:08:35"}, "type": "Feature"}, {"geometry": {"coordinates": [8.51587166666667, 47.3768233333333], "type": "Point"}, "properties": {"charge": 71, "id": "bird_bb523d6b-c441-4c8c-b292-52d816c883d2", "provider": "bird", "timeStamp": "02/17/2020, 14:08:35"}, "type": "Feature"}, {"geometry": {"coordinates": [8.51676333333333, 47.3754533333333], "type": "Point"}, "properties": {"charge": 78, "id": "bird_71899588-7b82-4015-b945-026e76d9a3b5", "provider": "bird", "timeStamp": "02/17/2020, 14:08:35"}, "type": "Feature"}, {"geometry": {"coordinates": [8.53540666666667, 47.3706516666667], "type": "Point"}, "properties": {"charge": 74, "id": "bird_ff19ffc4-a5aa-4c0b-bf10-c7ea0d32c9da", "provider": "bird", "timeStamp": "02/17/2020, 14:08:35"}, "type": "Feature"}, {"geometry": {"coordinates": [8.51753166666667, 47.3853116666667], "type": "Point"}, "properties": {"charge": 87, "id": "bird_b4a386cb-7783-4a40-84ce-51c6320e191c", "provider": "bird", "timeStamp": "02/17/2020, 14:08:35"}, "type": "Feature"}, {"geometry": {"coordinates": [8.53804333333333, 47.3883433333333], "type": "Point"}, "properties": {"charge": 74, "id": "bird_8978f4b1-89c1-407b-ac91-60a0b4db561c", "provider": "bird", "timeStamp": "02/17/2020, 14:08:35"}, "type": "Feature"}, {"geometry": {"coordinates": [8.51660166666667, 47.375915], "type": "Point"}, "properties": {"charge": 66, "id": "bird_36dc4ff7-b7ef-4628-a6ca-950e5dab33c1", "provider": "bird", "timeStamp": "02/17/2020, 14:08:35"}, "type": "Feature"}, {"geometry": {"coordinates": [8.518185, 47.3858216666667], "type": "Point"}, "properties": {"charge": 27, "id": "bird_6233f3e5-a8f9-4909-a992-680efc4595e2", "provider": "bird", "timeStamp": "02/17/2020, 14:08:35"}, "type": "Feature"}, {"geometry": {"coordinates": [8.516585, 47.3761833333333], "type": "Point"}, "properties": {"charge": 73, "id": "bird_ba305faa-a9eb-43ab-a3cb-79fc3116dc56", "provider": "bird", "timeStamp": "02/17/2020, 14:08:35"}, "type": "Feature"}, {"geometry": {"coordinates": [8.51854333333333, 47.3858416666667], "type": "Point"}, "properties": {"charge": 96, "id": "bird_e7b88400-7a0b-4dde-9672-dd9caf4058a4", "provider": "bird", "timeStamp": "02/17/2020, 14:08:35"}, "type": "Feature"}, {"geometry": {"coordinates": [8.51807333333333, 47.3853416666667], "type": "Point"}, "properties": {"charge": 89, "id": "bird_1187ac18-cd20-4842-8b5e-4f8b9b4a84b7", "provider": "bird", "timeStamp": "02/17/2020, 14:08:35"}, "type": "Feature"}, {"geometry": {"coordinates": [8.523225, 47.388515], "type": "Point"}, "properties": {"charge": 36, "id": "bird_1db97f08-15ca-4a7b-aa63-9e1b7b85b3c2", "provider": "bird", "timeStamp": "02/17/2020, 14:08:35"}, "type": "Feature"}, {"geometry": {"coordinates": [8.53627666666667, 47.371415], "type": "Point"}, "properties": {"charge": 79, "id": "bird_f4299cf9-0a0a-4df1-8aa1-7fa28766fa52", "provider": "bird", "timeStamp": "02/17/2020, 14:08:35"}, "type": "Feature"}, {"geometry": {"coordinates": [8.51815166666667, 47.3747933333333], "type": "Point"}, "properties": {"charge": 81, "id": "bird_4690bf17-97f5-408f-8d59-7b6004c71967", "provider": "bird", "timeStamp": "02/17/2020, 14:08:35"}, "type": "Feature"}, {"geometry": {"coordinates": [8.54408166666667, 47.379395], "type": "Point"}, "properties": {"charge": 76, "id": "bird_70c48be9-cca6-4824-8417-75d77d8f0c5e", "provider": "bird", "timeStamp": "02/17/2020, 14:08:35"}, "type": "Feature"}, {"geometry": {"coordinates": [8.518165, 47.385135], "type": "Point"}, "properties": {"charge": 52, "id": "bird_57edb333-68b1-4b6e-b04a-f676766bd0c7", "provider": "bird", "timeStamp": "02/17/2020, 14:08:35"}, "type": "Feature"}, {"geometry": {"coordinates": [8.54008, 47.3866233333333], "type": "Point"}, "properties": {"charge": 38, "id": "bird_a6accda5-0a04-4c74-a339-59f690b58eb2", "provider": "bird", "timeStamp": "02/17/2020, 14:08:35"}, "type": "Feature"}, {"geometry": {"coordinates": [8.52013, 47.3732483333333], "type": "Point"}, "properties": {"charge": 34, "id": "bird_da223d28-1892-4182-93c0-72628e119bd9", "provider": "bird", "timeStamp": "02/17/2020, 14:08:35"}, "type": "Feature"}, {"geometry": {"coordinates": [8.54320333333333, 47.3771816666667], "type": "Point"}, "properties": {"charge": 12, "id": "bird_e5f65811-bfd2-4486-9328-1960d3d8f99a", "provider": "bird", "timeStamp": "02/17/2020, 14:08:35"}, "type": "Feature"}, {"geometry": {"coordinates": [8.54083, 47.3741716666667], "type": "Point"}, "properties": {"charge": 33, "id": "bird_cb7722fe-fb6f-4540-a88a-2a1da2002e8d", "provider": "bird", "timeStamp": "02/17/2020, 14:08:35"}, "type": "Feature"}, {"geometry": {"coordinates": [8.52631666666667, 47.3889466666667], "type": "Point"}, "properties": {"charge": 61, "id": "bird_c3ef8dab-5fea-4087-b0ce-b845d483c704", "provider": "bird", "timeStamp": "02/17/2020, 14:08:35"}, "type": "Feature"}, {"geometry": {"coordinates": [8.51634166666667, 47.3795966666667], "type": "Point"}, "properties": {"charge": 27, "id": "bird_96db2bdb-ca45-41d1-ac0a-55f9e8cb189e", "provider": "bird", "timeStamp": "02/17/2020, 14:08:35"}, "type": "Feature"}, {"geometry": {"coordinates": [8.516355, 47.379585], "type": "Point"}, "properties": {"charge": 21, "id": "bird_001b1580-929f-4b39-83a7-49fade5be600", "provider": "bird", "timeStamp": "02/17/2020, 14:08:35"}, "type": "Feature"}, {"geometry": {"coordinates": [8.516355, 47.3796083333333], "type": "Point"}, "properties": {"charge": 28, "id": "bird_93e47361-244b-458b-97fb-a50221cc607c", "provider": "bird", "timeStamp": "02/17/2020, 14:08:35"}, "type": "Feature"}, {"geometry": {"coordinates": [8.51636166666667, 47.3795883333333], "type": "Point"}, "properties": {"charge": 11, "id": "bird_840eeba3-fad3-4e08-b469-b8aa0987845d", "provider": "bird", "timeStamp": "02/17/2020, 14:08:35"}, "type": "Feature"}, {"geometry": {"coordinates": [8.51636333333333, 47.3795783333333], "type": "Point"}, "properties": {"charge": 27, "id": "bird_588700cc-7e4a-4273-b8f6-0dfd3e9ee0bd", "provider": "bird", "timeStamp": "02/17/2020, 14:08:35"}, "type": "Feature"}, {"geometry": {"coordinates": [8.51636666666667, 47.3795883333333], "type": "Point"}, "properties": {"charge": 30, "id": "bird_1e38dd67-17bf-4e54-828d-f4aa62748ed3", "provider": "bird", "timeStamp": "02/17/2020, 14:08:35"}, "type": "Feature"}, {"geometry": {"coordinates": [8.51638166666667, 47.3795933333333], "type": "Point"}, "properties": {"charge": 26, "id": "bird_f6a1a11b-9af5-40c7-88ba-f6820729488d", "provider": "bird", "timeStamp": "02/17/2020, 14:08:35"}, "type": "Feature"}, {"geometry": {"coordinates": [8.54208166666667, 47.3759466666667], "type": "Point"}, "properties": {"charge": 31, "id": "bird_0d0334d9-cdc8-4d08-8a05-321dc8d7bf9b", "provider": "bird", "timeStamp": "02/17/2020, 14:08:35"}, "type": "Feature"}, {"geometry": {"coordinates": [8.532085, 47.3709983333333], "type": "Point"}, "properties": {"charge": 34, "id": "bird_0e4b171e-163c-4369-94da-ff879a06e696", "provider": "bird", "timeStamp": "02/17/2020, 14:08:35"}, "type": "Feature"}, {"geometry": {"coordinates": [8.536385, 47.3879883333333], "type": "Point"}, "properties": {"charge": 48, "id": "bird_844d9700-4128-4fb8-8976-08f9e2564f28", "provider": "bird", "timeStamp": "02/17/2020, 14:08:35"}, "type": "Feature"}, {"geometry": {"coordinates": [8.525715, 47.3885916666667], "type": "Point"}, "properties": {"charge": 44, "id": "bird_d1e40569-6abb-4cb0-84fa-4aa09209d835", "provider": "bird", "timeStamp": "02/17/2020, 14:08:35"}, "type": "Feature"}, {"geometry": {"coordinates": [8.54325666666667, 47.37949], "type": "Point"}, "properties": {"charge": 49, "id": "bird_47a3abe3-ddb2-4a1a-a829-6970f52b290e", "provider": "bird", "timeStamp": "02/17/2020, 14:08:35"}, "type": "Feature"}, {"geometry": {"coordinates": [8.54045833333333, 47.3745083333333], "type": "Point"}, "properties": {"charge": 72, "id": "bird_508285d9-7979-4c02-a936-8e9fa55eb7d5", "provider": "bird", "timeStamp": "02/17/2020, 14:08:35"}, "type": "Feature"}, {"geometry": {"coordinates": [8.51698666666667, 47.3814133333333], "type": "Point"}, "properties": {"charge": 49, "id": "bird_6703431f-e004-4ede-a1a6-4d3a95f9ca67", "provider": "bird", "timeStamp": "02/17/2020, 14:08:35"}, "type": "Feature"}, {"geometry": {"coordinates": [8.53524166666667, 47.3718183333333], "type": "Point"}, "properties": {"charge": 55, "id": "bird_479bf958-8600-45cd-9591-68fb888e4d81", "provider": "bird", "timeStamp": "02/17/2020, 14:08:35"}, "type": "Feature"}, {"geometry": {"coordinates": [8.51883333333333, 47.3753166666667], "type": "Point"}, "properties": {"charge": 81, "id": "bird_13ccdffc-b33f-4b75-80ce-41107b553247", "provider": "bird", "timeStamp": "02/17/2020, 14:08:35"}, "type": "Feature"}, {"geometry": {"coordinates": [8.51719833333333, 47.38152], "type": "Point"}, "properties": {"charge": 73, "id": "bird_9fd66be3-3db5-4bb6-b278-211e616045a3", "provider": "bird", "timeStamp": "02/17/2020, 14:08:35"}, "type": "Feature"}, {"geometry": {"coordinates": [8.54163166666667, 47.3761216666667], "type": "Point"}, "properties": {"charge": 48, "id": "bird_574bc3c9-9b86-4193-87b8-124f40578bae", "provider": "bird", "timeStamp": "02/17/2020, 14:08:35"}, "type": "Feature"}, {"geometry": {"coordinates": [8.53141666666667, 47.3713833333333], "type": "Point"}, "properties": {"charge": 60, "id": "bird_737cc9a2-8ec6-4376-bd1f-57750b61f2f0", "provider": "bird", "timeStamp": "02/17/2020, 14:08:35"}, "type": "Feature"}, {"geometry": {"coordinates": [8.517285, 47.379215], "type": "Point"}, "properties": {"charge": 36, "id": "bird_8539229e-d677-412e-9f2d-c77c311a378d", "provider": "bird", "timeStamp": "02/17/2020, 14:08:35"}, "type": "Feature"}, {"geometry": {"coordinates": [8.53892666666667, 47.3738783333333], "type": "Point"}, "properties": {"charge": 51, "id": "bird_ceb6b17c-a59b-4e67-a128-ff0921e23adb", "provider": "bird", "timeStamp": "02/17/2020, 14:08:35"}, "type": "Feature"}, {"geometry": {"coordinates": [8.52583, 47.371875], "type": "Point"}, "properties": {"charge": 71, "id": "bird_77e82837-bf1a-4040-ae9b-acf3cf28ed15", "provider": "bird", "timeStamp": "02/17/2020, 14:08:35"}, "type": "Feature"}, {"geometry": {"coordinates": [8.52446833333333, 47.3876883333333], "type": "Point"},