{"features": [{"geometry": {"coordinates": [8.540062, 47.374392], "type": "Point"}, "properties": {"address": "Uraniastrasse 7", "electric": 4, "id": "pb_60", "manual": 4, "name": "Demo Station Werdm\u00fchleplatz", "provider": "publibike", "timeStamp": "02/03/2020, 16:58:25", "zip": 8001}, "type": "Feature"}, {"geometry": {"coordinates": [8.5452956, 47.4099615], "type": "Point"}, "properties": {"address": "Querstrasse 8", "electric": 6, "id": "pb_61", "manual": 2, "name": "Marktplatz", "provider": "publibike", "timeStamp": "02/03/2020, 16:58:25", "zip": 8050}, "type": "Feature"}, {"geometry": {"coordinates": [8.5156327, 47.3795837], "type": "Point"}, "properties": {"address": "Bullingerstrasse 5", "electric": 2, "id": "pb_80", "manual": 4, "name": "Bullingerplatz", "provider": "publibike", "timeStamp": "02/03/2020, 16:58:25", "zip": 8004}, "type": "Feature"}, {"geometry": {"coordinates": [8.5104051, 47.3899342], "type": "Point"}, "properties": {"address": "Pfingstweidstrasse 96e", "electric": 1, "id": "pb_81", "manual": 7, "name": "Herdern", "provider": "publibike", "timeStamp": "02/03/2020, 16:58:25", "zip": 8001}, "type": "Feature"}, {"geometry": {"coordinates": [8.535718, 47.359675], "type": "Point"}, "properties": {"address": "Mythenquai 50", "electric": 8, "id": "pb_82", "manual": 1, "name": "Hafen Enge", "provider": "publibike", "timeStamp": "02/03/2020, 16:58:25", "zip": 8002}, "type": "Feature"}, {"geometry": {"coordinates": [8.520370505, 47.358663827], "type": "Point"}, "properties": {"address": "Bubenbergstrasse 1", "electric": 2, "id": "pb_83", "manual": 5, "name": "Comerge", "provider": "publibike", "timeStamp": "02/03/2020, 16:58:25", "zip": 8045}, "type": "Feature"}, {"geometry": {"coordinates": [8.5412505, 47.3789825], "type": "Point"}, "properties": {"address": "Museumstrasse 2", "electric": 3, "id": "pb_84", "manual": 20, "name": "Landesmuseum", "provider": "publibike", "timeStamp": "02/03/2020, 16:58:25", "zip": 8001}, "type": "Feature"}, {"geometry": {"coordinates": [8.5235479, 47.3716661], "type": "Point"}, "properties": {"address": "Birmensdorferstrasse 80", "electric": 2, "id": "pb_85", "manual": 2, "name": "Bahnhof Wiedikon", "provider": "publibike", "timeStamp": "02/03/2020, 16:58:25", "zip": 8003}, "type": "Feature"}, {"geometry": {"coordinates": [8.506822854, 47.40781197], "type": "Point"}, "properties": {"address": "Stefano-Franscini-Platz 5", "electric": 5, "id": "pb_86", "manual": 1, "name": "ETH H\u00f6nggerberg", "provider": "publibike", "timeStamp": "02/03/2020, 16:58:25", "zip": 8093}, "type": "Feature"}, {"geometry": {"coordinates": [8.536101, 47.371083], "type": "Point"}, "properties": {"address": "Pelikanplatz 5", "electric": 2, "id": "pb_87", "manual": 12, "name": "Pelikanplatz", "provider": "publibike", "timeStamp": "02/03/2020, 16:58:25", "zip": 8001}, "type": "Feature"}, {"geometry": {"coordinates": [8.5257822, 47.3651936], "type": "Point"}, "properties": {"address": "H\u00fcrlimannplatz 90", "electric": 16, "id": "pb_88", "manual": 7, "name": "H\u00fcrlimannplatz", "provider": "publibike", "timeStamp": "02/03/2020, 16:58:25", "zip": 8002}, "type": "Feature"}, {"geometry": {"coordinates": [8.5313344, 47.3713591], "type": "Point"}, "properties": {"address": "Selnaustrasse 32", "electric": 1, "id": "pb_89", "manual": 1, "name": "Stauffacherbr\u00fccke", "provider": "publibike", "timeStamp": "02/03/2020, 16:58:25", "zip": 8001}, "type": "Feature"}, {"geometry": {"coordinates": [8.5056978, 47.3917964], "type": "Point"}, "properties": {"address": "Sportweg 25", "electric": 1, "id": "pb_90", "manual": 7, "name": "Sportweg", "provider": "publibike", "timeStamp": "02/03/2020, 16:58:25", "zip": 8005}, "type": "Feature"}, {"geometry": {"coordinates": [8.5181701, 47.3917837], "type": "Point"}, "properties": {"address": "Hardturmstrasse 11", "electric": 2, "id": "pb_91", "manual": 1, "name": "Puls 5", "provider": "publibike", "timeStamp": "02/03/2020, 16:58:25", "zip": 8005}, "type": "Feature"}, {"geometry": {"coordinates": [8.5286468, 47.3820827], "type": "Point"}, "properties": {"address": "R\u00f6ntgenstrasse 6", "electric": 0, "id": "pb_92", "manual": 5, "name": "R\u00f6ntgenstrasse", "provider": "publibike", "timeStamp": "02/03/2020, 16:58:25", "zip": 8005}, "type": "Feature"}, {"geometry": {"coordinates": [8.531935, 47.384918], "type": "Point"}, "properties": {"address": "Kornhausbr\u00fccke 1", "electric": 2, "id": "pb_93", "manual": 2, "name": "Limmatplatz", "provider": "publibike", "timeStamp": "02/03/2020, 16:58:25", "zip": 8005}, "type": "Feature"}, {"geometry": {"coordinates": [8.5354006, 47.3758639], "type": "Point"}, "properties": {"address": "Gessnerallee 15", "electric": 7, "id": "pb_94", "manual": 2, "name": "Gessnerallee", "provider": "publibike", "timeStamp": "02/03/2020, 16:58:25", "zip": 8001}, "type": "Feature"}, {"geometry": {"coordinates": [8.523818, 47.377148], "type": "Point"}, "properties": {"address": "Stauffacherstrasse 127", "electric": 1, "id": "pb_95", "manual": 4, "name": "B\u00e4ckeranlage", "provider": "publibike", "timeStamp": "02/03/2020, 16:58:25", "zip": 8004}, "type": "Feature"}, {"geometry": {"coordinates": [8.531836, 47.378548], "type": "Point"}, "properties": {"address": "Lagerstrasse 44", "electric": 2, "id": "pb_96", "manual": 5, "name": "Gustav-Gull-Platz", "provider": "publibike", "timeStamp": "02/03/2020, 16:58:25", "zip": 8004}, "type": "Feature"}, {"geometry": {"coordinates": [8.5104883, 47.3771535], "type": "Point"}, "properties": {"address": "Zurlindenstrasse 291", "electric": 0, "id": "pb_97", "manual": 2, "name": "Zurlindenstrasse", "provider": "publibike", "timeStamp": "02/03/2020, 16:58:25", "zip": 8003}, "type": "Feature"}, {"geometry": {"coordinates": [8.5333139, 47.3731102], "type": "Point"}, "properties": {"address": "Sihlstrasse 81", "electric": 0, "id": "pb_98", "manual": 4, "name": "Sihlstrasse", "provider": "publibike", "timeStamp": "02/03/2020, 16:58:25", "zip": 8001}, "type": "Feature"}, {"geometry": {"coordinates": [8.520532, 47.374951], "type": "Point"}, "properties": {"address": "Feldstrasse 24", "electric": 0, "id": "pb_99", "manual": 1, "name": "Kalkbreite", "provider": "publibike", "timeStamp": "02/03/2020, 16:58:25", "zip": 8004}, "type": "Feature"}, {"geometry": {"coordinates": [8.539046, 47.368064], "type": "Point"}, "properties": {"address": "Talstrasse 12", "electric": 5, "id": "pb_100", "manual": 9, "name": "Z\u00fcrcher Kantonalbank", "provider": "publibike", "timeStamp": "02/03/2020, 16:58:25", "zip": 8001}, "type": "Feature"}, {"geometry": {"coordinates": [8.5348427, 47.3625938], "type": "Point"}, "properties": {"address": "Breitingerstrasse 5", "electric": 1, "id": "pb_101", "manual": 3, "name": "Rentenanstalt", "provider": "publibike", "timeStamp": "02/03/2020, 16:58:25", "zip": 8002}, "type": "Feature"}, {"geometry": {"coordinates": [8.5166922, 47.3897772], "type": "Point"}, "properties": {"address": "Technoparkstrasse 4", "electric": 1, "id": "pb_102", "manual": 10, "name": "Turbinenplatz", "provider": "publibike", "timeStamp": "02/03/2020, 16:58:25", "zip": 8005}, "type": "Feature"}, {"geometry": {"coordinates": [8.539312, 47.3739964], "type": "Point"}, "properties": {"address": "Oetenbachgasse 14", "electric": 3, "id": "pb_104", "manual": 11, "name": "Rennweg", "provider": "publibike", "timeStamp": "02/03/2020, 16:58:25", "zip": 8001}, "type": "Feature"}, {"geometry": {"coordinates": [8.5360685, 47.3775022], "type": "Point"}, "properties": {"address": "Kasernenstrasse 101", "electric": 9, "id": "pb_105", "manual": 36, "name": "Sihlpost", "provider": "publibike", "timeStamp": "02/03/2020, 16:58:25", "zip": 8004}, "type": "Feature"}, {"geometry": {"coordinates": [8.53545, 47.382798], "type": "Point"}, "properties": {"address": "Ausstellungsstrasse 44", "electric": 10, "id": "pb_106", "manual": 2, "name": "Museum f\u00fcr Gestaltung", "provider": "publibike", "timeStamp": "02/03/2020, 16:58:25", "zip": 8005}, "type": "Feature"}, {"geometry": {"coordinates": [8.5306155, 47.3647902], "type": "Point"}, "properties": {"address": "Gutenbergstrasse 1", "electric": 2, "id": "pb_107", "manual": 6, "name": "Bederbr\u00fccke", "provider": "publibike", "timeStamp": "02/03/2020, 16:58:25", "zip": 8002}, "type": "Feature"}, {"geometry": {"coordinates": [8.518982, 47.386741], "type": "Point"}, "properties": {"address": "Geroldstrasse 4", "electric": 5, "id": "pb_108", "manual": 7, "name": "Bahnhof Hardbr\u00fccke", "provider": "publibike", "timeStamp": "02/03/2020, 16:58:25", "zip": 8005}, "type": "Feature"}, {"geometry": {"coordinates": [8.53001018, 47.37247535], "type": "Point"}, "properties": {"address": "Werdstrasse 21", "electric": 1, "id": "pb_109", "manual": 2, "name": "Tamedia", "provider": "publibike", "timeStamp": "02/03/2020, 16:58:25", "zip": 8004}, "type": "Feature"}, {"geometry": {"coordinates": [8.4860017, 47.396401], "type": "Point"}, "properties": {"address": "Gr\u00fcnauring 37", "electric": 3, "id": "pb_110", "manual": 2, "name": "Gr\u00fcnau", "provider": "publibike", "timeStamp": "02/03/2020, 16:58:25", "zip": 8064}, "type": "Feature"}, {"geometry": {"coordinates": [8.548519, 47.376756], "type": "Point"}, "properties": {"address": "R\u00e4mistrasse 101", "electric": 23, "id": "pb_111", "manual": 1, "name": "ETH Zentrum", "provider": "publibike", "timeStamp": "02/03/2020, 16:58:25", "zip": 8006}, "type": "Feature"}, {"geometry": {"coordinates": [8.520449, 47.388151], "type": "Point"}, "properties": {"address": "Josefstrasse 224", "electric": 3, "id": "pb_112", "manual": 3, "name": "Steinfelsareal", "provider": "publibike", "timeStamp": "02/03/2020, 16:58:25", "zip": 8005}, "type": "Feature"}, {"geometry": {"coordinates": [8.520482, 47.37209], "type": "Point"}, "properties": {"address": "Weststrasse 115", "electric": 8, "id": "pb_124", "manual": 1, "name": "Weststrasse", "provider": "publibike", "timeStamp": "02/03/2020, 16:58:25", "zip": 8003}, "type": "Feature"}, {"geometry": {"coordinates": [8.496727, 47.378521], "type": "Point"}, "properties": {"address": "Albisriederstrasse 200", "electric": 1, "id": "pb_125", "manual": 2, "name": "Utogrund", "provider": "publibike", "timeStamp": "02/03/2020, 16:58:25", "zip": 8047}, "type": "Feature"}, {"geometry": {"coordinates": [8.510418, 47.381356], "type": "Point"}, "properties": {"address": "Bullingerstrasse 73", "electric": 5, "id": "pb_126", "manual": 8, "name": "Hardau", "provider": "publibike", "timeStamp": "02/03/2020, 16:58:25", "zip": 8004}, "type": "Feature"}, {"geometry": {"coordinates": [8.525525, 47.361567], "type": "Point"}, "properties": {"address": "Klopstockstrasse 23", "electric": 8, "id": "pb_127", "manual": 0, "name": "Klopstockwiese", "provider": "publibike", "timeStamp": "02/03/2020, 16:58:25", "zip": 8002}, "type": "Feature"}, {"geometry": {"coordinates": [8.518143, 47.363148], "type": "Point"}, "properties": {"address": "Haldenstrasse 8", "electric": 3, "id": "pb_128", "manual": 2, "name": "Binz", "provider": "publibike", "timeStamp": "02/03/2020, 16:58:25", "zip": 8045}, "type": "Feature"}, {"geometry": {"coordinates": [8.542726, 47.379952], "type": "Point"}, "properties": {"address": "Walchestrasse 11", "electric": 1, "id": "pb_129", "manual": 1, "name": "Stampfenbachplatz", "provider": "publibike", "timeStamp": "02/03/2020, 16:58:25", "zip": 8006}, "type": "Feature"}, {"geometry": {"coordinates": [8.488108, 47.391366], "type": "Point"}, "properties": {"address": "Altstetterplatz 1", "electric": 12, "id": "pb_130", "manual": 6, "name": "Bahnhof Altstetten", "provider": "publibike", "timeStamp": "02/03/2020, 16:58:25", "zip": 8048}, "type": "Feature"}, {"geometry": {"coordinates": [8.554114, 47.365119], "type": "Point"}, "properties": {"address": "Kreuzplatz 2", "electric": 2, "id": "pb_131", "manual": 2, "name": "Kreuzplatz", "provider": "publibike", "timeStamp": "02/03/2020, 16:58:25", "zip": 8032}, "type": "Feature"}, {"geometry": {"coordinates": [8.549852, 47.35594], "type": "Point"}, "properties": {"address": "H\u00f6schgasse 3", "electric": 3, "id": "pb_132", "manual": 9, "name": "Blatterwiese", "provider": "publibike", "timeStamp": "02/03/2020, 16:58:25", "zip": 8008}, "type": "Feature"}, {"geometry": {"coordinates": [8.554501, 47.36162], "type": "Point"}, "properties": {"address": "Feldeggstrasse 80", "electric": 4, "id": "pb_133", "manual": 5, "name": "Villa Bleuler", "provider": "publibike", "timeStamp": "02/03/2020, 16:58:25", "zip": 8008}, "type": "Feature"}, {"geometry": {"coordinates": [8.557088, 47.358557], "type": "Point"}, "properties": {"address": "M\u00fchlebachstrasse 131", "electric": 4, "id": "pb_134", "manual": 1, "name": "M\u00fchlebachstrasse", "provider": "publibike", "timeStamp": "02/03/2020, 16:58:25", "zip": 8008}, "type": "Feature"}, {"geometry": {"coordinates": [8.547639, 47.361266], "type": "Point"}, "properties": {"address": "Utoquai 50", "electric": 6, "id": "pb_135", "manual": 7, "name": "Seebad Utoquai", "provider": "publibike", "timeStamp": "02/03/2020, 16:58:25", "zip": 8008}, "type": "Feature"}, {"geometry": {"coordinates": [8.548045, 47.370869], "type": "Point"}, "properties": {"address": "Heimplatz 1", "electric": 2, "id": "pb_137", "manual": 5, "name": "Kunsthaus", "provider": "publibike", "timeStamp": "02/03/2020, 16:58:25", "zip": 8001}, "type": "Feature"}, {"geometry": {"coordinates": [8.543447, 47.375933], "type": "Point"}, "properties": {"address": "Limmatquai 138", "electric": 1, "id": "pb_138", "manual": 5, "name": "Central", "provider": "publibike", "timeStamp": "02/03/2020, 16:58:25", "zip": 8001}, "type": "Feature"}, {"geometry": {"coordinates": [8.549356, 47.408827], "type": "Point"}, "properties": {"address": "Tramstrasse 35", "electric": 4, "id": "pb_139", "manual": 2, "name": "ewz Tramstrasse", "provider": "publibike", "timeStamp": "02/03/2020, 16:58:25", "zip": 8050}, "type": "Feature"}, {"geometry": {"coordinates": [8.533736, 47.366904], "type": "Point"}, "properties": {"address": "Bleicherweg 33", "electric": 1, "id": "pb_140", "manual": 13, "name": "Bleicherweg", "provider": "publibike", "timeStamp": "02/03/2020, 16:58:25", "zip": 8002}, "type": "Feature"}, {"geometry": {"coordinates": [8.544935, 47.366752], "type": "Point"}, "properties": {"address": "Bellevueplatz 2", "electric": 10, "id": "pb_141", "manual": 18, "name": "Bellevue", "provider": "publibike", "timeStamp": "02/03/2020, 16:58:25", "zip": 8001}, "type": "Feature"}, {"geometry": {"coordinates": [8.5285533, 47.3742296], "type": "Point"}, "properties": {"address": "Stauffacherstrasse 41", "electric": 1, "id": "pb_142", "manual": 3, "name": "Stauffacher", "provider": "publibike", "timeStamp": "02/03/2020, 16:58:25", "zip": 8004}, "type": "Feature"}, {"geometry": {"coordinates": [8.523722, 47.3899], "type": "Point"}, "properties": {"address": "Limmatstrasse 310", "electric": 2, "id": "pb_143", "manual": 3, "name": "Escher-Wyss-Platz", "provider": "publibike", "timeStamp": "02/03/2020, 16:58:25", "zip": 8005}, "type": "Feature"}, {"geometry": {"coordinates": [8.491061, 47.392336], "type": "Point"}, "properties": {"address": "Vulkanplatz 1", "electric": 5, "id": "pb_149", "manual": 3, "name": "Vulkanplatz", "provider": "publibike", "timeStamp": "02/03/2020, 16:58:25", "zip": 8048}, "type": "Feature"}, {"geometry": {"coordinates": [8.52306, 47.359872], "type": "Point"}, "properties": {"address": "Giessh\u00fcbelstrasse 15", "electric": 10, "id": "pb_150", "manual": 12, "name": "Utoplatz", "provider": "publibike", "timeStamp": "02/03/2020, 16:58:25", "zip": 8045}, "type": "Feature"}, {"geometry": {"coordinates": [8.486284, 47.387685], "type": "Point"}, "properties": {"address": "Lindenplatz 1", "electric": 5, "id": "pb_151", "manual": 7, "name": "Lindenplatz", "provider": "publibike", "timeStamp": "02/03/2020, 16:58:25", "zip": 8048}, "type": "Feature"}, {"geometry": {"coordinates": [8.49163, 47.389823], "type": "Point"}, "properties": {"address": "Hohlstrasse 563", "electric": 2, "id": "pb_152", "manual": 5, "name": "Luggweg", "provider": "publibike", "timeStamp": "02/03/2020, 16:58:25", "zip": 8048}, "type": "Feature"}, {"geometry": {"coordinates": [8.52174, 47.365272], "type": "Point"}, "properties": {"address": "Manessestrasse 87", "electric": 5, "id": "pb_153", "manual": 5, "name": "Manesseplatz", "provider": "publibike", "timeStamp": "02/03/2020, 16:58:25", "zip": 8045}, "type": "Feature"}, {"geometry": {"coordinates": [8.52714, 47.372329], "type": "Point"}, "properties": {"address": "Werdstrasse 75", "electric": 2, "id": "pb_154", "manual": 2, "name": "Werd", "provider": "publibike", "timeStamp": "02/03/2020, 16:58:25", "zip": 8004}, "type": "Feature"}, {"geometry": {"coordinates": [8.543042, 47.374711], "type": "Point"}, "properties": {"address": "Limmatquai 100", "electric": 0, "id": "pb_155", "manual": 0, "name": "Rudolf-Brun-Br\u00fccke", "provider": "publibike", "timeStamp": "02/03/2020, 16:58:25", "zip": 8001}, "type": "Feature"}, {"geometry": {"coordinates": [8.490837, 47.386596], "type": "Point"}, "properties": {"address": "Badenerstrasse 627", "electric": 2, "id": "pb_156", "manual": 9, "name": "Luggwegstrasse VBZ", "provider": "publibike", "timeStamp": "02/03/2020, 16:58:25", "zip": 8048}, "type": "Feature"}, {"geometry": {"coordinates": [8.535119, 47.355189], "type": "Point"}, "properties": {"address": "Mythenquai 95", "electric": 0, "id": "pb_157", "manual": 3, "name": "Strandbad Mythenquai", "provider": "publibike", "timeStamp": "02/03/2020, 16:58:25", "zip": 8002}, "type": "Feature"}, {"geometry": {"coordinates": [8.545505, 47.373675], "type": "Point"}, "properties": {"address": "Predigerpatz 21", "electric": 3, "id": "pb_158", "manual": 7, "name": "Predigerplatz", "provider": "publibike", "timeStamp": "02/03/2020, 16:58:25", "zip": 8001}, "type": "Feature"}, {"geometry": {"coordinates": [8.515558, 47.371868], "type": "Point"}, "properties": {"address": "Aemtlerstrasse 23", "electric": 12, "id": "pb_159", "manual": 1, "name": "Zwinglihaus", "provider": "publibike", "timeStamp": "02/03/2020, 16:58:25", "zip": 8003}, "type": "Feature"}, {"geometry": {"coordinates": [8.524629, 47.386072], "type": "Point"}, "properties": {"address": "Josefstrasse 188", "electric": 1, "id": "pb_160", "manual": 5, "name": "Josefwiese", "provider": "publibike", "timeStamp": "02/03/2020, 16:58:25", "zip": 8005}, "type": "Feature"}, {"geometry": {"coordinates": [8.527138, 47.387531], "type": "Point"}, "properties": {"address": "R\u00f6ntgenstrasse 87", "electric": 2, "id": "pb_164", "manual": 4, "name": "Markthalle", "provider": "publibike", "timeStamp": "02/03/2020, 16:58:25", "zip": 8005}, "type": "Feature"}, {"geometry": {"coordinates": [8.552717, 47.359978], "type": "Point"}, "properties": {"address": "Seefeldstrasse 96", "electric": 0, "id": "pb_263", "manual": 17, "name": "Feldeggstrasse", "provider": "publibike", "timeStamp": "02/03/2020, 16:58:25", "zip": 8008}, "type": "Feature"}, {"geometry": {"coordinates": [8.553189, 47.353198], "type": "Point"}, "properties": {"address": "Bellerivestrasse 170", "electric": 6, "id": "pb_264", "manual": 0, "name": "Lake Side", "provider": "publibike", "timeStamp": "02/03/2020, 16:58:25", "zip": 8008}, "type": "Feature"}, {"geometry": {"coordinates": [8.543437, 47.369256], "type": "Point"}, "properties": {"address": "Limmatquai 18", "electric": 0, "id": "pb_265", "manual": 0, "name": "Helmhaus", "provider": "publibike", "timeStamp": "02/03/2020, 16:58:25", "zip": 8032}, "type": "Feature"}, {"geometry": {"coordinates": [8.516676, 47.375819], "type": "Point"}, "properties": {"address": "Badenerstrasse 246", "electric": 2, "id": "pb_266", "manual": 0, "name": "Lochergut", "provider": "publibike", "timeStamp": "02/03/2020, 16:58:25", "zip": 8004}, "type": "Feature"}, {"geometry": {"coordinates": [8.514605, 47.389862], "type": "Point"}, "properties": {"address": "Pfingstweidstrasse 60", "electric": 2, "id": "pb_273", "manual": 5, "name": "Westpark", "provider": "publibike", "timeStamp": "02/03/2020, 16:58:25", "zip": 8005}, "type": "Feature"}, {"geometry": {"coordinates": [8.541239126, 47.375991201], "type": "Point"}, "properties": {"address": "Beatenplatz 1", "electric": 13, "id": "pb_274", "manual": 9, "name": "Beatenplatz", "provider": "publibike", "timeStamp": "02/03/2020, 16:58:25", "zip": 8001}, "type": "Feature"}, {"geometry": {"coordinates": [8.5417135, 47.3942197], "type": "Point"}, "properties": {"address": "Scheuchzerstrasse 181", "electric": 2, "id": "pb_275", "manual": 0, "name": "Pauluskirche", "provider": "publibike", "timeStamp": "02/03/2020, 16:58:25", "zip": 8057}, "type": "Feature"}, {"geometry": {"coordinates": [8.5528182, 47.414558], "type": "Point"}, "properties": {"address": "Hagenholzstrasse 51", "electric": 3, "id": "pb_276", "manual": 5, "name": "Airgate", "provider": "publibike", "timeStamp": "02/03/2020, 16:58:25", "zip": 8050}, "type": "Feature"}, {"geometry": {"coordinates": [8.537816, 47.413514], "type": "Point"}, "properties": {"address": "Birchstrasse 183", "electric": 2, "id": "pb_277", "manual": 3, "name": "Lamprechtweg", "provider": "publibike", "timeStamp": "02/03/2020, 16:58:25", "zip": 8050}, "type": "Feature"}, {"geometry": {"coordinates": [8.545602, 47.417701], "type": "Point"}, "properties": {"address": "Felsenrainstrasse 2", "electric": 4, "id": "pb_278", "manual": 4, "name": "Emil-Oberh\u00e4nsli", "provider": "publibike", "timeStamp": "02/03/2020, 16:58:25", "zip": 8050}, "type": "Feature"}, {"geometry": {"coordinates": [8.533647, 47.39808], "type": "Point"}, "properties": {"address": "Bucheggplatz 2", "electric": 9, "id": "pb_279", "manual": 2, "name": "Bucheggplatz", "provider": "publibike", "timeStamp": "02/03/2020, 16:58:25", "zip": 8057}, "type": "Feature"}, {"geometry": {"coordinates": [8.523549, 47.392347], "type": "Point"}, "properties": {"address": "Wipkingerplatz 4", "electric": 6, "id": "pb_280", "manual": 8, "name": "Wipkingerplatz", "provider": "publibike", "timeStamp": "02/03/2020, 16:58:25", "zip": 8037}, "type": "Feature"}, {"geometry": {"coordinates": [8.548562, 47.36691], "type": "Point"}, "properties": {"address": "Galerie \u00fcber Gleis 2/3", "electric": 21, "id": "pb_285", "manual": 5, "name": "Bahnhof Stadelhofen", "provider": "publibike", "timeStamp": "02/03/2020, 16:58:25", "zip": 8001}, "type": "Feature"}, {"geometry": {"coordinates": [8.493822, 47.3985553], "type": "Point"}, "properties": {"address": "Meierwiesenstrasse 12-4", "electric": 2, "id": "pb_286", "manual": 2, "name": "T\u00fcffenwies", "provider": "publibike", "timeStamp": "02/03/2020, 16:58:25", "zip": 8064}, "type": "Feature"}, {"geometry": {"coordinates": [8.552432, 47.3801757], "type": "Point"}, "properties": {"address": "Hochstrasse 34", "electric": 1, "id": "pb_356", "manual": 0, "name": "Siriuswiese", "provider": "publibike", "timeStamp": "02/03/2020, 16:58:25", "zip": 8044}, "type": "Feature"}, {"geometry": {"coordinates": [8.527298, 47.370141], "type": "Point"}, "properties": {"address": "Hallwylstrasse 71", "electric": 6, "id": "pb_357", "manual": 0, "name": "Hallwylstrasse", "provider": "publibike", "timeStamp": "02/03/2020, 16:58:25", "zip": 8004}, "type": "Feature"}, {"geometry": {"coordinates": [8.5414185, 47.3972455], "type": "Point"}, "properties": {"address": "Schaffhauserstrasse 137", "electric": 10, "id": "pb_358", "manual": 2, "name": "Milchbuck", "provider": "publibike", "timeStamp": "02/03/2020, 16:58:25", "zip": 8057}, "type": "Feature"}, {"geometry": {"coordinates": [8.512381, 47.393409], "type": "Point"}, "properties": {"address": "Hardturmstrasse 161", "electric": 6, "id": "pb_359", "manual": 2, "name": "Fischerweg", "provider": "publibike", "timeStamp": "02/03/2020, 16:58:25", "zip": 8005}, "type": "Feature"}, {"geometry": {"coordinates": [8.5421457, 47.3876979], "type": "Point"}, "properties": {"address": "Turnerstrasse 47", "electric": 3, "id": "pb_360", "manual": 3, "name": "Kirche Unterstrass", "provider": "publibike", "timeStamp": "02/03/2020, 16:58:25", "zip": 8006}, "type": "Feature"}, {"geometry": {"coordinates": [8.522117, 47.394554], "type": "Point"}, "properties": {"address": "Dorfstrasse 40", "electric": 6, "id": "pb_361", "manual": 2, "name": "Dorfstrasse", "provider": "publibike", "timeStamp": "02/03/2020, 16:58:25", "zip": 8037}, "type": "Feature"}, {"geometry": {"coordinates": [8.530437, 47.37271], "type": "Point"}, "properties": {"address": "Werdstrasse 25", "electric": 2, "id": "pb_362", "manual": 2, "name": "Stauffachertor", "provider": "publibike", "timeStamp": "02/03/2020, 16:58:25", "zip": 8004}, "type": "Feature"}, {"geometry": {"coordinates": [8.541712, 47.416155], "type": "Point"}, "properties": {"address": "Eggb\u00fchlstrasse 21", "electric": 2, "id": "pb_363", "manual": 3, "name": "Wahlenpark", "provider": "publibike", "timeStamp": "02/03/2020, 16:58:25", "zip": 8050}, "type": "Feature"}, {"geometry": {"coordinates": [8.5595335, 47.3708387], "type": "Point"}, "properties": {"address": "Dolderstrasse 32", "electric": 6, "id": "pb_364", "manual": 2, "name": "Kinderspital", "provider": "publibike", "timeStamp": "02/03/2020, 16:58:25", "zip": 8032}, "type": "Feature"}, {"geometry": {"coordinates": [8.536433, 47.388689], "type": "Point"}, "properties": {"address": "Kornhausstrasse 30", "electric": 4, "id": "pb_365", "manual": 1, "name": "Kornhausstrasse", "provider": "publibike", "timeStamp": "02/03/2020, 16:58:25", "zip": 8006}, "type": "Feature"}, {"geometry": {"coordinates": [8.55033, 47.407098], "type": "Point"}, "properties": {"address": "Schwamendingenstrasse 41", "electric": 4, "id": "pb_366", "manual": 6, "name": "Dorflinde", "provider": "publibike", "timeStamp": "02/03/2020, 16:58:25", "zip": 8050}, "type": "Feature"}, {"geometry": {"coordinates": [8.560476, 47.368199], "type": "Point"}, "properties": {"address": "R\u00f6merhofplatz 5", "electric": 6, "id": "pb_367", "manual": 3, "name": "R\u00f6merhof", "provider": "publibike", "timeStamp": "02/03/2020, 16:58:25", "zip": 8032}, "type": "Feature"}, {"geometry": {"coordinates": [8.5609218, 47.3619068], "type": "Point"}, "properties": {"address": "Forchstrasse 99", "electric": 9, "id": "pb_368", "manual": 1, "name": "Hegibachplatz", "provider": "publibike", "timeStamp": "02/03/2020, 16:58:25", "zip": 8032}, "type": "Feature"}, {"geometry": {"coordinates": [8.5721264, 47.4039985], "type": "Point"}, "properties": {"address": "Winterthurerstrasse 519", "electric": 7, "id": "pb_370", "manual": 4, "name": "Schwamendingerplatz", "provider": "publibike", "timeStamp": "02/03/2020, 16:58:25", "zip": 8051}, "type": "Feature"}, {"geometry": {"coordinates": [8.520168, 47.378556], "type": "Point"}, "properties": {"address": "Herman-Greulich-Strasse 56", "electric": 1, "id": "pb_384", "manual": 4, "name": "Hermann-Greulich-Weg", "provider": "publibike", "timeStamp": "02/03/2020, 16:58:25", "zip": 8004}, "type": "Feature"}, {"geometry": {"coordinates": [8.547912, 47.384923], "type": "Point"}, "properties": {"address": "Culmannstrasse", "electric": 5, "id": "pb_386", "manual": 0, "name": "Rigiplatz", "provider": "publibike", "timeStamp": "02/03/2020, 16:58:25", "zip": 8006}, "type": "Feature"}, {"geometry": {"coordinates": [8.543768, 47.411057], "type": "Point"}, "properties": {"address": "Hofwiesenstrasse 369", "electric": 4, "id": "pb_387", "manual": 3, "name": "Bahnhof Oerlikon S\u00fcd", "provider": "publibike", "timeStamp": "02/03/2020, 16:58:25", "zip": 8050}, "type": "Feature"}, {"geometry": {"coordinates": [8.544185, 47.412732], "type": "Point"}, "properties": {"address": "Jungholzstrasse 6", "electric": 5, "id": "pb_388", "manual": 2, "name": "Max-Frisch-Platz", "provider": "publibike", "timeStamp": "02/03/2020, 16:58:25", "zip": 8050}, "type": "Feature"}, {"geometry": {"coordinates": [8.558096, 47.413032], "type": "Point"}, "properties": {"address": "Andreasstrasse", "electric": 8, "id": "pb_389", "manual": 7, "name": "Hunziker-Areal", "provider": "publibike", "timeStamp": "02/03/2020, 16:58:25", "zip": 8050}, "type": "Feature"}, {"geometry": {"coordinates": [8.533265, 47.412873], "type": "Point"}, "properties": {"address": "Regina-K\u00e4gi-Strasse 1", "electric": 3, "id": "pb_390", "manual": 4, "name": "Luis-H\u00e4fliger-Park", "provider": "publibike", "timeStamp": "02/03/2020, 16:58:25", "zip": 8050}, "type": "Feature"}, {"geometry": {"coordinates": [8.499265, 47.401852], "type": "Point"}, "properties": {"address": "Limmattalstrasse 177", "electric": 6, "id": "pb_391", "manual": 0, "name": "Meierhofplatz", "provider": "publibike", "timeStamp": "02/03/2020, 16:58:25", "zip": 8049}, "type": "Feature"}, {"geometry": {"coordinates": [8.528356, 47.393255], "type": "Point"}, "properties": {"address": "R\u00f6schibachstrasse 73", "electric": 7, "id": "pb_392", "manual": 8, "name": "R\u00f6schibachplatz", "provider": "publibike", "timeStamp": "02/03/2020, 16:58:25", "zip": 8037}, "type": "Feature"}, {"geometry": {"coordinates": [8.538067, 47.415721], "type": "Point"}, "properties": {"address": "Birchstrasse 191", "electric": 8, "id": "pb_393", "manual": 1, "name": "Oerliker Park", "provider": "publibike", "timeStamp": "02/03/2020, 16:58:25", "zip": 8050}, "type": "Feature"}, {"geometry": {"coordinates": [8.5420304, 47.3669233], "type": "Point"}, "properties": {"address": "Stadthausquai 1", "electric": 0, "id": "pb_395", "manual": 3, "name": "B\u00fcrkliplatz", "provider": "publibike", "timeStamp": "02/03/2020, 16:58:25", "zip": 8001}, "type": "Feature"}, {"geometry": {"coordinates": [8.535767, 47.409881], "type": "Point"}, "properties": {"address": "Regensbergstrasse 195", "electric": 3, "id": "pb_396", "manual": 1, "name": "Holunderhof", "provider": "publibike", "timeStamp": "02/03/2020, 16:58:25", "zip": 8050}, "type": "Feature"}, {"geometry": {"coordinates": [8.5116245, 47.3616199], "type": "Point"}, "properties": {"address": "Grubenstrasse 42", "electric": 3, "id": "pb_431", "manual": 0, "name": "Binz Center", "provider": "publibike", "timeStamp": "02/03/2020, 16:58:25", "zip": 8045}, "type": "Feature"}, {"geometry": {"coordinates": [8.547195, 47.382089], "type": "Point"}, "properties": {"address": "Nelkenstrasse 24", "electric": 6, "id": "pb_430", "manual": 1, "name": "Stapferstube", "provider": "publibike", "timeStamp": "02/03/2020, 16:58:25", "zip": 8006}, "type": "Feature"}, {"geometry": {"coordinates": [8.5787183, 47.4039845], "type": "Point"}, "properties": {"address": "Kronwiesenstrasse 35", "electric": 2, "id": "pb_426", "manual": 3, "name": "Kronwiesen", "provider": "publibike", "timeStamp": "02/03/2020, 16:58:25", "zip": 8051}, "type": "Feature"}, {"geometry": {"coordinates": [8.508131, 47.420757], "type": "Point"}, "properties": {"address": "Riedenhaldenstrasse 20-18", "electric": 10, "id": "pb_425", "manual": 0, "name": "Bahnhof Affoltern", "provider": "publibike", "timeStamp": "02/03/2020, 16:58:25", "zip": 8046}, "type": "Feature"}, {"geometry": {"coordinates": [8.532464, 47.406988], "type": "Point"}, "properties": {"address": "K\u00fcnzlistrasse 41", "electric": 3, "id": "pb_424", "manual": 1, "name": "Birchd\u00f6rfli", "provider": "publibike", "timeStamp": "02/03/2020, 16:58:25", "zip": 8057}, "type": "Feature"}, {"geometry": {"coordinates": [8.5777038, 47.4080095], "type": "Point"}, "properties": {"address": "Luegislandstrasse 412", "electric": 6, "id": "pb_429", "manual": 4, "name": "Luegisland", "provider": "publibike", "timeStamp": "02/03/2020, 16:58:25", "zip": 8051}, "type": "Feature"}, {"geometry": {"coordinates": [8.58841, 47.40158], "type": "Point"}, "properties": {"address": "Hirzenbachstrasse 2-4", "electric": 4, "id": "pb_428", "manual": 0, "name": "Hirzenbachstrasse", "provider": "publibike", "timeStamp": "02/03/2020, 16:58:25", "zip": 8051}, "type": "Feature"}, {"geometry": {"coordinates": [8.5563463, 47.4095467], "type": "Point"}, "properties": {"address": "K\u00fchriedweg", "electric": 5, "id": "pb_445", "manual": 13, "name": "Hallenbad Oerlikon", "provider": "publibike", "timeStamp": "02/03/2020, 16:58:25", "zip": 8050}, "type": "Feature"}, {"geometry": {"coordinates": [8.537971, 47.364871], "type": "Point"}, "properties": {"address": "General-Guisan-Quai 17", "electric": 0, "id": "pb_454", "manual": 1, "name": "General-Guisan-Quai", "provider": "publibike", "timeStamp": "02/03/2020, 16:58:25", "zip": 8002}, "type": "Feature"}, {"geometry": {"coordinates": [8.560587, 47.350578], "type": "Point"}, "properties": {"address": "Bellerivestrasse 245", "electric": 10, "id": "pb_450", "manual": 5, "name": "Bahnhof Tiefenbrunnen", "provider": "publibike", "timeStamp": "02/03/2020, 16:58:25", "zip": 8008}, "type": "Feature"}, {"geometry": {"coordinates": [8.5269416, 47.3563719], "type": "Point"}, "properties": {"address": "Waffenplatzstrasse 89", "electric": 1, "id": "pb_452", "manual": 5, "name": "Rieterplatz", "provider": "publibike", "timeStamp": "02/03/2020, 16:58:25", "zip": 8002}, "type": "Feature"}, {"geometry": {"coordinates": [8.514176, 47.3663708], "type": "Point"}, "properties": {"address": "Talwiesenstrasse 92", "electric": 4, "id": "pb_446", "manual": 4, "name": "Binzallee", "provider": "publibike", "timeStamp": "02/03/2020, 16:58:25", "zip": 8055}, "type": "Feature"}, {"geometry": {"coordinates": [8.5070564, 47.371455], "type": "Point"}, "properties": {"address": "Gutstrasse 87", "electric": 4, "id": "pb_447", "manual": 2, "name": "Gutstrasse", "provider": "publibike", "timeStamp": "02/03/2020, 16:58:25", "zip": 8055}, "type": "Feature"}, {"geometry": {"coordinates": [8.4941268, 47.3836391], "type": "Point"}, "properties": {"address": "Flurstrasse 62", "electric": 6, "id": "pb_453", "manual": 4, "name": "Flurpark", "provider": "publibike", "timeStamp": "02/03/2020, 16:58:25", "zip": 8048}, "type": "Feature"}, {"geometry": {"coordinates": [8.500343, 47.380778], "type": "Point"}, "properties": {"address": "Edelweissstrasse 32", "electric": 10, "id": "pb_448", "manual": 2, "name": "Bl\u00fcemliquartier", "provider": "publibike", "timeStamp": "02/03/2020, 16:58:25", "zip": 8048}, "type": "Feature"}, {"geometry": {"coordinates": [8.528796, 47.383858], "type": "Point"}, "properties": {"address": "Gasometerstrasse 24", "electric": 2, "id": "pb_449", "manual": 3, "name": "Gasometerstrasse", "provider": "publibike", "timeStamp": "02/03/2020, 16:58:25", "zip": 8005}, "type": "Feature"}, {"geometry": {"coordinates": [8.4981964, 47.3859194], "type": "Point"}, "properties": {"address": "Baslerstrasse 57", "electric": 9, "id": "pb_455", "manual": 5, "name": "Letzipark", "provider": "publibike", "timeStamp": "02/03/2020, 16:58:25", "zip": 8048}, "type": "Feature"}, {"geometry": {"coordinates": [8.515252, 47.381915], "type": "Point"}, "properties": {"address": "Sihlfeldstrasse 175", "electric": 1, "id": "pb_451", "manual": 6, "name": "Hardplatz", "provider": "publibike", "timeStamp": "02/03/2020, 16:58:25", "zip": 8004}, "type": "Feature"}, {"geometry": {"coordinates": [8.5064743, 47.4188324], "type": "Point"}, "properties": {"address": "Wehntalerstrasse 541", "electric": 3, "id": "pb_427", "manual": 5, "name": "Zehntenhausplatz", "provider": "publibike", "timeStamp": "02/03/2020, 16:58:25", "zip": 8046}, "type": "Feature"}, {"geometry": {"coordinates": [8.537729, 47.379719], "type": "Point"}, "properties": {"address": "Sihlquai/HB", "electric": 3, "id": "pb_513", "manual": 14, "name": "Sihlquai", "provider": "publibike", "timeStamp": "02/03/2020, 16:58:25", "zip": 8005}, "type": "Feature"}, {"geometry": {"coordinates": [8.596202, 47.397885], "type": "Point"}, "properties": {"address": "Bahnhof Stettbach", "electric": 2, "id": "pb_514", "manual": 5, "name": "Bahnhof Stettbach", "provider": "publibike", "timeStamp": "02/03/2020, 16:58:25", "zip": 8051}, "type": "Feature"}, {"geometry": {"coordinates": [8.5543974, 47.3690153], "type": "Point"}, "properties": {"address": "Kasinostrasse 10", "electric": 6, "id": "pb_515", "manual": 0, "name": "Hottingerplatz", "provider": "publibike", "timeStamp": "02/03/2020, 16:58:25", "zip": 8032}, "type": "Feature"}, {"geometry": {"coordinates": [8.534444, 47.351525], "type": "Point"}, "properties": {"address": "Mobile Station Z\u00fcrich 1", "electric": 0, "id": "pb_282", "manual": 0, "name": "Theaterspektakel", "provider": "publibike", "timeStamp": "02/03/2020, 16:58:25", "zip": 8002}, "type": "Feature"}, {"geometry": {"coordinates": [8.516257, 47.367656], "type": "Point"}, "properties": {"address": "Goldbrunnenstrasse 54", "electric": 3, "id": "pb_538", "manual": 0, "name": "Kirche B\u00fchl", "provider": "publibike", "timeStamp": "02/03/2020, 16:58:25", "zip": 8055}, "type": "Feature"}, {"geometry": {"coordinates": [8.555639, 47.416873], "type": "Point"}, "properties": {"address": "Leutschenbachstrasse 50", "electric": 0, "id": "pb_537", "manual": 4, "name": "Leutschenpark", "provider": "publibike", "timeStamp": "02/03/2020, 16:58:25", "zip": 8050}, "type": "Feature"}, {"geometry": {"coordinates": [8.546464, 47.403822], "type": "Point"}, "properties": {"address": "Berninastrasse 45", "electric": 3, "id": "pb_540", "manual": 2, "name": "Berninaplatz", "provider": "publibike", "timeStamp": "02/03/2020, 16:58:25", "zip": 8057}, "type": "Feature"}, {"geometry": {"coordinates": [8.523134, 47.369004], "type": "Point"}, "properties": {"address": "Erlachstrasse 3", "electric": 3, "id": "pb_385", "manual": 3, "name": "Aegerten", "provider": "publibike", "timeStamp": "02/03/2020, 16:58:25", "zip": 8003}, "type": "Feature"}, {"geometry": {"coordinates": [8.49038, 47.381591], "type": "Point"}, "properties": {"address": "Rautistrasse 60", "electric": 9, "id": "pb_536", "manual": 7, "name": "Freilager", "provider": "publibike", "timeStamp": "02/03/2020, 16:58:25", "zip": 8048}, "type": "Feature"}, {"geometry": {"coordinates": [8.496511, 47.375247], "type": "Point"}, "properties": {"address": "Letzigraben 139", "electric": 4, "id": "pb_444", "manual": 1, "name": "Sackzelg", "provider": "publibike", "timeStamp": "02/03/2020, 16:58:25", "zip": 8047}, "type": "Feature"}, {"geometry": {"coordinates": [8.58131, 47.402801], "type": "Point"}, "properties": {"address": "Altwiesenstrasse 104", "electric": 0, "id": "pb_539", "manual": 4, "name": "Glattwiesen", "provider": "publibike", "timeStamp": "02/03/2020, 16:58:25", "zip": 8051}, "type": "Feature"}, {"geometry": {"coordinates": [8.52689, 47.3767], "type": "Point"}, "properties": {"address": "Molkenstrasse 5", "electric": 0, "id": "pb_560", "manual": 9, "name": "Helvetiaplatz", "provider": "publibike", "timeStamp": "02/03/2020, 16:58:25", "zip": 8004}, "type": "Feature"}, {"geometry": {"coordinates": [8.525602, 47.374241], "type": "Point"}, "properties": {"address": "Badenerstrasse 90", "electric": 1, "id": "pb_559", "manual": 8, "name": "Bezirksgeb\u00e4ude", "provider": "publibike", "timeStamp": "02/03/2020, 16:58:25", "zip": 8004}, "type": "Feature"}, {"geometry": {"coordinates": [8.535082, 47.345248], "type": "Point"}, "properties": {"address": "Bachstrasse 15", "electric": 5, "id": "pb_564", "manual": 5, "name": "GZ Wollishofen", "provider": "publibike", "timeStamp": "02/03/2020, 16:58:25", "zip": 8038}, "type": "Feature"}, {"geometry": {"coordinates": [8.514841, 47.370238], "type": "Point"}, "properties": {"address": "Schrennengasse 37", "electric": 0, "id": "pb_562", "manual": 3, "name": "Goldbrunnenplatz", "provider": "publibike", "timeStamp": "02/03/2020, 16:58:25", "zip": 8003}, "type": "Feature"}, {"geometry": {"coordinates": [8.514138, 47.374206], "type": "Point"}, "properties": {"address": "Idaplatz 4", "electric": 2, "id": "pb_557", "manual": 5, "name": "Idaplatz", "provider": "publibike", "timeStamp": "02/03/2020, 16:58:25", "zip": 8003}, "type": "Feature"}, {"geometry": {"coordinates": [8.518432, 47.369549], "type": "Point"}, "properties": {"address": "Brinerstrasse 2", "electric": 2, "id": "pb_558", "manual": 10, "name": "Schmiede Wiedikon", "provider": "publibike", "timeStamp": "02/03/2020, 16:58:25", "zip": 8003}, "type": "Feature"}, {"geometry": {"coordinates": [8.537546, 47.391289], "type": "Point"}, "properties": {"address": "Rotbuchstrasse 15", "electric": 9, "id": "pb_556", "manual": 0, "name": "Schaffhauserplatz", "provider": "publibike", "timeStamp": "02/03/2020, 16:58:25", "zip": 8006}, "type": "Feature"}, {"geometry": {"coordinates": [8.541541, 47.413733], "type": "Point"}, "properties": {"address": "Therese-Giehse-Strasse 11", "electric": 1, "id": "pb_561", "manual": 1, "name": "Center Eleven", "provider": "publibike", "timeStamp": "02/03/2020, 16:58:25", "zip": 8050}, "type": "Feature"}, {"geometry": {"coordinates": [8.534227, 47.360004], "type": "Point"}, "properties": {"address": "Alfred Escher-Strasse 76", "electric": 10, "id": "pb_563", "manual": 2, "name": "Mythenschloss", "provider": "publibike", "timeStamp": "02/03/2020, 16:58:25", "zip": 8002}, "type": "Feature"}, {"geometry": {"coordinates": [8.50373, 47.396172], "type": "Point"}, "properties": {"address": "Hardeggstrasse 6", "electric": 1, "id": "pb_566", "manual": 3, "name": "Am Wasser", "provider": "publibike", "timeStamp": "02/03/2020, 16:58:25", "zip": 8049}, "type": "Feature"}, {"geometry": {"coordinates": [8.532432, 47.381174], "type": "Point"}, "properties": {"address": "Klingenstrasse 9", "electric": 1, "id": "pb_565", "manual": 4, "name": "Zollstrasse", "provider": "publibike", "timeStamp": "02/03/2020, 16:58:25", "zip": 8005}, "type": "Feature"}, {"geometry": {"coordinates": [8.497982, 47.381447], "type": "Point"}, "properties": {"address": "Dennlerstrasse 23", "electric": 10, "id": "pb_567", "manual": 1, "name": "Dennlerstrasse", "provider": "publibike", "timeStamp": "02/03/2020, 16:58:25", "zip": 8047}, "type": "Feature"}, {"geometry": {"coordinates": [8.528049, 47.347701], "type": "Point"}, "properties": {"address": "Mutschellenstrasse 114", "electric": 5, "id": "pb_568", "manual": 5, "name": "Jugendherberge", "provider": "publibike", "timeStamp": "02/03/2020, 16:58:25", "zip": 8038}, "type": "Feature"}, {"geometry": {"coordinates": [8.539016, 47.405751], "type": "Point"}, "properties": {"address": "Ringstrasse 82", "electric": 0, "id": "pb_569", "manual": 4, "name": "Freibad Allenmoos", "provider": "publibike", "timeStamp": "02/03/2020, 16:58:25", "zip": 8057}, "type": "Feature"}, {"geometry": {"coordinates": [8.534974, 47.402164], "type": "Point"}, "properties": {"address": "Brache Guggach", "electric": 1, "id": "pb_572", "manual": 3, "name": "Radiostudio", "provider": "publibike", "timeStamp": "02/03/2020, 16:58:25", "zip": 8057}, "type": "Feature"}, {"geometry": {"coordinates": [8.547901, 47.375556], "type": "Point"}, "properties": {"address": "Karl-Schmid-Strasse 4", "electric": 0, "id": "pb_571", "manual": 2, "name": "ETH/Zoologisches Museum", "provider": "publibike", "timeStamp": "02/03/2020, 16:58:25", "zip": 8006}, "type": "Feature"}, {"geometry": {"coordinates": [8.545628, 47.369525], "type": "Point"}, "properties": {"charge": 56, "id": "smide_2901", "name": "ZH 267278", "provider": "smide", "range": 28.0, "size": 20, "time": "02/03/2020, 17:00:00"}, "type": "Feature"}, {"geometry": {"coordinates": [8.568701, 47.351381], "type": "Point"}, "properties": {"charge": 84, "id": "smide_2895", "name": "ZH 267279", "provider": "smide", "range": 42.0, "size": 20, "time": "02/03/2020, 17:00:00"}, "type": "Feature"}, {"geometry": {"coordinates": [8.48688, 47.388276], "type": "Point"}, "properties": {"charge": 100, "id": "smide_2880", "name": "ZH267289", "provider": "smide", "range": 50.0, "size": 17, "time": "02/03/2020, 17:00:00"}, "type": "Feature"}, {"geometry": {"coordinates": [8.536986, 47.37286], "type": "Point"}, "properties": {"charge": 57, "id": "smide_2871", "name": "ZH 267086", "provider": "smide", "range": 28.0, "size": 20, "time": "02/03/2020, 17:00:00"}, "type": "Feature"}, {"geometry": {"coordinates": [8.518293, 47.398621], "type": "Point"}, "properties": {"charge": 100, "id": "smide_2867", "name": "ZH 267090", "provider": "smide", "range": 50.0, "size": 20, "time": "02/03/2020, 17:00:00"}, "type": "Feature"}, {"geometry": {"coordinates": [8.55411, 47.357215], "type": "Point"}, "properties": {"charge": 84, "id": "smide_2861", "name": "ZH 267096", "provider": "smide", "range": 42.0, "size": 17, "time": "02/03/2020, 17:00:00"}, "type": "Feature"}, {"geometry": {"coordinates": [8.575948, 47.349761], "type": "Point"}, "properties": {"charge": 79, "id": "smide_2860", "name": "ZH 267097", "provider": "smide", "range": 39.0, "size": 17, "time": "02/03/2020, 17:00:00"}, "type": "Feature"}, {"geometry": {"coordinates": [8.523385, 47.386416], "type": "Point"}, "properties": {"charge": 76, "id": "smide_2859", "name": "ZH 267098", "provider": "smide", "range": 38.0, "size": 17, "time": "02/03/2020, 17:00:00"}, "type": "Feature"}, {"geometry": {"coordinates": [8.514588, 47.390813], "type": "Point"}, "properties": {"charge": 23, "id": "smide_2856", "name": "ZH 267101", "provider": "smide", "range": 11.0, "size": 17, "time": "02/03/2020, 17:00:00"}, "type": "Feature"}, {"geometry": {"coordinates": [8.507126, 47.399773], "type": "Point"}, "properties": {"charge": 95, "id": "smide_2854", "name": "ZH 267103", "provider": "smide", "range": 47.0, "size": 17, "time": "02/03/2020, 17:00:00"}, "type": "Feature"}, {"geometry": {"coordinates": [8.550431, 47.37695], "type": "Point"}, "properties": {"charge": 74, "id": "smide_2833", "name": "ZH 267182", "provider": "smide", "range": 37.0, "size": 20, "time": "02/03/2020, 17:00:00"}, "type": "Feature"}, {"geometry": {"coordinates": [8.56999, 47.352301], "type": "Point"}, "properties": {"charge": 44, "id": "smide_2831", "name": "ZH 267180", "provider": "smide", "range": 22.0, "size": 20, "time": "02/03/2020, 17:00:00"}, "type": "Feature"}, {"geometry": {"coordinates": [8.572533, 47.357543], "type": "Point"}, "properties": {"charge": 46, "id": "smide_2829", "name": "ZH 267049", "provider": "smide", "range": 23.0, "size": 20, "time": "02/03/2020, 17:00:00"}, "type": "Feature"}, {"geometry": {"coordinates": [8.554075, 47.412206], "type": "Point"}, "properties": {"charge": 72, "id": "smide_2804", "name": "ZH266903", "provider": "smide", "range": 36.0, "size": 20, "time": "02/03/2020, 17:00:00"}, "type": "Feature"}, {"geometry": {"coordinates": [8.54447, 47.376355], "type": "Point"}, "properties": {"charge": 92, "id": "smide_2798", "name": "ZH266888", "provider": "smide", "range": 46.0, "size": 17, "time": "02/03/2020, 17:00:00"}, "type": "Feature"}, {"geometry": {"coordinates": [8.52074, 47.339426], "type": "Point"}, "properties": {"charge": 24, "id": "smide_2793", "name": "ZH266883", "provider": "smide", "range": 12.0, "size": 17, "time": "02/03/2020, 17:00:00"}, "type": "Feature"}, {"geometry": {"coordinates": [8.512781, 47.391225], "type": "Point"}, "properties": {"charge": 88, "id": "smide_2790", "name": "ZH266880", "provider": "smide", "range": 44.0, "size": 17, "time": "02/03/2020, 17:00:00"}, "type": "Feature"}, {"geometry": {"coordinates": [8.527311, 47.339815], "type": "Point"}, "properties": {"charge": 22, "id": "smide_2785", "name": "ZH266875", "provider": "smide", "range": 11.0, "size": 17, "time": "02/03/2020, 17:00:00"}, "type": "Feature"}, {"geometry": {"coordinates": [8.564078, 47.348083], "type": "Point"}, "properties": {"charge": 73, "id": "smide_2781", "name": "ZH 266871", "provider": "smide", "range": 36.0, "size": 17, "time": "02/03/2020, 17:00:00"}, "type": "Feature"}, {"geometry": {"coordinates": [8.516253, 47.396551], "type": "Point"}, "properties": {"charge": 86, "id": "smide_2780", "name": "ST1 X #1", "provider": "smide", "range": 43.0, "size": 17, "time": "02/03/2020, 17:00:00"}, "type": "Feature"}, {"geometry": {"coordinates": [8.502076, 47.368816], "type": "Point"}, "properties": {"charge": 100, "id": "smide_2775", "name": "ZH267283", "provider": "smide", "range": 50.0, "size": 20, "time": "02/03/2020, 17:00:00"}, "type": "Feature"}, {"geometry": {"coordinates": [8.569032, 47.41068], "type": "Point"}, "properties": {"charge": 57, "id": "smide_2773", "name": "ZH266561", "provider": "smide", "range": 28.0, "size": 17, "time": "02/03/2020, 17:00:00"}, "type": "Feature"}, {"geometry": {"coordinates": [8.483678, 47.381936], "type": "Point"}, "properties": {"charge": 41, "id": "smide_2763", "name": "ZH266641", "provider": "smide", "range": 20.0, "size": 17, "time": "02/03/2020, 17:00:00"}, "type": "Feature"}, {"geometry": {"coordinates": [8.560213, 47.382205], "type": "Point"}, "properties": {"charge": 100, "id": "smide_2761", "name": "ZH266642", "provider": "smide", "range": 50.0, "size": 20, "time": "02/03/2020, 17:00:00"}, "type": "Feature"}, {"geometry": {"coordinates": [8.559423, 47.376636], "type": "Point"}, "properties": {"charge": 98, "id": "smide_2758", "name": "ZH266638 M", "provider": "smide", "range": 49.0, "size": 17, "time": "02/03/2020, 17:00:00"}, "type": "Feature"}, {"geometry": {"coordinates": [8.496366, 47.388652], "type": "Point"}, "properties": {"charge": 65, "id": "smide_2752", "name": "BE343856", "provider": "smide", "range": 32.0, "size": 17, "time": "02/03/2020, 17:00:00"}, "type": "Feature"}, {"geometry": {"coordinates": [8.525992, 47.358404], "type": "Point"}, "properties": {"charge": 35, "id": "smide_2751", "name": "BE343857", "provider": "smide", "range": 17.0, "size": 17, "time": "02/03/2020, 17:00:00"}, "type": "Feature"}, {"geometry": {"coordinates": [8.497124, 47.392236], "type": "Point"}, "properties": {"charge": 100, "id": "smide_2749", "name": "BE343867", "provider": "smide", "range": 50.0, "size": 17, "time": "02/03/2020, 17:00:00"}, "type": "Feature"}, {"geometry": {"coordinates": [8.493867, 47.388076], "type": "Point"}, "properties": {"charge": 70, "id": "smide_2748", "name": "BE335758", "provider": "smide", "range": 35.0, "size": 17, "time": "02/03/2020, 17:00:00"}, "type": "Feature"}, {"geometry": {"coordinates": [8.562456, 47.382948], "type": "Point"}, "properties": {"charge": 53, "id": "smide_2746", "name": "BE335817", "provider": "smide", "range": 26.0, "size": 17, "time": "02/03/2020, 17:00:00"}, "type": "Feature"}, {"geometry": {"coordinates": [8.553832, 47.398884], "type": "Point"}, "properties": {"charge": 83, "id": "smide_2747", "name": "BE335820", "provider": "smide", "range": 41.0, "size": 17, "time": "02/03/2020, 17:00:00"}, "type": "Feature"}, {"geometry": {"coordinates": [8.509474, 47.41358], "type": "Point"}, "properties": {"charge": 79, "id": "smide_2745", "name": "BE335818", "provider": "smide", "range": 39.0, "size": 17, "time": "02/03/2020, 17:00:00"}, "type": "Feature"}, {"geometry": {"coordinates": [8.518274, 47.39854], "type": "Point"}, "properties": {"charge": 87, "id": "smide_2743", "name": "BE343864", "provider": "smide", "range": 43.0, "size": 17, "time": "02/03/2020, 17:00:00"}, "type": "Feature"}, {"geometry": {"coordinates": [8.496543, 47.378468], "type": "Point"}, "properties": {"charge": 50, "id": "smide_2742", "name": "BE343866", "provider": "smide", "range": 25.0, "size": 17, "time": "02/03/2020, 17:00:00"}, "type": "Feature"}, {"geometry": {"coordinates": [8.536795, 47.378008], "type": "Point"}, "properties": {"charge": 86, "id": "smide_2741", "name": "BE343874", "provider": "smide", "range": 43.0, "size": 17, "time": "02/03/2020, 17:00:00"}, "type": "Feature"}, {"geometry": {"coordinates": [8.525872, 47.365144], "type": "Point"}, "properties": {"charge": 55, "id": "smide_2740", "name": "BE343875", "provider": "smide", "range": 27.0, "size": 17, "time": "02/03/2020, 17:00:00"}, "type": "Feature"}, {"geometry": {"coordinates": [8.48679, 47.388853], "type": "Point"}, "properties": {"charge": 100, "id": "smide_2738", "name": "BE343865", "provider": "smide", "range": 50.0, "size": 17, "time": "02/03/2020, 17:00:00"}, "type": "Feature"}, {"geometry": {"coordinates": [8.549195, 47.383292], "type": "Point"}, "properties": {"charge": 100, "id": "smide_2737", "name": "BE336149", "provider": "smide", "range": 50.0, "size": 17, "time": "02/03/2020, 17:00:00"}, "type": "Feature"}, {"geometry": {"coordinates": [8.502095, 47.369136], "type": "Point"}, "properties": {"charge": 33, "id": "smide_2736", "name": "BE346639", "provider": "smide", "range": 16.0, "size": 17, "time": "02/03/2020, 17:00:00"}, "type": "Feature"}, {"geometry": {"coordinates": [8.554579, 47.402984], "type": "Point"}, "properties": {"charge": 24, "id": "smide_2734", "name": "BE343876", "provider": "smide", "range": 12.0, "size": 17, "time": "02/03/2020, 17:00:00"}, "type": "Feature"}, {"geometry": {"coordinates": [8.566447, 47.351764], "type": "Point"}, "properties": {"charge": 89, "id": "smide_2733", "name": "BE343873", "provider": "smide", "range": 44.0, "size": 17, "time": "02/03/2020, 17:00:00"}, "type": "Feature"}, {"geometry": {"coordinates": [8.502512, 47.384484], "type": "Point"}, "properties": {"charge": 58, "id": "smide_2732", "name": "BE343870", "provider": "smide", "range": 28.0, "size": 17, "time": "02/03/2020, 17:00:00"}, "type": "Feature"}, {"geometry": {"coordinates": [8.536111, 47.3781], "type": "Point"}, "properties": {"charge": 33, "id": "smide_2729", "name": "BE343878", "provider": "smide", "range": 16.0, "size": 17, "time": "02/03/2020, 17:00:00"}, "type": "Feature"}, {"geometry": {"coordinates": [8.514458, 47.389638], "type": "Point"}, "properties": {"charge": 88, "id": "smide_2725", "name": "ZH261545", "provider": "smide", "range": 44.0, "size": 0, "time": "02/03/2020, 17:00:00"}, "type": "Feature"}, {"geometry": {"coordinates": [8.56294, 47.382463], "type": "Point"}, "properties": {"charge": 40, "id": "smide_2718", "name": "ZH259019", "provider": "smide", "range": 20.0, "size": 20, "time": "02/03/2020, 17:00:00"}, "type": "Feature"}, {"geometry": {"coordinates": [8.541265, 47.37902], "type": "Point"}, "properties": {"charge": 100, "id": "smide_2717", "name": "ZH263287", "provider": "smide", "range": 50.0, "size": 17, "time": "02/03/2020, 17:00:00"}, "type": "Feature"}, {"geometry": {"coordinates": [8.52585, 47.388933], "type": "Point"}, "properties": {"charge": 79, "id": "smide_2716", "name": "ZH254606", "provider": "smide", "range": 39.0, "size": 17, "time": "02/03/2020, 17:00:00"}, "type": "Feature"}, {"geometry": {"coordinates": [8.516526, 47.398204], "type": "Point"}, "properties": {"charge": 98, "id": "smide_2715", "name": "ZH254605", "provider": "smide", "range": 49.0, "size": 17, "time": "02/03/2020, 17:00:00"}, "type": "Feature"}, {"geometry": {"coordinates": [8.568409, 47.367616], "type": "Point"}, "properties": {"charge": 73, "id": "smide_2710", "name": "ZH256460", "provider": "smide", "range": 36.0, "size": 17, "time": "02/03/2020, 17:00:00"}, "type": "Feature"}, {"geometry": {"coordinates": [8.513599, 47.39236], "type": "Point"}, "properties": {"charge": 99, "id": "smide_2712", "name": "ZH256462", "provider": "smide", "range": 49.0, "size": 17, "time": "02/03/2020, 17:00:00"}, "type": "Feature"}, {"geometry": {"coordinates": [8.498974, 47.366772], "type": "Point"}, "properties": {"charge": 100, "id": "smide_2711", "name": "ZH256463", "provider": "smide", "range": 50.0, "size": 17, "time": "02/03/2020, 17:00:00"}, "type": "Feature"}, {"geometry": {"coordinates": [8.563953, 47.348143], "type": "Point"}, "properties": {"charge": 74, "id": "smide_2709", "name": "ZH256466", "provider": "smide", "range": 37.0, "size": 20, "time": "02/03/2020, 17:00:00"}, "type": "Feature"}, {"geometry": {"coordinates": [8.544288, 47.416468], "type": "Point"}, "properties": {"charge": 64, "id": "smide_2707", "name": "ZH256467", "provider": "smide", "range": 32.0, "size": 20, "time": "02/03/2020, 17:00:00"}, "type": "Feature"}, {"geometry": {"coordinates": [8.542998, 47.371292], "type": "Point"}, "properties": {"charge": 81, "id": "smide_2708", "name": "ZH256464", "provider": "smide", "range": 40.0, "size": 17, "time": "02/03/2020, 17:00:00"}, "type": "Feature"}, {"geometry": {"coordinates": [8.547452, 47.364972], "type": "Point"}, "properties": {"charge": 76, "id": "smide_2706", "name": "ZH256322", "provider": "smide", "range": 38.0, "size": 20, "time": "02/03/2020, 17:00:00"}, "type": "Feature"}, {"geometry": {"coordinates": [8.539513, 47.385284], "type": "Point"}, "properties": {"charge": 75, "id": "smide_2701", "name": "ZH256468", "provider": "smide", "range": 37.0, "size": 20, "time": "02/03/2020, 17:00:00"}, "type": "Feature"}, {"geometry": {"coordinates": [8.543678, 47.371856], "type": "Point"}, "properties": {"charge": 83, "id": "smide_2700", "name": "ZH256470", "provider": "smide", "range": 41.0, "size": 20, "time": "02/03/2020, 17:00:00"}, "type": "Feature"}, {"geometry": {"coordinates": [8.568425, 47.367632], "type": "Point"}, "properties": {"charge": 100, "id": "smide_2699", "name": "ZH254611", "provider": "smide", "range": 50.0, "size": 20, "time": "02/03/2020, 17:00:00"}, "type": "Feature"}, {"geometry": {"coordinates": [8.536163, 47.377588], "type": "Point"}, "properties": {"charge": 93, "id": "smide_2697", "name": "ZH254629", "provider": "smide", "range": 46.0, "size": 20, "time": "02/03/2020, 17:00:00"}, "type": "Feature"}, {"geometry": {"coordinates": [8.551088, 47.415124], "type": "Point"}, "properties": {"charge": 81, "id": "smide_2696", "name": "ZH254616", "provider": "smide", "range": 40.0, "size": 20, "time": "02/03/2020, 17:00:00"}, "type": "Feature"}, {"geometry": {"coordinates": [8.551782, 47.389136], "type": "Point"}, "properties": {"charge": 81, "id": "smide_2694", "name": "ZH254610", "provider": "smide", "range": 40.0, "size": 20, "time": "02/03/2020, 17:00:00"}, "type": "Feature"}, {"geometry": {"coordinates": [8.558641, 47.403898], "type": "Point"}, "properties": {"charge": 100, "id": "smide_2691", "name": "ZH254622", "provider": "smide", "range": 50.0, "size": 20, "time": "02/03/2020, 17:00:00"}, "type": "Feature"}, {"geometry": {"coordinates": [8.54877, 47.402311], "type": "Point"}, "properties": {"charge": 59, "id": "smide_2690", "name": "ZH254625", "provider": "smide", "range": 29.0, "size": 20, "time": "02/03/2020, 17:00:00"}, "type": "Feature"}, {"geometry": {"coordinates": [8.493972, 47.3836], "type": "Point"}, "properties": {"charge": 52, "id": "smide_2689", "name": "ZH254623", "provider": "smide", "range": 26.0, "size": 20, "time": "02/03/2020, 17:00:00"}, "type": "Feature"}, {"geometry": {"coordinates": [8.548162, 47.366364], "type": "Point"}, "properties": {"charge": 64, "id": "smide_2687", "name": "ZH263529", "provider": "smide", "range": 32.0, "size": 20, "time": "02/03/2020, 17:00:00"}, "type": "Feature"}, {"geometry": {"coordinates": [8.563399, 47.382368], "type": "Point"}, "properties": {"charge": 69, "id": "smide_2684", "name": "ZH254626", "provider": "smide", "range": 34.0, "size": 20, "time": "02/03/2020, 17:00:00"}, "type": "Feature"}, {"geometry": {"coordinates": [8.568141, 47.3515], "type": "Point"}, "properties": {"charge": 32, "id": "smide_2683", "name": "ZH254620", "provider": "smide", "range": 16.0, "size": 20, "time": "02/03/2020, 17:00:00"}, "type": "Feature"}, {"geometry": {"coordinates": [8.53653, 47.377864], "type": "Point"}, "properties": {"charge": 53, "id": "smide_2680", "name": "ZH254619", "provider": "smide", "range": 26.0, "size": 20, "time": "02/03/2020, 17:00:00"}, "type": "Feature"}, {"geometry": {"coordinates": [8.576508, 47.351244], "type": "Point"}, "properties": {"charge": 83, "id": "smide_2679", "name": "ZH258489", "provider": "smide", "range": 41.0, "size": 17, "time": "02/03/2020, 17:00:00"}, "type": "Feature"}, {"geometry": {"coordinates": [8.502164, 47.368792], "type": "Point"}, "properties": {"charge": 90, "id": "smide_2677", "name": "ZH258487", "provider": "smide", "range": 45.0, "size": 17, "time": "02/03/2020, 17:00:00"}, "type": "Feature"}, {"geometry": {"coordinates": [8.533112, 47.336768], "type": "Point"}, "properties": {"charge": 71, "id": "smide_2674", "name": "ZH258654", "provider": "smide", "range": 35.0, "size": 17, "time": "02/03/2020, 17:00:00"}, "type": "Feature"}, {"geometry": {"coordinates": [8.523777, 47.359812], "type": "Point"}, "properties": {"charge": 74, "id": "smide_2671", "name": "ZH258645", "provider": "smide", "range": 37.0, "size": 17, "time": "02/03/2020, 17:00:00"}, "type": "Feature"}, {"geometry": {"coordinates": [8.566568, 47.364048], "type": "Point"}, "properties": {"charge": 92, "id": "smide_2669", "name": "ZH263294", "provider": "smide", "range": 46.0, "size": 17, "time": "02/03/2020, 17:00:00"}, "type": "Feature"}, {"geometry": {"coordinates": [8.54221, 47.366872], "type": "Point"}, "properties": {"charge": 47, "id": "smide_2666", "name": "ZH258653", "provider": "smide", "range": 23.0, "size": 17, "time": "02/03/2020, 17:00:00"}, "type": "Feature"}, {"geometry": {"coordinates": [8.547196, 47.407812], "type": "Point"}, "properties": {"charge": 97, "id": "smide_2665", "name": "ZH258644", "provider": "smide", "range": 48.0, "size": 17, "time": "02/03/2020, 17:00:00"}, "type": "Feature"}, {"geometry": {"coordinates": [8.538461, 47.377272], "type": "Point"}, "properties": {"charge": 53, "id": "smide_2664", "name": "ZH258652", "provider": "smide", "range": 26.0, "size": 17, "time": "02/03/2020, 17:00:00"}, "type": "Feature"}, {"geometry": {"coordinates": [8.516521, 47.398152], "type": "Point"}, "properties": {"charge": 79, "id": "smide_2663", "name": "ZH258649", "provider": "smide", "range": 39.0, "size": 17, "time": "02/03/2020, 17:00:00"}, "type": "Feature"}, {"geometry": {"coordinates": [8.56846, 47.366852], "type": "Point"}, "properties": {"charge": 35, "id": "smide_2662", "name": "ZH258643", "provider": "smide", "range": 17.0, "size": 17, "time": "02/03/2020, 17:00:00"}, "type": "Feature"}, {"geometry": {"coordinates": [8.485093, 47.391816], "type": "Point"}, "properties": {"charge": 100, "id": "smide_2648", "name": "ZH257930", "provider": "smide", "range": 50.0, "size": 20, "time": "02/03/2020, 17:00:00"}, "type": "Feature"}, {"geometry": {"coordinates": [8.569923, 47.35253], "type": "Point"}, "properties": {"charge": 41, "id": "smide_2657", "name": "ZH257936", "provider": "smide", "range": 20.0, "size": 17, "time": "02/03/2020, 17:00:00"}, "type": "Feature"}, {"geometry": {"coordinates": [8.502095, 47.368824], "type": "Point"}, "properties": {"charge": 31, "id": "smide_2647", "name": "ZH257932", "provider": "smide", "range": 15.0, "size": 20, "time": "02/03/2020, 17:00:00"}, "type": "Feature"}, {"geometry": {"coordinates": [8.569207, 47.373012], "type": "Point"}, "properties": {"charge": 99, "id": "smide_2645", "name": "ZH257933", "provider": "smide", "range": 49.0, "size": 20, "time": "02/03/2020, 17:00:00"}, "type": "Feature"}, {"geometry": {"coordinates": [8.498575, 47.399296], "type": "Point"}, "properties": {"charge": 87, "id": "smide_3", "name": "ZH253765", "provider": "smide", "range": 43.0, "size": 20, "time": "02/03/2020, 17:00:00"}, "type": "Feature"}, {"geometry": {"coordinates": [8.526053, 47.408545], "type": "Point"}, "properties": {"charge": 62, "id": "smide_105", "name": "ZH253804", "provider": "smide", "range": 31.0, "size": 17, "time": "02/03/2020, 17:00:00"}, "type": "Feature"}, {"geometry": {"coordinates": [8.542078, 47.407628], "type": "Point"}, "properties": {"charge": 91, "id": "smide_186", "name": "ZH253751", "provider": "smide", "range": 45.0, "size": 20, "time": "02/03/2020, 17:00:00"}, "type": "Feature"}, {"geometry": {"coordinates": [8.571149, 47.35256], "type": "Point"}, "properties": {"charge": 83, "id": "smide_173", "name": "ZH258501", "provider": "smide", "range": 41.0, "size": 17, "time": "02/03/2020, 17:00:00"}, "type": "Feature"}, {"geometry": {"coordinates": [8.559301, 47.406], "type": "Point"}, "properties": {"charge": 73, "id": "smide_77", "name": "ZH261548", "provider": "smide", "range": 36.0, "size": 20, "time": "02/03/2020, 17:00:00"}, "type": "Feature"}, {"geometry": {"coordinates": [8.539804, 47.374852], "type": "Point"}, "properties": {"charge": 59, "id": "smide_200", "name": "ZH253801", "provider": "smide", "range": 29.0, "size": 20, "time": "02/03/2020, 17:00:00"}, "type": "Feature"}, {"geometry": {"coordinates": [8.542989, 47.37484], "type": "Point"}, "properties": {"charge": 91, "id": "smide_8", "name": "ZH253861", "provider": "smide", "range": 45.0, "size": 17, "time": "02/03/2020, 17:00:00"}, "type": "Feature"}, {"geometry": {"coordinates": [8.543426, 47.374328], "type": "Point"}, "properties": {"charge": 29, "id": "smide_45", "name": "ZH253716", "provider": "smide", "range": 14.0, "size": 17, "time": "02/03/2020, 17:00:00"}, "type": "Feature"}, {"geometry": {"coordinates": [8.527167, 47.393344], "type": "Point"}, "properties": {"charge": 100, "id": "smide_188", "name": "ZH261543", "provider": "smide", "range": 50.0, "size": 20, "time": "02/03/2020, 17:00:00"}, "type": "Feature"}, {"geometry": {"coordinates": [8.502157, 47.36888], "type": "Point"}, "properties": {"charge": 100, "id": "smide_71", "name": "ZH253742", "provider": "smide", "range": 50.0, "size": 20, "time": "02/03/2020, 17:00:00"}, "type": "Feature"}, {"geometry": {"coordinates": [8.449955, 47.397796], "type": "Point"}, "properties": {"charge": 49, "id": "smide_9", "name": "ZH253796", "provider": "smide", "range": 24.0, "size": 17, "time": "02/03/2020, 17:00:00"}, "type": "Feature"}, {"geometry": {"coordinates": [8.563396, 47.4094], "type": "Point"}, "properties": {"charge": 71, "id": "smide_143", "name": "ZH253778", "provider": "smide", "range": 35.0, "size": 17, "time": "02/03/2020, 17:00:00"}, "type": "Feature"}, {"geometry": {"coordinates": [8.554431, 47.415875], "type": "Point"}, "properties": {"charge": 91, "id": "smide_180", "name": "ZH253824", "provider": "smide", "range": 45.0, "size": 20, "time": "02/03/2020, 17:00:00"}, "type": "Feature"}, {"geometry": {"coordinates": [8.544675, 47.374212], "type": "Point"}, "properties": {"charge": 22, "id": "smide_20", "name": "ZH253770", "provider": "smide", "range": 11.0, "size": 20, "time": "02/03/2020, 17:00:00"}, "type": "Feature"}, {"geometry": {"coordinates": [8.554793, 47.376796], "type": "Point"}, "properties": {"charge": 100, "id": "smide_50", "name": "ZH253853", "provider": "smide", "range": 50.0, "size": 17, "time": "02/03/2020, 17:00:00"}, "type": "Feature"}, {"geometry": {"coordinates": [8.54554, 47.39771], "type": "Point"}, "properties": {"charge": 64, "id": "smide_30", "name": "ZH253813", "provider": "smide", "range": 32.0, "size": 20, "time": "02/03/2020, 17:00:00"}, "type": "Feature"}, {"geometry": {"coordinates": [8.536053, 47.374515], "type": "Point"}, "properties": {"charge": 72, "id": "smide_10", "name": "ZH253855", "provider": "smide", "range": 36.0, "size": 17, "time": "02/03/2020, 17:00:00"}, "type": "Feature"}, {"geometry": {"coordinates": [8.50841, 47.369728], "type": "Point"}, "properties": {"charge": 95, "id": "smide_84", "name": "ZH253733", "provider": "smide", "range": 47.0, "size": 17, "time": "02/03/2020, 17:00:00"}, "type": "Feature"}, {"geometry": {"coordinates": [8.539988, 47.378952], "type": "Point"}, "properties": {"charge": 100, "id": "smide_165", "name": "ZH253752", "provider": "smide", "range": 50.0, "size": 17, "time": "02/03/2020, 17:00:00"}, "type": "Feature"}, {"geometry": {"coordinates": [8.538983, 47.37566], "type": "Point"}, "properties": {"charge": 65, "id": "smide_35", "name": "ZH253755", "provider": "smide", "range": 32.0, "size": 20, "time": "02/03/2020, 17:00:00"}, "type": "Feature"}, {"geometry": {"coordinates": [8.542171, 47.36688], "type": "Point"}, "properties": {"charge": 100, "id": "smide_76", "name": "ZH253764", "provider": "smide", "range": 50.0, "size": 17, "time": "02/03/2020, 17:00:00"}, "type": "Feature"}, {"geometry": {"coordinates": [8.560638, 47.350512], "type": "Point"}, "properties": {"charge": 100, "id": "smide_129", "name": "ZH261378", "provider": "smide", "range": 50.0, "size": 17, "time": "02/03/2020, 17:00:00"}, "type": "Feature"}, {"geometry": {"coordinates": [8.558691, 47.382306], "type": "Point"}, "properties": {"charge": 97, "id": "smide_49", "name": "ZH253873", "provider": "smide", "range": 48.0, "size": 17, "time": "02/03/2020, 17:00:00"}, "type": "Feature"}, {"geometry": {"coordinates": [8.521539, 47.367612], "type": "Point"}, "properties": {"charge": 86, "id": "smide_94", "name": "ZH253754", "provider": "smide", "range": 43.0, "size": 17, "time": "02/03/2020, 17:00:00"}, "type": "Feature"}, {"geometry": {"coordinates": [8.532405, 47.397368], "type": "Point"}, "properties": {"charge": 46, "id": "smide_37", "name": "ZH261377", "provider": "smide", "range": 23.0, "size": 20, "time": "02/03/2020, 17:00:00"}, "type": "Feature"}, {"geometry": {"coordinates": [8.544341, 47.369313], "type": "Point"}, "properties": {"charge": 75, "id": "smide_191", "name": "ZH253762", "provider": "smide", "range": 37.0, "size": 17, "time": "02/03/2020, 17:00:00"}, "type": "Feature"}, {"geometry": {"coordinates": [8.540963, 47.377158], "type": "Point"}, "properties": {"charge": 100, "id": "smide_202", "name": "ZH253830", "provider": "smide", "range": 50.0, "size": 17, "time": "02/03/2020, 17:00:00"}, "type": "Feature"}, {"geometry": {"coordinates": [8.560678, 47.368048], "type": "Point"}, "properties": {"charge": 32, "id": "smide_56", "name": "ZH261442", "provider": "smide", "range": 16.0, "size": 20, "time": "02/03/2020, 17:00:00"}, "type": "Feature"}, {"geometry": {"coordinates": [8.483071, 47.384663], "type": "Point"}, "properties": {"charge": 27, "id": "smide_47", "name": "ZH253858", "provider": "smide", "range": 13.0, "size": 17, "time": "02/03/2020, 17:00:00"}, "type": "Feature"}, {"geometry": {"coordinates": [8.558478, 47.403852], "type": "Point"}, "properties": {"charge": 90, "id": "smide_66", "name": "ZH253818", "provider": "smide", "range": 45.0, "size": 20, "time": "02/03/2020, 17:00:00"}, "type": "Feature"}, {"geometry": {"coordinates": [8.508215, 47.400553], "type": "Point"}, "properties": {"charge": 77, "id": "smide_17", "name": "ZH253793", "provider": "smide", "range": 38.0, "size": 17, "time": "02/03/2020, 17:00:00"}, "type": "Feature"}, {"geometry": {"coordinates": [8.564054, 47.366356], "type": "Point"}, "properties": {"charge": 52, "id": "smide_127", "name": "ZH253808", "provider": "smide", "range": 26.0, "size": 20, "time": "02/03/2020, 17:00:00"}, "type": "Feature"}, {"geometry": {"coordinates": [8.539238, 47.415288], "type": "Point"}, "properties": {"charge": 69, "id": "smide_145", "name": "ZH253780", "provider": "smide", "range": 34.0, "size": 20, "time": "02/03/2020, 17:00:00"}, "type": "Feature"}, {"geometry": {"coordinates": [8.516977, 47.384776], "type": "Point"}, "properties": {"charge": 73, "id": "smide_114", "name": "ZH253878", "provider": "smide", "range": 36.0, "size": 20, "time": "02/03/2020, 17:00:00"}, "type": "Feature"}, {"geometry": {"coordinates": [8.548914, 47.421532], "type": "Point"}, "properties": {"charge": 58, "id": "smide_203", "name": "ZH261547", "provider": "smide", "range": 28.0, "size": 17, "time": "02/03/2020, 17:00:00"}, "type": "Feature"}, {"geometry": {"coordinates": [8.520146, 47.33702], "type": "Point"}, "properties": {"charge": 52, "id": "smide_21", "name": "ZH253841", "provider": "smide", "range": 26.0, "size": 17, "time": "02/03/2020, 17:00:00"}, "type": "Feature"}, {"geometry": {"coordinates": [8.524117, 47.364884], "type": "Point"}, "properties": {"charge": 100, "id": "smide_164", "name": "ZH253775", "provider": "smide", "range": 50.0, "size": 17, "time": "02/03/2020, 17:00:00"}, "type": "Feature"}, {"geometry": {"coordinates": [8.487342, 47.36754], "type": "Point"}, "properties": {"charge": 93, "id": "smide_189", "name": "ZH253845", "provider": "smide", "range": 46.0, "size": 20, "time": "02/03/2020, 17:00:00"}, "type": "Feature"}, {"geometry": {"coordinates": [8.54917, 47.373904], "type": "Point"}, "properties": {"charge": 88, "id": "smide_81", "name": "ZH253753", "provider": "smide", "range": 44.0, "size": 17, "time": "02/03/2020, 17:00:00"}, "type": "Feature"}, {"geometry": {"coordinates": [8.571651, 47.381508], "type": "Point"}, "properties": {"charge": 83, "id": "smide_171", "name": "ZH253689", "provider": "smide", "range": 41.0, "size": 20, "time": "02/03/2020, 17:00:00"}, "type": "Feature"}, {"geometry": {"coordinates": [8.502092, 47.368804], "type": "Point"}, "properties": {"charge": 97, "id": "smide_22", "name": "ZH253852", "provider": "smide", "range": 48.0, "size": 17, "time": "02/03/2020, 17:00:00"}, "type": "Feature"}, {"geometry": {"coordinates": [8.523422, 47.410244], "type": "Point"}, "properties": {"charge": 33, "id": "smide_93", "name": "ZH253681", "provider": "smide", "range": 16.0, "size": 17, "time": "02/03/2020, 17:00:00"}, "type": "Feature"}, {"geometry": {"coordinates": [8.573241, 47.352344], "type": "Point"}, "properties": {"charge": 88, "id": "smide_67", "name": "ZH253779", "provider": "smide", "range": 44.0, "size": 17, "time": "02/03/2020, 17:00:00"}, "type": "Feature"}, {"geometry": {"coordinates": [8.482621, 47.385621], "type": "Point"}, "properties": {"charge": 91, "id": "smide_118", "name": "ZH253759", "provider": "smide", "range": 45.0, "size": 20, "time": "02/03/2020, 17:00:00"}, "type": "Feature"}, {"geometry": {"coordinates": [8.550547, 47.392572], "type": "Point"}, "properties": {"charge": 81, "id": "smide_142", "name": "ZH258745", "provider": "smide", "range": 40.0, "size": 17, "time": "02/03/2020, 17:00:00"}, "type": "Feature"}, {"geometry": {"coordinates": [8.527065, 47.337173], "type": "Point"}, "properties": {"charge": 35, "id": "smide_166", "name": "ZH253728", "provider": "smide", "range": 17.0, "size": 17, "time": "02/03/2020, 17:00:00"}, "type": "Feature"}, {"geometry": {"coordinates": [8.49699, 47.40188], "type": "Point"}, "properties": {"charge": 51, "id": "smide_126", "name": "ZH268400", "provider": "smide", "range": 25.0, "size": 17, "time": "02/03/2020, 17:00:00"}, "type": "Feature"}, {"geometry": {"coordinates": [8.546476, 47.364346], "type": "Point"}, "properties": {"charge": 100, "id": "smide_98", "name": "ZH256321", "provider": "smide", "range": 50.0, "size": 17, "time": "02/03/2020, 17:00:00"}, "type": "Feature"}, {"geometry": {"coordinates": [8.484781, 47.394144], "type": "Point"}, "properties": {"charge": 75, "id": "smide_154", "name": "ZH253744", "provider": "smide", "range": 37.0, "size": 20, "time": "02/03/2020, 17:00:00"}, "type": "Feature"}, {"geometry": {"coordinates": [8.521288, 47.357264], "type": "Point"}, "properties": {"charge": 41, "id": "smide_7", "name": "ZH256289", "provider": "smide", "range": 20.0, "size": 20, "time": "02/03/2020, 17:00:00"}, "type": "Feature"}, {"geometry": {"coordinates": [8.513287, 47.383136], "type": "Point"}, "properties": {"charge": 72, "id": "smide_92", "name": "ZH253798", "provider": "smide", "range": 36.0, "size": 17, "time": "02/03/2020, 17:00:00"}, "type": "Feature"}, {"geometry": {"coordinates": [8.545493, 47.412806], "type": "Point"}, "properties": {"charge": 43, "id": "smide_167", "name": "ZH253854", "provider": "smide", "range": 21.0, "size": 17, "time": "02/03/2020, 17:00:00"}, "type": "Feature"}, {"geometry": {"coordinates": [8.502049, 47.36888], "type": "Point"}, "properties": {"charge": 100, "id": "smide_65", "name": "ZH253810", "provider": "smide", "range": 50.0, "size": 17, "time": "02/03/2020, 17:00:00"}, "type": "Feature"}, {"geometry": {"coordinates": [8.533239, 47.397652], "type": "Point"}, "properties": {"charge": 70, "id": "smide_111", "name": "ZH253763", "provider": "smide", "range": 35.0, "size": 17, "time": "02/03/2020, 17:00:00"}, "type": "Feature"}, {"geometry": {"coordinates": [8.562194, 47.414912], "type": "Point"}, "properties": {"charge": 75, "id": "smide_40", "name": "ZH253690", "provider": "smide", "range": 37.0, "size": 20, "time": "02/03/2020, 17:00:00"}, "type": "Feature"}, {"geometry": {"coordinates": [8.563383, 47.348856], "type": "Point"}, "properties": {"charge": 90, "id": "smide_1", "name": "ZH253776", "provider": "smide", "range": 45.0, "size": 17, "time": "02/03/2020, 17:00:00"}, "type": "Feature"}, {"geometry": {"coordinates": [8.520005, 47.340661], "type": "Point"}, "properties": {"charge": 75, "id": "smide_14", "name": "ZH253749", "provider": "smide", "range": 37.0, "size": 20, "time": "02/03/2020, 17:00:00"}, "type": "Feature"}, {"geometry": {"coordinates": [8.492973, 47.368748], "type": "Point"}, "properties": {"charge": 100, "id": "smide_130", "name": "ZH253847", "provider": "smide", "range": 50.0, "size": 20, "time": "02/03/2020, 17:00:00"}, "type": "Feature"}, {"geometry": {"coordinates": [8.540123, 47.378864], "type": "Point"}, "properties": {"charge": 100, "id": "smide_24", "name": "ZH253696", "provider": "smide", "range": 50.0, "size": 20, "time": "02/03/2020, 17:00:00"}, "type": "Feature"}, {"geometry": {"coordinates": [8.495515, 47.367632], "type": "Point"}, "properties": {"charge": 71, "id": "smide_107", "name": "ZH253819", "provider": "smide", "range": 35.0, "size": 17, "time": "02/03/2020, 17:00:00"}, "type": "Feature"}, {"geometry": {"coordinates": [8.53349, 47.375948], "type": "Point"}, "properties": {"charge": 79, "id": "smide_136", "name": "ZH253682", "provider": "smide", "range": 39.0, "size": 17, "time": "02/03/2020, 17:00:00"}, "type": "Feature"}, {"geometry": {"coordinates": [8.520825, 47.411664], "type": "Point"}, "properties": {"charge": 100, "id": "smide_83", "name": "ZH253869", "provider": "smide", "range": 50.0, "size": 20, "time": "02/03/2020, 17:00:00"}, "type": "Feature"}, {"geometry": {"coordinates": [8.530999, 47.369292], "type": "Point"}, "properties": {"charge": 100, "id": "smide_193", "name": "ZH253738", "provider": "smide", "range": 50.0, "size": 20, "time": "02/03/2020, 17:00:00"}, "type": "Feature"}, {"geometry": {"coordinates": [8.545181, 47.412256], "type": "Point"}, "properties": {"charge": 91, "id": "smide_73", "name": "ZH261379", "provider": "smide", "range": 45.0, "size": 20, "time": "02/03/2020, 17:00:00"}, "type": "Feature"}, {"geometry": {"coordinates": [8.490525, 47.376755], "type": "Point"}, "properties": {"charge": 100, "id": "smide_158", "name": "ZH253870", "provider": "smide", "range": 50.0, "size": 20, "time": "02/03/2020, 17:00:00"}, "type": "Feature"}, {"geometry": {"coordinates": [8.534156, 47.40432], "type": "Point"}, "properties": {"charge": 87, "id": "smide_100", "name": "ZH253862", "provider": "smide", "range": 43.0, "size": 20, "time": "02/03/2020, 17:00:00"}, "type": "Feature"}, {"geometry": {"coordinates": [8.543448, 47.41131], "type": "Point"}, "properties": {"charge": 75, "id": "smide_134", "name": "ZH253741", "provider": "smide", "range": 37.0, "size": 20, "time": "02/03/2020, 17:00:00"}, "type": "Feature"}, {"geometry": {"coordinates": [8.498098, 47.35799], "type": "Point"}, "properties": {"charge": 69, "id": "smide_141", "name": "ZH253800", "provider": "smide", "range": 34.0, "size": 20, "time": "02/03/2020, 17:00:00"}, "type": "Feature"}, {"geometry": {"coordinates": [8.540615, 47.369873], "type": "Point"}, "properties": {"charge": 100, "id": "smide_149", "name": "ZH253743", "provider": "smide", "range": 50.0, "size": 20, "time": "02/03/2020, 17:00:00"}, "type": "Feature"}, {"geometry": {"coordinates": [8.582216, 47.351848], "type": "Point"}, "properties": {"charge": 79, "id": "smide_16", "name": "ZH253713", "provider": "smide", "range": 39.0, "size": 20, "time": "02/03/2020, 17:00:00"}, "type": "Feature"}, {"geometry": {"coordinates": [8.562895, 47.366116], "type": "Point"}, "properties": {"charge": 49, "id": "smide_74", "name": "ZH253693", "provider": "smide", "range": 24.0, "size": 20, "time": "02/03/2020, 17:00:00"}, "type": "Feature"}, {"geometry": {"coordinates": [8.548726, 47.376888], "type": "Point"}, "properties": {"charge": 62, "id": "smide_33", "name": "ZH253782", "provider": "smide", "range": 31.0, "size": 20, "time": "02/03/2020, 17:00:00"}, "type": "Feature"}, {"geometry": {"coordinates": [8.523306, 47.36285], "type": "Point"}, "properties": {"charge": 41, "id": "smide_183", "name": "ZH253868", "provider": "smide", "range": 20.0, "size": 17, "time": "02/03/2020, 17:00:00"}, "type": "Feature"}, {"geometry": {"coordinates": [8.532166, 47.338832], "type": "Point"}, "properties": {"charge": 61, "id": "smide_42", "name": "ZH253846", "provider": "smide", "range": 30.0, "size": 20, "time": "02/03/2020, 17:00:00"}, "type": "Feature"}, {"geometry": {"coordinates": [8.517743, 47.385616], "type": "Point"}, "properties": {"charge": 79, "id": "smide_4", "name": "ZH253740", "provider": "smide", "range": 39.0, "size": 20, "time": "02/03/2020, 17:00:00"}, "type": "Feature"}, {"geometry": {"coordinates": [8.544953, 47.367204], "type": "Point"}, "properties": {"charge": 85, "id": "smide_160", "name": "ZH253722", "provider": "smide", "range": 42.0, "size": 17, "time": "02/03/2020, 17:00:00"}, "type": "Feature"}, {"geometry": {"coordinates": [8.577267, 47.352984], "type": "Point"}, "properties": {"charge": 95, "id": "smide_178", "name": "ZH253803", "provider": "smide", "range": 47.0, "size": 17, "time": "02/03/2020, 17:00:00"}, "type": "Feature"}, {"geometry": {"coordinates": [8.489631, 47.381521], "type": "Point"}, "properties": {"charge": 100, "id": "smide_55", "name": "ZH253875", "provider": "smide", "range": 50.0, "size": 17, "time": "02/03/2020, 17:00:00"}, "type": "Feature"}, {"geometry": {"coordinates": [8.516267, 47.387448], "type": "Point"}, "properties": {"charge": 100, "id": "smide_96", "name": "ZH256146", "provider": "smide", "range": 50.0, "size": 20, "time": "02/03/2020, 17:00:00"}, "type": "Feature"}, {"geometry": {"coordinates": [8.541512, 47.379068], "type": "Point"}, "properties": {"charge": 100, "id": "smide_58", "name": "ZH259246", "provider": "smide", "range": 50.0, "size": 20, "time": "02/03/2020, 17:00:00"}, "type": "Feature"}, {"geometry": {"coordinates": [8.530699, 47.372772], "type": "Point"}, "properties": {"charge": 99, "id": "smide_54", "name": "ZH253874", "provider": "smide", "range": 49.0, "size": 20, "time": "02/03/2020, 17:00:00"}, "type": "Feature"}, {"geometry": {"coordinates": [8.551846, 47.389328], "type": "Point"}, "properties": {"charge": 89, "id": "smide_175", "name": "ZH253730", "provider": "smide", "range": 44.0, "size": 17, "time": "02/03/2020, 17:00:00"}, "type": "Feature"}, {"geometry": {"coordinates": [8.536882, 47.390016], "type": "Point"}, "properties": {"charge": 92, "id": "smide_95", "name": "ZH253773", "provider": "smide", "range": 46.0, "size": 17, "time": "02/03/2020, 17:00:00"}, "type": "Feature"}, {"geometry": {"coordinates": [8.52768, 47.415064], "type": "Point"}, "properties": {"charge": 51, "id": "smide_112", "name": "ZH263530", "provider": "smide", "range": 25.0, "size": 20, "time": "02/03/2020, 17:00:00"}, "type": "Feature"}, {"geometry": {"coordinates": [8.572631, 47.35738], "type": "Point"}, "properties": {"charge": 100, "id": "smide_122", "name": "ZH253850", "provider": "smide", "range": 50.0, "size": 20, "time": "02/03/2020, 17:00:00"}, "type": "Feature"}, {"geometry": {"coordinates": [8.530581, 47.334736], "type": "Point"}, "properties": {"charge": 62, "id": "smide_38", "name": "ZH253851", "provider": "smide", "range": 31.0, "size": 20, "time": "02/03/2020, 17:00:00"}, "type": "Feature"}, {"geometry": {"coordinates": [8.557735, 47.404396], "type": "Point"}, "properties": {"charge": 89, "id": "smide_6", "name": "ZH253787", "provider": "smide", "range": 44.0, "size": 17, "time": "02/03/2020, 17:00:00"}, "type": "Feature"}, {"geometry": {"coordinates": [8.556858, 47.403756], "type": "Point"}, "properties": {"charge": 85, "id": "smide_18", "name": "ZH253859", "provider": "smide", "range": 42.0, "size": 17, "time": "02/03/2020, 17:00:00"}, "type": "Feature"}, {"geometry": {"coordinates": [8.49824, 47.399276], "type": "Point"}, "properties": {"charge": 59, "id": "smide_12", "name": "ZH253685", "provider": "smide", "range": 29.0, "size": 17, "time": "02/03/2020, 17:00:00"}, "type": "Feature"}, {"geometry": {"coordinates": [8.576261, 47.34886], "type": "Point"}, "properties": {"charge": 95, "id": "smide_192", "name": "ZH253706", "provider": "smide", "range": 47.0, "size": 20, "time": "02/03/2020, 17:00:00"}, "type": "Feature"}, {"geometry": {"coordinates": [8.545034, 47.367812], "type": "Point"}, "properties": {"charge": 60, "id": "smide_39", "name": "ZH253714", "provider": "smide", "range": 30.0, "size": 20, "time": "02/03/2020, 17:00:00"}, "type": "Feature"}, {"geometry": {"coordinates": [8.519675, 47.337465], "type": "Point"}, "properties": {"charge": 51, "id": "smide_5", "name": "ZH261443", "provider": "smide", "range": 25.0, "size": 20, "time": "02/03/2020, 17:00:00"}, "type": "Feature"}, {"geometry": {"coordinates": [8.542041, 47.399976], "type": "Point"}, "properties": {"charge": 86, "id": "smide_85", "name": "ZH253729", "provider": "smide", "range": 43.0, "size": 17, "time": "02/03/2020, 17:00:00"}, "type": "Feature"}, {"geometry": {"coordinates": [8.558114, 47.418212], "type": "Point"}, "properties": {"charge": 84, "id": "smide_29", "name": "ZH253723", "provider": "smide", "range": 42.0, "size": 17, "time": "02/03/2020, 17:00:00"}, "type": "Feature"}, {"geometry": {"coordinates": [8.531785, 47.385336], "type": "Point"}, "properties": {"charge": 22, "id": "smide_48", "name": "ZH253849", "provider": "smide", "range": 11.0, "size": 20, "time": "02/03/2020, 17:00:00"}, "type": "Feature"}, {"geometry": {"coordinates": [8.502084, 47.369052], "type": "Point"}, "properties": {"charge": 90, "id": "smide_46", "name": "ZH253843", "provider": "smide", "range": 45.0, "size": 20, "time": "02/03/2020, 17:00:00"}, "type": "Feature"}, {"geometry": {"coordinates": [8.51010833333333, 47.3829916666667], "type": "Point"}, "properties": {"charge": 56, "id": "bird_0d6edf4f-f14c-40e3-a179-6896289ba9b5", "provider": "bird", "timeStamp": "02/03/2020, 16:59:59"}, "type": "Feature"}, {"geometry": {"coordinates": [8.52938666666667, 47.3937266666667], "type": "Point"}, "properties": {"charge": 21, "id": "bird_1dba2a90-acbc-4cb5-8949-3f100ef86595", "provider": "bird", "timeStamp": "02/03/2020, 16:59:59"}, "type": "Feature"}, {"geometry": {"coordinates": [8.548395, 47.3855133333333], "type": "Point"}, "properties": {"charge": 42, "id": "bird_d068bd1f-ae9e-4499-8006-cb0a89aa75fa", "provider": "bird", "timeStamp": "02/03/2020, 16:59:59"}, "type": "Feature"}, {"geometry": {"coordinates": [8.529405, 47.393605], "type": "Point"}, "properties": {"charge": 30, "id": "bird_07c4620f-1480-469c-bed7-63ab2828bf4c", "provider": "bird", "timeStamp": "02/03/2020, 16:59:59"}, "type": "Feature"}, {"geometry": {"coordinates": [8.547345, 47.3731383333333], "type": "Point"}, "properties": {"charge": 25, "id": "bird_948df053-d710-4291-a2ea-8222514827ef", "provider": "bird", "timeStamp": "02/03/2020, 16:59:59"}, "type": "Feature"}, {"geometry": {"coordinates": [8.54430333333333, 47.37046], "type": "Point"}, "properties": {"charge": 27, "id": "bird_ed495f74-adf0-47c3-9527-933f4d8e299d", "provider": "bird", "timeStamp": "02/03/2020, 16:59:59"}, "type": "Feature"}, {"geometry": {"coordinates": [8.52937, 47.3934633333333], "type": "Point"}, "properties": {"charge": 46, "id": "bird_cb733e2d-c75e-40b9-93a8-f1c7ff4a401a", "provider": "bird", "timeStamp": "02/03/2020, 16:59:59"}, "type": "Feature"}, {"geometry": {"coordinates": [8.5293, 47.393455], "type": "Point"}, "properties": {"charge": 66, "id": "bird_f57c74c8-31a1-4c98-915e-183b6d2af9e0", "provider": "bird", "timeStamp": "02/03/2020, 16:59:59"}, "type": "Feature"}, {"geometry": {"coordinates": [8.51292833333333, 47.3868983333333], "type": "Point"}, "properties": {"charge": 36, "id": "bird_b2c43b59-85ed-4653-9367-d6e5f83e2adf", "provider": "bird", "timeStamp": "02/03/2020, 16:59:59"}, "type": "Feature"}, {"geometry": {"coordinates": [8.510145, 47.38007], "type": "Point"}, "properties": {"charge": 33, "id": "bird_a64618a4-f71d-47e2-ae59-5d11e1061b5e", "provider": "bird", "timeStamp": "02/03/2020, 16:59:59"}, "type": "Feature"}, {"geometry": {"coordinates": [8.53377, 47.3668716666667], "type": "Point"}, "properties": {"charge": 33, "id": "bird_31a13623-a1c4-4bb2-bb5e-92a5eb9ebce2", "provider": "bird", "timeStamp": "02/03/2020, 16:59:59"}, "type": "Feature"}, {"geometry": {"coordinates": [8.53878166666667, 47.3680383333333], "type": "Point"}, "properties": {"charge": 26, "id": "bird_7da355ae-0a3f-47df-9e0e-065a9a1fb21d", "provider": "bird", "timeStamp": "02/03/2020, 16:59:59"}, "type": "Feature"}, {"geometry": {"coordinates": [8.51031333333333, 47.380345], "type": "Point"}, "properties": {"charge": 34, "id": "bird_3ca9900f-602f-433b-9069-8f2098b1554b", "provider": "bird", "timeStamp": "02/03/2020, 16:59:59"}, "type": "Feature"}, {"geometry": {"coordinates": [8.54438333333333, 47.3709033333333], "type": "Point"}, "properties": {"charge": 40, "id": "bird_9b554a85-8ec5-472c-a23f-bcb1186794a2", "provider": "bird", "timeStamp": "02/03/2020, 16:59:59"}, "type": "Feature"}, {"geometry": {"coordinates": [8.54882666666667, 47.3762433333333], "type": "Point"}, "properties": {"charge": 63, "id": "bird_eaccb102-5ee6-44d4-acb7-48f47c765cbb", "provider": "bird", "timeStamp": "02/03/2020, 16:59:59"}, "type": "Feature"}, {"geometry": {"coordinates": [8.53405, 47.3670116666667], "type": "Point"}, "properties": {"charge": 91, "id": "bird_c20f415d-cd11-4f3f-914c-cc6392608aea", "provider": "bird", "timeStamp": "02/03/2020, 16:59:59"}, "type": "Feature"}, {"geometry": {"coordinates": [8.53387833333333, 47.3669883333333], "type": "Point"}, "properties": {"charge": 98, "id": "bird_f122d530-1e87-4b69-bca1-e5c7cba6b8f6", "provider": "bird", "timeStamp": "02/03/2020, 16:59:59"}, "type": "Feature"}, {"geometry": {"coordinates": [8.528625, 47.3932266666667], "type": "Point"}, "properties": {"charge": 42, "id": "bird_7d744469-625d-4fd5-8c2d-4567ed2b17f9", "provider": "bird", "timeStamp": "02/03/2020, 16:59:59"}, "type": "Feature"}, {"geometry": {"coordinates": [8.52863, 47.393215], "type": "Point"}, "properties": {"charge": 64, "id": "bird_9d8ad0e4-e3fc-4e04-8532-ec1ccd210e16", "provider": "bird", "timeStamp": "02/03/2020, 16:59:59"}, "type": "Feature"}, {"geometry": {"coordinates": [8.54888333333333, 47.3765566666667], "type": "Point"}, "properties": {"charge": 64, "id": "bird_8a1d1186-4813-4e92-b860-9423d5f2868d", "provider": "bird", "timeStamp": "02/03/2020, 16:59:59"}, "type": "Feature"}, {"geometry": {"coordinates": [8.528625, 47.3931966666667], "type": "Point"}, "properties": {"charge": 64, "id": "bird_c0a6c764-8edc-4a54-b76d-d3920a4d42bc", "provider": "bird", "timeStamp": "02/03/2020, 16:59:59"}, "type": "Feature"}, {"geometry": {"coordinates": [8.53394666666667, 47.36708], "type": "Point"}, "properties": {"charge": 96, "id": "bird_129139e3-b700-4679-bcd0-1a3c8c95eb16", "provider": "bird", "timeStamp": "02/03/2020, 16:59:59"}, "type": "Feature"}, {"geometry": {"coordinates": [8.53519, 47.3926766666667], "type": "Point"}, "properties": {"charge": 60, "id": "bird_2ce31a41-4d0a-4f5c-921f-a8f2f113a5a9", "provider": "bird", "timeStamp": "02/03/2020, 16:59:59"}, "type": "Feature"}, {"geometry": {"coordinates": [8.51299, 47.3736566666667], "type": "Point"}, "properties": {"charge": 62, "id": "bird_f9c7de13-cf8b-48ac-8e67-d7046d913153", "provider": "bird", "timeStamp": "02/03/2020, 16:59:59"}, "type": "Feature"}, {"geometry": {"coordinates": [8.51088666666667, 47.3780216666667], "type": "Point"}, "properties": {"charge": 48, "id": "bird_71647bca-6e41-49a9-85ab-8a5d743ff99e", "provider": "bird", "timeStamp": "02/03/2020, 16:59:59"}, "type": "Feature"}, {"geometry": {"coordinates": [8.511315, 47.3766483333333], "type": "Point"}, "properties": {"charge": 39, "id": "bird_7cafe21b-2db5-4f69-b927-5c569fd6fb54", "provider": "bird", "timeStamp": "02/03/2020, 16:59:59"}, "type": "Feature"}, {"geometry": {"coordinates": [8.51076833333333, 47.3788483333333], "type": "Point"}, "properties": {"charge": 39, "id": "bird_69f11b62-138c-42b1-8fce-04583d53ed08", "provider": "bird", "timeStamp": "02/03/2020, 16:59:59"}, "type": "Feature"}, {"geometry": {"coordinates": [8.54821833333333, 47.3842933333333], "type": "Point"}, "properties": {"charge": 66, "id": "bird_f37e70c7-68f3-4839-8088-28b750377278", "provider": "bird", "timeStamp": "02/03/2020, 16:59:59"}, "type": "Feature"}, {"geometry": {"coordinates": [8.54856333333333, 47.3764833333333], "type": "Point"}, "properties": {"charge": 66, "id": "bird_eaa4ab3c-6bf3-4c31-8ddb-17b3b833d770", "provider": "bird", "timeStamp": "02/03/2020, 16:59:59"}, "type": "Feature"}, {"geometry": {"coordinates": [8.54568333333333, 47.38757], "type": "Point"}, "properties": {"charge": 34, "id": "bird_89c7b832-7be5-4060-bc5c-6d950add268f", "provider": "bird", "timeStamp": "02/03/2020, 16:59:59"}, "type": "Feature"}, {"geometry": {"coordinates": [8.54870666666667, 47.3828883333333], "type": "Point"}, "properties": {"charge": 39, "id": "bird_cca20380-889c-45ca-aae2-a7edf31a3672", "provider": "bird", "timeStamp": "02/03/2020, 16:59:59"}, "type": "Feature"}, {"geometry": {"coordinates": [8.5456, 47.3725933333333], "type": "Point"}, "properties": {"charge": 57, "id": "bird_45f3afbc-8bc5-4a3a-9c16-5d531ddb4fac", "provider": "bird", "timeStamp": "02/03/2020, 16:59:59"}, "type": "Feature"}, {"geometry": {"coordinates": [8.52877833333333, 47.3928533333333], "type": "Point"}, "properties": {"charge": 20, "id": "bird_4b09b17e-50cd-4720-a96d-9ed28ed4f8cf", "provider": "bird", "timeStamp": "02/03/2020, 16:59:59"}, "type": "Feature"}, {"geometry": {"coordinates": [8.542915, 47.370575], "type": "Point"}, "properties": {"charge": 29, "id": "bird_4147f791-2a56-43f5-8794-e18d8ae68dee", "provider": "bird", "timeStamp": "02/03/2020, 16:59:59"}, "type": "Feature"}, {"geometry": {"coordinates": [8.52559333333333, 47.392505], "type": "Point"}, "properties": {"charge": 66, "id": "bird_1b988910-e478-4678-b5bf-5c5eda0e5b91", "provider": "bird", "timeStamp": "02/03/2020, 16:59:59"}, "type": "Feature"}, {"geometry": {"coordinates": [8.54817833333333, 47.383655], "type": "Point"}, "properties": {"charge": 57, "id": "bird_f4e89722-ec2b-487c-a62e-fb5520f2688e", "provider": "bird", "timeStamp": "02/03/2020, 16:59:59"}, "type": "Feature"}, {"geometry": {"coordinates": [8.52200666666667, 47.3684466666667], "type": "Point"}, "properties": {"charge": 27, "id": "bird_e74f0ae6-0b2b-445a-9fda-2de067a2ddd1", "provider": "bird", "timeStamp": "02/03/2020, 16:59:59"}, "type": "Feature"}, {"geometry": {"coordinates": [8.52558666666667, 47.3923716666667], "type": "Point"}, "properties": {"charge": 64, "id": "bird_35f271b5-9608-44d5-96a5-d9bdcbdcc1e9", "provider": "bird", "timeStamp": "02/03/2020, 16:59:59"}, "type": "Feature"}, {"geometry": {"coordinates": [8.52204833333333, 47.36847], "type": "Point"}, "properties": {"charge": 43, "id": "bird_111e9bb5-cff9-4982-ac00-e7b64da66e7e", "provider": "bird", "timeStamp": "02/03/2020, 16:59:59"}, "type": "Feature"}, {"geometry": {"coordinates": [8.53651166666667, 47.3681066666667], "type": "Point"}, "properties": {"charge": 93, "id": "bird_8ff3ba24-aeff-4f9e-88fa-3178139d3d4a", "provider": "bird", "timeStamp": "02/03/2020, 16:59:59"}, "type": "Feature"}, {"geometry": {"coordinates": [8.51422333333333, 47.38684], "type": "Point"}, "properties": {"charge": 34, "id": "bird_9c077070-2060-4a74-b873-ab914d1c2b44", "provider": "bird", "timeStamp": "02/03/2020, 16:59:59"}, "type": "Feature"}, {"geometry": {"coordinates": [8.54792333333333, 47.3836783333333], "type": "Point"}, "properties": {"charge": 62, "id": "bird_fd51aa2e-ce28-4a6f-b97c-27cf6b6aa1db", "provider": "bird", "timeStamp": "02/03/2020, 16:59:59"}, "type": "Feature"}, {"geometry": {"coordinates": [8.547935, 47.3836433333333], "type": "Point"}, "properties": {"charge": 66, "id": "bird_20075318-0504-4d8c-8521-80cb08be83e3", "provider": "bird", "timeStamp": "02/03/2020, 16:59:59"}, "type": "Feature"}, {"geometry": {"coordinates": [8.54619, 47.38633], "type": "Point"}, "properties": {"charge": 45, "id": "bird_6784c22b-bf72-4584-9450-0b23e80571da", "provider": "bird", "timeStamp": "02/03/2020, 16:59:59"}, "type": "Feature"}, {"geometry": {"coordinates": [8.536875, 47.3682483333333], "type": "Point"}, "properties": {"charge": 98, "id": "bird_b3c2806a-04c7-4a2c-8568-28dbf1465895", "provider": "bird", "timeStamp": "02/03/2020, 16:59:59"}, "type": "Feature"}, {"geometry": {"coordinates": [8.53654, 47.3681683333333], "type": "Point"}, "properties": {"charge": 93, "id": "bird_6ae04d24-9957-4f58-9600-5da3a310f311", "provider": "bird", "timeStamp": "02/03/2020, 16:59:59"}, "type": "Feature"}, {"geometry": {"coordinates": [8.536885, 47.3682633333333], "type": "Point"}, "properties": {"charge": 39, "id": "bird_3873a2b3-f41b-48bb-8f89-659ed085cf30", "provider": "bird", "timeStamp": "02/03/2020, 16:59:59"}, "type": "Feature"}, {"geometry": {"coordinates": [8.536305, 47.3681366666667], "type": "Point"}, "properties": {"charge": 82, "id": "bird_4faa1086-c7f0-4147-8ac9-5d762141bddb", "provider": "bird", "timeStamp": "02/03/2020, 16:59:59"}, "type": "Feature"}, {"geometry": {"coordinates": [8.53897, 47.391045], "type": "Point"}, "properties": {"charge": 51, "id": "bird_ddee5d92-16f2-49c2-8061-6585e67f89f0", "provider": "bird", "timeStamp": "02/03/2020, 16:59:59"}, "type": "Feature"}, {"geometry": {"coordinates": [8.53570666666667, 47.3680266666667], "type": "Point"}, "properties": {"charge": 82, "id": "bird_b5547f42-57da-4c8d-8c5e-46411c1c943d", "provider": "bird", "timeStamp": "02/03/2020, 16:59:59"}, "type": "Feature"}, {"geometry": {"coordinates": [8.536885, 47.368325], "type": "Point"}, "properties": {"charge": 91, "id": "bird_d3fca132-8a6f-488d-b25f-530990395c80", "provider": "bird", "timeStamp": "02/03/2020, 16:59:59"}, "type": "Feature"}, {"geometry": {"coordinates": [8.54641, 47.3741416666667], "type": "Point"}, "properties": {"charge": 36, "id": "bird_c5fc56ee-b2e7-4182-bb9d-602c5aad1b6a", "provider": "bird", "timeStamp": "02/03/2020, 16:59:59"}, "type": "Feature"}, {"geometry": {"coordinates": [8.52544, 47.392155], "type": "Point"}, "properties": {"charge": 29, "id": "bird_4c8953dc-83fa-4fcf-b75c-1841dc3f0986", "provider": "bird", "timeStamp": "02/03/2020, 16:59:59"}, "type": "Feature"}, {"geometry": {"coordinates": [8.54155, 47.3897783333333], "type": "Point"}, "properties": {"charge": 67, "id": "bird_42a508ee-b653-48ea-ba06-68a6b21636a0", "provider": "bird", "timeStamp": "02/03/2020, 16:59:59"}, "type": "Feature"}, {"geometry": {"coordinates": [8.535335, 47.3680416666667], "type": "Point"}, "properties": {"charge": 51, "id": "bird_126e1a70-c555-4d96-bde5-5c2aa9ec6731", "provider": "bird", "timeStamp": "02/03/2020, 16:59:59"}, "type": "Feature"}, {"geometry": {"coordinates": [8.53686833333333, 47.3684116666667], "type": "Point"}, "properties": {"charge": 96, "id": "bird_77bf8646-9764-41aa-9bc4-bc7a12c01214", "provider": "bird", "timeStamp": "02/03/2020, 16:59:59"}, "type": "Feature"}, {"geometry": {"coordinates": [8.543045, 47.3712316666667], "type": "Point"}, "properties": {"charge": 78, "id": "bird_0bbf78d7-54e5-4aee-aabb-c0aaedbda00d", "provider": "bird", "timeStamp": "02/03/2020, 16:59:59"}, "type": "Feature"}, {"geometry": {"coordinates": [8.542985, 47.3712], "type": "Point"}, "properties": {"charge": 76, "id": "bird_53aba6ea-724f-4434-a37a-d573da5808d3", "provider": "bird", "timeStamp": "02/03/2020, 16:59:59"}, "type": "Feature"}, {"geometry": {"coordinates": [8.51229, 47.376885], "type": "Point"}, "properties": {"charge": 69, "id": "bird_d5f4b41b-e9ba-48e7-8bbb-af0a7e0c62c3", "provider": "bird", "timeStamp": "02/03/2020, 16:59:59"}, "type": "Feature"}, {"geometry": {"coordinates": [8.54386666666667, 47.3720366666667], "type": "Point"}, "properties": {"charge": 27, "id": "bird_7e293343-b50d-43b1-8726-8dc1fe960b96", "provider": "bird", "timeStamp": "02/03/2020, 16:59:59"}, "type": "Feature"}, {"geometry": {"coordinates": [8.51829, 47.3706933333333], "type": "Point"}, "properties": {"charge": 29, "id": "bird_ca024ab3-60dd-4ed2-a1a0-b0da2f188ea0", "provider": "bird", "timeStamp": "02/03/2020, 16:59:59"}, "type": "Feature"}, {"geometry": {"coordinates": [8.54207666666667, 47.38897], "type": "Point"},