{"features": [{"geometry": {"coordinates": [8.540062, 47.374392], "type": "Point"}, "properties": {"address": "Uraniastrasse 7", "electric": 0, "id": "pb_60", "manual": 16, "name": "Demo Station Werdm\u00fchleplatz", "provider": "publibike", "timeStamp": "02/26/2020, 19:09:48", "zip": 8001}, "type": "Feature"}, {"geometry": {"coordinates": [8.5452956, 47.4099615], "type": "Point"}, "properties": {"address": "Querstrasse 8", "electric": 2, "id": "pb_61", "manual": 5, "name": "Marktplatz", "provider": "publibike", "timeStamp": "02/26/2020, 19:09:48", "zip": 8050}, "type": "Feature"}, {"geometry": {"coordinates": [8.5156327, 47.3795837], "type": "Point"}, "properties": {"address": "Bullingerstrasse 5", "electric": 7, "id": "pb_80", "manual": 7, "name": "Bullingerplatz", "provider": "publibike", "timeStamp": "02/26/2020, 19:09:48", "zip": 8004}, "type": "Feature"}, {"geometry": {"coordinates": [8.5104051, 47.3899342], "type": "Point"}, "properties": {"address": "Pfingstweidstrasse 96e", "electric": 2, "id": "pb_81", "manual": 1, "name": "Herdern", "provider": "publibike", "timeStamp": "02/26/2020, 19:09:48", "zip": 8001}, "type": "Feature"}, {"geometry": {"coordinates": [8.535718, 47.359675], "type": "Point"}, "properties": {"address": "Mythenquai 50", "electric": 0, "id": "pb_82", "manual": 0, "name": "Hafen Enge", "provider": "publibike", "timeStamp": "02/26/2020, 19:09:48", "zip": 8002}, "type": "Feature"}, {"geometry": {"coordinates": [8.520370505, 47.358663827], "type": "Point"}, "properties": {"address": "Bubenbergstrasse 1", "electric": 3, "id": "pb_83", "manual": 9, "name": "Comerge", "provider": "publibike", "timeStamp": "02/26/2020, 19:09:48", "zip": 8045}, "type": "Feature"}, {"geometry": {"coordinates": [8.5412505, 47.3789825], "type": "Point"}, "properties": {"address": "Museumstrasse 2", "electric": 3, "id": "pb_84", "manual": 22, "name": "Landesmuseum", "provider": "publibike", "timeStamp": "02/26/2020, 19:09:48", "zip": 8001}, "type": "Feature"}, {"geometry": {"coordinates": [8.5235479, 47.3716661], "type": "Point"}, "properties": {"address": "Birmensdorferstrasse 80", "electric": 0, "id": "pb_85", "manual": 10, "name": "Bahnhof Wiedikon", "provider": "publibike", "timeStamp": "02/26/2020, 19:09:48", "zip": 8003}, "type": "Feature"}, {"geometry": {"coordinates": [8.506822854, 47.40781197], "type": "Point"}, "properties": {"address": "Stefano-Franscini-Platz 5", "electric": 0, "id": "pb_86", "manual": 0, "name": "ETH H\u00f6nggerberg", "provider": "publibike", "timeStamp": "02/26/2020, 19:09:48", "zip": 8093}, "type": "Feature"}, {"geometry": {"coordinates": [8.536101, 47.371083], "type": "Point"}, "properties": {"address": "Pelikanplatz 5", "electric": 5, "id": "pb_87", "manual": 6, "name": "Pelikanplatz", "provider": "publibike", "timeStamp": "02/26/2020, 19:09:48", "zip": 8001}, "type": "Feature"}, {"geometry": {"coordinates": [8.5257822, 47.3651936], "type": "Point"}, "properties": {"address": "H\u00fcrlimannplatz 90", "electric": 0, "id": "pb_88", "manual": 0, "name": "H\u00fcrlimannplatz", "provider": "publibike", "timeStamp": "02/26/2020, 19:09:48", "zip": 8002}, "type": "Feature"}, {"geometry": {"coordinates": [8.5313344, 47.3713591], "type": "Point"}, "properties": {"address": "Selnaustrasse 32", "electric": 1, "id": "pb_89", "manual": 5, "name": "Stauffacherbr\u00fccke", "provider": "publibike", "timeStamp": "02/26/2020, 19:09:48", "zip": 8001}, "type": "Feature"}, {"geometry": {"coordinates": [8.5056978, 47.3917964], "type": "Point"}, "properties": {"address": "Sportweg 25", "electric": 0, "id": "pb_90", "manual": 9, "name": "Sportweg", "provider": "publibike", "timeStamp": "02/26/2020, 19:09:48", "zip": 8005}, "type": "Feature"}, {"geometry": {"coordinates": [8.5181701, 47.3917837], "type": "Point"}, "properties": {"address": "Hardturmstrasse 11", "electric": 0, "id": "pb_91", "manual": 1, "name": "Puls 5", "provider": "publibike", "timeStamp": "02/26/2020, 19:09:48", "zip": 8005}, "type": "Feature"}, {"geometry": {"coordinates": [8.5286468, 47.3820827], "type": "Point"}, "properties": {"address": "R\u00f6ntgenstrasse 6", "electric": 0, "id": "pb_92", "manual": 1, "name": "R\u00f6ntgenstrasse", "provider": "publibike", "timeStamp": "02/26/2020, 19:09:48", "zip": 8005}, "type": "Feature"}, {"geometry": {"coordinates": [8.531935, 47.384918], "type": "Point"}, "properties": {"address": "Kornhausbr\u00fccke 1", "electric": 4, "id": "pb_93", "manual": 11, "name": "Limmatplatz", "provider": "publibike", "timeStamp": "02/26/2020, 19:09:48", "zip": 8005}, "type": "Feature"}, {"geometry": {"coordinates": [8.5354006, 47.3758639], "type": "Point"}, "properties": {"address": "Gessnerallee 15", "electric": 0, "id": "pb_94", "manual": 6, "name": "Gessnerallee", "provider": "publibike", "timeStamp": "02/26/2020, 19:09:48", "zip": 8001}, "type": "Feature"}, {"geometry": {"coordinates": [8.523818, 47.377148], "type": "Point"}, "properties": {"address": "Stauffacherstrasse 127", "electric": 6, "id": "pb_95", "manual": 4, "name": "B\u00e4ckeranlage", "provider": "publibike", "timeStamp": "02/26/2020, 19:09:48", "zip": 8004}, "type": "Feature"}, {"geometry": {"coordinates": [8.531836, 47.378548], "type": "Point"}, "properties": {"address": "Lagerstrasse 44", "electric": 8, "id": "pb_96", "manual": 6, "name": "Gustav-Gull-Platz", "provider": "publibike", "timeStamp": "02/26/2020, 19:09:48", "zip": 8004}, "type": "Feature"}, {"geometry": {"coordinates": [8.5104883, 47.3771535], "type": "Point"}, "properties": {"address": "Zurlindenstrasse 291", "electric": 4, "id": "pb_97", "manual": 11, "name": "Zurlindenstrasse", "provider": "publibike", "timeStamp": "02/26/2020, 19:09:48", "zip": 8003}, "type": "Feature"}, {"geometry": {"coordinates": [8.5333139, 47.3731102], "type": "Point"}, "properties": {"address": "Sihlstrasse 81", "electric": 3, "id": "pb_98", "manual": 3, "name": "Sihlstrasse", "provider": "publibike", "timeStamp": "02/26/2020, 19:09:48", "zip": 8001}, "type": "Feature"}, {"geometry": {"coordinates": [8.520532, 47.374951], "type": "Point"}, "properties": {"address": "Feldstrasse 24", "electric": 4, "id": "pb_99", "manual": 6, "name": "Kalkbreite", "provider": "publibike", "timeStamp": "02/26/2020, 19:09:48", "zip": 8004}, "type": "Feature"}, {"geometry": {"coordinates": [8.539046, 47.368064], "type": "Point"}, "properties": {"address": "Talstrasse 12", "electric": 0, "id": "pb_100", "manual": 6, "name": "Z\u00fcrcher Kantonalbank", "provider": "publibike", "timeStamp": "02/26/2020, 19:09:48", "zip": 8001}, "type": "Feature"}, {"geometry": {"coordinates": [8.5348427, 47.3625938], "type": "Point"}, "properties": {"address": "Breitingerstrasse 5", "electric": 0, "id": "pb_101", "manual": 0, "name": "Rentenanstalt", "provider": "publibike", "timeStamp": "02/26/2020, 19:09:48", "zip": 8002}, "type": "Feature"}, {"geometry": {"coordinates": [8.5166922, 47.3897772], "type": "Point"}, "properties": {"address": "Technoparkstrasse 4", "electric": 0, "id": "pb_102", "manual": 0, "name": "Turbinenplatz", "provider": "publibike", "timeStamp": "02/26/2020, 19:09:48", "zip": 8005}, "type": "Feature"}, {"geometry": {"coordinates": [8.539312, 47.3739964], "type": "Point"}, "properties": {"address": "Oetenbachgasse 14", "electric": 10, "id": "pb_104", "manual": 5, "name": "Rennweg", "provider": "publibike", "timeStamp": "02/26/2020, 19:09:48", "zip": 8001}, "type": "Feature"}, {"geometry": {"coordinates": [8.5360685, 47.3775022], "type": "Point"}, "properties": {"address": "Kasernenstrasse 101", "electric": 28, "id": "pb_105", "manual": 25, "name": "Sihlpost", "provider": "publibike", "timeStamp": "02/26/2020, 19:09:48", "zip": 8004}, "type": "Feature"}, {"geometry": {"coordinates": [8.53545, 47.382798], "type": "Point"}, "properties": {"address": "Ausstellungsstrasse 44", "electric": 2, "id": "pb_106", "manual": 9, "name": "Museum f\u00fcr Gestaltung", "provider": "publibike", "timeStamp": "02/26/2020, 19:09:48", "zip": 8005}, "type": "Feature"}, {"geometry": {"coordinates": [8.5306155, 47.3647902], "type": "Point"}, "properties": {"address": "Gutenbergstrasse 1", "electric": 1, "id": "pb_107", "manual": 9, "name": "Bederbr\u00fccke", "provider": "publibike", "timeStamp": "02/26/2020, 19:09:48", "zip": 8002}, "type": "Feature"}, {"geometry": {"coordinates": [8.518982, 47.386741], "type": "Point"}, "properties": {"address": "Geroldstrasse 4", "electric": 8, "id": "pb_108", "manual": 5, "name": "Bahnhof Hardbr\u00fccke", "provider": "publibike", "timeStamp": "02/26/2020, 19:09:48", "zip": 8005}, "type": "Feature"}, {"geometry": {"coordinates": [8.53001018, 47.37247535], "type": "Point"}, "properties": {"address": "Werdstrasse 21", "electric": 0, "id": "pb_109", "manual": 0, "name": "Tamedia", "provider": "publibike", "timeStamp": "02/26/2020, 19:09:48", "zip": 8004}, "type": "Feature"}, {"geometry": {"coordinates": [8.4860017, 47.396401], "type": "Point"}, "properties": {"address": "Gr\u00fcnauring 37", "electric": 3, "id": "pb_110", "manual": 4, "name": "Gr\u00fcnau", "provider": "publibike", "timeStamp": "02/26/2020, 19:09:48", "zip": 8064}, "type": "Feature"}, {"geometry": {"coordinates": [8.548519, 47.376756], "type": "Point"}, "properties": {"address": "R\u00e4mistrasse 101", "electric": 1, "id": "pb_111", "manual": 1, "name": "ETH Zentrum", "provider": "publibike", "timeStamp": "02/26/2020, 19:09:48", "zip": 8006}, "type": "Feature"}, {"geometry": {"coordinates": [8.520449, 47.388151], "type": "Point"}, "properties": {"address": "Josefstrasse 224", "electric": 0, "id": "pb_112", "manual": 1, "name": "Steinfelsareal", "provider": "publibike", "timeStamp": "02/26/2020, 19:09:48", "zip": 8005}, "type": "Feature"}, {"geometry": {"coordinates": [8.520482, 47.37209], "type": "Point"}, "properties": {"address": "Weststrasse 115", "electric": 4, "id": "pb_124", "manual": 1, "name": "Weststrasse", "provider": "publibike", "timeStamp": "02/26/2020, 19:09:48", "zip": 8003}, "type": "Feature"}, {"geometry": {"coordinates": [8.496727, 47.378521], "type": "Point"}, "properties": {"address": "Albisriederstrasse 200", "electric": 2, "id": "pb_125", "manual": 3, "name": "Utogrund", "provider": "publibike", "timeStamp": "02/26/2020, 19:09:48", "zip": 8047}, "type": "Feature"}, {"geometry": {"coordinates": [8.510418, 47.381356], "type": "Point"}, "properties": {"address": "Bullingerstrasse 73", "electric": 3, "id": "pb_126", "manual": 8, "name": "Hardau", "provider": "publibike", "timeStamp": "02/26/2020, 19:09:48", "zip": 8004}, "type": "Feature"}, {"geometry": {"coordinates": [8.525525, 47.361567], "type": "Point"}, "properties": {"address": "Klopstockstrasse 23", "electric": 10, "id": "pb_127", "manual": 2, "name": "Klopstockwiese", "provider": "publibike", "timeStamp": "02/26/2020, 19:09:48", "zip": 8002}, "type": "Feature"}, {"geometry": {"coordinates": [8.518143, 47.363148], "type": "Point"}, "properties": {"address": "Haldenstrasse 8", "electric": 2, "id": "pb_128", "manual": 1, "name": "Binz", "provider": "publibike", "timeStamp": "02/26/2020, 19:09:48", "zip": 8045}, "type": "Feature"}, {"geometry": {"coordinates": [8.542726, 47.379952], "type": "Point"}, "properties": {"address": "Walchestrasse 11", "electric": 0, "id": "pb_129", "manual": 2, "name": "Stampfenbachplatz", "provider": "publibike", "timeStamp": "02/26/2020, 19:09:48", "zip": 8006}, "type": "Feature"}, {"geometry": {"coordinates": [8.488108, 47.391366], "type": "Point"}, "properties": {"address": "Altstetterplatz 1", "electric": 1, "id": "pb_130", "manual": 3, "name": "Bahnhof Altstetten", "provider": "publibike", "timeStamp": "02/26/2020, 19:09:48", "zip": 8048}, "type": "Feature"}, {"geometry": {"coordinates": [8.554114, 47.365119], "type": "Point"}, "properties": {"address": "Kreuzplatz 2", "electric": 13, "id": "pb_131", "manual": 1, "name": "Kreuzplatz", "provider": "publibike", "timeStamp": "02/26/2020, 19:09:48", "zip": 8032}, "type": "Feature"}, {"geometry": {"coordinates": [8.549852, 47.35594], "type": "Point"}, "properties": {"address": "H\u00f6schgasse 3", "electric": 4, "id": "pb_132", "manual": 0, "name": "Blatterwiese", "provider": "publibike", "timeStamp": "02/26/2020, 19:09:48", "zip": 8008}, "type": "Feature"}, {"geometry": {"coordinates": [8.554501, 47.36162], "type": "Point"}, "properties": {"address": "Feldeggstrasse 80", "electric": 3, "id": "pb_133", "manual": 1, "name": "Villa Bleuler", "provider": "publibike", "timeStamp": "02/26/2020, 19:09:48", "zip": 8008}, "type": "Feature"}, {"geometry": {"coordinates": [8.557088, 47.358557], "type": "Point"}, "properties": {"address": "M\u00fchlebachstrasse 131", "electric": 2, "id": "pb_134", "manual": 1, "name": "M\u00fchlebachstrasse", "provider": "publibike", "timeStamp": "02/26/2020, 19:09:48", "zip": 8008}, "type": "Feature"}, {"geometry": {"coordinates": [8.547639, 47.361266], "type": "Point"}, "properties": {"address": "Utoquai 50", "electric": 3, "id": "pb_135", "manual": 8, "name": "Seebad Utoquai", "provider": "publibike", "timeStamp": "02/26/2020, 19:09:48", "zip": 8008}, "type": "Feature"}, {"geometry": {"coordinates": [8.548045, 47.370869], "type": "Point"}, "properties": {"address": "Heimplatz 1", "electric": 2, "id": "pb_137", "manual": 5, "name": "Kunsthaus", "provider": "publibike", "timeStamp": "02/26/2020, 19:09:48", "zip": 8001}, "type": "Feature"}, {"geometry": {"coordinates": [8.543447, 47.375933], "type": "Point"}, "properties": {"address": "Limmatquai 138", "electric": 5, "id": "pb_138", "manual": 13, "name": "Central", "provider": "publibike", "timeStamp": "02/26/2020, 19:09:48", "zip": 8001}, "type": "Feature"}, {"geometry": {"coordinates": [8.549356, 47.408827], "type": "Point"}, "properties": {"address": "Tramstrasse 35", "electric": 1, "id": "pb_139", "manual": 3, "name": "ewz Tramstrasse", "provider": "publibike", "timeStamp": "02/26/2020, 19:09:48", "zip": 8050}, "type": "Feature"}, {"geometry": {"coordinates": [8.533736, 47.366904], "type": "Point"}, "properties": {"address": "Bleicherweg 33", "electric": 2, "id": "pb_140", "manual": 3, "name": "Bleicherweg", "provider": "publibike", "timeStamp": "02/26/2020, 19:09:48", "zip": 8002}, "type": "Feature"}, {"geometry": {"coordinates": [8.544935, 47.366752], "type": "Point"}, "properties": {"address": "Bellevueplatz 2", "electric": 26, "id": "pb_141", "manual": 40, "name": "Bellevue", "provider": "publibike", "timeStamp": "02/26/2020, 19:09:48", "zip": 8001}, "type": "Feature"}, {"geometry": {"coordinates": [8.5285533, 47.3742296], "type": "Point"}, "properties": {"address": "Stauffacherstrasse 41", "electric": 0, "id": "pb_142", "manual": 3, "name": "Stauffacher", "provider": "publibike", "timeStamp": "02/26/2020, 19:09:48", "zip": 8004}, "type": "Feature"}, {"geometry": {"coordinates": [8.523722, 47.3899], "type": "Point"}, "properties": {"address": "Limmatstrasse 310", "electric": 0, "id": "pb_143", "manual": 5, "name": "Escher-Wyss-Platz", "provider": "publibike", "timeStamp": "02/26/2020, 19:09:48", "zip": 8005}, "type": "Feature"}, {"geometry": {"coordinates": [8.491061, 47.392336], "type": "Point"}, "properties": {"address": "Vulkanplatz 1", "electric": 3, "id": "pb_149", "manual": 10, "name": "Vulkanplatz", "provider": "publibike", "timeStamp": "02/26/2020, 19:09:48", "zip": 8048}, "type": "Feature"}, {"geometry": {"coordinates": [8.52306, 47.359872], "type": "Point"}, "properties": {"address": "Giessh\u00fcbelstrasse 15", "electric": 8, "id": "pb_150", "manual": 3, "name": "Utoplatz", "provider": "publibike", "timeStamp": "02/26/2020, 19:09:48", "zip": 8045}, "type": "Feature"}, {"geometry": {"coordinates": [8.486284, 47.387685], "type": "Point"}, "properties": {"address": "Lindenplatz 1", "electric": 1, "id": "pb_151", "manual": 8, "name": "Lindenplatz", "provider": "publibike", "timeStamp": "02/26/2020, 19:09:48", "zip": 8048}, "type": "Feature"}, {"geometry": {"coordinates": [8.49163, 47.389823], "type": "Point"}, "properties": {"address": "Hohlstrasse 563", "electric": 7, "id": "pb_152", "manual": 2, "name": "Luggweg", "provider": "publibike", "timeStamp": "02/26/2020, 19:09:48", "zip": 8048}, "type": "Feature"}, {"geometry": {"coordinates": [8.52174, 47.365272], "type": "Point"}, "properties": {"address": "Manessestrasse 87", "electric": 0, "id": "pb_153", "manual": 1, "name": "Manesseplatz", "provider": "publibike", "timeStamp": "02/26/2020, 19:09:48", "zip": 8045}, "type": "Feature"}, {"geometry": {"coordinates": [8.52714, 47.372329], "type": "Point"}, "properties": {"address": "Werdstrasse 75", "electric": 0, "id": "pb_154", "manual": 0, "name": "Werd", "provider": "publibike", "timeStamp": "02/26/2020, 19:09:48", "zip": 8004}, "type": "Feature"}, {"geometry": {"coordinates": [8.543042, 47.374711], "type": "Point"}, "properties": {"address": "Limmatquai 100", "electric": 0, "id": "pb_155", "manual": 0, "name": "Rudolf-Brun-Br\u00fccke", "provider": "publibike", "timeStamp": "02/26/2020, 19:09:48", "zip": 8001}, "type": "Feature"}, {"geometry": {"coordinates": [8.490837, 47.386596], "type": "Point"}, "properties": {"address": "Badenerstrasse 627", "electric": 4, "id": "pb_156", "manual": 6, "name": "Luggwegstrasse VBZ", "provider": "publibike", "timeStamp": "02/26/2020, 19:09:48", "zip": 8048}, "type": "Feature"}, {"geometry": {"coordinates": [8.535119, 47.355189], "type": "Point"}, "properties": {"address": "Mythenquai 95", "electric": 3, "id": "pb_157", "manual": 14, "name": "Strandbad Mythenquai", "provider": "publibike", "timeStamp": "02/26/2020, 19:09:48", "zip": 8002}, "type": "Feature"}, {"geometry": {"coordinates": [8.545505, 47.373675], "type": "Point"}, "properties": {"address": "Predigerpatz 21", "electric": 4, "id": "pb_158", "manual": 16, "name": "Predigerplatz", "provider": "publibike", "timeStamp": "02/26/2020, 19:09:48", "zip": 8001}, "type": "Feature"}, {"geometry": {"coordinates": [8.515558, 47.371868], "type": "Point"}, "properties": {"address": "Aemtlerstrasse 23", "electric": 8, "id": "pb_159", "manual": 1, "name": "Zwinglihaus", "provider": "publibike", "timeStamp": "02/26/2020, 19:09:48", "zip": 8003}, "type": "Feature"}, {"geometry": {"coordinates": [8.524629, 47.386072], "type": "Point"}, "properties": {"address": "Josefstrasse 188", "electric": 7, "id": "pb_160", "manual": 3, "name": "Josefwiese", "provider": "publibike", "timeStamp": "02/26/2020, 19:09:48", "zip": 8005}, "type": "Feature"}, {"geometry": {"coordinates": [8.527138, 47.387531], "type": "Point"}, "properties": {"address": "R\u00f6ntgenstrasse 87", "electric": 9, "id": "pb_164", "manual": 2, "name": "Markthalle", "provider": "publibike", "timeStamp": "02/26/2020, 19:09:48", "zip": 8005}, "type": "Feature"}, {"geometry": {"coordinates": [8.552717, 47.359978], "type": "Point"}, "properties": {"address": "Seefeldstrasse 96", "electric": 5, "id": "pb_263", "manual": 6, "name": "Feldeggstrasse", "provider": "publibike", "timeStamp": "02/26/2020, 19:09:48", "zip": 8008}, "type": "Feature"}, {"geometry": {"coordinates": [8.553189, 47.353198], "type": "Point"}, "properties": {"address": "Bellerivestrasse 170", "electric": 2, "id": "pb_264", "manual": 0, "name": "Lake Side", "provider": "publibike", "timeStamp": "02/26/2020, 19:09:48", "zip": 8008}, "type": "Feature"}, {"geometry": {"coordinates": [8.543437, 47.369256], "type": "Point"}, "properties": {"address": "Limmatquai 18", "electric": 0, "id": "pb_265", "manual": 0, "name": "Helmhaus", "provider": "publibike", "timeStamp": "02/26/2020, 19:09:48", "zip": 8032}, "type": "Feature"}, {"geometry": {"coordinates": [8.516676, 47.375819], "type": "Point"}, "properties": {"address": "Badenerstrasse 246", "electric": 9, "id": "pb_266", "manual": 2, "name": "Lochergut", "provider": "publibike", "timeStamp": "02/26/2020, 19:09:48", "zip": 8004}, "type": "Feature"}, {"geometry": {"coordinates": [8.514605, 47.389862], "type": "Point"}, "properties": {"address": "Pfingstweidstrasse 60", "electric": 0, "id": "pb_273", "manual": 1, "name": "Westpark", "provider": "publibike", "timeStamp": "02/26/2020, 19:09:48", "zip": 8005}, "type": "Feature"}, {"geometry": {"coordinates": [8.541239126, 47.375991201], "type": "Point"}, "properties": {"address": "Beatenplatz 1", "electric": 3, "id": "pb_274", "manual": 14, "name": "Beatenplatz", "provider": "publibike", "timeStamp": "02/26/2020, 19:09:48", "zip": 8001}, "type": "Feature"}, {"geometry": {"coordinates": [8.5417135, 47.3942197], "type": "Point"}, "properties": {"address": "Scheuchzerstrasse 181", "electric": 3, "id": "pb_275", "manual": 3, "name": "Pauluskirche", "provider": "publibike", "timeStamp": "02/26/2020, 19:09:48", "zip": 8057}, "type": "Feature"}, {"geometry": {"coordinates": [8.5528182, 47.414558], "type": "Point"}, "properties": {"address": "Hagenholzstrasse 51", "electric": 0, "id": "pb_276", "manual": 7, "name": "Airgate", "provider": "publibike", "timeStamp": "02/26/2020, 19:09:48", "zip": 8050}, "type": "Feature"}, {"geometry": {"coordinates": [8.537816, 47.413514], "type": "Point"}, "properties": {"address": "Birchstrasse 183", "electric": 0, "id": "pb_277", "manual": 2, "name": "Lamprechtweg", "provider": "publibike", "timeStamp": "02/26/2020, 19:09:48", "zip": 8050}, "type": "Feature"}, {"geometry": {"coordinates": [8.545602, 47.417701], "type": "Point"}, "properties": {"address": "Felsenrainstrasse 2", "electric": 5, "id": "pb_278", "manual": 2, "name": "Emil-Oberh\u00e4nsli", "provider": "publibike", "timeStamp": "02/26/2020, 19:09:48", "zip": 8050}, "type": "Feature"}, {"geometry": {"coordinates": [8.533647, 47.39808], "type": "Point"}, "properties": {"address": "Bucheggplatz 2", "electric": 2, "id": "pb_279", "manual": 0, "name": "Bucheggplatz", "provider": "publibike", "timeStamp": "02/26/2020, 19:09:48", "zip": 8057}, "type": "Feature"}, {"geometry": {"coordinates": [8.523549, 47.392347], "type": "Point"}, "properties": {"address": "Wipkingerplatz 4", "electric": 3, "id": "pb_280", "manual": 2, "name": "Wipkingerplatz", "provider": "publibike", "timeStamp": "02/26/2020, 19:09:48", "zip": 8037}, "type": "Feature"}, {"geometry": {"coordinates": [8.548562, 47.36691], "type": "Point"}, "properties": {"address": "Galerie \u00fcber Gleis 2/3", "electric": 20, "id": "pb_285", "manual": 13, "name": "Bahnhof Stadelhofen", "provider": "publibike", "timeStamp": "02/26/2020, 19:09:48", "zip": 8001}, "type": "Feature"}, {"geometry": {"coordinates": [8.493822, 47.3985553], "type": "Point"}, "properties": {"address": "Meierwiesenstrasse 12-4", "electric": 0, "id": "pb_286", "manual": 4, "name": "T\u00fcffenwies", "provider": "publibike", "timeStamp": "02/26/2020, 19:09:48", "zip": 8064}, "type": "Feature"}, {"geometry": {"coordinates": [8.552432, 47.3801757], "type": "Point"}, "properties": {"address": "Hochstrasse 34", "electric": 6, "id": "pb_356", "manual": 1, "name": "Siriuswiese", "provider": "publibike", "timeStamp": "02/26/2020, 19:09:48", "zip": 8044}, "type": "Feature"}, {"geometry": {"coordinates": [8.527298, 47.370141], "type": "Point"}, "properties": {"address": "Hallwylstrasse 71", "electric": 1, "id": "pb_357", "manual": 2, "name": "Hallwylstrasse", "provider": "publibike", "timeStamp": "02/26/2020, 19:09:48", "zip": 8004}, "type": "Feature"}, {"geometry": {"coordinates": [8.5414185, 47.3972455], "type": "Point"}, "properties": {"address": "Schaffhauserstrasse 137", "electric": 1, "id": "pb_358", "manual": 0, "name": "Milchbuck", "provider": "publibike", "timeStamp": "02/26/2020, 19:09:48", "zip": 8057}, "type": "Feature"}, {"geometry": {"coordinates": [8.512381, 47.393409], "type": "Point"}, "properties": {"address": "Hardturmstrasse 161", "electric": 1, "id": "pb_359", "manual": 2, "name": "Fischerweg", "provider": "publibike", "timeStamp": "02/26/2020, 19:09:48", "zip": 8005}, "type": "Feature"}, {"geometry": {"coordinates": [8.5421457, 47.3876979], "type": "Point"}, "properties": {"address": "Turnerstrasse 47", "electric": 9, "id": "pb_360", "manual": 0, "name": "Kirche Unterstrass", "provider": "publibike", "timeStamp": "02/26/2020, 19:09:48", "zip": 8006}, "type": "Feature"}, {"geometry": {"coordinates": [8.522117, 47.394554], "type": "Point"}, "properties": {"address": "Dorfstrasse 40", "electric": 3, "id": "pb_361", "manual": 4, "name": "Dorfstrasse", "provider": "publibike", "timeStamp": "02/26/2020, 19:09:48", "zip": 8037}, "type": "Feature"}, {"geometry": {"coordinates": [8.530437, 47.37271], "type": "Point"}, "properties": {"address": "Werdstrasse 25", "electric": 0, "id": "pb_362", "manual": 1, "name": "Stauffachertor", "provider": "publibike", "timeStamp": "02/26/2020, 19:09:48", "zip": 8004}, "type": "Feature"}, {"geometry": {"coordinates": [8.541712, 47.416155], "type": "Point"}, "properties": {"address": "Eggb\u00fchlstrasse 21", "electric": 2, "id": "pb_363", "manual": 3, "name": "Wahlenpark", "provider": "publibike", "timeStamp": "02/26/2020, 19:09:48", "zip": 8050}, "type": "Feature"}, {"geometry": {"coordinates": [8.5595335, 47.3708387], "type": "Point"}, "properties": {"address": "Dolderstrasse 32", "electric": 7, "id": "pb_364", "manual": 1, "name": "Kinderspital", "provider": "publibike", "timeStamp": "02/26/2020, 19:09:48", "zip": 8032}, "type": "Feature"}, {"geometry": {"coordinates": [8.536433, 47.388689], "type": "Point"}, "properties": {"address": "Kornhausstrasse 30", "electric": 6, "id": "pb_365", "manual": 0, "name": "Kornhausstrasse", "provider": "publibike", "timeStamp": "02/26/2020, 19:09:48", "zip": 8006}, "type": "Feature"}, {"geometry": {"coordinates": [8.55033, 47.407098], "type": "Point"}, "properties": {"address": "Schwamendingenstrasse 41", "electric": 6, "id": "pb_366", "manual": 1, "name": "Dorflinde", "provider": "publibike", "timeStamp": "02/26/2020, 19:09:48", "zip": 8050}, "type": "Feature"}, {"geometry": {"coordinates": [8.560476, 47.368199], "type": "Point"}, "properties": {"address": "R\u00f6merhofplatz 5", "electric": 17, "id": "pb_367", "manual": 0, "name": "R\u00f6merhof", "provider": "publibike", "timeStamp": "02/26/2020, 19:09:48", "zip": 8032}, "type": "Feature"}, {"geometry": {"coordinates": [8.5609218, 47.3619068], "type": "Point"}, "properties": {"address": "Forchstrasse 99", "electric": 8, "id": "pb_368", "manual": 2, "name": "Hegibachplatz", "provider": "publibike", "timeStamp": "02/26/2020, 19:09:48", "zip": 8032}, "type": "Feature"}, {"geometry": {"coordinates": [8.5721264, 47.4039985], "type": "Point"}, "properties": {"address": "Winterthurerstrasse 519", "electric": 8, "id": "pb_370", "manual": 1, "name": "Schwamendingerplatz", "provider": "publibike", "timeStamp": "02/26/2020, 19:09:48", "zip": 8051}, "type": "Feature"}, {"geometry": {"coordinates": [8.520168, 47.378556], "type": "Point"}, "properties": {"address": "Herman-Greulich-Strasse 56", "electric": 2, "id": "pb_384", "manual": 4, "name": "Hermann-Greulich-Weg", "provider": "publibike", "timeStamp": "02/26/2020, 19:09:48", "zip": 8004}, "type": "Feature"}, {"geometry": {"coordinates": [8.547912, 47.384923], "type": "Point"}, "properties": {"address": "Culmannstrasse", "electric": 5, "id": "pb_386", "manual": 3, "name": "Rigiplatz", "provider": "publibike", "timeStamp": "02/26/2020, 19:09:48", "zip": 8006}, "type": "Feature"}, {"geometry": {"coordinates": [8.543768, 47.411057], "type": "Point"}, "properties": {"address": "Hofwiesenstrasse 369", "electric": 7, "id": "pb_387", "manual": 3, "name": "Bahnhof Oerlikon S\u00fcd", "provider": "publibike", "timeStamp": "02/26/2020, 19:09:48", "zip": 8050}, "type": "Feature"}, {"geometry": {"coordinates": [8.544185, 47.412732], "type": "Point"}, "properties": {"address": "Jungholzstrasse 6", "electric": 5, "id": "pb_388", "manual": 3, "name": "Max-Frisch-Platz", "provider": "publibike", "timeStamp": "02/26/2020, 19:09:48", "zip": 8050}, "type": "Feature"}, {"geometry": {"coordinates": [8.558096, 47.413032], "type": "Point"}, "properties": {"address": "Andreasstrasse", "electric": 4, "id": "pb_389", "manual": 5, "name": "Hunziker-Areal", "provider": "publibike", "timeStamp": "02/26/2020, 19:09:48", "zip": 8050}, "type": "Feature"}, {"geometry": {"coordinates": [8.533265, 47.412873], "type": "Point"}, "properties": {"address": "Regina-K\u00e4gi-Strasse 1", "electric": 3, "id": "pb_390", "manual": 3, "name": "Luis-H\u00e4fliger-Park", "provider": "publibike", "timeStamp": "02/26/2020, 19:09:48", "zip": 8050}, "type": "Feature"}, {"geometry": {"coordinates": [8.499265, 47.401852], "type": "Point"}, "properties": {"address": "Limmattalstrasse 177", "electric": 2, "id": "pb_391", "manual": 0, "name": "Meierhofplatz", "provider": "publibike", "timeStamp": "02/26/2020, 19:09:48", "zip": 8049}, "type": "Feature"}, {"geometry": {"coordinates": [8.528356, 47.393255], "type": "Point"}, "properties": {"address": "R\u00f6schibachstrasse 73", "electric": 1, "id": "pb_392", "manual": 1, "name": "R\u00f6schibachplatz", "provider": "publibike", "timeStamp": "02/26/2020, 19:09:48", "zip": 8037}, "type": "Feature"}, {"geometry": {"coordinates": [8.538067, 47.415721], "type": "Point"}, "properties": {"address": "Birchstrasse 191", "electric": 10, "id": "pb_393", "manual": 2, "name": "Oerliker Park", "provider": "publibike", "timeStamp": "02/26/2020, 19:09:48", "zip": 8050}, "type": "Feature"}, {"geometry": {"coordinates": [8.5420304, 47.3669233], "type": "Point"}, "properties": {"address": "Stadthausquai 1", "electric": 3, "id": "pb_395", "manual": 1, "name": "B\u00fcrkliplatz", "provider": "publibike", "timeStamp": "02/26/2020, 19:09:48", "zip": 8001}, "type": "Feature"}, {"geometry": {"coordinates": [8.535767, 47.409881], "type": "Point"}, "properties": {"address": "Regensbergstrasse 195", "electric": 4, "id": "pb_396", "manual": 2, "name": "Holunderhof", "provider": "publibike", "timeStamp": "02/26/2020, 19:09:48", "zip": 8050}, "type": "Feature"}, {"geometry": {"coordinates": [8.5116245, 47.3616199], "type": "Point"}, "properties": {"address": "Grubenstrasse 42", "electric": 7, "id": "pb_431", "manual": 0, "name": "Binz Center", "provider": "publibike", "timeStamp": "02/26/2020, 19:09:48", "zip": 8045}, "type": "Feature"}, {"geometry": {"coordinates": [8.547195, 47.382089], "type": "Point"}, "properties": {"address": "Nelkenstrasse 24", "electric": 1, "id": "pb_430", "manual": 0, "name": "Stapferstube", "provider": "publibike", "timeStamp": "02/26/2020, 19:09:48", "zip": 8006}, "type": "Feature"}, {"geometry": {"coordinates": [8.5787183, 47.4039845], "type": "Point"}, "properties": {"address": "Kronwiesenstrasse 35", "electric": 5, "id": "pb_426", "manual": 4, "name": "Kronwiesen", "provider": "publibike", "timeStamp": "02/26/2020, 19:09:48", "zip": 8051}, "type": "Feature"}, {"geometry": {"coordinates": [8.508131, 47.420757], "type": "Point"}, "properties": {"address": "Riedenhaldenstrasse 20-18", "electric": 12, "id": "pb_425", "manual": 3, "name": "Bahnhof Affoltern", "provider": "publibike", "timeStamp": "02/26/2020, 19:09:48", "zip": 8046}, "type": "Feature"}, {"geometry": {"coordinates": [8.532464, 47.406988], "type": "Point"}, "properties": {"address": "K\u00fcnzlistrasse 41", "electric": 6, "id": "pb_424", "manual": 1, "name": "Birchd\u00f6rfli", "provider": "publibike", "timeStamp": "02/26/2020, 19:09:48", "zip": 8057}, "type": "Feature"}, {"geometry": {"coordinates": [8.5777038, 47.4080095], "type": "Point"}, "properties": {"address": "Luegislandstrasse 412", "electric": 4, "id": "pb_429", "manual": 0, "name": "Luegisland", "provider": "publibike", "timeStamp": "02/26/2020, 19:09:48", "zip": 8051}, "type": "Feature"}, {"geometry": {"coordinates": [8.58841, 47.40158], "type": "Point"}, "properties": {"address": "Hirzenbachstrasse 2-4", "electric": 10, "id": "pb_428", "manual": 0, "name": "Hirzenbachstrasse", "provider": "publibike", "timeStamp": "02/26/2020, 19:09:48", "zip": 8051}, "type": "Feature"}, {"geometry": {"coordinates": [8.5563463, 47.4095467], "type": "Point"}, "properties": {"address": "K\u00fchriedweg", "electric": 4, "id": "pb_445", "manual": 7, "name": "Hallenbad Oerlikon", "provider": "publibike", "timeStamp": "02/26/2020, 19:09:48", "zip": 8050}, "type": "Feature"}, {"geometry": {"coordinates": [8.537971, 47.364871], "type": "Point"}, "properties": {"address": "General-Guisan-Quai 17", "electric": 0, "id": "pb_454", "manual": 6, "name": "General-Guisan-Quai", "provider": "publibike", "timeStamp": "02/26/2020, 19:09:48", "zip": 8002}, "type": "Feature"}, {"geometry": {"coordinates": [8.560587, 47.350578], "type": "Point"}, "properties": {"address": "Bellerivestrasse 245", "electric": 9, "id": "pb_450", "manual": 5, "name": "Bahnhof Tiefenbrunnen", "provider": "publibike", "timeStamp": "02/26/2020, 19:09:48", "zip": 8008}, "type": "Feature"}, {"geometry": {"coordinates": [8.5269416, 47.3563719], "type": "Point"}, "properties": {"address": "Waffenplatzstrasse 89", "electric": 6, "id": "pb_452", "manual": 1, "name": "Rieterplatz", "provider": "publibike", "timeStamp": "02/26/2020, 19:09:48", "zip": 8002}, "type": "Feature"}, {"geometry": {"coordinates": [8.514176, 47.3663708], "type": "Point"}, "properties": {"address": "Talwiesenstrasse 92", "electric": 10, "id": "pb_446", "manual": 1, "name": "Binzallee", "provider": "publibike", "timeStamp": "02/26/2020, 19:09:48", "zip": 8055}, "type": "Feature"}, {"geometry": {"coordinates": [8.5070564, 47.371455], "type": "Point"}, "properties": {"address": "Gutstrasse 87", "electric": 12, "id": "pb_447", "manual": 1, "name": "Gutstrasse", "provider": "publibike", "timeStamp": "02/26/2020, 19:09:48", "zip": 8055}, "type": "Feature"}, {"geometry": {"coordinates": [8.4941268, 47.3836391], "type": "Point"}, "properties": {"address": "Flurstrasse 62", "electric": 3, "id": "pb_453", "manual": 3, "name": "Flurpark", "provider": "publibike", "timeStamp": "02/26/2020, 19:09:48", "zip": 8048}, "type": "Feature"}, {"geometry": {"coordinates": [8.500343, 47.380778], "type": "Point"}, "properties": {"address": "Edelweissstrasse 32", "electric": 4, "id": "pb_448", "manual": 5, "name": "Bl\u00fcemliquartier", "provider": "publibike", "timeStamp": "02/26/2020, 19:09:48", "zip": 8048}, "type": "Feature"}, {"geometry": {"coordinates": [8.528796, 47.383858], "type": "Point"}, "properties": {"address": "Gasometerstrasse 24", "electric": 0, "id": "pb_449", "manual": 6, "name": "Gasometerstrasse", "provider": "publibike", "timeStamp": "02/26/2020, 19:09:48", "zip": 8005}, "type": "Feature"}, {"geometry": {"coordinates": [8.4981964, 47.3859194], "type": "Point"}, "properties": {"address": "Baslerstrasse 57", "electric": 12, "id": "pb_455", "manual": 8, "name": "Letzipark", "provider": "publibike", "timeStamp": "02/26/2020, 19:09:48", "zip": 8048}, "type": "Feature"}, {"geometry": {"coordinates": [8.515252, 47.381915], "type": "Point"}, "properties": {"address": "Sihlfeldstrasse 175", "electric": 0, "id": "pb_451", "manual": 10, "name": "Hardplatz", "provider": "publibike", "timeStamp": "02/26/2020, 19:09:48", "zip": 8004}, "type": "Feature"}, {"geometry": {"coordinates": [8.5064743, 47.4188324], "type": "Point"}, "properties": {"address": "Wehntalerstrasse 541", "electric": 16, "id": "pb_427", "manual": 3, "name": "Zehntenhausplatz", "provider": "publibike", "timeStamp": "02/26/2020, 19:09:48", "zip": 8046}, "type": "Feature"}, {"geometry": {"coordinates": [8.537729, 47.379719], "type": "Point"}, "properties": {"address": "Sihlquai/HB", "electric": 6, "id": "pb_513", "manual": 13, "name": "Sihlquai", "provider": "publibike", "timeStamp": "02/26/2020, 19:09:48", "zip": 8005}, "type": "Feature"}, {"geometry": {"coordinates": [8.596202, 47.397885], "type": "Point"}, "properties": {"address": "Bahnhof Stettbach", "electric": 7, "id": "pb_514", "manual": 1, "name": "Bahnhof Stettbach", "provider": "publibike", "timeStamp": "02/26/2020, 19:09:48", "zip": 8051}, "type": "Feature"}, {"geometry": {"coordinates": [8.5543974, 47.3690153], "type": "Point"}, "properties": {"address": "Kasinostrasse 10", "electric": 0, "id": "pb_515", "manual": 1, "name": "Hottingerplatz", "provider": "publibike", "timeStamp": "02/26/2020, 19:09:48", "zip": 8032}, "type": "Feature"}, {"geometry": {"coordinates": [8.534444, 47.351525], "type": "Point"}, "properties": {"address": "Mobile Station Z\u00fcrich 1", "electric": 0, "id": "pb_282", "manual": 0, "name": "Theaterspektakel", "provider": "publibike", "timeStamp": "02/26/2020, 19:09:48", "zip": 8002}, "type": "Feature"}, {"geometry": {"coordinates": [8.516257, 47.367656], "type": "Point"}, "properties": {"address": "Goldbrunnenstrasse 54", "electric": 7, "id": "pb_538", "manual": 3, "name": "Kirche B\u00fchl", "provider": "publibike", "timeStamp": "02/26/2020, 19:09:48", "zip": 8055}, "type": "Feature"}, {"geometry": {"coordinates": [8.555639, 47.416873], "type": "Point"}, "properties": {"address": "Leutschenbachstrasse 50", "electric": 0, "id": "pb_537", "manual": 6, "name": "Leutschenpark", "provider": "publibike", "timeStamp": "02/26/2020, 19:09:48", "zip": 8050}, "type": "Feature"}, {"geometry": {"coordinates": [8.546464, 47.403822], "type": "Point"}, "properties": {"address": "Berninastrasse 45", "electric": 1, "id": "pb_540", "manual": 0, "name": "Berninaplatz", "provider": "publibike", "timeStamp": "02/26/2020, 19:09:48", "zip": 8057}, "type": "Feature"}, {"geometry": {"coordinates": [8.523134, 47.369004], "type": "Point"}, "properties": {"address": "Erlachstrasse 3", "electric": 1, "id": "pb_385", "manual": 5, "name": "Aegerten", "provider": "publibike", "timeStamp": "02/26/2020, 19:09:48", "zip": 8003}, "type": "Feature"}, {"geometry": {"coordinates": [8.49038, 47.381591], "type": "Point"}, "properties": {"address": "Rautistrasse 60", "electric": 12, "id": "pb_536", "manual": 5, "name": "Freilager", "provider": "publibike", "timeStamp": "02/26/2020, 19:09:48", "zip": 8048}, "type": "Feature"}, {"geometry": {"coordinates": [8.496511, 47.375247], "type": "Point"}, "properties": {"address": "Letzigraben 139", "electric": 5, "id": "pb_444", "manual": 7, "name": "Sackzelg", "provider": "publibike", "timeStamp": "02/26/2020, 19:09:48", "zip": 8047}, "type": "Feature"}, {"geometry": {"coordinates": [8.58131, 47.402801], "type": "Point"}, "properties": {"address": "Altwiesenstrasse 104", "electric": 6, "id": "pb_539", "manual": 1, "name": "Glattwiesen", "provider": "publibike", "timeStamp": "02/26/2020, 19:09:48", "zip": 8051}, "type": "Feature"}, {"geometry": {"coordinates": [8.52689, 47.3767], "type": "Point"}, "properties": {"address": "Molkenstrasse 5", "electric": 11, "id": "pb_560", "manual": 8, "name": "Helvetiaplatz", "provider": "publibike", "timeStamp": "02/26/2020, 19:09:48", "zip": 8004}, "type": "Feature"}, {"geometry": {"coordinates": [8.525602, 47.374241], "type": "Point"}, "properties": {"address": "Badenerstrasse 90", "electric": 2, "id": "pb_559", "manual": 1, "name": "Bezirksgeb\u00e4ude", "provider": "publibike", "timeStamp": "02/26/2020, 19:09:48", "zip": 8004}, "type": "Feature"}, {"geometry": {"coordinates": [8.535082, 47.345248], "type": "Point"}, "properties": {"address": "Bachstrasse 15", "electric": 7, "id": "pb_564", "manual": 4, "name": "GZ Wollishofen", "provider": "publibike", "timeStamp": "02/26/2020, 19:09:48", "zip": 8038}, "type": "Feature"}, {"geometry": {"coordinates": [8.514841, 47.370238], "type": "Point"}, "properties": {"address": "Schrennengasse 37", "electric": 10, "id": "pb_562", "manual": 7, "name": "Goldbrunnenplatz", "provider": "publibike", "timeStamp": "02/26/2020, 19:09:48", "zip": 8003}, "type": "Feature"}, {"geometry": {"coordinates": [8.514138, 47.374206], "type": "Point"}, "properties": {"address": "Idaplatz 4", "electric": 1, "id": "pb_557", "manual": 4, "name": "Idaplatz", "provider": "publibike", "timeStamp": "02/26/2020, 19:09:48", "zip": 8003}, "type": "Feature"}, {"geometry": {"coordinates": [8.518432, 47.369549], "type": "Point"}, "properties": {"address": "Brinerstrasse 2", "electric": 1, "id": "pb_558", "manual": 6, "name": "Schmiede Wiedikon", "provider": "publibike", "timeStamp": "02/26/2020, 19:09:48", "zip": 8003}, "type": "Feature"}, {"geometry": {"coordinates": [8.537546, 47.391289], "type": "Point"}, "properties": {"address": "Rotbuchstrasse 15", "electric": 6, "id": "pb_556", "manual": 0, "name": "Schaffhauserplatz", "provider": "publibike", "timeStamp": "02/26/2020, 19:09:48", "zip": 8006}, "type": "Feature"}, {"geometry": {"coordinates": [8.541541, 47.413733], "type": "Point"}, "properties": {"address": "Therese-Giehse-Strasse 11", "electric": 0, "id": "pb_561", "manual": 3, "name": "Center Eleven", "provider": "publibike", "timeStamp": "02/26/2020, 19:09:48", "zip": 8050}, "type": "Feature"}, {"geometry": {"coordinates": [8.534227, 47.360004], "type": "Point"}, "properties": {"address": "Alfred Escher-Strasse 76", "electric": 0, "id": "pb_563", "manual": 0, "name": "Mythenschloss", "provider": "publibike", "timeStamp": "02/26/2020, 19:09:48", "zip": 8002}, "type": "Feature"}, {"geometry": {"coordinates": [8.50373, 47.396172], "type": "Point"}, "properties": {"address": "Hardeggstrasse 6", "electric": 3, "id": "pb_566", "manual": 3, "name": "Am Wasser", "provider": "publibike", "timeStamp": "02/26/2020, 19:09:48", "zip": 8049}, "type": "Feature"}, {"geometry": {"coordinates": [8.532432, 47.381174], "type": "Point"}, "properties": {"address": "Klingenstrasse 9", "electric": 1, "id": "pb_565", "manual": 6, "name": "Zollstrasse", "provider": "publibike", "timeStamp": "02/26/2020, 19:09:48", "zip": 8005}, "type": "Feature"}, {"geometry": {"coordinates": [8.497982, 47.381447], "type": "Point"}, "properties": {"address": "Dennlerstrasse 23", "electric": 2, "id": "pb_567", "manual": 5, "name": "Dennlerstrasse", "provider": "publibike", "timeStamp": "02/26/2020, 19:09:48", "zip": 8047}, "type": "Feature"}, {"geometry": {"coordinates": [8.528049, 47.347701], "type": "Point"}, "properties": {"address": "Mutschellenstrasse 114", "electric": 6, "id": "pb_568", "manual": 7, "name": "Jugendherberge", "provider": "publibike", "timeStamp": "02/26/2020, 19:09:48", "zip": 8038}, "type": "Feature"}, {"geometry": {"coordinates": [8.539016, 47.405751], "type": "Point"}, "properties": {"address": "Ringstrasse 82", "electric": 2, "id": "pb_569", "manual": 1, "name": "Freibad Allenmoos", "provider": "publibike", "timeStamp": "02/26/2020, 19:09:48", "zip": 8057}, "type": "Feature"}, {"geometry": {"coordinates": [8.534974, 47.402164], "type": "Point"}, "properties": {"address": "Brache Guggach", "electric": 4, "id": "pb_572", "manual": 0, "name": "Radiostudio", "provider": "publibike", "timeStamp": "02/26/2020, 19:09:48", "zip": 8057}, "type": "Feature"}, {"geometry": {"coordinates": [8.547901, 47.375556], "type": "Point"}, "properties": {"address": "Karl-Schmid-Strasse 4", "electric": 0, "id": "pb_571", "manual": 1, "name": "ETH/Zoologisches Museum", "provider": "publibike", "timeStamp": "02/26/2020, 19:09:48", "zip": 8006}, "type": "Feature"}, {"geometry": {"coordinates": [8.505763, 47.40764], "type": "Point"}, "properties": {"charge": 100, "id": "smide_2880", "name": "ZH267289", "provider": "smide", "range": 50.0, "size": 17, "time": "02/26/2020, 19:09:14"}, "type": "Feature"}, {"geometry": {"coordinates": [8.530783, 47.378585], "type": "Point"}, "properties": {"charge": 92, "id": "smide_2871", "name": "ZH 267086", "provider": "smide", "range": 46.0, "size": 20, "time": "02/26/2020, 19:09:14"}, "type": "Feature"}, {"geometry": {"coordinates": [8.574728, 47.373083], "type": "Point"}, "properties": {"charge": 37, "id": "smide_2867", "name": "ZH 267090", "provider": "smide", "range": 18.0, "size": 20, "time": "02/26/2020, 19:09:14"}, "type": "Feature"}, {"geometry": {"coordinates": [8.539903, 47.378095], "type": "Point"}, "properties": {"charge": 64, "id": "smide_2861", "name": "ZH 267096", "provider": "smide", "range": 32.0, "size": 17, "time": "02/26/2020, 19:09:14"}, "type": "Feature"}, {"geometry": {"coordinates": [8.53764, 47.370935], "type": "Point"}, "properties": {"charge": 73, "id": "smide_2856", "name": "ZH 267101", "provider": "smide", "range": 36.0, "size": 17, "time": "02/26/2020, 19:09:14"}, "type": "Feature"}, {"geometry": {"coordinates": [8.542473, 47.383783], "type": "Point"}, "properties": {"charge": 47, "id": "smide_2854", "name": "ZH 267103", "provider": "smide", "range": 23.0, "size": 17, "time": "02/26/2020, 19:09:14"}, "type": "Feature"}, {"geometry": {"coordinates": [8.501291, 47.366541], "type": "Point"}, "properties": {"charge": 53, "id": "smide_2831", "name": "ZH 267180", "provider": "smide", "range": 26.0, "size": 20, "time": "02/26/2020, 19:09:14"}, "type": "Feature"}, {"geometry": {"coordinates": [8.553695, 47.356926], "type": "Point"}, "properties": {"charge": 97, "id": "smide_2795", "name": "ZH 266885", "provider": "smide", "range": 48.0, "size": 17, "time": "02/26/2020, 19:09:14"}, "type": "Feature"}, {"geometry": {"coordinates": [8.527065, 47.397118], "type": "Point"}, "properties": {"charge": 87, "id": "smide_2793", "name": "ZH266883", "provider": "smide", "range": 43.0, "size": 17, "time": "02/26/2020, 19:09:14"}, "type": "Feature"}, {"geometry": {"coordinates": [8.518126, 47.385331], "type": "Point"}, "properties": {"charge": 90, "id": "smide_2785", "name": "ZH266875", "provider": "smide", "range": 45.0, "size": 17, "time": "02/26/2020, 19:09:14"}, "type": "Feature"}, {"geometry": {"coordinates": [8.537169, 47.379572], "type": "Point"}, "properties": {"charge": 99, "id": "smide_2773", "name": "ZH266561", "provider": "smide", "range": 49.0, "size": 17, "time": "02/26/2020, 19:09:14"}, "type": "Feature"}, {"geometry": {"coordinates": [8.486686, 47.372352], "type": "Point"}, "properties": {"charge": 60, "id": "smide_2763", "name": "ZH266641", "provider": "smide", "range": 30.0, "size": 17, "time": "02/26/2020, 19:09:14"}, "type": "Feature"}, {"geometry": {"coordinates": [8.539573, 47.399716], "type": "Point"}, "properties": {"charge": 29, "id": "smide_2759", "name": "ZH266639", "provider": "smide", "range": 14.0, "size": 17, "time": "02/26/2020, 19:09:14"}, "type": "Feature"}, {"geometry": {"coordinates": [8.544494, 47.387376], "type": "Point"}, "properties": {"charge": 95, "id": "smide_2758", "name": "ZH266638 M", "provider": "smide", "range": 47.0, "size": 17, "time": "02/26/2020, 19:09:14"}, "type": "Feature"}, {"geometry": {"coordinates": [8.474995, 47.39118], "type": "Point"}, "properties": {"charge": 48, "id": "smide_2751", "name": "BE343857", "provider": "smide", "range": 24.0, "size": 17, "time": "02/26/2020, 19:09:14"}, "type": "Feature"}, {"geometry": {"coordinates": [8.548908, 47.421696], "type": "Point"}, "properties": {"charge": 24, "id": "smide_2749", "name": "BE343867", "provider": "smide", "range": 12.0, "size": 17, "time": "02/26/2020, 19:09:14"}, "type": "Feature"}, {"geometry": {"coordinates": [8.502259, 47.371464], "type": "Point"}, "properties": {"charge": 100, "id": "smide_2743", "name": "BE343864", "provider": "smide", "range": 50.0, "size": 17, "time": "02/26/2020, 19:09:14"}, "type": "Feature"}, {"geometry": {"coordinates": [8.506942, 47.407744], "type": "Point"}, "properties": {"charge": 80, "id": "smide_2742", "name": "BE343866", "provider": "smide", "range": 40.0, "size": 17, "time": "02/26/2020, 19:09:14"}, "type": "Feature"}, {"geometry": {"coordinates": [8.553239, 47.401784], "type": "Point"}, "properties": {"charge": 47, "id": "smide_2737", "name": "BE336149", "provider": "smide", "range": 23.0, "size": 17, "time": "02/26/2020, 19:09:14"}, "type": "Feature"}, {"geometry": {"coordinates": [8.574887, 47.373192], "type": "Point"}, "properties": {"charge": 89, "id": "smide_2734", "name": "BE343876", "provider": "smide", "range": 44.0, "size": 17, "time": "02/26/2020, 19:09:14"}, "type": "Feature"}, {"geometry": {"coordinates": [8.531204, 47.385076], "type": "Point"}, "properties": {"charge": 92, "id": "smide_2733", "name": "BE343873", "provider": "smide", "range": 46.0, "size": 17, "time": "02/26/2020, 19:09:14"}, "type": "Feature"}, {"geometry": {"coordinates": [8.502537, 47.380364], "type": "Point"}, "properties": {"charge": 99, "id": "smide_2732", "name": "BE343870", "provider": "smide", "range": 49.0, "size": 17, "time": "02/26/2020, 19:09:14"}, "type": "Feature"}, {"geometry": {"coordinates": [8.564406, 47.346564], "type": "Point"}, "properties": {"charge": 95, "id": "smide_2729", "name": "BE343878", "provider": "smide", "range": 47.0, "size": 17, "time": "02/26/2020, 19:09:14"}, "type": "Feature"}, {"geometry": {"coordinates": [8.488851, 47.392815], "type": "Point"}, "properties": {"charge": 93, "id": "smide_2725", "name": "ZH261545", "provider": "smide", "range": 46.0, "size": 0, "time": "02/26/2020, 19:09:14"}, "type": "Feature"}, {"geometry": {"coordinates": [8.549413, 47.39704], "type": "Point"}, "properties": {"charge": 30, "id": "smide_2718", "name": "ZH259019", "provider": "smide", "range": 15.0, "size": 20, "time": "02/26/2020, 19:09:14"}, "type": "Feature"}, {"geometry": {"coordinates": [8.495768, 47.374348], "type": "Point"}, "properties": {"charge": 83, "id": "smide_2717", "name": "ZH263287", "provider": "smide", "range": 41.0, "size": 17, "time": "02/26/2020, 19:09:14"}, "type": "Feature"}, {"geometry": {"coordinates": [8.542089, 47.398264], "type": "Point"}, "properties": {"charge": 77, "id": "smide_2715", "name": "ZH254605", "provider": "smide", "range": 38.0, "size": 17, "time": "02/26/2020, 19:09:14"}, "type": "Feature"}, {"geometry": {"coordinates": [8.504355, 47.423344], "type": "Point"}, "properties": {"charge": 57, "id": "smide_2710", "name": "ZH256460", "provider": "smide", "range": 28.0, "size": 17, "time": "02/26/2020, 19:09:14"}, "type": "Feature"}, {"geometry": {"coordinates": [8.508863, 47.354208], "type": "Point"}, "properties": {"charge": 53, "id": "smide_2712", "name": "ZH256462", "provider": "smide", "range": 26.0, "size": 17, "time": "02/26/2020, 19:09:14"}, "type": "Feature"}, {"geometry": {"coordinates": [8.53516, 47.39261], "type": "Point"}, "properties": {"charge": 84, "id": "smide_2709", "name": "ZH256466", "provider": "smide", "range": 42.0, "size": 20, "time": "02/26/2020, 19:09:14"}, "type": "Feature"}, {"geometry": {"coordinates": [8.51281, 47.37034], "type": "Point"}, "properties": {"charge": 100, "id": "smide_2707", "name": "ZH256467", "provider": "smide", "range": 50.0, "size": 20, "time": "02/26/2020, 19:09:14"}, "type": "Feature"}, {"geometry": {"coordinates": [8.544105, 47.391928], "type": "Point"}, "properties": {"charge": 92, "id": "smide_2708", "name": "ZH256464", "provider": "smide", "range": 46.0, "size": 17, "time": "02/26/2020, 19:09:14"}, "type": "Feature"}, {"geometry": {"coordinates": [8.567617, 47.376072], "type": "Point"}, "properties": {"charge": 80, "id": "smide_2706", "name": "ZH256322", "provider": "smide", "range": 40.0, "size": 20, "time": "02/26/2020, 19:09:14"}, "type": "Feature"}, {"geometry": {"coordinates": [8.533441, 47.385048], "type": "Point"}, "properties": {"charge": 26, "id": "smide_2701", "name": "ZH256468", "provider": "smide", "range": 13.0, "size": 20, "time": "02/26/2020, 19:09:14"}, "type": "Feature"}, {"geometry": {"coordinates": [8.533145, 47.417164], "type": "Point"}, "properties": {"charge": 64, "id": "smide_2700", "name": "ZH256470", "provider": "smide", "range": 32.0, "size": 20, "time": "02/26/2020, 19:09:14"}, "type": "Feature"}, {"geometry": {"coordinates": [8.497176, 47.401868], "type": "Point"}, "properties": {"charge": 31, "id": "smide_2697", "name": "ZH254629", "provider": "smide", "range": 15.0, "size": 20, "time": "02/26/2020, 19:09:14"}, "type": "Feature"}, {"geometry": {"coordinates": [8.582221, 47.35188], "type": "Point"}, "properties": {"charge": 69, "id": "smide_2694", "name": "ZH254610", "provider": "smide", "range": 34.0, "size": 20, "time": "02/26/2020, 19:09:14"}, "type": "Feature"}, {"geometry": {"coordinates": [8.56054, 47.3839], "type": "Point"}, "properties": {"charge": 53, "id": "smide_2691", "name": "ZH254622", "provider": "smide", "range": 26.0, "size": 20, "time": "02/26/2020, 19:09:14"}, "type": "Feature"}, {"geometry": {"coordinates": [8.502521, 47.420403], "type": "Point"}, "properties": {"charge": 43, "id": "smide_2690", "name": "ZH254625", "provider": "smide", "range": 21.0, "size": 20, "time": "02/26/2020, 19:09:14"}, "type": "Feature"}, {"geometry": {"coordinates": [8.505543, 47.361004], "type": "Point"}, "properties": {"charge": 47, "id": "smide_2689", "name": "ZH254623", "provider": "smide", "range": 23.0, "size": 20, "time": "02/26/2020, 19:09:14"}, "type": "Feature"}, {"geometry": {"coordinates": [8.557303, 47.402864], "type": "Point"}, "properties": {"charge": 85, "id": "smide_2687", "name": "ZH263529", "provider": "smide", "range": 42.0, "size": 20, "time": "02/26/2020, 19:09:14"}, "type": "Feature"}, {"geometry": {"coordinates": [8.520131, 47.413256], "type": "Point"}, "properties": {"charge": 100, "id": "smide_2686", "name": "ZH263288", "provider": "smide", "range": 50.0, "size": 20, "time": "02/26/2020, 19:09:14"}, "type": "Feature"}, {"geometry": {"coordinates": [8.50668, 47.40722], "type": "Point"}, "properties": {"charge": 70, "id": "smide_2684", "name": "ZH254626", "provider": "smide", "range": 35.0, "size": 20, "time": "02/26/2020, 19:09:14"}, "type": "Feature"}, {"geometry": {"coordinates": [8.50756, 47.406986], "type": "Point"}, "properties": {"charge": 95, "id": "smide_2683", "name": "ZH254620", "provider": "smide", "range": 47.0, "size": 20, "time": "02/26/2020, 19:09:14"}, "type": "Feature"}, {"geometry": {"coordinates": [8.560843, 47.383872], "type": "Point"}, "properties": {"charge": 76, "id": "smide_2680", "name": "ZH254619", "provider": "smide", "range": 38.0, "size": 20, "time": "02/26/2020, 19:09:14"}, "type": "Feature"}, {"geometry": {"coordinates": [8.531985, 47.352632], "type": "Point"}, "properties": {"charge": 30, "id": "smide_2679", "name": "ZH258489", "provider": "smide", "range": 15.0, "size": 17, "time": "02/26/2020, 19:09:14"}, "type": "Feature"}, {"geometry": {"coordinates": [8.490567, 47.381012], "type": "Point"}, "properties": {"charge": 36, "id": "smide_2674", "name": "ZH258654", "provider": "smide", "range": 18.0, "size": 17, "time": "02/26/2020, 19:09:14"}, "type": "Feature"}, {"geometry": {"coordinates": [8.570982, 47.357076], "type": "Point"}, "properties": {"charge": 59, "id": "smide_2671", "name": "ZH258645", "provider": "smide", "range": 29.0, "size": 17, "time": "02/26/2020, 19:09:14"}, "type": "Feature"}, {"geometry": {"coordinates": [8.48731, 47.384368], "type": "Point"}, "properties": {"charge": 47, "id": "smide_2668", "name": "ZH258640", "provider": "smide", "range": 23.0, "size": 17, "time": "02/26/2020, 19:09:14"}, "type": "Feature"}, {"geometry": {"coordinates": [8.537021, 47.38926], "type": "Point"}, "properties": {"charge": 42, "id": "smide_2665", "name": "ZH258644", "provider": "smide", "range": 21.0, "size": 17, "time": "02/26/2020, 19:09:14"}, "type": "Feature"}, {"geometry": {"coordinates": [8.546495, 47.36828], "type": "Point"}, "properties": {"charge": 89, "id": "smide_2664", "name": "ZH258652", "provider": "smide", "range": 44.0, "size": 17, "time": "02/26/2020, 19:09:14"}, "type": "Feature"}, {"geometry": {"coordinates": [8.491047, 47.3947], "type": "Point"}, "properties": {"charge": 73, "id": "smide_2663", "name": "ZH258649", "provider": "smide", "range": 36.0, "size": 17, "time": "02/26/2020, 19:09:14"}, "type": "Feature"}, {"geometry": {"coordinates": [8.560781, 47.383072], "type": "Point"}, "properties": {"charge": 100, "id": "smide_2662", "name": "ZH258643", "provider": "smide", "range": 50.0, "size": 17, "time": "02/26/2020, 19:09:14"}, "type": "Feature"}, {"geometry": {"coordinates": [8.536526, 47.401648], "type": "Point"}, "properties": {"charge": 85, "id": "smide_2660", "name": "ZH258647", "provider": "smide", "range": 42.0, "size": 17, "time": "02/26/2020, 19:09:14"}, "type": "Feature"}, {"geometry": {"coordinates": [8.522983, 47.35944], "type": "Point"}, "properties": {"charge": 80, "id": "smide_2648", "name": "ZH257930", "provider": "smide", "range": 40.0, "size": 20, "time": "02/26/2020, 19:09:14"}, "type": "Feature"}, {"geometry": {"coordinates": [8.57015, 47.352205], "type": "Point"}, "properties": {"charge": 35, "id": "smide_2657", "name": "ZH257936", "provider": "smide", "range": 17.0, "size": 17, "time": "02/26/2020, 19:09:14"}, "type": "Feature"}, {"geometry": {"coordinates": [8.5021, 47.369092], "type": "Point"}, "properties": {"charge": 100, "id": "smide_2647", "name": "ZH257932", "provider": "smide", "range": 50.0, "size": 20, "time": "02/26/2020, 19:09:14"}, "type": "Feature"}, {"geometry": {"coordinates": [8.547571, 47.422484], "type": "Point"}, "properties": {"charge": 19, "id": "smide_2645", "name": "ZH257933", "provider": "smide", "range": 9.0, "size": 20, "time": "02/26/2020, 19:09:14"}, "type": "Feature"}, {"geometry": {"coordinates": [8.474466, 47.391773], "type": "Point"}, "properties": {"charge": 55, "id": "smide_3", "name": "ZH253765", "provider": "smide", "range": 27.0, "size": 20, "time": "02/26/2020, 19:09:14"}, "type": "Feature"}, {"geometry": {"coordinates": [8.526945, 47.41146], "type": "Point"}, "properties": {"charge": 66, "id": "smide_105", "name": "ZH253804", "provider": "smide", "range": 33.0, "size": 17, "time": "02/26/2020, 19:09:14"}, "type": "Feature"}, {"geometry": {"coordinates": [8.572178, 47.352516], "type": "Point"}, "properties": {"charge": 56, "id": "smide_77", "name": "ZH261548", "provider": "smide", "range": 28.0, "size": 20, "time": "02/26/2020, 19:09:14"}, "type": "Feature"}, {"geometry": {"coordinates": [8.491354, 47.371704], "type": "Point"}, "properties": {"charge": 79, "id": "smide_200", "name": "ZH253801", "provider": "smide", "range": 39.0, "size": 20, "time": "02/26/2020, 19:09:14"}, "type": "Feature"}, {"geometry": {"coordinates": [8.525494, 47.40908], "type": "Point"}, "properties": {"charge": 43, "id": "smide_8", "name": "ZH253861", "provider": "smide", "range": 21.0, "size": 17, "time": "02/26/2020, 19:09:14"}, "type": "Feature"}, {"geometry": {"coordinates": [8.521055, 47.357171], "type": "Point"}, "properties": {"charge": 97, "id": "smide_201", "name": "ZH253698", "provider": "smide", "range": 48.0, "size": 17, "time": "02/26/2020, 19:09:14"}, "type": "Feature"}, {"geometry": {"coordinates": [8.530612, 47.394312], "type": "Point"}, "properties": {"charge": 70, "id": "smide_71", "name": "ZH253742", "provider": "smide", "range": 35.0, "size": 20, "time": "02/26/2020, 19:09:14"}, "type": "Feature"}, {"geometry": {"coordinates": [8.563705, 47.34982], "type": "Point"}, "properties": {"charge": 21, "id": "smide_101", "name": "ZH253814", "provider": "smide", "range": 10.0, "size": 17, "time": "02/26/2020, 19:09:14"}, "type": "Feature"}, {"geometry": {"coordinates": [8.535992, 47.345148], "type": "Point"}, "properties": {"charge": 55, "id": "smide_143", "name": "ZH253778", "provider": "smide", "range": 27.0, "size": 17, "time": "02/26/2020, 19:09:14"}, "type": "Feature"}, {"geometry": {"coordinates": [8.525175, 47.376301], "type": "Point"}, "properties": {"charge": 75, "id": "smide_180", "name": "ZH253824", "provider": "smide", "range": 37.0, "size": 20, "time": "02/26/2020, 19:09:14"}, "type": "Feature"}, {"geometry": {"coordinates": [8.546624, 47.36828], "type": "Point"}, "properties": {"charge": 92, "id": "smide_20", "name": "ZH253770", "provider": "smide", "range": 46.0, "size": 20, "time": "02/26/2020, 19:09:14"}, "type": "Feature"}, {"geometry": {"coordinates": [8.524023, 47.375716], "type": "Point"}, "properties": {"charge": 23, "id": "smide_50", "name": "ZH253853", "provider": "smide", "range": 11.0, "size": 17, "time": "02/26/2020, 19:09:14"}, "type": "Feature"}, {"geometry": {"coordinates": [8.538271, 47.415816], "type": "Point"}, "properties": {"charge": 100, "id": "smide_30", "name": "ZH253813", "provider": "smide", "range": 50.0, "size": 20, "time": "02/26/2020, 19:09:14"}, "type": "Feature"}, {"geometry": {"coordinates": [8.516641, 47.385853], "type": "Point"}, "properties": {"charge": 40, "id": "smide_10", "name": "ZH253855", "provider": "smide", "range": 20.0, "size": 17, "time": "02/26/2020, 19:09:14"}, "type": "Feature"}, {"geometry": {"coordinates": [8.547978, 47.403288], "type": "Point"}, "properties": {"charge": 79, "id": "smide_84", "name": "ZH253733", "provider": "smide", "range": 39.0, "size": 17, "time": "02/26/2020, 19:09:14"}, "type": "Feature"}, {"geometry": {"coordinates": [8.544348, 47.4165], "type": "Point"}, "properties": {"charge": 45, "id": "smide_165", "name": "ZH253752", "provider": "smide", "range": 22.0, "size": 17, "time": "02/26/2020, 19:09:14"}, "type": "Feature"}, {"geometry": {"coordinates": [8.540317, 47.402384], "type": "Point"}, "properties": {"charge": 41, "id": "smide_76", "name": "ZH253764", "provider": "smide", "range": 20.0, "size": 17, "time": "02/26/2020, 19:09:14"}, "type": "Feature"}, {"geometry": {"coordinates": [8.524396, 47.395831], "type": "Point"}, "properties": {"charge": 50, "id": "smide_49", "name": "ZH253873", "provider": "smide", "range": 25.0, "size": 17, "time": "02/26/2020, 19:09:14"}, "type": "Feature"}, {"geometry": {"coordinates": [8.502669, 47.36914], "type": "Point"}, "properties": {"charge": 80, "id": "smide_94", "name": "ZH253754", "provider": "smide", "range": 40.0, "size": 17, "time": "02/26/2020, 19:09:14"}, "type": "Feature"}, {"geometry": {"coordinates": [8.528555, 47.380152], "type": "Point"}, "properties": {"charge": 15, "id": "smide_37", "name": "ZH261377", "provider": "smide", "range": 7.0, "size": 20, "time": "02/26/2020, 19:09:14"}, "type": "Feature"}, {"geometry": {"coordinates": [8.56073, 47.383186], "type": "Point"}, "properties": {"charge": 60, "id": "smide_191", "name": "ZH253762", "provider": "smide", "range": 30.0, "size": 17, "time": "02/26/2020, 19:09:14"}, "type": "Feature"}, {"geometry": {"coordinates": [8.474666, 47.385883], "type": "Point"}, "properties": {"charge": 20, "id": "smide_202", "name": "ZH253830", "provider": "smide", "range": 10.0, "size": 17, "time": "02/26/2020, 19:09:14"}, "type": "Feature"}, {"geometry": {"coordinates": [8.524271, 47.378672], "type": "Point"}, "properties": {"charge": 99, "id": "smide_56", "name": "ZH261442", "provider": "smide", "range": 49.0, "size": 20, "time": "02/26/2020, 19:09:14"}, "type": "Feature"}, {"geometry": {"coordinates": [8.518553, 47.33894], "type": "Point"}, "properties": {"charge": 100, "id": "smide_47", "name": "ZH253858", "provider": "smide", "range": 50.0, "size": 17, "time": "02/26/2020, 19:09:14"}, "type": "Feature"}, {"geometry": {"coordinates": [8.544985, 47.373498], "type": "Point"}, "properties": {"charge": 95, "id": "smide_97", "name": "ZH253799", "provider": "smide", "range": 47.0, "size": 20, "time": "02/26/2020, 19:09:14"}, "type": "Feature"}, {"geometry": {"coordinates": [8.476718, 47.387352], "type": "Point"}, "properties": {"charge": 77, "id": "smide_66", "name": "ZH253818", "provider": "smide", "range": 38.0, "size": 20, "time": "02/26/2020, 19:09:14"}, "type": "Feature"}, {"geometry": {"coordinates": [8.486575, 47.386916], "type": "Point"}, "properties": {"charge": 76, "id": "smide_17", "name": "ZH253793", "provider": "smide", "range": 38.0, "size": 17, "time": "02/26/2020, 19:09:14"}, "type": "Feature"}, {"geometry": {"coordinates": [8.532176, 47.369863], "type": "Point"}, "properties": {"charge": 75, "id": "smide_145", "name": "ZH253780", "provider": "smide", "range": 37.0, "size": 20, "time": "02/26/2020, 19:09:14"}, "type": "Feature"}, {"geometry": {"coordinates": [8.529394, 47.354824], "type": "Point"}, "properties": {"charge": 50, "id": "smide_21", "name": "ZH253841", "provider": "smide", "range": 25.0, "size": 17, "time": "02/26/2020, 19:09:14"}, "type": "Feature"}, {"geometry": {"coordinates": [8.554059, 47.40704], "type": "Point"}, "properties": {"charge": 98, "id": "smide_164", "name": "ZH253775", "provider": "smide", "range": 49.0, "size": 17, "time": "02/26/2020, 19:09:14"}, "type": "Feature"}, {"geometry": {"coordinates": [8.476, 47.384224], "type": "Point"}, "properties": {"charge": 57, "id": "smide_189", "name": "ZH253845", "provider": "smide", "range": 28.0, "size": 20, "time": "02/26/2020, 19:09:14"}, "type": "Feature"}, {"geometry": {"coordinates": [8.525842, 47.33704], "type": "Point"}, "properties": {"charge": 44, "id": "smide_81", "name": "ZH253753", "provider": "smide", "range": 22.0, "size": 17, "time": "02/26/2020, 19:09:14"}, "type": "Feature"}, {"geometry": {"coordinates": [8.54025, 47.378828], "type": "Point"}, "properties": {"charge": 100, "id": "smide_171", "name": "ZH253689", "provider": "smide", "range": 50.0, "size": 20, "time": "02/26/2020, 19:09:14"}, "type": "Feature"}, {"geometry": {"coordinates": [8.509417, 47.413664], "type": "Point"}, "properties": {"charge": 81, "id": "smide_67", "name": "ZH253779", "provider": "smide", "range": 40.0, "size": 17, "time": "02/26/2020, 19:09:14"}, "type": "Feature"}, {"geometry": {"coordinates": [8.523213, 47.37119], "type": "Point"}, "properties": {"charge": 47, "id": "smide_118", "name": "ZH253759", "provider": "smide", "range": 23.0, "size": 20, "time": "02/26/2020, 19:09:14"}, "type": "Feature"}, {"geometry": {"coordinates": [8.53266, 47.406566], "type": "Point"}, "properties": {"charge": 85, "id": "smide_166", "name": "ZH253728", "provider": "smide", "range": 42.0, "size": 17, "time": "02/26/2020, 19:09:14"}, "type": "Feature"}, {"geometry": {"coordinates": [8.541976, 47.424568], "type": "Point"}, "properties": {"charge": 23, "id": "smide_126", "name": "ZH268400", "provider": "smide", "range": 11.0, "size": 17, "time": "02/26/2020, 19:09:14"}, "type": "Feature"}, {"geometry": {"coordinates": [8.516205, 47.385403], "type": "Point"}, "properties": {"charge": 82, "id": "smide_44", "name": "ZH253837", "provider": "smide", "range": 41.0, "size": 17, "time": "02/26/2020, 19:09:14"}, "type": "Feature"}, {"geometry": {"coordinates": [8.577205, 47.350225], "type": "Point"}, "properties": {"charge": 94, "id": "smide_98", "name": "ZH256321", "provider": "smide", "range": 47.0, "size": 17, "time": "02/26/2020, 19:09:14"}, "type": "Feature"}, {"geometry": {"coordinates": [8.560721, 47.383235], "type": "Point"}, "properties": {"charge": 87, "id": "smide_57", "name": "ZH253772", "provider": "smide", "range": 43.0, "size": 17, "time": "02/26/2020, 19:09:14"}, "type": "Feature"}, {"geometry": {"coordinates": [8.524454, 47.423964], "type": "Point"}, "properties": {"charge": 100, "id": "smide_154", "name": "ZH253744", "provider": "smide", "range": 50.0, "size": 20, "time": "02/26/2020, 19:09:14"}, "type": "Feature"}, {"geometry": {"coordinates": [8.544462, 47.382616], "type": "Point"}, "properties": {"charge": 27, "id": "smide_111", "name": "ZH253763", "provider": "smide", "range": 13.0, "size": 17, "time": "02/26/2020, 19:09:14"}, "type": "Feature"}, {"geometry": {"coordinates": [8.53109, 47.346252], "type": "Point"}, "properties": {"charge": 57, "id": "smide_40", "name": "ZH253690", "provider": "smide", "range": 28.0, "size": 20, "time": "02/26/2020, 19:09:14"}, "type": "Feature"}, {"geometry": {"coordinates": [8.551171, 47.399132], "type": "Point"}, "properties": {"charge": 66, "id": "smide_1", "name": "ZH253776", "provider": "smide", "range": 33.0, "size": 17, "time": "02/26/2020, 19:09:14"}, "type": "Feature"}, {"geometry": {"coordinates": [8.563992, 47.3663], "type": "Point"}, "properties": {"charge": 80, "id": "smide_28", "name": "ZH253831", "provider": "smide", "range": 40.0, "size": 17, "time": "02/26/2020, 19:09:14"}, "type": "Feature"}, {"geometry": {"coordinates": [8.490165, 47.387043], "type": "Point"}, "properties": {"charge": 100, "id": "smide_14", "name": "ZH253749", "provider": "smide", "range": 50.0, "size": 20, "time": "02/26/2020, 19:09:14"}, "type": "Feature"}, {"geometry": {"coordinates": [8.49011, 47.376008], "type": "Point"}, "properties": {"charge": 85, "id": "smide_130", "name": "ZH253847", "provider": "smide", "range": 42.0, "size": 20, "time": "02/26/2020, 19:09:14"}, "type": "Feature"}, {"geometry": {"coordinates": [8.486528, 47.386276], "type": "Point"}, "properties": {"charge": 78, "id": "smide_107", "name": "ZH253819", "provider": "smide", "range": 39.0, "size": 17, "time": "02/26/2020, 19:09:14"}, "type": "Feature"}, {"geometry": {"coordinates": [8.539315, 47.396892], "type": "Point"}, "properties": {"charge": 100, "id": "smide_136", "name": "ZH253682", "provider": "smide", "range": 50.0, "size": 17, "time": "02/26/2020, 19:09:14"}, "type": "Feature"}, {"geometry": {"coordinates": [8.493481, 47.368452], "type": "Point"}, "properties": {"charge": 85, "id": "smide_83", "name": "ZH253869", "provider": "smide", "range": 42.0, "size": 20, "time": "02/26/2020, 19:09:14"}, "type": "Feature"}, {"geometry": {"coordinates": [8.527741, 47.39812], "type": "Point"}, "properties": {"charge": 100, "id": "smide_205", "name": "ZH253805", "provider": "smide", "range": 50.0, "size": 17, "time": "02/26/2020, 19:09:14"}, "type": "Feature"}, {"geometry": {"coordinates": [8.597679, 47.348892], "type": "Point"}, "properties": {"charge": 46, "id": "smide_193", "name": "ZH253738", "provider": "smide", "range": 23.0, "size": 20, "time": "02/26/2020, 19:09:14"}, "type": "Feature"}, {"geometry": {"coordinates": [8.538665, 47.400368], "type": "Point"}, "properties": {"charge": 80, "id": "smide_73", "name": "ZH261379", "provider": "smide", "range": 40.0, "size": 20, "time": "02/26/2020, 19:09:14"}, "type": "Feature"}, {"geometry": {"coordinates": [8.536041, 47.357276], "type": "Point"}, "properties": {"charge": 61, "id": "smide_158", "name": "ZH253870", "provider": "smide", "range": 30.0, "size": 20, "time": "02/26/2020, 19:09:14"}, "type": "Feature"}, {"geometry": {"coordinates": [8.560335, 47.382148], "type": "Point"}, "properties": {"charge": 83, "id": "smide_134", "name": "ZH253741", "provider": "smide", "range": 41.0, "size": 20, "time": "02/26/2020, 19:09:14"}, "type": "Feature"}, {"geometry": {"coordinates": [8.560118, 47.382048], "type": "Point"}, "properties": {"charge": 76, "id": "smide_141", "name": "ZH253800", "provider": "smide", "range": 38.0, "size": 20, "time": "02/26/2020, 19:09:14"}, "type": "Feature"}, {"geometry": {"coordinates": [8.53541, 47.376695], "type": "Point"}, "properties": {"charge": 72, "id": "smide_149", "name": "ZH253743", "provider": "smide", "range": 36.0, "size": 20, "time": "02/26/2020, 19:09:14"}, "type": "Feature"}, {"geometry": {"coordinates": [8.576496, 47.351172], "type": "Point"}, "properties": {"charge": 29, "id": "smide_16", "name": "ZH253713", "provider": "smide", "range": 14.0, "size": 20, "time": "02/26/2020, 19:09:14"}, "type": "Feature"}, {"geometry": {"coordinates": [8.51727, 47.355988], "type": "Point"}, "properties": {"charge": 58, "id": "smide_74", "name": "ZH253693", "provider": "smide", "range": 28.0, "size": 20, "time": "02/26/2020, 19:09:14"}, "type": "Feature"}, {"geometry": {"coordinates": [8.565478, 47.368201], "type": "Point"}, "properties": {"charge": 78, "id": "smide_33", "name": "ZH253782", "provider": "smide", "range": 39.0, "size": 20, "time": "02/26/2020, 19:09:14"}, "type": "Feature"}, {"geometry": {"coordinates": [8.537688, 47.41234], "type": "Point"}, "properties": {"charge": 100, "id": "smide_161", "name": "ZH253691", "provider": "smide", "range": 50.0, "size": 20, "time": "02/26/2020, 19:09:14"}, "type": "Feature"}, {"geometry": {"coordinates": [8.564466, 47.373336], "type": "Point"}, "properties": {"charge": 70, "id": "smide_42", "name": "ZH253846", "provider": "smide", "range": 35.0, "size": 20, "time": "02/26/2020, 19:09:14"}, "type": "Feature"}, {"geometry": {"coordinates": [8.560143, 47.381392], "type": "Point"}, "properties": {"charge": 45, "id": "smide_4", "name": "ZH253740", "provider": "smide", "range": 22.0, "size": 20, "time": "02/26/2020, 19:09:14"}, "type": "Feature"}, {"geometry": {"coordinates": [8.524384, 47.398032], "type": "Point"}, "properties": {"charge": 65, "id": "smide_160", "name": "ZH253722", "provider": "smide", "range": 32.0, "size": 17, "time": "02/26/2020, 19:09:14"}, "type": "Feature"}, {"geometry": {"coordinates": [8.5607, 47.383045], "type": "Point"}, "properties": {"charge": 100, "id": "smide_55", "name": "ZH253875", "provider": "smide", "range": 50.0, "size": 17, "time": "02/26/2020, 19:09:14"}, "type": "Feature"}, {"geometry": {"coordinates": [8.489557, 47.392392], "type": "Point"}, "properties": {"charge": 56, "id": "smide_96", "name": "ZH256146", "provider": "smide", "range": 28.0, "size": 20, "time": "02/26/2020, 19:09:14"}, "type": "Feature"}, {"geometry": {"coordinates": [8.554153, 47.357316], "type": "Point"}, "properties": {"charge": 100, "id": "smide_58", "name": "ZH259246", "provider": "smide", "range": 50.0, "size": 20, "time": "02/26/2020, 19:09:14"}, "type": "Feature"}, {"geometry": {"coordinates": [8.535917, 47.399808], "type": "Point"}, "properties": {"charge": 48, "id": "smide_54", "name": "ZH253874", "provider": "smide", "range": 24.0, "size": 20, "time": "02/26/2020, 19:09:14"}, "type": "Feature"}, {"geometry": {"coordinates": [8.53651, 47.365168], "type": "Point"}, "properties": {"charge": 59, "id": "smide_175", "name": "ZH253730", "provider": "smide", "range": 29.0, "size": 17, "time": "02/26/2020, 19:09:14"}, "type": "Feature"}, {"geometry": {"coordinates": [8.572861, 47.352096], "type": "Point"}, "properties": {"charge": 64, "id": "smide_95", "name": "ZH253773", "provider": "smide", "range": 32.0, "size": 17, "time": "02/26/2020, 19:09:14"}, "type": "Feature"}, {"geometry": {"coordinates": [8.531957, 47.338544], "type": "Point"}, "properties": {"charge": 38, "id": "smide_163", "name": "ZH256147", "provider": "smide", "range": 19.0, "size": 20, "time": "02/26/2020, 19:09:14"}, "type": "Feature"}, {"geometry": {"coordinates": [8.560832, 47.383848], "type": "Point"}, "properties": {"charge": 100, "id": "smide_112", "name": "ZH263530", "provider": "smide", "range": 50.0, "size": 20, "time": "02/26/2020, 19:09:14"}, "type": "Feature"}, {"geometry": {"coordinates": [8.57482, 47.372978], "type": "Point"}, "properties": {"charge": 44, "id": "smide_38", "name": "ZH253851", "provider": "smide", "range": 22.0, "size": 20, "time": "02/26/2020, 19:09:14"}, "type": "Feature"}, {"geometry": {"coordinates": [8.533428, 47.39216], "type": "Point"}, "properties": {"charge": 42, "id": "smide_6", "name": "ZH253787", "provider": "smide", "range": 21.0, "size": 17, "time": "02/26/2020, 19:09:14"}, "type": "Feature"}, {"geometry": {"coordinates": [8.519541, 47.337316], "type": "Point"}, "properties": {"charge": 16, "id": "smide_18", "name": "ZH253859", "provider": "smide", "range": 8.0, "size": 17, "time": "02/26/2020, 19:09:14"}, "type": "Feature"}, {"geometry": {"coordinates": [8.491082, 47.371532], "type": "Point"}, "properties": {"charge": 52, "id": "smide_12", "name": "ZH253685", "provider": "smide", "range": 26.0, "size": 17, "time": "02/26/2020, 19:09:14"}, "type": "Feature"}, {"geometry": {"coordinates": [8.502049, 47.3691], "type": "Point"}, "properties": {"charge": 100, "id": "smide_192", "name": "ZH253706", "provider": "smide", "range": 50.0, "size": 20, "time": "02/26/2020, 19:09:14"}, "type": "Feature"}, {"geometry": {"coordinates": [8.562293, 47.382978], "type": "Point"}, "properties": {"charge": 100, "id": "smide_5", "name": "ZH261443", "provider": "smide", "range": 50.0, "size": 20, "time": "02/26/2020, 19:09:14"}, "type": "Feature"}, {"geometry": {"coordinates": [8.50711, 47.420395], "type": "Point"}, "properties": {"charge": 100, "id": "smide_85", "name": "ZH253729", "provider": "smide", "range": 50.0, "size": 17, "time": "02/26/2020, 19:09:14"}, "type": "Feature"}, {"geometry": {"coordinates": [8.570209, 47.352344], "type": "Point"}, "properties": {"charge": 94, "id": "smide_29", "name": "ZH253723", "provider": "smide", "range": 47.0, "size": 17, "time": "02/26/2020, 19:09:14"}, "type": "Feature"}, {"geometry": {"coordinates": [8.56735, 47.38064], "type": "Point"}, "properties": {"charge": 100, "id": "smide_132", "name": "ZH253857", "provider": "smide", "range": 50.0, "size": 17, "time": "02/26/2020, 19:09:14"}, "type": "Feature"}, {"geometry": {"coordinates": [8.568233, 47.36786], "type": "Point"}, "properties": {"charge": 69, "id": "smide_48", "name": "ZH253849", "provider": "smide", "range": 34.0, "size": 20, "time": "02/26/2020, 19:09:14"}, "type": "Feature"}, {"geometry": {"coordinates": [8.563107, 47.404024], "type": "Point"}, "properties": {"charge": 28, "id": "smide_46", "name": "ZH253843", "provider": "smide", "range": 14.0, "size": 20, "time": "02/26/2020, 19:09:14"}, "type": "Feature"}, {"geometry": {"coordinates": [8.53316333333333, 47.3923033333333], "type": "Point"}, "properties": {"charge": 69, "id": "bird_90b24e1c-2de4-4e45-bfd6-81b3a9ae3594", "provider": "bird", "timeStamp": "02/26/2020, 19:09:14"}, "type": "Feature"}, {"geometry": {"coordinates": [8.53343, 47.3922583333333], "type": "Point"}, "properties": {"charge": 70, "id": "bird_38360ce2-4fbb-4b4a-b542-083e7d7a351e", "provider": "bird", "timeStamp": "02/26/2020, 19:09:14"}, "type": "Feature"}, {"geometry": {"coordinates": [8.53343833333333, 47.3922533333333], "type": "Point"}, "properties": {"charge": 69, "id": "bird_1fa90f70-557d-4e18-a649-a71f327c53f0", "provider": "bird", "timeStamp": "02/26/2020, 19:09:14"}, "type": "Feature"}, {"geometry": {"coordinates": [8.52804, 47.39235], "type": "Point"}, "properties": {"charge": 29, "id": "bird_301692a4-a8e2-4667-9eb6-bacbad6624b7", "provider": "bird", "timeStamp": "02/26/2020, 19:09:14"}, "type": "Feature"}, {"geometry": {"coordinates": [8.54112833333333, 47.3701483333333], "type": "Point"}, "properties": {"charge": 42, "id": "bird_21b5d0f6-3b3d-40f6-ab31-5cbfd4fa2cb5", "provider": "bird", "timeStamp": "02/26/2020, 19:09:14"}, "type": "Feature"}, {"geometry": {"coordinates": [8.52799833333333, 47.3923], "type": "Point"}, "properties": {"charge": 58, "id": "bird_afec8947-f6dc-475a-b7c9-4ae952895e2f", "provider": "bird", "timeStamp": "02/26/2020, 19:09:14"}, "type": "Feature"}, {"geometry": {"coordinates": [8.54698666666667, 47.375775], "type": "Point"}, "properties": {"charge": 48, "id": "bird_478e41fa-1651-4f9d-88a7-83e99e266972", "provider": "bird", "timeStamp": "02/26/2020, 19:09:14"}, "type": "Feature"}, {"geometry": {"coordinates": [8.51462833333333, 47.37368], "type": "Point"}, "properties": {"charge": 63, "id": "bird_e942fce5-99b9-4038-b09f-025561d84d3e", "provider": "bird", "timeStamp": "02/26/2020, 19:09:14"}, "type": "Feature"}, {"geometry": {"coordinates": [8.53840666666667, 47.369355], "type": "Point"}, "properties": {"charge": 91, "id": "bird_d464b3cf-746e-404c-b63a-784b15dce3d8", "provider": "bird", "timeStamp": "02/26/2020, 19:09:14"}, "type": "Feature"}, {"geometry": {"coordinates": [8.53643333333333, 47.3912083333333], "type": "Point"}, "properties": {"charge": 66, "id": "bird_21925341-bbb0-47d7-811c-27e913d6a011", "provider": "bird", "timeStamp": "02/26/2020, 19:09:14"}, "type": "Feature"}, {"geometry": {"coordinates": [8.532385, 47.3680883333333], "type": "Point"}, "properties": {"charge": 63, "id": "bird_c15c7e40-3303-44f1-9032-fddc4ea27c93", "provider": "bird", "timeStamp": "02/26/2020, 19:09:14"}, "type": "Feature"}, {"geometry": {"coordinates": [8.53848333333333, 47.3694533333333], "type": "Point"}, "properties": {"charge": 80, "id": "bird_052ca7a8-7d61-4001-81e2-f91bd4f62077", "provider": "bird", "timeStamp": "02/26/2020, 19:09:14"}, "type": "Feature"}, {"geometry": {"coordinates": [8.53291666666667, 47.36819], "type": "Point"}, "properties": {"charge": 83, "id": "bird_783fc750-ec10-4f55-8d0d-1007aaa5c3f4", "provider": "bird", "timeStamp": "02/26/2020, 19:09:14"}, "type": "Feature"}, {"geometry": {"coordinates": [8.51478, 47.3739783333333], "type": "Point"}, "properties": {"charge": 57, "id": "bird_fee27ccd-5a75-4fae-bc36-0bb11e8c101c", "provider": "bird", "timeStamp": "02/26/2020, 19:09:14"}, "type": "Feature"}, {"geometry": {"coordinates": [8.51497, 47.37389], "type": "Point"}, "properties": {"charge": 47, "id": "bird_e8b1f627-fff4-4455-892f-a4b91e27cc4b", "provider": "bird", "timeStamp": "02/26/2020, 19:09:14"}, "type": "Feature"}, {"geometry": {"coordinates": [8.52165833333333, 47.39037], "type": "Point"}, "properties": {"charge": 49, "id": "bird_d63156c3-9bfd-43a2-97d0-c893d47e4897", "provider": "bird", "timeStamp": "02/26/2020, 19:09:14"}, "type": "Feature"}, {"geometry": {"coordinates": [8.54016333333333, 47.38956], "type": "Point"}, "properties": {"charge": 79, "id": "bird_ddc93408-3a26-4536-98dd-e189c882e63a", "provider": "bird", "timeStamp": "02/26/2020, 19:09:14"}, "type": "Feature"}, {"geometry": {"coordinates": [8.51904333333333, 47.370895], "type": "Point"}, "properties": {"charge": 66, "id": "bird_20abbc77-7fd4-4f8d-b994-60989849583e", "provider": "bird", "timeStamp": "02/26/2020, 19:09:14"}, "type": "Feature"}, {"geometry": {"coordinates": [8.54659666666667, 47.376595], "type": "Point"}, "properties": {"charge": 35, "id": "bird_a8eab544-bed8-4ac0-ade4-10aac52c2e49", "provider": "bird", "timeStamp": "02/26/2020, 19:09:14"}, "type": "Feature"}, {"geometry": {"coordinates": [8.53825666666667, 47.3696983333333], "type": "Point"}, "properties": {"charge": 89, "id": "bird_94b97785-7fdb-4da0-9edb-3b3387f757f6", "provider": "bird", "timeStamp": "02/26/2020, 19:09:14"}, "type": "Feature"}, {"geometry": {"coordinates": [8.54447333333333, 47.3736183333333], "type": "Point"}, "properties": {"charge": 33, "id": "bird_9a0ef358-a7ee-4629-9341-1f926e2ca910", "provider": "bird", "timeStamp": "02/26/2020, 19:09:14"}, "type": "Feature"}, {"geometry": {"coordinates": [8.54040833333333, 47.3706783333333], "type": "Point"}, "properties": {"charge": 52, "id": "bird_be5f4fbe-1e57-4249-a71e-bb947ea389b2", "provider": "bird", "timeStamp": "02/26/2020, 19:09:14"}, "type": "Feature"}, {"geometry": {"coordinates": [8.538245, 47.369735], "type": "Point"}, "properties": {"charge": 89, "id": "bird_0fc51cfd-5490-4cfe-9805-f4aca74d2959", "provider": "bird", "timeStamp": "02/26/2020, 19:09:14"}, "type": "Feature"}, {"geometry": {"coordinates": [8.54624166666667, 47.37632], "type": "Point"}, "properties": {"charge": 26, "id": "bird_7151de62-97a0-418e-b389-e92f11067b94", "provider": "bird", "timeStamp": "02/26/2020, 19:09:14"}, "type": "Feature"}, {"geometry": {"coordinates": [8.51636333333333, 47.3730133333333], "type": "Point"}, "properties": {"charge": 43, "id": "bird_031e9340-d49c-4610-b806-30b218151fb2", "provider": "bird", "timeStamp": "02/26/2020, 19:09:14"}, "type": "Feature"}, {"geometry": {"coordinates": [8.521705, 47.3897816666667], "type": "Point"}, "properties": {"charge": 100, "id": "bird_094bbd3c-5c00-4d1c-906c-d198775792a2", "provider": "bird", "timeStamp": "02/26/2020, 19:09:14"}, "type": "Feature"}, {"geometry": {"coordinates": [8.521885, 47.3898466666667], "type": "Point"}, "properties": {"charge": 81, "id": "bird_75b98b35-92bc-4540-8dff-2e82a422224e", "provider": "bird", "timeStamp": "02/26/2020, 19:09:14"}, "type": "Feature"}, {"geometry": {"coordinates": [8.52188666666667, 47.389805], "type": "Point"}, "properties": {"charge": 73, "id": "bird_d1f73a6d-935c-4f79-839f-61107542be0a", "provider": "bird", "timeStamp": "02/26/2020, 19:09:14"}, "type": "Feature"}, {"geometry": {"coordinates": [8.531405, 47.3688616666667], "type": "Point"}, "properties": {"charge": 61, "id": "bird_acd5780b-0136-41eb-b58a-2d02af938d87", "provider": "bird", "timeStamp": "02/26/2020, 19:09:14"}, "type": "Feature"}, {"geometry": {"coordinates": [8.53790333333333, 47.370235], "type": "Point"}, "properties": {"charge": 56, "id": "bird_385d79c9-8647-4108-86f7-44de56cef978", "provider": "bird", "timeStamp": "02/26/2020, 19:09:14"}, "type": "Feature"}, {"geometry": {"coordinates": [8.52167, 47.3895716666667], "type": "Point"}, "properties": {"charge": 71, "id": "bird_2f30004f-b809-4264-abd6-58848c9d65d2", "provider": "bird", "timeStamp": "02/26/2020, 19:09:14"}, "type": "Feature"}, {"geometry": {"coordinates": [8.52170666666667, 47.3895416666667], "type": "Point"}, "properties": {"charge": 73, "id": "bird_b14deb9b-88f3-44f7-8821-4b646133ba9c", "provider": "bird", "timeStamp": "02/26/2020, 19:09:14"}, "type": "Feature"}, {"geometry": {"coordinates": [8.537685, 47.3702283333333], "type": "Point"}, "properties": {"charge": 82, "id": "bird_fd38112c-6f13-45ad-a35b-b87d4e3d2073", "provider": "bird", "timeStamp": "02/26/2020, 19:09:14"}, "type": "Feature"}, {"geometry": {"coordinates": [8.53992, 47.3712433333333], "type": "Point"}, "properties": {"charge": 61, "id": "bird_a9f30e26-7205-4439-bcab-b3db48539c78", "provider": "bird", "timeStamp": "02/26/2020, 19:09:14"}, "type": "Feature"}, {"geometry": {"coordinates": [8.5216, 47.3893933333333], "type": "Point"}, "properties": {"charge": 78, "id": "bird_56039c6f-3e86-44b1-8394-111a218534bd", "provider": "bird", "timeStamp": "02/26/2020, 19:09:14"}, "type": "Feature"}, {"geometry": {"coordinates": [8.52298166666667, 47.37011], "type": "Point"}, "properties": {"charge": 39, "id": "bird_b1e0910b-9c7f-4c65-8ba2-6214c37a9a39", "provider": "bird", "timeStamp": "02/26/2020, 19:09:14"}, "type": "Feature"}, {"geometry": {"coordinates": [8.51839, 47.3724216666667], "type": "Point"}, "properties": {"charge": 35, "id": "bird_5c6c5f16-bb25-4608-aae0-bb55bec76a1f", "provider": "bird", "timeStamp": "02/26/2020, 19:09:14"}, "type": "Feature"}, {"geometry": {"coordinates": [8.51895666666667, 47.3879466666667], "type": "Point"}, "properties": {"charge": 62, "id": "bird_4ad38340-de99-4e06-88b6-2e271102e3f1", "provider": "bird", "timeStamp": "02/26/2020, 19:09:14"}, "type": "Feature"}, {"geometry": {"coordinates": [8.51420166666667, 47.3820916666667], "type": "Point"}, "properties": {"charge": 39, "id": "bird_c25f7e36-6851-4e32-a6eb-087e63738f00", "provider": "bird", "timeStamp": "02/26/2020, 19:09:14"}, "type": "Feature"}, {"geometry": {"coordinates": [8.51828166666667, 47.3874133333333], "type": "Point"}, "properties": {"charge": 64, "id": "bird_f0645574-06b5-4222-a681-2913cad9962d", "provider": "bird", "timeStamp": "02/26/2020, 19:09:14"}, "type": "Feature"}, {"geometry": {"coordinates": [8.53630333333333, 47.370095], "type": "Point"}, "properties": {"charge": 26, "id": "bird_b25fca76-cc67-4982-9c0d-70b8d9df041d", "provider": "bird", "timeStamp": "02/26/2020, 19:09:14"}, "type": "Feature"}, {"geometry": {"coordinates": [8.53740333333333, 47.3704683333333], "type": "Point"}, "properties": {"charge": 66, "id": "bird_b01f5d23-00a8-4e4c-9fab-4abd7f25ac4d", "provider": "bird", "timeStamp": "02/26/2020, 19:09:14"}, "type": "Feature"}, {"geometry": {"coordinates": [8.5163, 47.38544], "type": "Point"}, "properties": {"charge": 25, "id": "bird_ac8e620c-6406-474f-b39c-a4f078b3633d", "provider": "bird", "timeStamp": "02/26/2020, 19:09:14"}, "type": "Feature"}, {"geometry": {"coordinates": [8.518305, 47.3727833333333], "type": "Point"}, "properties": {"charge": 33, "id": "bird_a7e0bb4d-c817-47ae-8b93-6dc5ec2dca66", "provider": "bird", "timeStamp": "02/26/2020, 19:09:14"}, "type": "Feature"}, {"geometry": {"coordinates": [8.52018833333333, 47.3884016666667], "type": "Point"}, "properties": {"charge": 81, "id": "bird_e66959a7-7cda-4a57-974d-7d3802fc08c4", "provider": "bird", "timeStamp": "02/26/2020, 19:09:14"}, "type": "Feature"}, {"geometry": {"coordinates": [8.521275, 47.3888166666667], "type": "Point"}, "properties": {"charge": 64, "id": "bird_4f8011e6-b532-457f-9b45-b3d29bf27e8b", "provider": "bird", "timeStamp": "02/26/2020, 19:09:14"}, "type": "Feature"}, {"geometry": {"coordinates": [8.51493333333333, 47.3824533333333], "type": "Point"}, "properties": {"charge": 100, "id": "bird_fcc7a6db-bd12-4da7-be2f-5bbed2378d33", "provider": "bird", "timeStamp": "02/26/2020, 19:09:14"}, "type": "Feature"}, {"geometry": {"coordinates": [8.54522833333333, 47.3818733333333], "type": "Point"}, "properties": {"charge": 71, "id": "bird_ce7d0c92-7881-471e-ba7b-914377d60cf0", "provider": "bird", "timeStamp": "02/26/2020, 19:09:14"}, "type": "Feature"}, {"geometry": {"coordinates": [8.51507833333333, 47.382775], "type": "Point"}, "properties": {"charge": 70, "id": "bird_6836597f-8def-4ae4-8b9a-afec5170a7f3", "provider": "bird", "timeStamp": "02/26/2020, 19:09:14"}, "type": "Feature"}, {"geometry": {"coordinates": [8.51497666666667, 47.3824583333333], "type": "Point"}, "properties": {"charge": 100, "id": "bird_4b7802d5-b12f-4fb9-921c-974c8b8fefa6", "provider": "bird", "timeStamp": "02/26/2020, 19:09:14"}, "type": "Feature"}, {"geometry": {"coordinates": [8.53589333333333, 47.3703533333333], "type": "Point"}, "properties": {"charge": 58, "id": "bird_38757696-6730-4545-819a-7a2bdfc57a85", "provider": "bird", "timeStamp": "02/26/2020, 19:09:14"}, "type": "Feature"}, {"geometry": {"coordinates": [8.52982, 47.3695633333333], "type": "Point"}, "properties": {"charge": 57, "id": "bird_03d59b91-3375-4eca-badb-2f3aa3088939", "provider": "bird", "timeStamp": "02/26/2020, 19:09:14"}, "type": "Feature"}, {"geometry": {"coordinates": [8.52207333333333, 47.3889083333333], "type": "Point"}, "properties": {"charge": 53, "id": "bird_0992fe4a-3fc6-4c72-a88c-8cefb7ef70fb", "provider": "bird", "timeStamp": "02/26/2020, 19:09:14"}, "type": "Feature"}, {"geometry": {"coordinates": [8.52107666666667, 47.388435], "type": "Point"}, "properties": {"charge": 51, "id": "bird_91d508d7-a882-462a-b69f-bc8baf4ce54b", "provider": "bird", "timeStamp": "02/26/2020, 19:09:14"}, "type": "Feature"}, {"geometry": {"coordinates": [8.53525, 47.3703116666667], "type": "Point"}, "properties": {"charge": 84, "id": "bird_db44b7f9-95f0-485d-b0f9-269c9e5cf584", "provider": "bird", "timeStamp": "02/26/2020, 19:09:14"}, "type": "Feature"}, {"geometry": {"coordinates": [8.516575, 47.384845], "type": "Point"}, "properties": {"charge": 60, "id": "bird_c2ffd783-0f3e-4308-bc33-0c0521049e70", "provider": "bird", "timeStamp": "02/26/2020, 19:09:14"}, "type": "Feature"}, {"geometry": {"coordinates": [8.51658, 47.3848383333333], "type": "Point"}, "properties": {"charge": 31, "id": "bird_5b325b15-3c32-481a-89fc-7dc7bb5a3b40", "provider": "bird", "timeStamp": "02/26/2020, 19:09:14"}, "type": "Feature"}, {"geometry": {"coordinates": [8.54431166666667, 47.37658], "type": "Point"}, "properties": {"charge": 67, "id": "bird_4b90bcdf-eea4-430f-ab12-3b9cfd491a31", "provider": "bird", "timeStamp": "02/26/2020, 19:09:14"}, "type": "Feature"}, {"geometry": {"coordinates": [8.53509, 47.37032], "type": "Point"}, "properties": {"charge": 42, "id": "bird_1461b250-475c-4a7d-913f-3d0b26682b71", "provider": "bird", "timeStamp": "02/26/2020, 19:09:14"}, "type": "Feature"}, {"geometry": {"coordinates": [8.52180333333333, 47.3886416666667], "type": "Point"}, "properties": {"charge": 27, "id": "bird_c74ed47e-2d72-4e45-a65d-961e11cd456e", "provider": "bird", "timeStamp": "02/26/2020, 19:09:14"}, "type": "Feature"}, {"geometry": {"coordinates": [8.51725333333333, 47.3855583333333], "type": "Point"}, "properties": {"charge": 28, "id": "bird_6ef30530-e73f-4948-8120-0c39a4f7e3b2", "provider": "bird", "timeStamp": "02/26/2020, 19:09:14"}, "type": "Feature"}, {"geometry": {"coordinates": [8.53946333333333, 47.3719983333333], "type": "Point"}, "properties": {"charge": 91, "id": "bird_afead875-74f4-4a7f-b4e5-8fd4713b382b", "provider": "bird", "timeStamp": "02/26/2020, 19:09:14"}, "type": "Feature"}, {"geometry": {"coordinates": [8.54400333333333, 47.3761933333333], "type": "Point"}, "properties": {"charge": 62, "id": "bird_a7ad26e0-8bc9-4e27-8f7e-17259ce5f6a3", "provider": "bird", "timeStamp": "02/26/2020, 19:09:14"}, "type": "Feature"}, {"geometry": {"coordinates": [8.51718666666667, 47.3853683333333], "type": "Point"}, "properties": {"charge": 61, "id": "bird_80aaeb82-096f-4455-a0da-6c4ad752d798", "provider": "bird", "timeStamp": "02/26/2020, 19:09:14"}, "type": "Feature"}, {"geometry": {"coordinates": [8.52213833333333, 47.3886983333333], "type": "Point"}, "properties": {"charge": 16, "id": "bird_a1197283-cf6e-4537-af47-97b7e1789452", "provider": "bird", "timeStamp": "02/26/2020, 19:09:14"}, "type": "Feature"}, {"geometry": {"coordinates": [8.51523166666667, 47.37801], "type": "Point"}, "properties": {"charge": 51, "id": "bird_29ae0235-7ba6-4fe8-8cdf-c98d0811e4ef", "provider": "bird", "timeStamp": "02/26/2020, 19:09:14"}, "type": "Feature"}, {"geometry": {"coordinates": [8.52051166666667, 47.3879166666667], "type": "Point"}, "properties": {"charge": 73, "id": "bird_7a5bd4bd-2d7f-43ff-940f-376865a725f1", "provider": "bird", "timeStamp": "02/26/2020, 19:09:14"}, "type": "Feature"}, {"geometry": {"coordinates": [8.54497833333333, 47.3809516666667], "type": "Point"}, "properties": {"charge": 72, "id": "bird_185ec023-3370-4d2e-944c-3f863093c1d3", "provider": "bird", "timeStamp": "02/26/2020, 19:09:14"}, "type": "Feature"}, {"geometry": {"coordinates": [8.522245, 47.3887283333333], "type": "Point"}, "properties": {"charge": 79, "id": "bird_233e57bd-3e93-48de-8cdf-09133d72a98c", "provider": "bird", "timeStamp": "02/26/2020, 19:09:14"}, "type": "Feature"}, {"geometry": {"coordinates": [8.51797, 47.386105], "type": "Point"}, "properties": {"charge": 30, "id": "bird_5d3c889b-d88c-46a1-ac1c-3248adbf20ec", "provider": "bird", "timeStamp": "02/26/2020, 19:09:14"}, "type": "Feature"}, {"geometry": {"coordinates": [8.543965, 47.376255], "type": "Point"}, "properties": {"charge": 69, "id": "bird_8ecf3d5c-67cc-4b0b-979f-eac523b140ec", "provider": "bird", "timeStamp": "02/26/2020, 19:09:14"}, "type": "Feature"}, {"geometry": {"coordinates": [8.51653333333333, 47.3755183333333], "type": "Point"}, "properties": {"charge": 85, "id": "bird_8545664e-df6d-4b05-9f83-bbd824c2152d", "provider": "bird", "timeStamp": "02/26/2020, 19:09:14"}, "type": "Feature"}, {"geometry": {"coordinates": [8.51649666666667, 47.3755983333333], "type": "Point"}, "properties": {"charge": 82, "id": "bird_42942366-2a1e-42a5-80e1-6eb1033e8fc7", "provider": "bird", "timeStamp": "02/26/2020, 19:09:14"}, "type": "Feature"}, {"geometry": {"coordinates": [8.51814166666667, 47.38617], "type": "Point"}, "properties": {"charge": 66, "id": "bird_154526e1-72bd-43c9-b04b-1a4a5140928f", "provider": "bird", "timeStamp": "02/26/2020, 19:09:14"}, "type": "Feature"}, {"geometry": {"coordinates": [8.51703666666667, 47.3850483333333], "type": "Point"}, "properties": {"charge": 61, "id": "bird_73f6efee-4de4-4aae-87ba-8a8528eb29c5", "provider": "bird", "timeStamp": "02/26/2020, 19:09:14"}, "type": "Feature"}, {"geometry": {"coordinates": [8.515345, 47.3819616666667], "type": "Point"}, "properties": {"charge": 90, "id": "bird_60513646-858b-4a90-a64b-b284f66afa2d", "provider": "bird", "timeStamp": "02/26/2020, 19:09:14"}, "type": "Feature"}, {"geometry": {"coordinates": [8.51536333333333, 47.381935], "type": "Point"}, "properties": {"charge": 84, "id": "bird_f10ddd74-9963-433b-972b-3861e463c3d7", "provider": "bird", "timeStamp": "02/26/2020, 19:09:14"}, "type": "Feature"}, {"geometry": {"coordinates": [8.52353333333333, 47.37091], "type": "Point"}, "properties": {"charge": 91, "id": "bird_02004bda-a455-4dea-bbed-b4185a5d758a", "provider": "bird", "timeStamp": "02/26/2020, 19:09:14"}, "type": "Feature"}, {"geometry": {"coordinates": [8.51689833333333, 47.384765], "type": "Point"}, "properties": {"charge": 34, "id": "bird_bb087f5f-c58f-43b6-9e4a-1f7de4c496aa", "provider": "bird", "timeStamp": "02/26/2020, 19:09:14"}, "type": "Feature"}, {"geometry": {"coordinates": [8.51718, 47.3850933333333], "type": "Point"}, "properties": {"charge": 96, "id": "bird_fe8e0512-1b81-4008-a323-a5ac0b49c5b1", "provider": "bird", "timeStamp": "02/26/2020, 19:09:14"}, "type": "Feature"}, {"geometry": {"coordinates": [8.51850166666667, 47.3863716666667], "type": "Point"}, "properties": {"charge": 29, "id": "bird_ff1ebfa2-87b8-4d02-9ba7-9f58a682c42c", "provider": "bird", "timeStamp": "02/26/2020, 19:09:14"}, "type": "Feature"}, {"geometry": {"coordinates": [8.54472166666667, 47.38134], "type": "Point"}, "properties": {"charge": 51, "id": "bird_b331d860-a42e-43e3-942b-0c106f9a7938", "provider": "bird", "timeStamp": "02/26/2020, 19:09:14"}, "type": "Feature"}, {"geometry": {"coordinates": [8.523565, 47.3709566666667], "type": "Point"}, "properties": {"charge": 89, "id": "bird_74dcc56c-74bb-4574-804d-7ce4f2fed8ee", "provider": "bird", "timeStamp": "02/26/2020, 19:09:14"}, "type": "Feature"}, {"geometry": {"coordinates": [8.516855, 47.3754266666667], "type": "Point"}, "properties": {"charge": 91, "id": "bird_143ebab6-74c6-4eb0-98de-dd33eac13743", "provider": "bird", "timeStamp": "02/26/2020, 19:09:14"}, "type": "Feature"}, {"geometry": {"coordinates": [8.51746333333333, 47.3852616666667], "type": "Point"}, "properties": {"charge": 62, "id": "bird_44e08f0d-3274-4741-883e-2d94a9f7d378", "provider": "bird", "timeStamp": "02/26/2020, 19:09:14"}, "type": "Feature"}, {"geometry": {"coordinates": [8.51830666666667, 47.3860666666667], "type": "Point"}, "properties": {"charge": 37, "id": "bird_9c54c47c-f66f-4f7f-9068-1e6d41434cce", "provider": "bird", "timeStamp": "02/26/2020, 19:09:14"}, "type": "Feature"}, {"geometry": {"coordinates": [8.52319666666667, 47.3711583333333], "type": "Point"}, "properties": {"charge": 91, "id": "bird_3c7bb263-aefb-430e-8e1a-c07e2d2afc0b", "provider": "bird", "timeStamp": "02/26/2020, 19:09:14"}, "type": "Feature"}, {"geometry": {"coordinates": [8.53512666666667, 47.370655], "type": "Point"}, "properties": {"charge": 46, "id": "bird_59a44a17-2636-41ea-8420-57a852688c77", "provider": "bird", "timeStamp": "02/26/2020, 19:09:14"}, "type": "Feature"}, {"geometry": {"coordinates": [8.51564, 47.38219], "type": "Point"}, "properties": {"charge": 100, "id": "bird_3b0cda1b-a3e6-4978-8a35-17e9c59c390b", "provider": "bird", "timeStamp": "02/26/2020, 19:09:14"}, "type": "Feature"}, {"geometry": {"coordinates": [8.51569, 47.3822216666667], "type": "Point"}, "properties": {"charge": 79, "id": "bird_77f4e570-0924-454e-a36c-df6fe6f3cb11", "provider": "bird", "timeStamp": "02/26/2020, 19:09:14"}, "type": "Feature"}, {"geometry": {"coordinates": [8.54344166666667, 47.3760033333333], "type": "Point"}, "properties": {"charge": 36, "id": "bird_686b8c76-89c1-483f-9079-e3c6dad92547", "provider": "bird", "timeStamp": "02/26/2020, 19:09:14"}, "type": "Feature"}, {"geometry": {"coordinates": [8.51862666666667, 47.38625], "type": "Point"}, "properties": {"charge": 26, "id": "bird_f97cc5aa-13c4-40b6-a57a-6f15980c3938", "provider": "bird", "timeStamp": "02/26/2020, 19:09:14"}, "type": "Feature"}, {"geometry": {"coordinates": [8.53977833333333, 47.372635], "type": "Point"}, "properties": {"charge": 42, "id": "bird_de93eb56-b058-4ee0-b565-e48a666a3f0a", "provider": "bird", "timeStamp": "02/26/2020, 19:09:14"}, "type": "Feature"}, {"geometry": {"coordinates": [8.54274833333333, 47.3848533333333], "type": "Point"}, "properties": {"charge": 73, "id": "bird_afb4101a-3fe3-44c9-bdb4-f3405d9e70f0", "provider": "bird", "timeStamp": "02/26/2020, 19:09:14"}, "type": "Feature"}, {"geometry": {"coordinates": [8.51679833333333, 47.3757516666667], "type": "Point"}, "properties": {"charge": 64, "id": "bird_b7f0c9e2-e4ee-49fb-9ef4-7bf5828eb815", "provider": "bird", "timeStamp": "02/26/2020, 19:09:14"}, "type": "Feature"}, {"geometry": {"coordinates": [8.51676833333333, 47.3758283333333], "type": "Point"}, "properties": {"charge": 85, "id": "bird_86b10a8f-3377-4a40-b788-bae403741694", "provider": "bird", "timeStamp": "02/26/2020, 19:09:14"}, "type": "Feature"}, {"geometry": {"coordinates": [8.54210333333333, 47.3855166666667], "type": "Point"}, "properties": {"charge": 24, "id": "bird_13a8a24a-77e2-4725-a808-dcdffa0543f1", "provider": "bird", "timeStamp": "02/26/2020, 19:09:14"}, "type": "Feature"}, {"geometry": {"coordinates": [8.51782, 47.38543], "type": "Point"}, "properties": {"charge": 67, "id": "bird_d62ec47a-afed-4fa0-b9b8-40319f495e76", "provider": "bird", "timeStamp": "02/26/2020, 19:09:14"}, "type": "Feature"}, {"geometry": {"coordinates": [8.52346666666667, 47.3712233333333], "type": "Point"}, "properties": {"charge": 92, "id": "bird_1dd9955b-3a04-4e65-9547-bdf0339928f9", "provider": "bird", "timeStamp": "02/26/2020, 19:09:14"},