{"features": [{"geometry": {"coordinates": [8.540062, 47.374392], "type": "Point"}, "properties": {"address": "Uraniastrasse 7", "electric": 5, "id": "pb_60", "manual": 9, "name": "Demo Station Werdm\u00fchleplatz", "provider": "publibike", "timeStamp": "02/09/2020, 23:28:19", "zip": 8001}, "type": "Feature"}, {"geometry": {"coordinates": [8.5452956, 47.4099615], "type": "Point"}, "properties": {"address": "Querstrasse 8", "electric": 3, "id": "pb_61", "manual": 1, "name": "Marktplatz", "provider": "publibike", "timeStamp": "02/09/2020, 23:28:19", "zip": 8050}, "type": "Feature"}, {"geometry": {"coordinates": [8.5156327, 47.3795837], "type": "Point"}, "properties": {"address": "Bullingerstrasse 5", "electric": 0, "id": "pb_80", "manual": 4, "name": "Bullingerplatz", "provider": "publibike", "timeStamp": "02/09/2020, 23:28:19", "zip": 8004}, "type": "Feature"}, {"geometry": {"coordinates": [8.5104051, 47.3899342], "type": "Point"}, "properties": {"address": "Pfingstweidstrasse 96e", "electric": 1, "id": "pb_81", "manual": 1, "name": "Herdern", "provider": "publibike", "timeStamp": "02/09/2020, 23:28:19", "zip": 8001}, "type": "Feature"}, {"geometry": {"coordinates": [8.535718, 47.359675], "type": "Point"}, "properties": {"address": "Mythenquai 50", "electric": 10, "id": "pb_82", "manual": 5, "name": "Hafen Enge", "provider": "publibike", "timeStamp": "02/09/2020, 23:28:19", "zip": 8002}, "type": "Feature"}, {"geometry": {"coordinates": [8.520370505, 47.358663827], "type": "Point"}, "properties": {"address": "Bubenbergstrasse 1", "electric": 0, "id": "pb_83", "manual": 0, "name": "Comerge", "provider": "publibike", "timeStamp": "02/09/2020, 23:28:19", "zip": 8045}, "type": "Feature"}, {"geometry": {"coordinates": [8.5412505, 47.3789825], "type": "Point"}, "properties": {"address": "Museumstrasse 2", "electric": 3, "id": "pb_84", "manual": 22, "name": "Landesmuseum", "provider": "publibike", "timeStamp": "02/09/2020, 23:28:19", "zip": 8001}, "type": "Feature"}, {"geometry": {"coordinates": [8.5235479, 47.3716661], "type": "Point"}, "properties": {"address": "Birmensdorferstrasse 80", "electric": 2, "id": "pb_85", "manual": 0, "name": "Bahnhof Wiedikon", "provider": "publibike", "timeStamp": "02/09/2020, 23:28:19", "zip": 8003}, "type": "Feature"}, {"geometry": {"coordinates": [8.506822854, 47.40781197], "type": "Point"}, "properties": {"address": "Stefano-Franscini-Platz 5", "electric": 1, "id": "pb_86", "manual": 0, "name": "ETH H\u00f6nggerberg", "provider": "publibike", "timeStamp": "02/09/2020, 23:28:19", "zip": 8093}, "type": "Feature"}, {"geometry": {"coordinates": [8.536101, 47.371083], "type": "Point"}, "properties": {"address": "Pelikanplatz 5", "electric": 3, "id": "pb_87", "manual": 13, "name": "Pelikanplatz", "provider": "publibike", "timeStamp": "02/09/2020, 23:28:19", "zip": 8001}, "type": "Feature"}, {"geometry": {"coordinates": [8.5257822, 47.3651936], "type": "Point"}, "properties": {"address": "H\u00fcrlimannplatz 90", "electric": 6, "id": "pb_88", "manual": 5, "name": "H\u00fcrlimannplatz", "provider": "publibike", "timeStamp": "02/09/2020, 23:28:19", "zip": 8002}, "type": "Feature"}, {"geometry": {"coordinates": [8.5313344, 47.3713591], "type": "Point"}, "properties": {"address": "Selnaustrasse 32", "electric": 5, "id": "pb_89", "manual": 3, "name": "Stauffacherbr\u00fccke", "provider": "publibike", "timeStamp": "02/09/2020, 23:28:19", "zip": 8001}, "type": "Feature"}, {"geometry": {"coordinates": [8.5056978, 47.3917964], "type": "Point"}, "properties": {"address": "Sportweg 25", "electric": 2, "id": "pb_90", "manual": 5, "name": "Sportweg", "provider": "publibike", "timeStamp": "02/09/2020, 23:28:19", "zip": 8005}, "type": "Feature"}, {"geometry": {"coordinates": [8.5181701, 47.3917837], "type": "Point"}, "properties": {"address": "Hardturmstrasse 11", "electric": 1, "id": "pb_91", "manual": 5, "name": "Puls 5", "provider": "publibike", "timeStamp": "02/09/2020, 23:28:19", "zip": 8005}, "type": "Feature"}, {"geometry": {"coordinates": [8.5286468, 47.3820827], "type": "Point"}, "properties": {"address": "R\u00f6ntgenstrasse 6", "electric": 1, "id": "pb_92", "manual": 3, "name": "R\u00f6ntgenstrasse", "provider": "publibike", "timeStamp": "02/09/2020, 23:28:19", "zip": 8005}, "type": "Feature"}, {"geometry": {"coordinates": [8.531935, 47.384918], "type": "Point"}, "properties": {"address": "Kornhausbr\u00fccke 1", "electric": 1, "id": "pb_93", "manual": 2, "name": "Limmatplatz", "provider": "publibike", "timeStamp": "02/09/2020, 23:28:19", "zip": 8005}, "type": "Feature"}, {"geometry": {"coordinates": [8.5354006, 47.3758639], "type": "Point"}, "properties": {"address": "Gessnerallee 15", "electric": 3, "id": "pb_94", "manual": 2, "name": "Gessnerallee", "provider": "publibike", "timeStamp": "02/09/2020, 23:28:19", "zip": 8001}, "type": "Feature"}, {"geometry": {"coordinates": [8.523818, 47.377148], "type": "Point"}, "properties": {"address": "Stauffacherstrasse 127", "electric": 3, "id": "pb_95", "manual": 9, "name": "B\u00e4ckeranlage", "provider": "publibike", "timeStamp": "02/09/2020, 23:28:19", "zip": 8004}, "type": "Feature"}, {"geometry": {"coordinates": [8.531836, 47.378548], "type": "Point"}, "properties": {"address": "Lagerstrasse 44", "electric": 7, "id": "pb_96", "manual": 4, "name": "Gustav-Gull-Platz", "provider": "publibike", "timeStamp": "02/09/2020, 23:28:19", "zip": 8004}, "type": "Feature"}, {"geometry": {"coordinates": [8.5104883, 47.3771535], "type": "Point"}, "properties": {"address": "Zurlindenstrasse 291", "electric": 2, "id": "pb_97", "manual": 7, "name": "Zurlindenstrasse", "provider": "publibike", "timeStamp": "02/09/2020, 23:28:19", "zip": 8003}, "type": "Feature"}, {"geometry": {"coordinates": [8.5333139, 47.3731102], "type": "Point"}, "properties": {"address": "Sihlstrasse 81", "electric": 2, "id": "pb_98", "manual": 7, "name": "Sihlstrasse", "provider": "publibike", "timeStamp": "02/09/2020, 23:28:19", "zip": 8001}, "type": "Feature"}, {"geometry": {"coordinates": [8.520532, 47.374951], "type": "Point"}, "properties": {"address": "Feldstrasse 24", "electric": 1, "id": "pb_99", "manual": 4, "name": "Kalkbreite", "provider": "publibike", "timeStamp": "02/09/2020, 23:28:19", "zip": 8004}, "type": "Feature"}, {"geometry": {"coordinates": [8.539046, 47.368064], "type": "Point"}, "properties": {"address": "Talstrasse 12", "electric": 2, "id": "pb_100", "manual": 7, "name": "Z\u00fcrcher Kantonalbank", "provider": "publibike", "timeStamp": "02/09/2020, 23:28:19", "zip": 8001}, "type": "Feature"}, {"geometry": {"coordinates": [8.5348427, 47.3625938], "type": "Point"}, "properties": {"address": "Breitingerstrasse 5", "electric": 0, "id": "pb_101", "manual": 2, "name": "Rentenanstalt", "provider": "publibike", "timeStamp": "02/09/2020, 23:28:19", "zip": 8002}, "type": "Feature"}, {"geometry": {"coordinates": [8.5166922, 47.3897772], "type": "Point"}, "properties": {"address": "Technoparkstrasse 4", "electric": 0, "id": "pb_102", "manual": 7, "name": "Turbinenplatz", "provider": "publibike", "timeStamp": "02/09/2020, 23:28:19", "zip": 8005}, "type": "Feature"}, {"geometry": {"coordinates": [8.539312, 47.3739964], "type": "Point"}, "properties": {"address": "Oetenbachgasse 14", "electric": 0, "id": "pb_104", "manual": 1, "name": "Rennweg", "provider": "publibike", "timeStamp": "02/09/2020, 23:28:19", "zip": 8001}, "type": "Feature"}, {"geometry": {"coordinates": [8.5360685, 47.3775022], "type": "Point"}, "properties": {"address": "Kasernenstrasse 101", "electric": 3, "id": "pb_105", "manual": 26, "name": "Sihlpost", "provider": "publibike", "timeStamp": "02/09/2020, 23:28:19", "zip": 8004}, "type": "Feature"}, {"geometry": {"coordinates": [8.53545, 47.382798], "type": "Point"}, "properties": {"address": "Ausstellungsstrasse 44", "electric": 4, "id": "pb_106", "manual": 11, "name": "Museum f\u00fcr Gestaltung", "provider": "publibike", "timeStamp": "02/09/2020, 23:28:19", "zip": 8005}, "type": "Feature"}, {"geometry": {"coordinates": [8.5306155, 47.3647902], "type": "Point"}, "properties": {"address": "Gutenbergstrasse 1", "electric": 4, "id": "pb_107", "manual": 0, "name": "Bederbr\u00fccke", "provider": "publibike", "timeStamp": "02/09/2020, 23:28:19", "zip": 8002}, "type": "Feature"}, {"geometry": {"coordinates": [8.518982, 47.386741], "type": "Point"}, "properties": {"address": "Geroldstrasse 4", "electric": 2, "id": "pb_108", "manual": 4, "name": "Bahnhof Hardbr\u00fccke", "provider": "publibike", "timeStamp": "02/09/2020, 23:28:19", "zip": 8005}, "type": "Feature"}, {"geometry": {"coordinates": [8.53001018, 47.37247535], "type": "Point"}, "properties": {"address": "Werdstrasse 21", "electric": 1, "id": "pb_109", "manual": 2, "name": "Tamedia", "provider": "publibike", "timeStamp": "02/09/2020, 23:28:19", "zip": 8004}, "type": "Feature"}, {"geometry": {"coordinates": [8.4860017, 47.396401], "type": "Point"}, "properties": {"address": "Gr\u00fcnauring 37", "electric": 9, "id": "pb_110", "manual": 7, "name": "Gr\u00fcnau", "provider": "publibike", "timeStamp": "02/09/2020, 23:28:19", "zip": 8064}, "type": "Feature"}, {"geometry": {"coordinates": [8.548519, 47.376756], "type": "Point"}, "properties": {"address": "R\u00e4mistrasse 101", "electric": 0, "id": "pb_111", "manual": 0, "name": "ETH Zentrum", "provider": "publibike", "timeStamp": "02/09/2020, 23:28:19", "zip": 8006}, "type": "Feature"}, {"geometry": {"coordinates": [8.520449, 47.388151], "type": "Point"}, "properties": {"address": "Josefstrasse 224", "electric": 1, "id": "pb_112", "manual": 1, "name": "Steinfelsareal", "provider": "publibike", "timeStamp": "02/09/2020, 23:28:19", "zip": 8005}, "type": "Feature"}, {"geometry": {"coordinates": [8.520482, 47.37209], "type": "Point"}, "properties": {"address": "Weststrasse 115", "electric": 3, "id": "pb_124", "manual": 6, "name": "Weststrasse", "provider": "publibike", "timeStamp": "02/09/2020, 23:28:19", "zip": 8003}, "type": "Feature"}, {"geometry": {"coordinates": [8.496727, 47.378521], "type": "Point"}, "properties": {"address": "Albisriederstrasse 200", "electric": 4, "id": "pb_125", "manual": 1, "name": "Utogrund", "provider": "publibike", "timeStamp": "02/09/2020, 23:28:19", "zip": 8047}, "type": "Feature"}, {"geometry": {"coordinates": [8.510418, 47.381356], "type": "Point"}, "properties": {"address": "Bullingerstrasse 73", "electric": 2, "id": "pb_126", "manual": 7, "name": "Hardau", "provider": "publibike", "timeStamp": "02/09/2020, 23:28:19", "zip": 8004}, "type": "Feature"}, {"geometry": {"coordinates": [8.525525, 47.361567], "type": "Point"}, "properties": {"address": "Klopstockstrasse 23", "electric": 7, "id": "pb_127", "manual": 2, "name": "Klopstockwiese", "provider": "publibike", "timeStamp": "02/09/2020, 23:28:19", "zip": 8002}, "type": "Feature"}, {"geometry": {"coordinates": [8.518143, 47.363148], "type": "Point"}, "properties": {"address": "Haldenstrasse 8", "electric": 4, "id": "pb_128", "manual": 3, "name": "Binz", "provider": "publibike", "timeStamp": "02/09/2020, 23:28:19", "zip": 8045}, "type": "Feature"}, {"geometry": {"coordinates": [8.542726, 47.379952], "type": "Point"}, "properties": {"address": "Walchestrasse 11", "electric": 2, "id": "pb_129", "manual": 1, "name": "Stampfenbachplatz", "provider": "publibike", "timeStamp": "02/09/2020, 23:28:19", "zip": 8006}, "type": "Feature"}, {"geometry": {"coordinates": [8.488108, 47.391366], "type": "Point"}, "properties": {"address": "Altstetterplatz 1", "electric": 3, "id": "pb_130", "manual": 5, "name": "Bahnhof Altstetten", "provider": "publibike", "timeStamp": "02/09/2020, 23:28:19", "zip": 8048}, "type": "Feature"}, {"geometry": {"coordinates": [8.554114, 47.365119], "type": "Point"}, "properties": {"address": "Kreuzplatz 2", "electric": 7, "id": "pb_131", "manual": 1, "name": "Kreuzplatz", "provider": "publibike", "timeStamp": "02/09/2020, 23:28:19", "zip": 8032}, "type": "Feature"}, {"geometry": {"coordinates": [8.549852, 47.35594], "type": "Point"}, "properties": {"address": "H\u00f6schgasse 3", "electric": 5, "id": "pb_132", "manual": 9, "name": "Blatterwiese", "provider": "publibike", "timeStamp": "02/09/2020, 23:28:19", "zip": 8008}, "type": "Feature"}, {"geometry": {"coordinates": [8.554501, 47.36162], "type": "Point"}, "properties": {"address": "Feldeggstrasse 80", "electric": 7, "id": "pb_133", "manual": 2, "name": "Villa Bleuler", "provider": "publibike", "timeStamp": "02/09/2020, 23:28:19", "zip": 8008}, "type": "Feature"}, {"geometry": {"coordinates": [8.557088, 47.358557], "type": "Point"}, "properties": {"address": "M\u00fchlebachstrasse 131", "electric": 4, "id": "pb_134", "manual": 1, "name": "M\u00fchlebachstrasse", "provider": "publibike", "timeStamp": "02/09/2020, 23:28:19", "zip": 8008}, "type": "Feature"}, {"geometry": {"coordinates": [8.547639, 47.361266], "type": "Point"}, "properties": {"address": "Utoquai 50", "electric": 10, "id": "pb_135", "manual": 16, "name": "Seebad Utoquai", "provider": "publibike", "timeStamp": "02/09/2020, 23:28:19", "zip": 8008}, "type": "Feature"}, {"geometry": {"coordinates": [8.548045, 47.370869], "type": "Point"}, "properties": {"address": "Heimplatz 1", "electric": 1, "id": "pb_137", "manual": 2, "name": "Kunsthaus", "provider": "publibike", "timeStamp": "02/09/2020, 23:28:19", "zip": 8001}, "type": "Feature"}, {"geometry": {"coordinates": [8.543447, 47.375933], "type": "Point"}, "properties": {"address": "Limmatquai 138", "electric": 8, "id": "pb_138", "manual": 8, "name": "Central", "provider": "publibike", "timeStamp": "02/09/2020, 23:28:19", "zip": 8001}, "type": "Feature"}, {"geometry": {"coordinates": [8.549356, 47.408827], "type": "Point"}, "properties": {"address": "Tramstrasse 35", "electric": 2, "id": "pb_139", "manual": 3, "name": "ewz Tramstrasse", "provider": "publibike", "timeStamp": "02/09/2020, 23:28:19", "zip": 8050}, "type": "Feature"}, {"geometry": {"coordinates": [8.533736, 47.366904], "type": "Point"}, "properties": {"address": "Bleicherweg 33", "electric": 0, "id": "pb_140", "manual": 1, "name": "Bleicherweg", "provider": "publibike", "timeStamp": "02/09/2020, 23:28:19", "zip": 8002}, "type": "Feature"}, {"geometry": {"coordinates": [8.544935, 47.366752], "type": "Point"}, "properties": {"address": "Bellevueplatz 2", "electric": 15, "id": "pb_141", "manual": 33, "name": "Bellevue", "provider": "publibike", "timeStamp": "02/09/2020, 23:28:19", "zip": 8001}, "type": "Feature"}, {"geometry": {"coordinates": [8.5285533, 47.3742296], "type": "Point"}, "properties": {"address": "Stauffacherstrasse 41", "electric": 5, "id": "pb_142", "manual": 4, "name": "Stauffacher", "provider": "publibike", "timeStamp": "02/09/2020, 23:28:19", "zip": 8004}, "type": "Feature"}, {"geometry": {"coordinates": [8.523722, 47.3899], "type": "Point"}, "properties": {"address": "Limmatstrasse 310", "electric": 2, "id": "pb_143", "manual": 4, "name": "Escher-Wyss-Platz", "provider": "publibike", "timeStamp": "02/09/2020, 23:28:19", "zip": 8005}, "type": "Feature"}, {"geometry": {"coordinates": [8.491061, 47.392336], "type": "Point"}, "properties": {"address": "Vulkanplatz 1", "electric": 12, "id": "pb_149", "manual": 6, "name": "Vulkanplatz", "provider": "publibike", "timeStamp": "02/09/2020, 23:28:19", "zip": 8048}, "type": "Feature"}, {"geometry": {"coordinates": [8.52306, 47.359872], "type": "Point"}, "properties": {"address": "Giessh\u00fcbelstrasse 15", "electric": 10, "id": "pb_150", "manual": 2, "name": "Utoplatz", "provider": "publibike", "timeStamp": "02/09/2020, 23:28:19", "zip": 8045}, "type": "Feature"}, {"geometry": {"coordinates": [8.486284, 47.387685], "type": "Point"}, "properties": {"address": "Lindenplatz 1", "electric": 4, "id": "pb_151", "manual": 6, "name": "Lindenplatz", "provider": "publibike", "timeStamp": "02/09/2020, 23:28:19", "zip": 8048}, "type": "Feature"}, {"geometry": {"coordinates": [8.49163, 47.389823], "type": "Point"}, "properties": {"address": "Hohlstrasse 563", "electric": 1, "id": "pb_152", "manual": 0, "name": "Luggweg", "provider": "publibike", "timeStamp": "02/09/2020, 23:28:19", "zip": 8048}, "type": "Feature"}, {"geometry": {"coordinates": [8.52174, 47.365272], "type": "Point"}, "properties": {"address": "Manessestrasse 87", "electric": 1, "id": "pb_153", "manual": 5, "name": "Manesseplatz", "provider": "publibike", "timeStamp": "02/09/2020, 23:28:19", "zip": 8045}, "type": "Feature"}, {"geometry": {"coordinates": [8.52714, 47.372329], "type": "Point"}, "properties": {"address": "Werdstrasse 75", "electric": 0, "id": "pb_154", "manual": 4, "name": "Werd", "provider": "publibike", "timeStamp": "02/09/2020, 23:28:19", "zip": 8004}, "type": "Feature"}, {"geometry": {"coordinates": [8.543042, 47.374711], "type": "Point"}, "properties": {"address": "Limmatquai 100", "electric": 0, "id": "pb_155", "manual": 0, "name": "Rudolf-Brun-Br\u00fccke", "provider": "publibike", "timeStamp": "02/09/2020, 23:28:19", "zip": 8001}, "type": "Feature"}, {"geometry": {"coordinates": [8.490837, 47.386596], "type": "Point"}, "properties": {"address": "Badenerstrasse 627", "electric": 12, "id": "pb_156", "manual": 1, "name": "Luggwegstrasse VBZ", "provider": "publibike", "timeStamp": "02/09/2020, 23:28:19", "zip": 8048}, "type": "Feature"}, {"geometry": {"coordinates": [8.535119, 47.355189], "type": "Point"}, "properties": {"address": "Mythenquai 95", "electric": 2, "id": "pb_157", "manual": 5, "name": "Strandbad Mythenquai", "provider": "publibike", "timeStamp": "02/09/2020, 23:28:19", "zip": 8002}, "type": "Feature"}, {"geometry": {"coordinates": [8.545505, 47.373675], "type": "Point"}, "properties": {"address": "Predigerpatz 21", "electric": 5, "id": "pb_158", "manual": 7, "name": "Predigerplatz", "provider": "publibike", "timeStamp": "02/09/2020, 23:28:19", "zip": 8001}, "type": "Feature"}, {"geometry": {"coordinates": [8.515558, 47.371868], "type": "Point"}, "properties": {"address": "Aemtlerstrasse 23", "electric": 3, "id": "pb_159", "manual": 5, "name": "Zwinglihaus", "provider": "publibike", "timeStamp": "02/09/2020, 23:28:19", "zip": 8003}, "type": "Feature"}, {"geometry": {"coordinates": [8.524629, 47.386072], "type": "Point"}, "properties": {"address": "Josefstrasse 188", "electric": 4, "id": "pb_160", "manual": 1, "name": "Josefwiese", "provider": "publibike", "timeStamp": "02/09/2020, 23:28:19", "zip": 8005}, "type": "Feature"}, {"geometry": {"coordinates": [8.527138, 47.387531], "type": "Point"}, "properties": {"address": "R\u00f6ntgenstrasse 87", "electric": 2, "id": "pb_164", "manual": 3, "name": "Markthalle", "provider": "publibike", "timeStamp": "02/09/2020, 23:28:19", "zip": 8005}, "type": "Feature"}, {"geometry": {"coordinates": [8.552717, 47.359978], "type": "Point"}, "properties": {"address": "Seefeldstrasse 96", "electric": 6, "id": "pb_263", "manual": 8, "name": "Feldeggstrasse", "provider": "publibike", "timeStamp": "02/09/2020, 23:28:19", "zip": 8008}, "type": "Feature"}, {"geometry": {"coordinates": [8.553189, 47.353198], "type": "Point"}, "properties": {"address": "Bellerivestrasse 170", "electric": 5, "id": "pb_264", "manual": 0, "name": "Lake Side", "provider": "publibike", "timeStamp": "02/09/2020, 23:28:19", "zip": 8008}, "type": "Feature"}, {"geometry": {"coordinates": [8.543437, 47.369256], "type": "Point"}, "properties": {"address": "Limmatquai 18", "electric": 0, "id": "pb_265", "manual": 0, "name": "Helmhaus", "provider": "publibike", "timeStamp": "02/09/2020, 23:28:19", "zip": 8032}, "type": "Feature"}, {"geometry": {"coordinates": [8.516676, 47.375819], "type": "Point"}, "properties": {"address": "Badenerstrasse 246", "electric": 6, "id": "pb_266", "manual": 2, "name": "Lochergut", "provider": "publibike", "timeStamp": "02/09/2020, 23:28:19", "zip": 8004}, "type": "Feature"}, {"geometry": {"coordinates": [8.514605, 47.389862], "type": "Point"}, "properties": {"address": "Pfingstweidstrasse 60", "electric": 1, "id": "pb_273", "manual": 0, "name": "Westpark", "provider": "publibike", "timeStamp": "02/09/2020, 23:28:19", "zip": 8005}, "type": "Feature"}, {"geometry": {"coordinates": [8.541239126, 47.375991201], "type": "Point"}, "properties": {"address": "Beatenplatz 1", "electric": 5, "id": "pb_274", "manual": 3, "name": "Beatenplatz", "provider": "publibike", "timeStamp": "02/09/2020, 23:28:19", "zip": 8001}, "type": "Feature"}, {"geometry": {"coordinates": [8.5417135, 47.3942197], "type": "Point"}, "properties": {"address": "Scheuchzerstrasse 181", "electric": 4, "id": "pb_275", "manual": 0, "name": "Pauluskirche", "provider": "publibike", "timeStamp": "02/09/2020, 23:28:19", "zip": 8057}, "type": "Feature"}, {"geometry": {"coordinates": [8.5528182, 47.414558], "type": "Point"}, "properties": {"address": "Hagenholzstrasse 51", "electric": 1, "id": "pb_276", "manual": 4, "name": "Airgate", "provider": "publibike", "timeStamp": "02/09/2020, 23:28:19", "zip": 8050}, "type": "Feature"}, {"geometry": {"coordinates": [8.537816, 47.413514], "type": "Point"}, "properties": {"address": "Birchstrasse 183", "electric": 8, "id": "pb_277", "manual": 1, "name": "Lamprechtweg", "provider": "publibike", "timeStamp": "02/09/2020, 23:28:19", "zip": 8050}, "type": "Feature"}, {"geometry": {"coordinates": [8.545602, 47.417701], "type": "Point"}, "properties": {"address": "Felsenrainstrasse 2", "electric": 8, "id": "pb_278", "manual": 4, "name": "Emil-Oberh\u00e4nsli", "provider": "publibike", "timeStamp": "02/09/2020, 23:28:19", "zip": 8050}, "type": "Feature"}, {"geometry": {"coordinates": [8.533647, 47.39808], "type": "Point"}, "properties": {"address": "Bucheggplatz 2", "electric": 4, "id": "pb_279", "manual": 3, "name": "Bucheggplatz", "provider": "publibike", "timeStamp": "02/09/2020, 23:28:19", "zip": 8057}, "type": "Feature"}, {"geometry": {"coordinates": [8.523549, 47.392347], "type": "Point"}, "properties": {"address": "Wipkingerplatz 4", "electric": 3, "id": "pb_280", "manual": 6, "name": "Wipkingerplatz", "provider": "publibike", "timeStamp": "02/09/2020, 23:28:19", "zip": 8037}, "type": "Feature"}, {"geometry": {"coordinates": [8.548562, 47.36691], "type": "Point"}, "properties": {"address": "Galerie \u00fcber Gleis 2/3", "electric": 6, "id": "pb_285", "manual": 6, "name": "Bahnhof Stadelhofen", "provider": "publibike", "timeStamp": "02/09/2020, 23:28:19", "zip": 8001}, "type": "Feature"}, {"geometry": {"coordinates": [8.493822, 47.3985553], "type": "Point"}, "properties": {"address": "Meierwiesenstrasse 12-4", "electric": 2, "id": "pb_286", "manual": 3, "name": "T\u00fcffenwies", "provider": "publibike", "timeStamp": "02/09/2020, 23:28:19", "zip": 8064}, "type": "Feature"}, {"geometry": {"coordinates": [8.552432, 47.3801757], "type": "Point"}, "properties": {"address": "Hochstrasse 34", "electric": 4, "id": "pb_356", "manual": 0, "name": "Siriuswiese", "provider": "publibike", "timeStamp": "02/09/2020, 23:28:19", "zip": 8044}, "type": "Feature"}, {"geometry": {"coordinates": [8.527298, 47.370141], "type": "Point"}, "properties": {"address": "Hallwylstrasse 71", "electric": 3, "id": "pb_357", "manual": 10, "name": "Hallwylstrasse", "provider": "publibike", "timeStamp": "02/09/2020, 23:28:19", "zip": 8004}, "type": "Feature"}, {"geometry": {"coordinates": [8.5414185, 47.3972455], "type": "Point"}, "properties": {"address": "Schaffhauserstrasse 137", "electric": 6, "id": "pb_358", "manual": 1, "name": "Milchbuck", "provider": "publibike", "timeStamp": "02/09/2020, 23:28:19", "zip": 8057}, "type": "Feature"}, {"geometry": {"coordinates": [8.512381, 47.393409], "type": "Point"}, "properties": {"address": "Hardturmstrasse 161", "electric": 1, "id": "pb_359", "manual": 4, "name": "Fischerweg", "provider": "publibike", "timeStamp": "02/09/2020, 23:28:19", "zip": 8005}, "type": "Feature"}, {"geometry": {"coordinates": [8.5421457, 47.3876979], "type": "Point"}, "properties": {"address": "Turnerstrasse 47", "electric": 3, "id": "pb_360", "manual": 0, "name": "Kirche Unterstrass", "provider": "publibike", "timeStamp": "02/09/2020, 23:28:19", "zip": 8006}, "type": "Feature"}, {"geometry": {"coordinates": [8.522117, 47.394554], "type": "Point"}, "properties": {"address": "Dorfstrasse 40", "electric": 5, "id": "pb_361", "manual": 2, "name": "Dorfstrasse", "provider": "publibike", "timeStamp": "02/09/2020, 23:28:19", "zip": 8037}, "type": "Feature"}, {"geometry": {"coordinates": [8.530437, 47.37271], "type": "Point"}, "properties": {"address": "Werdstrasse 25", "electric": 0, "id": "pb_362", "manual": 3, "name": "Stauffachertor", "provider": "publibike", "timeStamp": "02/09/2020, 23:28:19", "zip": 8004}, "type": "Feature"}, {"geometry": {"coordinates": [8.541712, 47.416155], "type": "Point"}, "properties": {"address": "Eggb\u00fchlstrasse 21", "electric": 13, "id": "pb_363", "manual": 1, "name": "Wahlenpark", "provider": "publibike", "timeStamp": "02/09/2020, 23:28:19", "zip": 8050}, "type": "Feature"}, {"geometry": {"coordinates": [8.5595335, 47.3708387], "type": "Point"}, "properties": {"address": "Dolderstrasse 32", "electric": 4, "id": "pb_364", "manual": 1, "name": "Kinderspital", "provider": "publibike", "timeStamp": "02/09/2020, 23:28:19", "zip": 8032}, "type": "Feature"}, {"geometry": {"coordinates": [8.536433, 47.388689], "type": "Point"}, "properties": {"address": "Kornhausstrasse 30", "electric": 7, "id": "pb_365", "manual": 1, "name": "Kornhausstrasse", "provider": "publibike", "timeStamp": "02/09/2020, 23:28:19", "zip": 8006}, "type": "Feature"}, {"geometry": {"coordinates": [8.55033, 47.407098], "type": "Point"}, "properties": {"address": "Schwamendingenstrasse 41", "electric": 7, "id": "pb_366", "manual": 8, "name": "Dorflinde", "provider": "publibike", "timeStamp": "02/09/2020, 23:28:19", "zip": 8050}, "type": "Feature"}, {"geometry": {"coordinates": [8.560476, 47.368199], "type": "Point"}, "properties": {"address": "R\u00f6merhofplatz 5", "electric": 7, "id": "pb_367", "manual": 0, "name": "R\u00f6merhof", "provider": "publibike", "timeStamp": "02/09/2020, 23:28:19", "zip": 8032}, "type": "Feature"}, {"geometry": {"coordinates": [8.5609218, 47.3619068], "type": "Point"}, "properties": {"address": "Forchstrasse 99", "electric": 6, "id": "pb_368", "manual": 0, "name": "Hegibachplatz", "provider": "publibike", "timeStamp": "02/09/2020, 23:28:19", "zip": 8032}, "type": "Feature"}, {"geometry": {"coordinates": [8.5721264, 47.4039985], "type": "Point"}, "properties": {"address": "Winterthurerstrasse 519", "electric": 10, "id": "pb_370", "manual": 6, "name": "Schwamendingerplatz", "provider": "publibike", "timeStamp": "02/09/2020, 23:28:19", "zip": 8051}, "type": "Feature"}, {"geometry": {"coordinates": [8.520168, 47.378556], "type": "Point"}, "properties": {"address": "Herman-Greulich-Strasse 56", "electric": 1, "id": "pb_384", "manual": 4, "name": "Hermann-Greulich-Weg", "provider": "publibike", "timeStamp": "02/09/2020, 23:28:19", "zip": 8004}, "type": "Feature"}, {"geometry": {"coordinates": [8.547912, 47.384923], "type": "Point"}, "properties": {"address": "Culmannstrasse", "electric": 2, "id": "pb_386", "manual": 0, "name": "Rigiplatz", "provider": "publibike", "timeStamp": "02/09/2020, 23:28:19", "zip": 8006}, "type": "Feature"}, {"geometry": {"coordinates": [8.543768, 47.411057], "type": "Point"}, "properties": {"address": "Hofwiesenstrasse 369", "electric": 0, "id": "pb_387", "manual": 5, "name": "Bahnhof Oerlikon S\u00fcd", "provider": "publibike", "timeStamp": "02/09/2020, 23:28:19", "zip": 8050}, "type": "Feature"}, {"geometry": {"coordinates": [8.544185, 47.412732], "type": "Point"}, "properties": {"address": "Jungholzstrasse 6", "electric": 0, "id": "pb_388", "manual": 1, "name": "Max-Frisch-Platz", "provider": "publibike", "timeStamp": "02/09/2020, 23:28:19", "zip": 8050}, "type": "Feature"}, {"geometry": {"coordinates": [8.558096, 47.413032], "type": "Point"}, "properties": {"address": "Andreasstrasse", "electric": 12, "id": "pb_389", "manual": 4, "name": "Hunziker-Areal", "provider": "publibike", "timeStamp": "02/09/2020, 23:28:19", "zip": 8050}, "type": "Feature"}, {"geometry": {"coordinates": [8.533265, 47.412873], "type": "Point"}, "properties": {"address": "Regina-K\u00e4gi-Strasse 1", "electric": 5, "id": "pb_390", "manual": 5, "name": "Luis-H\u00e4fliger-Park", "provider": "publibike", "timeStamp": "02/09/2020, 23:28:19", "zip": 8050}, "type": "Feature"}, {"geometry": {"coordinates": [8.499265, 47.401852], "type": "Point"}, "properties": {"address": "Limmattalstrasse 177", "electric": 0, "id": "pb_391", "manual": 1, "name": "Meierhofplatz", "provider": "publibike", "timeStamp": "02/09/2020, 23:28:19", "zip": 8049}, "type": "Feature"}, {"geometry": {"coordinates": [8.528356, 47.393255], "type": "Point"}, "properties": {"address": "R\u00f6schibachstrasse 73", "electric": 15, "id": "pb_392", "manual": 8, "name": "R\u00f6schibachplatz", "provider": "publibike", "timeStamp": "02/09/2020, 23:28:19", "zip": 8037}, "type": "Feature"}, {"geometry": {"coordinates": [8.538067, 47.415721], "type": "Point"}, "properties": {"address": "Birchstrasse 191", "electric": 8, "id": "pb_393", "manual": 3, "name": "Oerliker Park", "provider": "publibike", "timeStamp": "02/09/2020, 23:28:19", "zip": 8050}, "type": "Feature"}, {"geometry": {"coordinates": [8.5420304, 47.3669233], "type": "Point"}, "properties": {"address": "Stadthausquai 1", "electric": 2, "id": "pb_395", "manual": 3, "name": "B\u00fcrkliplatz", "provider": "publibike", "timeStamp": "02/09/2020, 23:28:19", "zip": 8001}, "type": "Feature"}, {"geometry": {"coordinates": [8.535767, 47.409881], "type": "Point"}, "properties": {"address": "Regensbergstrasse 195", "electric": 2, "id": "pb_396", "manual": 2, "name": "Holunderhof", "provider": "publibike", "timeStamp": "02/09/2020, 23:28:19", "zip": 8050}, "type": "Feature"}, {"geometry": {"coordinates": [8.5116245, 47.3616199], "type": "Point"}, "properties": {"address": "Grubenstrasse 42", "electric": 2, "id": "pb_431", "manual": 1, "name": "Binz Center", "provider": "publibike", "timeStamp": "02/09/2020, 23:28:19", "zip": 8045}, "type": "Feature"}, {"geometry": {"coordinates": [8.547195, 47.382089], "type": "Point"}, "properties": {"address": "Nelkenstrasse 24", "electric": 1, "id": "pb_430", "manual": 4, "name": "Stapferstube", "provider": "publibike", "timeStamp": "02/09/2020, 23:28:19", "zip": 8006}, "type": "Feature"}, {"geometry": {"coordinates": [8.5787183, 47.4039845], "type": "Point"}, "properties": {"address": "Kronwiesenstrasse 35", "electric": 3, "id": "pb_426", "manual": 2, "name": "Kronwiesen", "provider": "publibike", "timeStamp": "02/09/2020, 23:28:19", "zip": 8051}, "type": "Feature"}, {"geometry": {"coordinates": [8.508131, 47.420757], "type": "Point"}, "properties": {"address": "Riedenhaldenstrasse 20-18", "electric": 8, "id": "pb_425", "manual": 2, "name": "Bahnhof Affoltern", "provider": "publibike", "timeStamp": "02/09/2020, 23:28:19", "zip": 8046}, "type": "Feature"}, {"geometry": {"coordinates": [8.532464, 47.406988], "type": "Point"}, "properties": {"address": "K\u00fcnzlistrasse 41", "electric": 2, "id": "pb_424", "manual": 0, "name": "Birchd\u00f6rfli", "provider": "publibike", "timeStamp": "02/09/2020, 23:28:19", "zip": 8057}, "type": "Feature"}, {"geometry": {"coordinates": [8.5777038, 47.4080095], "type": "Point"}, "properties": {"address": "Luegislandstrasse 412", "electric": 9, "id": "pb_429", "manual": 4, "name": "Luegisland", "provider": "publibike", "timeStamp": "02/09/2020, 23:28:19", "zip": 8051}, "type": "Feature"}, {"geometry": {"coordinates": [8.58841, 47.40158], "type": "Point"}, "properties": {"address": "Hirzenbachstrasse 2-4", "electric": 3, "id": "pb_428", "manual": 1, "name": "Hirzenbachstrasse", "provider": "publibike", "timeStamp": "02/09/2020, 23:28:19", "zip": 8051}, "type": "Feature"}, {"geometry": {"coordinates": [8.5563463, 47.4095467], "type": "Point"}, "properties": {"address": "K\u00fchriedweg", "electric": 3, "id": "pb_445", "manual": 9, "name": "Hallenbad Oerlikon", "provider": "publibike", "timeStamp": "02/09/2020, 23:28:19", "zip": 8050}, "type": "Feature"}, {"geometry": {"coordinates": [8.537971, 47.364871], "type": "Point"}, "properties": {"address": "General-Guisan-Quai 17", "electric": 3, "id": "pb_454", "manual": 3, "name": "General-Guisan-Quai", "provider": "publibike", "timeStamp": "02/09/2020, 23:28:19", "zip": 8002}, "type": "Feature"}, {"geometry": {"coordinates": [8.560587, 47.350578], "type": "Point"}, "properties": {"address": "Bellerivestrasse 245", "electric": 6, "id": "pb_450", "manual": 7, "name": "Bahnhof Tiefenbrunnen", "provider": "publibike", "timeStamp": "02/09/2020, 23:28:19", "zip": 8008}, "type": "Feature"}, {"geometry": {"coordinates": [8.5269416, 47.3563719], "type": "Point"}, "properties": {"address": "Waffenplatzstrasse 89", "electric": 5, "id": "pb_452", "manual": 7, "name": "Rieterplatz", "provider": "publibike", "timeStamp": "02/09/2020, 23:28:19", "zip": 8002}, "type": "Feature"}, {"geometry": {"coordinates": [8.514176, 47.3663708], "type": "Point"}, "properties": {"address": "Talwiesenstrasse 92", "electric": 7, "id": "pb_446", "manual": 5, "name": "Binzallee", "provider": "publibike", "timeStamp": "02/09/2020, 23:28:19", "zip": 8055}, "type": "Feature"}, {"geometry": {"coordinates": [8.5070564, 47.371455], "type": "Point"}, "properties": {"address": "Gutstrasse 87", "electric": 4, "id": "pb_447", "manual": 3, "name": "Gutstrasse", "provider": "publibike", "timeStamp": "02/09/2020, 23:28:19", "zip": 8055}, "type": "Feature"}, {"geometry": {"coordinates": [8.4941268, 47.3836391], "type": "Point"}, "properties": {"address": "Flurstrasse 62", "electric": 3, "id": "pb_453", "manual": 2, "name": "Flurpark", "provider": "publibike", "timeStamp": "02/09/2020, 23:28:19", "zip": 8048}, "type": "Feature"}, {"geometry": {"coordinates": [8.500343, 47.380778], "type": "Point"}, "properties": {"address": "Edelweissstrasse 32", "electric": 7, "id": "pb_448", "manual": 7, "name": "Bl\u00fcemliquartier", "provider": "publibike", "timeStamp": "02/09/2020, 23:28:19", "zip": 8048}, "type": "Feature"}, {"geometry": {"coordinates": [8.528796, 47.383858], "type": "Point"}, "properties": {"address": "Gasometerstrasse 24", "electric": 5, "id": "pb_449", "manual": 1, "name": "Gasometerstrasse", "provider": "publibike", "timeStamp": "02/09/2020, 23:28:19", "zip": 8005}, "type": "Feature"}, {"geometry": {"coordinates": [8.4981964, 47.3859194], "type": "Point"}, "properties": {"address": "Baslerstrasse 57", "electric": 6, "id": "pb_455", "manual": 6, "name": "Letzipark", "provider": "publibike", "timeStamp": "02/09/2020, 23:28:19", "zip": 8048}, "type": "Feature"}, {"geometry": {"coordinates": [8.515252, 47.381915], "type": "Point"}, "properties": {"address": "Sihlfeldstrasse 175", "electric": 2, "id": "pb_451", "manual": 3, "name": "Hardplatz", "provider": "publibike", "timeStamp": "02/09/2020, 23:28:19", "zip": 8004}, "type": "Feature"}, {"geometry": {"coordinates": [8.5064743, 47.4188324], "type": "Point"}, "properties": {"address": "Wehntalerstrasse 541", "electric": 1, "id": "pb_427", "manual": 11, "name": "Zehntenhausplatz", "provider": "publibike", "timeStamp": "02/09/2020, 23:28:19", "zip": 8046}, "type": "Feature"}, {"geometry": {"coordinates": [8.537729, 47.379719], "type": "Point"}, "properties": {"address": "Sihlquai/HB", "electric": 2, "id": "pb_513", "manual": 6, "name": "Sihlquai", "provider": "publibike", "timeStamp": "02/09/2020, 23:28:19", "zip": 8005}, "type": "Feature"}, {"geometry": {"coordinates": [8.596202, 47.397885], "type": "Point"}, "properties": {"address": "Bahnhof Stettbach", "electric": 2, "id": "pb_514", "manual": 2, "name": "Bahnhof Stettbach", "provider": "publibike", "timeStamp": "02/09/2020, 23:28:19", "zip": 8051}, "type": "Feature"}, {"geometry": {"coordinates": [8.5543974, 47.3690153], "type": "Point"}, "properties": {"address": "Kasinostrasse 10", "electric": 1, "id": "pb_515", "manual": 0, "name": "Hottingerplatz", "provider": "publibike", "timeStamp": "02/09/2020, 23:28:19", "zip": 8032}, "type": "Feature"}, {"geometry": {"coordinates": [8.534444, 47.351525], "type": "Point"}, "properties": {"address": "Mobile Station Z\u00fcrich 1", "electric": 0, "id": "pb_282", "manual": 0, "name": "Theaterspektakel", "provider": "publibike", "timeStamp": "02/09/2020, 23:28:19", "zip": 8002}, "type": "Feature"}, {"geometry": {"coordinates": [8.516257, 47.367656], "type": "Point"}, "properties": {"address": "Goldbrunnenstrasse 54", "electric": 1, "id": "pb_538", "manual": 4, "name": "Kirche B\u00fchl", "provider": "publibike", "timeStamp": "02/09/2020, 23:28:19", "zip": 8055}, "type": "Feature"}, {"geometry": {"coordinates": [8.555639, 47.416873], "type": "Point"}, "properties": {"address": "Leutschenbachstrasse 50", "electric": 2, "id": "pb_537", "manual": 5, "name": "Leutschenpark", "provider": "publibike", "timeStamp": "02/09/2020, 23:28:19", "zip": 8050}, "type": "Feature"}, {"geometry": {"coordinates": [8.546464, 47.403822], "type": "Point"}, "properties": {"address": "Berninastrasse 45", "electric": 9, "id": "pb_540", "manual": 3, "name": "Berninaplatz", "provider": "publibike", "timeStamp": "02/09/2020, 23:28:19", "zip": 8057}, "type": "Feature"}, {"geometry": {"coordinates": [8.523134, 47.369004], "type": "Point"}, "properties": {"address": "Erlachstrasse 3", "electric": 4, "id": "pb_385", "manual": 8, "name": "Aegerten", "provider": "publibike", "timeStamp": "02/09/2020, 23:28:19", "zip": 8003}, "type": "Feature"}, {"geometry": {"coordinates": [8.49038, 47.381591], "type": "Point"}, "properties": {"address": "Rautistrasse 60", "electric": 13, "id": "pb_536", "manual": 3, "name": "Freilager", "provider": "publibike", "timeStamp": "02/09/2020, 23:28:19", "zip": 8048}, "type": "Feature"}, {"geometry": {"coordinates": [8.496511, 47.375247], "type": "Point"}, "properties": {"address": "Letzigraben 139", "electric": 5, "id": "pb_444", "manual": 2, "name": "Sackzelg", "provider": "publibike", "timeStamp": "02/09/2020, 23:28:19", "zip": 8047}, "type": "Feature"}, {"geometry": {"coordinates": [8.58131, 47.402801], "type": "Point"}, "properties": {"address": "Altwiesenstrasse 104", "electric": 2, "id": "pb_539", "manual": 1, "name": "Glattwiesen", "provider": "publibike", "timeStamp": "02/09/2020, 23:28:19", "zip": 8051}, "type": "Feature"}, {"geometry": {"coordinates": [8.52689, 47.3767], "type": "Point"}, "properties": {"address": "Molkenstrasse 5", "electric": 2, "id": "pb_560", "manual": 5, "name": "Helvetiaplatz", "provider": "publibike", "timeStamp": "02/09/2020, 23:28:19", "zip": 8004}, "type": "Feature"}, {"geometry": {"coordinates": [8.525602, 47.374241], "type": "Point"}, "properties": {"address": "Badenerstrasse 90", "electric": 2, "id": "pb_559", "manual": 4, "name": "Bezirksgeb\u00e4ude", "provider": "publibike", "timeStamp": "02/09/2020, 23:28:19", "zip": 8004}, "type": "Feature"}, {"geometry": {"coordinates": [8.535082, 47.345248], "type": "Point"}, "properties": {"address": "Bachstrasse 15", "electric": 1, "id": "pb_564", "manual": 4, "name": "GZ Wollishofen", "provider": "publibike", "timeStamp": "02/09/2020, 23:28:19", "zip": 8038}, "type": "Feature"}, {"geometry": {"coordinates": [8.514841, 47.370238], "type": "Point"}, "properties": {"address": "Schrennengasse 37", "electric": 4, "id": "pb_562", "manual": 3, "name": "Goldbrunnenplatz", "provider": "publibike", "timeStamp": "02/09/2020, 23:28:19", "zip": 8003}, "type": "Feature"}, {"geometry": {"coordinates": [8.514138, 47.374206], "type": "Point"}, "properties": {"address": "Idaplatz 4", "electric": 4, "id": "pb_557", "manual": 14, "name": "Idaplatz", "provider": "publibike", "timeStamp": "02/09/2020, 23:28:19", "zip": 8003}, "type": "Feature"}, {"geometry": {"coordinates": [8.518432, 47.369549], "type": "Point"}, "properties": {"address": "Brinerstrasse 2", "electric": 7, "id": "pb_558", "manual": 15, "name": "Schmiede Wiedikon", "provider": "publibike", "timeStamp": "02/09/2020, 23:28:19", "zip": 8003}, "type": "Feature"}, {"geometry": {"coordinates": [8.537546, 47.391289], "type": "Point"}, "properties": {"address": "Rotbuchstrasse 15", "electric": 0, "id": "pb_556", "manual": 1, "name": "Schaffhauserplatz", "provider": "publibike", "timeStamp": "02/09/2020, 23:28:19", "zip": 8006}, "type": "Feature"}, {"geometry": {"coordinates": [8.541541, 47.413733], "type": "Point"}, "properties": {"address": "Therese-Giehse-Strasse 11", "electric": 4, "id": "pb_561", "manual": 0, "name": "Center Eleven", "provider": "publibike", "timeStamp": "02/09/2020, 23:28:19", "zip": 8050}, "type": "Feature"}, {"geometry": {"coordinates": [8.534227, 47.360004], "type": "Point"}, "properties": {"address": "Alfred Escher-Strasse 76", "electric": 1, "id": "pb_563", "manual": 0, "name": "Mythenschloss", "provider": "publibike", "timeStamp": "02/09/2020, 23:28:19", "zip": 8002}, "type": "Feature"}, {"geometry": {"coordinates": [8.50373, 47.396172], "type": "Point"}, "properties": {"address": "Hardeggstrasse 6", "electric": 10, "id": "pb_566", "manual": 6, "name": "Am Wasser", "provider": "publibike", "timeStamp": "02/09/2020, 23:28:19", "zip": 8049}, "type": "Feature"}, {"geometry": {"coordinates": [8.532432, 47.381174], "type": "Point"}, "properties": {"address": "Klingenstrasse 9", "electric": 1, "id": "pb_565", "manual": 3, "name": "Zollstrasse", "provider": "publibike", "timeStamp": "02/09/2020, 23:28:19", "zip": 8005}, "type": "Feature"}, {"geometry": {"coordinates": [8.497982, 47.381447], "type": "Point"}, "properties": {"address": "Dennlerstrasse 23", "electric": 1, "id": "pb_567", "manual": 3, "name": "Dennlerstrasse", "provider": "publibike", "timeStamp": "02/09/2020, 23:28:19", "zip": 8047}, "type": "Feature"}, {"geometry": {"coordinates": [8.528049, 47.347701], "type": "Point"}, "properties": {"address": "Mutschellenstrasse 114", "electric": 7, "id": "pb_568", "manual": 3, "name": "Jugendherberge", "provider": "publibike", "timeStamp": "02/09/2020, 23:28:19", "zip": 8038}, "type": "Feature"}, {"geometry": {"coordinates": [8.539016, 47.405751], "type": "Point"}, "properties": {"address": "Ringstrasse 82", "electric": 3, "id": "pb_569", "manual": 4, "name": "Freibad Allenmoos", "provider": "publibike", "timeStamp": "02/09/2020, 23:28:19", "zip": 8057}, "type": "Feature"}, {"geometry": {"coordinates": [8.534974, 47.402164], "type": "Point"}, "properties": {"address": "Brache Guggach", "electric": 6, "id": "pb_572", "manual": 0, "name": "Radiostudio", "provider": "publibike", "timeStamp": "02/09/2020, 23:28:19", "zip": 8057}, "type": "Feature"}, {"geometry": {"coordinates": [8.547901, 47.375556], "type": "Point"}, "properties": {"address": "Karl-Schmid-Strasse 4", "electric": 0, "id": "pb_571", "manual": 0, "name": "ETH/Zoologisches Museum", "provider": "publibike", "timeStamp": "02/09/2020, 23:28:19", "zip": 8006}, "type": "Feature"}, {"geometry": {"coordinates": [8.562643, 47.383105], "type": "Point"}, "properties": {"charge": 14, "id": "smide_2901", "name": "ZH 267278", "provider": "smide", "range": 7.0, "size": 20, "time": "02/09/2020, 23:29:55"}, "type": "Feature"}, {"geometry": {"coordinates": [8.501376, 47.424536], "type": "Point"}, "properties": {"charge": 60, "id": "smide_2895", "name": "ZH 267279", "provider": "smide", "range": 30.0, "size": 20, "time": "02/09/2020, 23:29:55"}, "type": "Feature"}, {"geometry": {"coordinates": [8.542931, 47.381306], "type": "Point"}, "properties": {"charge": 78, "id": "smide_2880", "name": "ZH267289", "provider": "smide", "range": 39.0, "size": 17, "time": "02/09/2020, 23:29:55"}, "type": "Feature"}, {"geometry": {"coordinates": [8.521435, 47.359753], "type": "Point"}, "properties": {"charge": 100, "id": "smide_2874", "name": "ZH 267288", "provider": "smide", "range": 50.0, "size": 17, "time": "02/09/2020, 23:29:55"}, "type": "Feature"}, {"geometry": {"coordinates": [8.516376, 47.429241], "type": "Point"}, "properties": {"charge": 34, "id": "smide_2867", "name": "ZH 267090", "provider": "smide", "range": 17.0, "size": 20, "time": "02/09/2020, 23:29:55"}, "type": "Feature"}, {"geometry": {"coordinates": [8.51303, 47.37876], "type": "Point"}, "properties": {"charge": 69, "id": "smide_2861", "name": "ZH 267096", "provider": "smide", "range": 34.0, "size": 17, "time": "02/09/2020, 23:29:55"}, "type": "Feature"}, {"geometry": {"coordinates": [8.553305, 47.368871], "type": "Point"}, "properties": {"charge": 93, "id": "smide_2859", "name": "ZH 267098", "provider": "smide", "range": 46.0, "size": 17, "time": "02/09/2020, 23:29:55"}, "type": "Feature"}, {"geometry": {"coordinates": [8.543038, 47.37264], "type": "Point"}, "properties": {"charge": 59, "id": "smide_2856", "name": "ZH 267101", "provider": "smide", "range": 29.0, "size": 17, "time": "02/09/2020, 23:29:55"}, "type": "Feature"}, {"geometry": {"coordinates": [8.52458, 47.397901], "type": "Point"}, "properties": {"charge": 67, "id": "smide_2855", "name": "ZH 267102", "provider": "smide", "range": 33.0, "size": 17, "time": "02/09/2020, 23:29:55"}, "type": "Feature"}, {"geometry": {"coordinates": [8.517196, 47.361323], "type": "Point"}, "properties": {"charge": 90, "id": "smide_2854", "name": "ZH 267103", "provider": "smide", "range": 45.0, "size": 17, "time": "02/09/2020, 23:29:55"}, "type": "Feature"}, {"geometry": {"coordinates": [8.555571, 47.384406], "type": "Point"}, "properties": {"charge": 99, "id": "smide_2833", "name": "ZH 267182", "provider": "smide", "range": 49.0, "size": 20, "time": "02/09/2020, 23:29:55"}, "type": "Feature"}, {"geometry": {"coordinates": [8.558375, 47.371173], "type": "Point"}, "properties": {"charge": 25, "id": "smide_2831", "name": "ZH 267180", "provider": "smide", "range": 12.0, "size": 20, "time": "02/09/2020, 23:29:55"}, "type": "Feature"}, {"geometry": {"coordinates": [8.57443, 47.34797], "type": "Point"}, "properties": {"charge": 62, "id": "smide_2804", "name": "ZH266903", "provider": "smide", "range": 31.0, "size": 20, "time": "02/09/2020, 23:29:55"}, "type": "Feature"}, {"geometry": {"coordinates": [8.501296, 47.368998], "type": "Point"}, "properties": {"charge": 45, "id": "smide_2793", "name": "ZH266883", "provider": "smide", "range": 22.0, "size": 17, "time": "02/09/2020, 23:29:55"}, "type": "Feature"}, {"geometry": {"coordinates": [8.533293, 47.397416], "type": "Point"}, "properties": {"charge": 98, "id": "smide_2790", "name": "ZH266880", "provider": "smide", "range": 49.0, "size": 17, "time": "02/09/2020, 23:29:55"}, "type": "Feature"}, {"geometry": {"coordinates": [8.545846, 47.396506], "type": "Point"}, "properties": {"charge": 95, "id": "smide_2785", "name": "ZH266875", "provider": "smide", "range": 47.0, "size": 17, "time": "02/09/2020, 23:29:55"}, "type": "Feature"}, {"geometry": {"coordinates": [8.558548, 47.359898], "type": "Point"}, "properties": {"charge": 100, "id": "smide_2780", "name": "ST1 X #1", "provider": "smide", "range": 50.0, "size": 17, "time": "02/09/2020, 23:29:55"}, "type": "Feature"}, {"geometry": {"coordinates": [8.498679, 47.387924], "type": "Point"}, "properties": {"charge": 36, "id": "smide_2773", "name": "ZH266561", "provider": "smide", "range": 18.0, "size": 17, "time": "02/09/2020, 23:29:55"}, "type": "Feature"}, {"geometry": {"coordinates": [8.510883, 47.390128], "type": "Point"}, "properties": {"charge": 65, "id": "smide_2771", "name": "ZH266559", "provider": "smide", "range": 32.0, "size": 17, "time": "02/09/2020, 23:29:55"}, "type": "Feature"}, {"geometry": {"coordinates": [8.544486, 47.387488], "type": "Point"}, "properties": {"charge": 80, "id": "smide_2763", "name": "ZH266641", "provider": "smide", "range": 40.0, "size": 17, "time": "02/09/2020, 23:29:55"}, "type": "Feature"}, {"geometry": {"coordinates": [8.555405, 47.3841], "type": "Point"}, "properties": {"charge": 94, "id": "smide_2761", "name": "ZH266642", "provider": "smide", "range": 47.0, "size": 20, "time": "02/09/2020, 23:29:55"}, "type": "Feature"}, {"geometry": {"coordinates": [8.544071, 47.378908], "type": "Point"}, "properties": {"charge": 74, "id": "smide_2759", "name": "ZH266639", "provider": "smide", "range": 37.0, "size": 17, "time": "02/09/2020, 23:29:55"}, "type": "Feature"}, {"geometry": {"coordinates": [8.574328, 47.34794], "type": "Point"}, "properties": {"charge": 21, "id": "smide_2758", "name": "ZH266638 M", "provider": "smide", "range": 10.0, "size": 17, "time": "02/09/2020, 23:29:55"}, "type": "Feature"}, {"geometry": {"coordinates": [8.550982, 47.359504], "type": "Point"}, "properties": {"charge": 44, "id": "smide_2752", "name": "BE343856", "provider": "smide", "range": 22.0, "size": 17, "time": "02/09/2020, 23:29:55"}, "type": "Feature"}, {"geometry": {"coordinates": [8.503788, 47.3965], "type": "Point"}, "properties": {"charge": 100, "id": "smide_2751", "name": "BE343857", "provider": "smide", "range": 50.0, "size": 17, "time": "02/09/2020, 23:29:55"}, "type": "Feature"}, {"geometry": {"coordinates": [8.512983, 47.366248], "type": "Point"}, "properties": {"charge": 100, "id": "smide_2749", "name": "BE343867", "provider": "smide", "range": 50.0, "size": 17, "time": "02/09/2020, 23:29:55"}, "type": "Feature"}, {"geometry": {"coordinates": [8.475243, 47.385484], "type": "Point"}, "properties": {"charge": 59, "id": "smide_2748", "name": "BE335758", "provider": "smide", "range": 29.0, "size": 17, "time": "02/09/2020, 23:29:55"}, "type": "Feature"}, {"geometry": {"coordinates": [8.567843, 47.382508], "type": "Point"}, "properties": {"charge": 49, "id": "smide_2746", "name": "BE335817", "provider": "smide", "range": 24.0, "size": 17, "time": "02/09/2020, 23:29:55"}, "type": "Feature"}, {"geometry": {"coordinates": [8.488655, 47.39094], "type": "Point"}, "properties": {"charge": 47, "id": "smide_2747", "name": "BE335820", "provider": "smide", "range": 23.0, "size": 17, "time": "02/09/2020, 23:29:55"}, "type": "Feature"}, {"geometry": {"coordinates": [8.524454, 47.363008], "type": "Point"}, "properties": {"charge": 65, "id": "smide_2745", "name": "BE335818", "provider": "smide", "range": 32.0, "size": 17, "time": "02/09/2020, 23:29:55"}, "type": "Feature"}, {"geometry": {"coordinates": [8.495116, 47.3889], "type": "Point"}, "properties": {"charge": 59, "id": "smide_2743", "name": "BE343864", "provider": "smide", "range": 29.0, "size": 17, "time": "02/09/2020, 23:29:55"}, "type": "Feature"}, {"geometry": {"coordinates": [8.5441, 47.384196], "type": "Point"}, "properties": {"charge": 100, "id": "smide_2742", "name": "BE343866", "provider": "smide", "range": 50.0, "size": 17, "time": "02/09/2020, 23:29:55"}, "type": "Feature"}, {"geometry": {"coordinates": [8.571906, 47.381936], "type": "Point"}, "properties": {"charge": 61, "id": "smide_2741", "name": "BE343874", "provider": "smide", "range": 30.0, "size": 17, "time": "02/09/2020, 23:29:55"}, "type": "Feature"}, {"geometry": {"coordinates": [8.530165, 47.338332], "type": "Point"}, "properties": {"charge": 23, "id": "smide_2740", "name": "BE343875", "provider": "smide", "range": 11.0, "size": 17, "time": "02/09/2020, 23:29:55"}, "type": "Feature"}, {"geometry": {"coordinates": [8.544748, 47.373755], "type": "Point"}, "properties": {"charge": 64, "id": "smide_2738", "name": "BE343865", "provider": "smide", "range": 32.0, "size": 17, "time": "02/09/2020, 23:29:55"}, "type": "Feature"}, {"geometry": {"coordinates": [8.539899, 47.37894], "type": "Point"}, "properties": {"charge": 18, "id": "smide_2737", "name": "BE336149", "provider": "smide", "range": 9.0, "size": 17, "time": "02/09/2020, 23:29:55"}, "type": "Feature"}, {"geometry": {"coordinates": [8.560148, 47.381376], "type": "Point"}, "properties": {"charge": 89, "id": "smide_2736", "name": "BE346639", "provider": "smide", "range": 44.0, "size": 17, "time": "02/09/2020, 23:29:55"}, "type": "Feature"}, {"geometry": {"coordinates": [8.51449, 47.382984], "type": "Point"}, "properties": {"charge": 78, "id": "smide_2734", "name": "BE343876", "provider": "smide", "range": 39.0, "size": 17, "time": "02/09/2020, 23:29:55"}, "type": "Feature"}, {"geometry": {"coordinates": [8.576477, 47.351152], "type": "Point"}, "properties": {"charge": 76, "id": "smide_2729", "name": "BE343878", "provider": "smide", "range": 38.0, "size": 17, "time": "02/09/2020, 23:29:55"}, "type": "Feature"}, {"geometry": {"coordinates": [8.509706, 47.390521], "type": "Point"}, "properties": {"charge": 47, "id": "smide_2725", "name": "ZH261545", "provider": "smide", "range": 23.0, "size": 0, "time": "02/09/2020, 23:29:55"}, "type": "Feature"}, {"geometry": {"coordinates": [8.510836, 47.359225], "type": "Point"}, "properties": {"charge": 25, "id": "smide_2718", "name": "ZH259019", "provider": "smide", "range": 12.0, "size": 20, "time": "02/09/2020, 23:29:55"}, "type": "Feature"}, {"geometry": {"coordinates": [8.489552, 47.369084], "type": "Point"}, "properties": {"charge": 18, "id": "smide_2717", "name": "ZH263287", "provider": "smide", "range": 9.0, "size": 17, "time": "02/09/2020, 23:29:55"}, "type": "Feature"}, {"geometry": {"coordinates": [8.543385, 47.391101], "type": "Point"}, "properties": {"charge": 89, "id": "smide_2716", "name": "ZH254606", "provider": "smide", "range": 44.0, "size": 17, "time": "02/09/2020, 23:29:55"}, "type": "Feature"}, {"geometry": {"coordinates": [8.520656, 47.369848], "type": "Point"}, "properties": {"charge": 85, "id": "smide_2715", "name": "ZH254605", "provider": "smide", "range": 42.0, "size": 17, "time": "02/09/2020, 23:29:55"}, "type": "Feature"}, {"geometry": {"coordinates": [8.513134, 47.366204], "type": "Point"}, "properties": {"charge": 89, "id": "smide_2714", "name": "ZH256461", "provider": "smide", "range": 44.0, "size": 17, "time": "02/09/2020, 23:29:55"}, "type": "Feature"}, {"geometry": {"coordinates": [8.514205, 47.386652], "type": "Point"}, "properties": {"charge": 58, "id": "smide_2710", "name": "ZH256460", "provider": "smide", "range": 28.0, "size": 17, "time": "02/09/2020, 23:29:55"}, "type": "Feature"}, {"geometry": {"coordinates": [8.556071, 47.386268], "type": "Point"}, "properties": {"charge": 24, "id": "smide_2712", "name": "ZH256462", "provider": "smide", "range": 12.0, "size": 17, "time": "02/09/2020, 23:29:55"}, "type": "Feature"}, {"geometry": {"coordinates": [8.564429, 47.371664], "type": "Point"}, "properties": {"charge": 37, "id": "smide_2711", "name": "ZH256463", "provider": "smide", "range": 18.0, "size": 17, "time": "02/09/2020, 23:29:55"}, "type": "Feature"}, {"geometry": {"coordinates": [8.564796, 47.363641], "type": "Point"}, "properties": {"charge": 79, "id": "smide_2709", "name": "ZH256466", "provider": "smide", "range": 39.0, "size": 20, "time": "02/09/2020, 23:29:55"}, "type": "Feature"}, {"geometry": {"coordinates": [8.563178, 47.370572], "type": "Point"}, "properties": {"charge": 83, "id": "smide_2707", "name": "ZH256467", "provider": "smide", "range": 41.0, "size": 20, "time": "02/09/2020, 23:29:55"}, "type": "Feature"}, {"geometry": {"coordinates": [8.487396, 47.367584], "type": "Point"}, "properties": {"charge": 86, "id": "smide_2708", "name": "ZH256464", "provider": "smide", "range": 43.0, "size": 17, "time": "02/09/2020, 23:29:55"}, "type": "Feature"}, {"geometry": {"coordinates": [8.545781, 47.395184], "type": "Point"}, "properties": {"charge": 48, "id": "smide_2701", "name": "ZH256468", "provider": "smide", "range": 24.0, "size": 20, "time": "02/09/2020, 23:29:55"}, "type": "Feature"}, {"geometry": {"coordinates": [8.525658, 47.389672], "type": "Point"}, "properties": {"charge": 94, "id": "smide_2699", "name": "ZH254611", "provider": "smide", "range": 47.0, "size": 20, "time": "02/09/2020, 23:29:55"}, "type": "Feature"}, {"geometry": {"coordinates": [8.552597, 47.381712], "type": "Point"}, "properties": {"charge": 75, "id": "smide_2697", "name": "ZH254629", "provider": "smide", "range": 37.0, "size": 20, "time": "02/09/2020, 23:29:55"}, "type": "Feature"}, {"geometry": {"coordinates": [8.52783, 47.41568], "type": "Point"}, "properties": {"charge": 58, "id": "smide_2696", "name": "ZH254616", "provider": "smide", "range": 28.0, "size": 20, "time": "02/09/2020, 23:29:55"}, "type": "Feature"}, {"geometry": {"coordinates": [8.576441, 47.351136], "type": "Point"}, "properties": {"charge": 35, "id": "smide_2694", "name": "ZH254610", "provider": "smide", "range": 17.0, "size": 20, "time": "02/09/2020, 23:29:55"}, "type": "Feature"}, {"geometry": {"coordinates": [8.573218, 47.380006], "type": "Point"}, "properties": {"charge": 72, "id": "smide_2691", "name": "ZH254622", "provider": "smide", "range": 36.0, "size": 20, "time": "02/09/2020, 23:29:55"}, "type": "Feature"}, {"geometry": {"coordinates": [8.535941, 47.399763], "type": "Point"}, "properties": {"charge": 79, "id": "smide_2690", "name": "ZH254625", "provider": "smide", "range": 39.0, "size": 20, "time": "02/09/2020, 23:29:55"}, "type": "Feature"}, {"geometry": {"coordinates": [8.514321, 47.39174], "type": "Point"}, "properties": {"charge": 95, "id": "smide_2689", "name": "ZH254623", "provider": "smide", "range": 47.0, "size": 20, "time": "02/09/2020, 23:29:55"}, "type": "Feature"}, {"geometry": {"coordinates": [8.534909, 47.380656], "type": "Point"}, "properties": {"charge": 14, "id": "smide_2687", "name": "ZH263529", "provider": "smide", "range": 7.0, "size": 20, "time": "02/09/2020, 23:29:55"}, "type": "Feature"}, {"geometry": {"coordinates": [8.550182, 47.392564], "type": "Point"}, "properties": {"charge": 64, "id": "smide_2686", "name": "ZH263288", "provider": "smide", "range": 32.0, "size": 20, "time": "02/09/2020, 23:29:55"}, "type": "Feature"}, {"geometry": {"coordinates": [8.543413, 47.383204], "type": "Point"}, "properties": {"charge": 35, "id": "smide_2680", "name": "ZH254619", "provider": "smide", "range": 17.0, "size": 20, "time": "02/09/2020, 23:29:55"}, "type": "Feature"}, {"geometry": {"coordinates": [8.573726, 47.356096], "type": "Point"}, "properties": {"charge": 98, "id": "smide_2679", "name": "ZH258489", "provider": "smide", "range": 49.0, "size": 17, "time": "02/09/2020, 23:29:55"}, "type": "Feature"}, {"geometry": {"coordinates": [8.514938, 47.367956], "type": "Point"}, "properties": {"charge": 58, "id": "smide_2677", "name": "ZH258487", "provider": "smide", "range": 28.0, "size": 17, "time": "02/09/2020, 23:29:55"}, "type": "Feature"}, {"geometry": {"coordinates": [8.561852, 47.38344], "type": "Point"}, "properties": {"charge": 75, "id": "smide_2674", "name": "ZH258654", "provider": "smide", "range": 37.0, "size": 17, "time": "02/09/2020, 23:29:55"}, "type": "Feature"}, {"geometry": {"coordinates": [8.540502, 47.368856], "type": "Point"}, "properties": {"charge": 99, "id": "smide_2671", "name": "ZH258645", "provider": "smide", "range": 49.0, "size": 17, "time": "02/09/2020, 23:29:55"}, "type": "Feature"}, {"geometry": {"coordinates": [8.563437, 47.409368], "type": "Point"}, "properties": {"charge": 53, "id": "smide_2669", "name": "ZH263294", "provider": "smide", "range": 26.0, "size": 17, "time": "02/09/2020, 23:29:55"}, "type": "Feature"}, {"geometry": {"coordinates": [8.484746, 47.394268], "type": "Point"}, "properties": {"charge": 100, "id": "smide_2668", "name": "ZH258640", "provider": "smide", "range": 50.0, "size": 17, "time": "02/09/2020, 23:29:55"}, "type": "Feature"}, {"geometry": {"coordinates": [8.49031, 47.381232], "type": "Point"}, "properties": {"charge": 18, "id": "smide_2666", "name": "ZH258653", "provider": "smide", "range": 9.0, "size": 17, "time": "02/09/2020, 23:29:55"}, "type": "Feature"}, {"geometry": {"coordinates": [8.57472, 47.35476], "type": "Point"}, "properties": {"charge": 23, "id": "smide_2665", "name": "ZH258644", "provider": "smide", "range": 11.0, "size": 17, "time": "02/09/2020, 23:29:55"}, "type": "Feature"}, {"geometry": {"coordinates": [8.518071, 47.367616], "type": "Point"}, "properties": {"charge": 73, "id": "smide_2663", "name": "ZH258649", "provider": "smide", "range": 36.0, "size": 17, "time": "02/09/2020, 23:29:55"}, "type": "Feature"}, {"geometry": {"coordinates": [8.529575, 47.382548], "type": "Point"}, "properties": {"charge": 13, "id": "smide_2662", "name": "ZH258643", "provider": "smide", "range": 6.0, "size": 17, "time": "02/09/2020, 23:29:55"}, "type": "Feature"}, {"geometry": {"coordinates": [8.514943, 47.391676], "type": "Point"}, "properties": {"charge": 79, "id": "smide_2660", "name": "ZH258647", "provider": "smide", "range": 39.0, "size": 17, "time": "02/09/2020, 23:29:55"}, "type": "Feature"}, {"geometry": {"coordinates": [8.526016, 47.359032], "type": "Point"}, "properties": {"charge": 99, "id": "smide_2648", "name": "ZH257930", "provider": "smide", "range": 49.0, "size": 20, "time": "02/09/2020, 23:29:55"}, "type": "Feature"}, {"geometry": {"coordinates": [8.542555, 47.385596], "type": "Point"}, "properties": {"charge": 81, "id": "smide_2647", "name": "ZH257932", "provider": "smide", "range": 40.0, "size": 20, "time": "02/09/2020, 23:29:55"}, "type": "Feature"}, {"geometry": {"coordinates": [8.501895, 47.369176], "type": "Point"}, "properties": {"charge": 100, "id": "smide_2645", "name": "ZH257933", "provider": "smide", "range": 50.0, "size": 20, "time": "02/09/2020, 23:29:55"}, "type": "Feature"}, {"geometry": {"coordinates": [8.547813, 47.374341], "type": "Point"}, "properties": {"charge": 20, "id": "smide_3", "name": "ZH253765", "provider": "smide", "range": 10.0, "size": 20, "time": "02/09/2020, 23:29:55"}, "type": "Feature"}, {"geometry": {"coordinates": [8.517633, 47.414295], "type": "Point"}, "properties": {"charge": 99, "id": "smide_105", "name": "ZH253804", "provider": "smide", "range": 49.0, "size": 17, "time": "02/09/2020, 23:29:55"}, "type": "Feature"}, {"geometry": {"coordinates": [8.529547, 47.382548], "type": "Point"}, "properties": {"charge": 67, "id": "smide_186", "name": "ZH253751", "provider": "smide", "range": 33.0, "size": 20, "time": "02/09/2020, 23:29:55"}, "type": "Feature"}, {"geometry": {"coordinates": [8.559256, 47.405916], "type": "Point"}, "properties": {"charge": 100, "id": "smide_77", "name": "ZH261548", "provider": "smide", "range": 50.0, "size": 20, "time": "02/09/2020, 23:29:55"}, "type": "Feature"}, {"geometry": {"coordinates": [8.54013, 47.379], "type": "Point"}, "properties": {"charge": 100, "id": "smide_200", "name": "ZH253801", "provider": "smide", "range": 50.0, "size": 20, "time": "02/09/2020, 23:29:55"}, "type": "Feature"}, {"geometry": {"coordinates": [8.500536, 47.369633], "type": "Point"}, "properties": {"charge": 100, "id": "smide_197", "name": "ZH253864", "provider": "smide", "range": 50.0, "size": 20, "time": "02/09/2020, 23:29:55"}, "type": "Feature"}, {"geometry": {"coordinates": [8.558136, 47.359598], "type": "Point"}, "properties": {"charge": 77, "id": "smide_199", "name": "ZH253766", "provider": "smide", "range": 38.0, "size": 20, "time": "02/09/2020, 23:29:55"}, "type": "Feature"}, {"geometry": {"coordinates": [8.539756, 47.379028], "type": "Point"}, "properties": {"charge": 100, "id": "smide_45", "name": "ZH253716", "provider": "smide", "range": 50.0, "size": 17, "time": "02/09/2020, 23:29:55"}, "type": "Feature"}, {"geometry": {"coordinates": [8.582192, 47.35186], "type": "Point"}, "properties": {"charge": 58, "id": "smide_71", "name": "ZH253742", "provider": "smide", "range": 28.0, "size": 20, "time": "02/09/2020, 23:29:55"}, "type": "Feature"}, {"geometry": {"coordinates": [8.496842, 47.368512], "type": "Point"}, "properties": {"charge": 81, "id": "smide_101", "name": "ZH253814", "provider": "smide", "range": 40.0, "size": 17, "time": "02/09/2020, 23:29:55"}, "type": "Feature"}, {"geometry": {"coordinates": [8.514277, 47.386836], "type": "Point"}, "properties": {"charge": 76, "id": "smide_9", "name": "ZH253796", "provider": "smide", "range": 38.0, "size": 17, "time": "02/09/2020, 23:29:55"}, "type": "Feature"}, {"geometry": {"coordinates": [8.56308, 47.382568], "type": "Point"}, "properties": {"charge": 61, "id": "smide_143", "name": "ZH253778", "provider": "smide", "range": 30.0, "size": 17, "time": "02/09/2020, 23:29:55"}, "type": "Feature"}, {"geometry": {"coordinates": [8.576291, 47.351548], "type": "Point"}, "properties": {"charge": 91, "id": "smide_180", "name": "ZH253824", "provider": "smide", "range": 45.0, "size": 20, "time": "02/09/2020, 23:29:55"}, "type": "Feature"}, {"geometry": {"coordinates": [8.566623, 47.363992], "type": "Point"}, "properties": {"charge": 33, "id": "smide_20", "name": "ZH253770", "provider": "smide", "range": 16.0, "size": 20, "time": "02/09/2020, 23:29:55"}, "type": "Feature"}, {"geometry": {"coordinates": [8.514011, 47.37676], "type": "Point"}, "properties": {"charge": 80, "id": "smide_50", "name": "ZH253853", "provider": "smide", "range": 40.0, "size": 17, "time": "02/09/2020, 23:29:55"}, "type": "Feature"}, {"geometry": {"coordinates": [8.562916, 47.3825], "type": "Point"}, "properties": {"charge": 85, "id": "smide_30", "name": "ZH253813", "provider": "smide", "range": 42.0, "size": 20, "time": "02/09/2020, 23:29:55"}, "type": "Feature"}, {"geometry": {"coordinates": [8.55765, 47.412416], "type": "Point"}, "properties": {"charge": 69, "id": "smide_10", "name": "ZH253855", "provider": "smide", "range": 34.0, "size": 17, "time": "02/09/2020, 23:29:55"}, "type": "Feature"}, {"geometry": {"coordinates": [8.507485, 47.398416], "type": "Point"}, "properties": {"charge": 46, "id": "smide_179", "name": "ZH253687", "provider": "smide", "range": 23.0, "size": 20, "time": "02/09/2020, 23:29:55"}, "type": "Feature"}, {"geometry": {"coordinates": [8.563173, 47.372092], "type": "Point"}, "properties": {"charge": 42, "id": "smide_84", "name": "ZH253733", "provider": "smide", "range": 21.0, "size": 17, "time": "02/09/2020, 23:29:55"}, "type": "Feature"}, {"geometry": {"coordinates": [8.522205, 47.367528], "type": "Point"}, "properties": {"charge": 19, "id": "smide_35", "name": "ZH253755", "provider": "smide", "range": 9.0, "size": 20, "time": "02/09/2020, 23:29:55"}, "type": "Feature"}, {"geometry": {"coordinates": [8.555102, 47.366848], "type": "Point"}, "properties": {"charge": 50, "id": "smide_119", "name": "ZH253686", "provider": "smide", "range": 25.0, "size": 20, "time": "02/09/2020, 23:29:55"}, "type": "Feature"}, {"geometry": {"coordinates": [8.516567, 47.3983], "type": "Point"}, "properties": {"charge": 22, "id": "smide_76", "name": "ZH253764", "provider": "smide", "range": 11.0, "size": 17, "time": "02/09/2020, 23:29:55"}, "type": "Feature"}, {"geometry": {"coordinates": [8.56351, 47.372552], "type": "Point"}, "properties": {"charge": 81, "id": "smide_129", "name": "ZH261378", "provider": "smide", "range": 40.0, "size": 17, "time": "02/09/2020, 23:29:55"}, "type": "Feature"}, {"geometry": {"coordinates": [8.559493, 47.414838], "type": "Point"}, "properties": {"charge": 76, "id": "smide_49", "name": "ZH253873", "provider": "smide", "range": 38.0, "size": 17, "time": "02/09/2020, 23:29:55"}, "type": "Feature"}, {"geometry": {"coordinates": [8.50138, 47.422656], "type": "Point"}, "properties": {"charge": 32, "id": "smide_37", "name": "ZH261377", "provider": "smide", "range": 16.0, "size": 20, "time": "02/09/2020, 23:29:55"}, "type": "Feature"}, {"geometry": {"coordinates": [8.517108, 47.361468], "type": "Point"}, "properties": {"charge": 94, "id": "smide_191", "name": "ZH253762", "provider": "smide", "range": 47.0, "size": 17, "time": "02/09/2020, 23:29:55"}, "type": "Feature"}, {"geometry": {"coordinates": [8.503603, 47.377626], "type": "Point"}, "properties": {"charge": 18, "id": "smide_202", "name": "ZH253830", "provider": "smide", "range": 9.0, "size": 17, "time": "02/09/2020, 23:29:55"}, "type": "Feature"}, {"geometry": {"coordinates": [8.540044, 47.379068], "type": "Point"}, "properties": {"charge": 100, "id": "smide_56", "name": "ZH261442", "provider": "smide", "range": 50.0, "size": 20, "time": "02/09/2020, 23:29:55"}, "type": "Feature"}, {"geometry": {"coordinates": [8.554181, 47.374883], "type": "Point"}, "properties": {"charge": 74, "id": "smide_47", "name": "ZH253858", "provider": "smide", "range": 37.0, "size": 17, "time": "02/09/2020, 23:29:55"}, "type": "Feature"}, {"geometry": {"coordinates": [8.542933, 47.410856], "type": "Point"}, "properties": {"charge": 97, "id": "smide_23", "name": "ZH253704", "provider": "smide", "range": 48.0, "size": 17, "time": "02/09/2020, 23:29:55"}, "type": "Feature"}, {"geometry": {"coordinates": [8.496552, 47.382316], "type": "Point"}, "properties": {"charge": 34, "id": "smide_66", "name": "ZH253818", "provider": "smide", "range": 17.0, "size": 20, "time": "02/09/2020, 23:29:55"}, "type": "Feature"}, {"geometry": {"coordinates": [8.496763, 47.362703], "type": "Point"}, "properties": {"charge": 95, "id": "smide_17", "name": "ZH253793", "provider": "smide", "range": 47.0, "size": 17, "time": "02/09/2020, 23:29:55"}, "type": "Feature"}, {"geometry": {"coordinates": [8.55516, 47.383884], "type": "Point"}, "properties": {"charge": 67, "id": "smide_114", "name": "ZH253878", "provider": "smide", "range": 33.0, "size": 20, "time": "02/09/2020, 23:29:55"}, "type": "Feature"}, {"geometry": {"coordinates": [8.533173, 47.417136], "type": "Point"}, "properties": {"charge": 31, "id": "smide_203", "name": "ZH261547", "provider": "smide", "range": 15.0, "size": 17, "time": "02/09/2020, 23:29:55"}, "type": "Feature"}, {"geometry": {"coordinates": [8.519139, 47.3372], "type": "Point"}, "properties": {"charge": 64, "id": "smide_21", "name": "ZH253841", "provider": "smide", "range": 32.0, "size": 17, "time": "02/09/2020, 23:29:55"}, "type": "Feature"}, {"geometry": {"coordinates": [8.47524, 47.3855], "type": "Point"}, "properties": {"charge": 97, "id": "smide_164", "name": "ZH253775", "provider": "smide", "range": 48.0, "size": 17, "time": "02/09/2020, 23:29:55"}, "type": "Feature"}, {"geometry": {"coordinates": [8.534372, 47.416776], "type": "Point"}, "properties": {"charge": 37, "id": "smide_189", "name": "ZH253845", "provider": "smide", "range": 18.0, "size": 20, "time": "02/09/2020, 23:29:55"}, "type": "Feature"}, {"geometry": {"coordinates": [8.519526, 47.37276], "type": "Point"}, "properties": {"charge": 100, "id": "smide_81", "name": "ZH253753", "provider": "smide", "range": 50.0, "size": 17, "time": "02/09/2020, 23:29:55"}, "type": "Feature"}, {"geometry": {"coordinates": [8.541242, 47.378676], "type": "Point"}, "properties": {"charge": 81, "id": "smide_171", "name": "ZH253689", "provider": "smide", "range": 40.0, "size": 20, "time": "02/09/2020, 23:29:55"}, "type": "Feature"}, {"geometry": {"coordinates": [8.487574, 47.37578], "type": "Point"}, "properties": {"charge": 28, "id": "smide_93", "name": "ZH253681", "provider": "smide", "range": 14.0, "size": 17, "time": "02/09/2020, 23:29:55"}, "type": "Feature"}, {"geometry": {"coordinates": [8.522304, 47.386392], "type": "Point"}, "properties": {"charge": 31, "id": "smide_67", "name": "ZH253779", "provider": "smide", "range": 15.0, "size": 17, "time": "02/09/2020, 23:29:55"}, "type": "Feature"}, {"geometry": {"coordinates": [8.55351, 47.358112], "type": "Point"}, "properties": {"charge": 20, "id": "smide_133", "name": "ZH253848", "provider": "smide", "range": 10.0, "size": 20, "time": "02/09/2020, 23:29:55"}, "type": "Feature"}, {"geometry": {"coordinates": [8.480936, 47.384381], "type": "Point"}, "properties": {"charge": 93, "id": "smide_118", "name": "ZH253759", "provider": "smide", "range": 46.0, "size": 20, "time": "02/09/2020, 23:29:55"}, "type": "Feature"}, {"geometry": {"coordinates": [8.549335, 47.383325], "type": "Point"}, "properties": {"charge": 100, "id": "smide_166", "name": "ZH253728", "provider": "smide", "range": 50.0, "size": 17, "time": "02/09/2020, 23:29:55"}, "type": "Feature"}, {"geometry": {"coordinates": [8.510333, 47.395228], "type": "Point"}, "properties": {"charge": 100, "id": "smide_126", "name": "ZH268400", "provider": "smide", "range": 50.0, "size": 17, "time": "02/09/2020, 23:29:55"}, "type": "Feature"}, {"geometry": {"coordinates": [8.522515, 47.36235], "type": "Point"}, "properties": {"charge": 100, "id": "smide_44", "name": "ZH253837", "provider": "smide", "range": 50.0, "size": 17, "time": "02/09/2020, 23:29:55"}, "type": "Feature"}, {"geometry": {"coordinates": [8.515878, 47.386958], "type": "Point"}, "properties": {"charge": 53, "id": "smide_98", "name": "ZH256321", "provider": "smide", "range": 26.0, "size": 17, "time": "02/09/2020, 23:29:55"}, "type": "Feature"}, {"geometry": {"coordinates": [8.545506, 47.411604], "type": "Point"}, "properties": {"charge": 55, "id": "smide_154", "name": "ZH253744", "provider": "smide", "range": 27.0, "size": 20, "time": "02/09/2020, 23:29:55"}, "type": "Feature"}, {"geometry": {"coordinates": [8.513492, 47.37042], "type": "Point"}, "properties": {"charge": 42, "id": "smide_92", "name": "ZH253798", "provider": "smide", "range": 21.0, "size": 17, "time": "02/09/2020, 23:29:55"}, "type": "Feature"}, {"geometry": {"coordinates": [8.514398, 47.364608], "type": "Point"}, "properties": {"charge": 77, "id": "smide_65", "name": "ZH253810", "provider": "smide", "range": 38.0, "size": 17, "time": "02/09/2020, 23:29:55"}, "type": "Feature"}, {"geometry": {"coordinates": [8.545066, 47.385368], "type": "Point"}, "properties": {"charge": 74, "id": "smide_111", "name": "ZH253763", "provider": "smide", "range": 37.0, "size": 17, "time": "02/09/2020, 23:29:55"}, "type": "Feature"}, {"geometry": {"coordinates": [8.55779, 47.35958], "type": "Point"}, "properties": {"charge": 47, "id": "smide_40", "name": "ZH253690", "provider": "smide", "range": 23.0, "size": 20, "time": "02/09/2020, 23:29:55"}, "type": "Feature"}, {"geometry": {"coordinates": [8.516375, 47.381444], "type": "Point"}, "properties": {"charge": 74, "id": "smide_1", "name": "ZH253776", "provider": "smide", "range": 37.0, "size": 17, "time": "02/09/2020, 23:29:55"}, "type": "Feature"}, {"geometry": {"coordinates": [8.519681, 47.340041], "type": "Point"}, "properties": {"charge": 92, "id": "smide_14", "name": "ZH253749", "provider": "smide", "range": 46.0, "size": 20, "time": "02/09/2020, 23:29:55"}, "type": "Feature"}, {"geometry": {"coordinates": [8.541422, 47.378964], "type": "Point"}, "properties": {"charge": 84, "id": "smide_130", "name": "ZH253847", "provider": "smide", "range": 42.0, "size": 20, "time": "02/09/2020, 23:29:55"}, "type": "Feature"}, {"geometry": {"coordinates": [8.524726, 47.3411], "type": "Point"}, "properties": {"charge": 85, "id": "smide_107", "name": "ZH253819", "provider": "smide", "range": 42.0, "size": 17, "time": "02/09/2020, 23:29:55"}, "type": "Feature"}, {"geometry": {"coordinates": [8.527122, 47.343676], "type": "Point"}, "properties": {"charge": 37, "id": "smide_136", "name": "ZH253682", "provider": "smide", "range": 18.0, "size": 17, "time": "02/09/2020, 23:29:55"}, "type": "Feature"}, {"geometry": {"coordinates": [8.514531, 47.362252], "type": "Point"}, "properties": {"charge": 100, "id": "smide_83", "name": "ZH253869", "provider": "smide", "range": 50.0, "size": 20, "time": "02/09/2020, 23:29:55"}, "type": "Feature"}, {"geometry": {"coordinates": [8.50183, 47.36894], "type": "Point"}, "properties": {"charge": 100, "id": "smide_205", "name": "ZH253805", "provider": "smide", "range": 50.0, "size": 17, "time": "02/09/2020, 23:29:55"}, "type": "Feature"}, {"geometry": {"coordinates": [8.483668, 47.39719], "type": "Point"}, "properties": {"charge": 26, "id": "smide_73", "name": "ZH261379", "provider": "smide", "range": 13.0, "size": 20, "time": "02/09/2020, 23:29:55"}, "type": "Feature"}, {"geometry": {"coordinates": [8.548909, 47.366432], "type": "Point"}, "properties": {"charge": 48, "id": "smide_100", "name": "ZH253862", "provider": "smide", "range": 24.0, "size": 20, "time": "02/09/2020, 23:29:55"}, "type": "Feature"}, {"geometry": {"coordinates": [8.516496, 47.397506], "type": "Point"}, "properties": {"charge": 83, "id": "smide_134", "name": "ZH253741", "provider": "smide", "range": 41.0, "size": 20, "time": "02/09/2020, 23:29:55"}, "type": "Feature"}, {"geometry": {"coordinates": [8.567543, 47.346441], "type": "Point"}, "properties": {"charge": 77, "id": "smide_141", "name": "ZH253800", "provider": "smide", "range": 38.0, "size": 20, "time": "02/09/2020, 23:29:55"}, "type": "Feature"}, {"geometry": {"coordinates": [8.572639, 47.351504], "type": "Point"}, "properties": {"charge": 65, "id": "smide_16", "name": "ZH253713", "provider": "smide", "range": 32.0, "size": 20, "time": "02/09/2020, 23:29:55"}, "type": "Feature"}, {"geometry": {"coordinates": [8.560421, 47.354705], "type": "Point"}, "properties": {"charge": 91, "id": "smide_33", "name": "ZH253782", "provider": "smide", "range": 45.0, "size": 20, "time": "02/09/2020, 23:29:55"}, "type": "Feature"}, {"geometry": {"coordinates": [8.496713, 47.382466], "type": "Point"}, "properties": {"charge": 100, "id": "smide_183", "name": "ZH253868", "provider": "smide", "range": 50.0, "size": 17, "time": "02/09/2020, 23:29:55"}, "type": "Feature"}, {"geometry": {"coordinates": [8.544274, 47.4164], "type": "Point"}, "properties": {"charge": 42, "id": "smide_4", "name": "ZH253740", "provider": "smide", "range": 21.0, "size": 20, "time": "02/09/2020, 23:29:55"}, "type": "Feature"}, {"geometry": {"coordinates": [8.496378, 47.392828], "type": "Point"}, "properties": {"charge": 98, "id": "smide_160", "name": "ZH253722", "provider": "smide", "range": 49.0, "size": 17, "time": "02/09/2020, 23:29:55"}, "type": "Feature"}, {"geometry": {"coordinates": [8.541108, 47.390893], "type": "Point"}, "properties": {"charge": 66, "id": "smide_137", "name": "ZH258502", "provider": "smide", "range": 33.0, "size": 17, "time": "02/09/2020, 23:29:55"}, "type": "Feature"}, {"geometry": {"coordinates": [8.506336, 47.360452], "type": "Point"}, "properties": {"charge": 100, "id": "smide_178", "name": "ZH253803", "provider": "smide", "range": 50.0, "size": 17, "time": "02/09/2020, 23:29:55"}, "type": "Feature"}, {"geometry": {"coordinates": [8.553433, 47.3977], "type": "Point"}, "properties": {"charge": 63, "id": "smide_55", "name": "ZH253875", "provider": "smide", "range": 31.0, "size": 17, "time": "02/09/2020, 23:29:55"}, "type": "Feature"}, {"geometry": {"coordinates": [8.554115, 47.357296], "type": "Point"}, "properties": {"charge": 88, "id": "smide_96", "name": "ZH256146", "provider": "smide", "range": 44.0, "size": 20, "time": "02/09/2020, 23:29:55"}, "type": "Feature"}, {"geometry": {"coordinates": [8.51864, 47.393588], "type": "Point"}, "properties": {"charge": 88, "id": "smide_58", "name": "ZH259246", "provider": "smide", "range": 44.0, "size": 20, "time": "02/09/2020, 23:29:55"}, "type": "Feature"}, {"geometry": {"coordinates": [8.47507, 47.385416], "type": "Point"}, "properties": {"charge": 98, "id": "smide_54", "name": "ZH253874", "provider": "smide", "range": 49.0, "size": 20, "time": "02/09/2020, 23:29:55"}, "type": "Feature"}, {"geometry": {"coordinates": [8.527859, 47.39156], "type": "Point"}, "properties": {"charge": 72, "id": "smide_175", "name": "ZH253730", "provider": "smide", "range": 36.0, "size": 17, "time": "02/09/2020, 23:29:55"}, "type": "Feature"}, {"geometry": {"coordinates": [8.540199, 47.378884], "type": "Point"}, "properties": {"charge": 100, "id": "smide_95", "name": "ZH253773", "provider": "smide", "range": 50.0, "size": 17, "time": "02/09/2020, 23:29:55"}, "type": "Feature"}, {"geometry": {"coordinates": [8.536473, 47.343648], "type": "Point"}, "properties": {"charge": 31, "id": "smide_163", "name": "ZH256147", "provider": "smide", "range": 15.0, "size": 20, "time": "02/09/2020, 23:29:55"}, "type": "Feature"}, {"geometry": {"coordinates": [8.528083, 47.413732], "type": "Point"}, "properties": {"charge": 61, "id": "smide_112", "name": "ZH263530", "provider": "smide", "range": 30.0, "size": 20, "time": "02/09/2020, 23:29:55"}, "type": "Feature"}, {"geometry": {"coordinates": [8.536874, 47.407244], "type": "Point"}, "properties": {"charge": 56, "id": "smide_122", "name": "ZH253850", "provider": "smide", "range": 28.0, "size": 20, "time": "02/09/2020, 23:29:55"}, "type": "Feature"}, {"geometry": {"coordinates": [8.558845, 47.414645], "type": "Point"}, "properties": {"charge": 15, "id": "smide_38", "name": "ZH253851", "provider": "smide", "range": 7.0, "size": 20, "time": "02/09/2020, 23:29:55"}, "type": "Feature"}, {"geometry": {"coordinates": [8.557773, 47.404396], "type": "Point"}, "properties": {"charge": 72, "id": "smide_6", "name": "ZH253787", "provider": "smide", "range": 36.0, "size": 17, "time": "02/09/2020, 23:29:55"}, "type": "Feature"}, {"geometry": {"coordinates": [8.523879, 47.38676], "type": "Point"}, "properties": {"charge": 100, "id": "smide_18", "name": "ZH253859", "provider": "smide", "range": 50.0, "size": 17, "time": "02/09/2020, 23:29:55"}, "type": "Feature"}, {"geometry": {"coordinates": [8.508761, 47.352696], "type": "Point"}, "properties": {"charge": 84, "id": "smide_12", "name": "ZH253685", "provider": "smide", "range": 42.0, "size": 17, "time": "02/09/2020, 23:29:55"}, "type": "Feature"}, {"geometry": {"coordinates": [8.518625, 47.380376], "type": "Point"}, "properties": {"charge": 38, "id": "smide_192", "name": "ZH253706", "provider": "smide", "range": 19.0, "size": 20, "time": "02/09/2020, 23:29:55"}, "type": "Feature"}, {"geometry": {"coordinates": [8.520008, 47.366764], "type": "Point"}, "properties": {"charge": 100, "id": "smide_39", "name": "ZH253714", "provider": "smide", "range": 50.0, "size": 20, "time": "02/09/2020, 23:29:55"}, "type": "Feature"}, {"geometry": {"coordinates": [8.532443, 47.383275], "type": "Point"}, "properties": {"charge": 43, "id": "smide_5", "name": "ZH261443", "provider": "smide", "range": 21.0, "size": 20, "time": "02/09/2020, 23:29:55"}, "type": "Feature"}, {"geometry": {"coordinates": [8.540115, 47.379048], "type": "Point"}, "properties": {"charge": 100, "id": "smide_29", "name": "ZH253723", "provider": "smide", "range": 50.0, "size": 17, "time": "02/09/2020, 23:29:55"}, "type": "Feature"}, {"geometry": {"coordinates": [8.554302, 47.37898], "type": "Point"}, "properties": {"charge": 62, "id": "smide_46", "name": "ZH253843", "provider": "smide", "range": 31.0, "size": 20, "time": "02/09/2020, 23:29:55"}, "type": "Feature"}, {"geometry": {"coordinates": [8.52237, 47.3661583333333], "type": "Point"}, "properties": {"charge": 21, "id": "bird_84cba757-5d88-4620-afd9-36a3f939717e", "provider": "bird", "timeStamp": "02/09/2020, 23:29:55"}, "type": "Feature"}, {"geometry": {"coordinates": [8.52483666666667, 47.3942866666667], "type": "Point"}, "properties": {"charge": 17, "id": "bird_33d4846c-b349-4a73-a4dc-4b23c150e562", "provider": "bird", "timeStamp": "02/09/2020, 23:29:55"}, "type": "Feature"}, {"geometry": {"coordinates": [8.508745, 47.37791], "type": "Point"}, "properties": {"charge": 52, "id": "bird_2c14cad8-ee7d-4391-b864-f1c59bd1afe2", "provider": "bird", "timeStamp": "02/09/2020, 23:29:55"}, "type": "Feature"}, {"geometry": {"coordinates": [8.53530666666667, 47.3939783333333], "type": "Point"}, "properties": {"charge": 65, "id": "bird_8c119ad9-61c9-4528-b2ba-500bfa00b57b", "provider": "bird", "timeStamp": "02/09/2020, 23:29:55"}, "type": "Feature"}, {"geometry": {"coordinates": [8.50873166666667, 47.3795516666667], "type": "Point"}, "properties": {"charge": 40, "id": "bird_31cc5cae-7c6e-435e-9a9d-6188897af8f2", "provider": "bird", "timeStamp": "02/09/2020, 23:29:55"}, "type": "Feature"}, {"geometry": {"coordinates": [8.54733666666667, 47.3717883333333], "type": "Point"}, "properties": {"charge": 26, "id": "bird_65be1494-891d-4b8e-a86f-e93a1e3f7613", "provider": "bird", "timeStamp": "02/09/2020, 23:29:55"}, "type": "Feature"}, {"geometry": {"coordinates": [8.51409, 47.3705666666667], "type": "Point"}, "properties": {"charge": 80, "id": "bird_c1ce8f55-8aa1-44f0-8a3c-16f3b0706ed8", "provider": "bird", "timeStamp": "02/09/2020, 23:29:55"}, "type": "Feature"}, {"geometry": {"coordinates": [8.529055, 47.394275], "type": "Point"}, "properties": {"charge": 55, "id": "bird_d74e1977-3b52-4803-931d-8ceb107f366b", "provider": "bird", "timeStamp": "02/09/2020, 23:29:55"}, "type": "Feature"}, {"geometry": {"coordinates": [8.51802666666667, 47.3917616666667], "type": "Point"}, "properties": {"charge": 62, "id": "bird_ec289e6b-7e69-4b9f-9518-4f920cca2eee", "provider": "bird", "timeStamp": "02/09/2020, 23:29:55"}, "type": "Feature"}, {"geometry": {"coordinates": [8.51518666666667, 47.36998], "type": "Point"}, "properties": {"charge": 35, "id": "bird_62369868-6896-4691-aa40-2d5c1ece0430", "provider": "bird", "timeStamp": "02/09/2020, 23:29:55"}, "type": "Feature"}, {"geometry": {"coordinates": [8.53228166666667, 47.3659933333333], "type": "Point"}, "properties": {"charge": 20, "id": "bird_4d34ee37-9199-47d3-be95-eda339c3d1ac", "provider": "bird", "timeStamp": "02/09/2020, 23:29:55"}, "type": "Feature"}, {"geometry": {"coordinates": [8.54050333333333, 47.3679016666667], "type": "Point"}, "properties": {"charge": 19, "id": "bird_cc65699b-a4c2-4328-bee8-f6d5471eba2e", "provider": "bird", "timeStamp": "02/09/2020, 23:29:55"}, "type": "Feature"}, {"geometry": {"coordinates": [8.51008, 47.37632], "type": "Point"}, "properties": {"charge": 48, "id": "bird_a11e84a5-9478-48d4-ad29-f82668d60a12", "provider": "bird", "timeStamp": "02/09/2020, 23:29:55"}, "type": "Feature"}, {"geometry": {"coordinates": [8.5418, 47.36856], "type": "Point"}, "properties": {"charge": 29, "id": "bird_3ec92a34-6d20-4906-9f66-5437a611a11c", "provider": "bird", "timeStamp": "02/09/2020, 23:29:55"}, "type": "Feature"}, {"geometry": {"coordinates": [8.53224, 47.39383], "type": "Point"}, "properties": {"charge": 35, "id": "bird_9cd6d8ab-7b24-4cfa-b47a-e99f559c58c3", "provider": "bird", "timeStamp": "02/09/2020, 23:29:55"}, "type": "Feature"}, {"geometry": {"coordinates": [8.53484833333333, 47.3665616666667], "type": "Point"}, "properties": {"charge": 22, "id": "bird_a98ed895-7bb2-459d-b928-1f70d3a28f38", "provider": "bird", "timeStamp": "02/09/2020, 23:29:55"}, "type": "Feature"}, {"geometry": {"coordinates": [8.546135, 47.37154], "type": "Point"}, "properties": {"charge": 62, "id": "bird_aac43bd6-0269-470e-b5dd-1ddf9bf15d86", "provider": "bird", "timeStamp": "02/09/2020, 23:29:55"}, "type": "Feature"}, {"geometry": {"coordinates": [8.53475833333333, 47.3665966666667], "type": "Point"}, "properties": {"charge": 43, "id": "bird_86974c34-d253-46bc-9505-259c91716d3a", "provider": "bird", "timeStamp": "02/09/2020, 23:29:55"}, "type": "Feature"}, {"geometry": {"coordinates": [8.517205, 47.3906516666667], "type": "Point"}, "properties": {"charge": 35, "id": "bird_178897fb-ce00-4cb6-8222-eb47c7d23316", "provider": "bird", "timeStamp": "02/09/2020, 23:29:55"}, "type": "Feature"}, {"geometry": {"coordinates": [8.53482833333333, 47.3666683333333], "type": "Point"}, "properties": {"charge": 39, "id": "bird_bceed4e9-4fb0-4c8c-a0ab-32faa5fdad20", "provider": "bird", "timeStamp": "02/09/2020, 23:29:55"}, "type": "Feature"}, {"geometry": {"coordinates": [8.53492833333333, 47.3666916666667], "type": "Point"}, "properties": {"charge": 34, "id": "bird_f241140c-6c5c-4a22-9449-a8b6fab1b8fb", "provider": "bird", "timeStamp": "02/09/2020, 23:29:55"}, "type": "Feature"}, {"geometry": {"coordinates": [8.54802833333333, 47.38615], "type": "Point"}, "properties": {"charge": 53, "id": "bird_2649efd7-948d-49ae-aa45-8669ae1f8978", "provider": "bird", "timeStamp": "02/09/2020, 23:29:55"}, "type": "Feature"}, {"geometry": {"coordinates": [8.51334166666667, 47.372425], "type": "Point"}, "properties": {"charge": 40, "id": "bird_4b0593ac-a423-4f0b-851f-8e0f7a6edde5", "provider": "bird", "timeStamp": "02/09/2020, 23:29:55"}, "type": "Feature"}, {"geometry": {"coordinates": [8.51338333333333, 47.3724016666667], "type": "Point"}, "properties": {"charge": 48, "id": "bird_b44b394e-711b-4561-8c67-1d815b88604b", "provider": "bird", "timeStamp": "02/09/2020, 23:29:55"}, "type": "Feature"}, {"geometry": {"coordinates": [8.51865333333333, 47.36882], "type": "Point"}, "properties": {"charge": 31, "id": "bird_58d27b29-b059-43ae-bcbf-80bc618778c7", "provider": "bird", "timeStamp": "02/09/2020, 23:29:55"}, "type": "Feature"}, {"geometry": {"coordinates": [8.548585, 47.3848116666667], "type": "Point"}, "properties": {"charge": 21, "id": "bird_dca26727-c1bb-4c07-aeba-cc27fd747cc1", "provider": "bird", "timeStamp": "02/09/2020, 23:29:55"}, "type": "Feature"}, {"geometry": {"coordinates": [8.54066666666667, 47.39135], "type": "Point"}, "properties": {"charge": 36, "id": "bird_3b636d2b-9c94-402e-9fb9-f2a1ef996b77", "provider": "bird", "timeStamp": "02/09/2020, 23:29:55"}, "type": "Feature"}, {"geometry": {"coordinates": [8.54358166666667, 47.3702083333333], "type": "Point"}, "properties": {"charge": 22, "id": "bird_f3b0528c-af08-479c-894e-7af1f030511b", "provider": "bird", "timeStamp": "02/09/2020, 23:29:55"}, "type": "Feature"}, {"geometry": {"coordinates": [8.52935193114916, 47.3933752175746], "type": "Point"}, "properties": {"charge": 98, "id": "bird_0d07033d-0a31-4f35-80c9-fa3676a123b0", "provider": "bird", "timeStamp": "02/09/2020, 23:29:55"}, "type": "Feature"}, {"geometry": {"coordinates": [8.51029166666667, 47.3794816666667], "type": "Point"}, "properties": {"charge": 54, "id": "bird_5386983b-01cb-4896-9b05-94a7eddd11af", "provider": "bird", "timeStamp": "02/09/2020, 23:29:55"}, "type": "Feature"}, {"geometry": {"coordinates": [8.51280833333333, 47.3735283333333], "type": "Point"}, "properties": {"charge": 38, "id": "bird_7136392b-6a31-4f7b-9c51-77752499a345", "provider": "bird", "timeStamp": "02/09/2020, 23:29:55"}, "type": "Feature"}, {"geometry": {"coordinates": [8.51322333333333, 47.3730933333333], "type": "Point"}, "properties": {"charge": 55, "id": "bird_2eca51b5-2211-4206-a688-be7bb71dbd8e", "provider": "bird", "timeStamp": "02/09/2020, 23:29:55"}, "type": "Feature"}, {"geometry": {"coordinates": [8.531805, 47.3932233333333], "type": "Point"}, "properties": {"charge": 31, "id": "bird_c71435bb-341f-4a85-9103-3c9f7cd8ba4e", "provider": "bird", "timeStamp": "02/09/2020, 23:29:55"}, "type": "Feature"}, {"geometry": {"coordinates": [8.52566833333333, 47.39286], "type": "Point"}, "properties": {"charge": 34, "id": "bird_d9092592-fb69-4498-ab37-0692bedf88fc", "provider": "bird", "timeStamp": "02/09/2020, 23:29:55"}, "type": "Feature"}, {"geometry": {"coordinates": [8.54378666666667, 47.389195], "type": "Point"}, "properties": {"charge": 13, "id": "bird_d833b36d-db26-49b5-ae96-0198873097af", "provider": "bird", "timeStamp": "02/09/2020, 23:29:55"}, "type": "Feature"}, {"geometry": {"coordinates": [8.53411833333333, 47.3672033333333], "type": "Point"}, "properties": {"charge": 57, "id": "bird_bbfb2dae-8401-438e-804f-3e0c1a84c8cd", "provider": "bird", "timeStamp": "02/09/2020, 23:29:55"}, "type": "Feature"}, {"geometry": {"coordinates": [8.53344833333333, 47.367115], "type": "Point"}, "properties": {"charge": 54, "id": "bird_938e7a51-bf11-4fb4-b5af-d2900255c385", "provider": "bird", "timeStamp": "02/09/2020, 23:29:55"}, "type": "Feature"}, {"geometry": {"coordinates": [8.51140166666667, 47.376575], "type": "Point"}, "properties": {"charge": 48, "id": "bird_383fe156-4c9f-4b40-96f6-25c021f30179", "provider": "bird", "timeStamp": "02/09/2020, 23:29:55"}, "type": "Feature"}, {"geometry": {"coordinates": [8.510925, 47.381195], "type": "Point"}, "properties": {"charge": 19, "id": "bird_08fd46f8-0a8c-4213-b0f5-3930c3fe8d1b", "provider": "bird", "timeStamp": "02/09/2020, 23:29:55"}, "type": "Feature"}, {"geometry": {"coordinates": [8.51094333333333, 47.3811716666667], "type": "Point"}, "properties": {"charge": 28, "id": "bird_df17e70d-f5cb-4273-bcb8-ed2aaebcf905", "provider": "bird", "timeStamp": "02/09/2020, 23:29:55"}, "type": "Feature"}, {"geometry": {"coordinates": [8.51095166666667, 47.3811916666667], "type": "Point"}, "properties": {"charge": 13, "id": "bird_5feaf06f-bda9-439c-bcb3-635359c95204", "provider": "bird", "timeStamp": "02/09/2020, 23:29:55"}, "type": "Feature"}, {"geometry": {"coordinates": [8.510965, 47.3812133333333], "type": "Point"}, "properties": {"charge": 21, "id": "bird_eadc1c0e-cfef-4dd8-bdaf-51d2bb8014fc", "provider": "bird", "timeStamp": "02/09/2020, 23:29:55"}, "type": "Feature"}, {"geometry": {"coordinates": [8.510985, 47.3812183333333], "type": "Point"}, "properties": {"charge": 19, "id": "bird_78187e83-53e7-4ff7-b29c-7e8da6722b9f", "provider": "bird", "timeStamp": "02/09/2020, 23:29:55"}, "type": "Feature"}, {"geometry": {"coordinates": [8.51098666666667, 47.3811833333333], "type": "Point"}, "properties": {"charge": 28, "id": "bird_95f88f21-7efe-48a8-9093-87eb4f61585e", "provider": "bird", "timeStamp": "02/09/2020, 23:29:55"}, "type": "Feature"}, {"geometry": {"coordinates": [8.54216166666667, 47.3899616666667], "type": "Point"}, "properties": {"charge": 53, "id": "bird_4eaec482-5e53-4ef2-842c-ed3868d7e974", "provider": "bird", "timeStamp": "02/09/2020, 23:29:55"}, "type": "Feature"}, {"geometry": {"coordinates": [8.51091833333333, 47.380215], "type": "Point"}, "properties": {"charge": 35, "id": "bird_799c0234-4d9d-438e-9e92-54e25c8e0820", "provider": "bird", "timeStamp": "02/09/2020, 23:29:55"}, "type": "Feature"}, {"geometry": {"coordinates": [8.54024, 47.36911], "type": "Point"}, "properties": {"charge": 46, "id": "bird_3ce633a6-2c4b-4fa8-87f0-f7cc021330ef", "provider": "bird", "timeStamp": "02/09/2020, 23:29:55"}, "type": "Feature"}, {"geometry": {"coordinates": [8.541595, 47.3697616666667], "type": "Point"}, "properties": {"charge": 69, "id": "bird_61b76da4-21fd-49c8-b53f-0904d821f3a3", "provider": "bird", "timeStamp": "02/09/2020, 23:29:55"}, "type": "Feature"}, {"geometry": {"coordinates": [8.53361, 47.36737], "type": "Point"}, "properties": {"charge": 33, "id": "bird_f439d1bb-a997-4d70-8317-38afbbf54469", "provider": "bird", "timeStamp": "02/09/2020, 23:29:55"}, "type": "Feature"}, {"geometry": {"coordinates": [8.51149833333333, 47.382855], "type": "Point"}, "properties": {"charge": 47, "id": "bird_1bd72a29-9d20-4a28-9c3e-bf3f652432c0", "provider": "bird", "timeStamp": "02/09/2020, 23:29:55"}, "type": "Feature"}, {"geometry": {"coordinates": [8.51227833333333, 47.3760116666667], "type": "Point"}, "properties": {"charge": 35, "id": "bird_20662da9-0b2e-4c71-b019-8ec2da8419d9", "provider": "bird", "timeStamp": "02/09/2020, 23:29:55"}, "type": "Feature"}, {"geometry": {"coordinates": [8.546255, 47.3739733333333], "type": "Point"}, "properties": {"charge": 43, "id": "bird_1408e760-1121-4612-a8cb-63f698054651", "provider": "bird", "timeStamp": "02/09/2020, 23:29:55"}, "type": "Feature"}, {"geometry": {"coordinates": [8.53792, 47.3913383333333], "type": "Point"}, "properties": {"charge": 66, "id": "bird_9132292f-9382-44ee-83cc-dd50f1fc42cf", "provider": "bird", "timeStamp": "02/09/2020, 23:29:55"}, "type": "Feature"}, {"geometry": {"coordinates": [8.51412166666667, 47.3736], "type": "Point"}, "properties": {"charge": 26, "id": "bird_0eda1e15-5d85-4e78-9bde-e3fbd2f8edef", "provider": "bird", "timeStamp": "02/09/2020, 23:29:55"}, "type": "Feature"}, {"geometry": {"coordinates": [8.537965, 47.3912816666667], "type": "Point"}, "properties": {"charge": 42, "id": "bird_abb31544-4d9d-427e-b455-ab26e08c2db4", "provider": "bird", "timeStamp": "02/09/2020, 23:29:55"}, "type": "Feature"}, {"geometry": {"coordinates": [8.53316333333333, 47.3923033333333], "type": "Point"}, "properties": {"charge": 69, "id": "bird_dd008e0e-b759-4bdb-b6c8-abcc8940fb65", "provider": "bird", "timeStamp": "02/09/2020, 23:29:55"}, "type": "Feature"}, {"geometry": {"coordinates": [8.53315666666667, 47.3922966666667], "type": "Point"}, "properties": {"charge": 71, "id": "bird_22b1885c-a5c9-4f97-9e8d-3403f5b46fc7", "provider": "bird", "timeStamp": "02/09/2020, 23:29:55"}, "type": "Feature"}, {"geometry": {"coordinates": [8.53317666666667, 47.3922883333333], "type": "Point"}, "properties": {"charge": 58, "id": "bird_0eafb872-1d0d-4d0a-a9b5-c3c05d4f280d", "provider": "bird", "timeStamp": "02/09/2020, 23:29:55"}, "type": "Feature"}, {"geometry": {"coordinates": [8.546875, 47.3849983333333], "type": "Point"}, "properties": {"charge": 35, "id": "bird_2884fc09-8fdf-41f2-906b-e590aa4d10d0", "provider": "bird", "timeStamp": "02/09/2020, 23:29:55"}, "type": "Feature"}, {"geometry": {"coordinates": [8.537245, 47.3685383333333], "type": "Point"}, "properties": {"charge": 22, "id": "bird_85bff229-d601-435b-befc-dd48b4b54508", "provider": "bird", "timeStamp": "02/09/2020, 23:29:55"}, "type": "Feature"}, {"geometry": {"coordinates": [8.533155, 47.3922733333333], "type": "Point"}, "properties": {"charge": 71, "id": "bird_4b73f711-f572-474a-9248-2724ad71d6e6", "provider": "bird", "timeStamp": "02/09/2020, 23:29:55"}, "type": "Feature"}, {"geometry": {"coordinates": [8.53740666666667, 47.3913533333333], "type": "Point"}, "properties": {"charge": 66, "id": "bird_31f1bc28-5e1f-45bf-a9ce-3559436b1bab", "provider": "bird", "timeStamp": "02/09/2020, 23:29:55"}, "type": "Feature"}, {"geometry": {"coordinates": [8.540025, 47.3697133333333], "type": "Point"}, "properties": {"charge": 25, "id": "bird_2b578619-0bda-45b3-8642-163bfabfdc65", "provider": "bird", "timeStamp": "02/09/2020, 23:29:55"}, "type": "Feature"}, {"geometry": {"coordinates": [8.51333166666667, 47.3751366666667], "type": "Point"}, "properties": {"charge": 60, "id": "bird_29686fc0-1b1c-446c-a14c-de9274b789da", "provider": "bird", "timeStamp": "02/09/2020, 23:29:55"}, "type": "Feature"}, {"geometry": {"coordinates": [8.54559, 47.3737566666667], "type": "Point"}, "properties": {"charge": 36, "id": "bird_122eb6b4-69f2-4904-a8fa-9fd480605126", "provider": "bird", "timeStamp": "02/09/2020, 23:29:55"}, "type": "Feature"}, {"geometry": {"coordinates": [8.52381, 47.3685416666667], "type": "Point"}, "properties": {"charge": 69, "id": "bird_1e40de32-f981-4ba9-8201-80db19a9f3e6", "provider": "bird", "timeStamp": "02/09/2020, 23:29:55"}, "type": "Feature"}, {"geometry": {"coordinates": [8.54581, 47.3858483333333], "type": "Point"}, "properties": {"charge": 54, "id": "bird_c9a7c4c7-70cb-42d3-b09f-a0eff39f4764", "provider": "bird", "timeStamp": "02/09/2020, 23:29:55"}, "type": "Feature"}, {"geometry": {"coordinates": [8.544645, 47.3870933333333], "type": "Point"}, "properties": {"charge": 42, "id": "bird_20332607-d8ba-462f-81e5-bb65dae45381", "provider": "bird", "timeStamp": "02/09/2020, 23:29:55"}, "type": "Feature"}, {"geometry": {"coordinates": [8.54543166666667, 47.3737566666667], "type": "Point"}, "properties": {"charge": 47, "id": "bird_9b7762ed-d58a-486c-a4a8-1326f07b53f9", "provider": "bird", "timeStamp": "02/09/2020, 23:29:55"}, "type": "Feature"}, {"geometry": {"coordinates": [8.51728, 47.3714066666667], "type": "Point"}, "properties": {"charge": 42, "id": "bird_7e345870-5490-40cd-b8ec-0e34cd2a6040", "provider": "bird", "timeStamp": "02/09/2020, 23:29:55"}, "type": "Feature"}, {"geometry": {"coordinates": [8.5448, 47.3731383333333], "type": "Point"}, "properties": {"charge": 28, "id": "bird_c8f1e63d-e837-4664-940b-0fc819fec028", "provider": "bird", "timeStamp": "02/09/2020, 23:29:55"}, "type": "Feature"}, {"geometry": {"coordinates": [8.51496833333333, 47.3733833333333], "type": "Point"}, "properties": {"charge": 34, "id": "bird_19eac986-8d7c-457a-893f-c4872f1dc18c", "provider": "bird", "timeStamp": "02/09/2020, 23:29:55"}, "type": "Feature"}, {"geometry": {"coordinates": [8.515375, 47.3730233333333], "type": "Point"}, "properties": {"charge": 89, "id": "bird_01ea17b5-497a-4dde-b159-cc8b1480cfe9", "provider": "bird", "timeStamp": "02/09/2020, 23:29:55"}, "type": "Feature"}, {"geometry": {"coordinates": [8.53383666666667, 47.3918233333333], "type": "Point"}, "properties": {"charge": 47, "id": "bird_30aadb47-400b-44af-99a0-d3f552f17b65", "provider": "bird", "timeStamp": "02/09/2020, 23:29:55"}, "type": "Feature"}, {"geometry": {"coordinates": [8.53641, 47.3912933333333], "type": "Point"}, "properties": {"charge": 73, "id": "bird_178edeb3-cee5-40cd-9e26-34f82cddb981", "provider": "bird", "timeStamp": "02/09/2020, 23:29:55"}, "type": "Feature"}, {"geometry": {"coordinates": [8.53647, 47.3912733333333], "type": "Point"},