{"features": [{"geometry": {"coordinates": [8.540062, 47.374392], "type": "Point"}, "properties": {"address": "Uraniastrasse 7", "electric": 6, "id": "pb_60", "manual": 5, "name": "Demo Station Werdm\u00fchleplatz", "provider": "publibike", "timeStamp": "02/02/2020, 00:59:11", "zip": 8001}, "type": "Feature"}, {"geometry": {"coordinates": [8.5452956, 47.4099615], "type": "Point"}, "properties": {"address": "Querstrasse 8", "electric": 4, "id": "pb_61", "manual": 3, "name": "Marktplatz", "provider": "publibike", "timeStamp": "02/02/2020, 00:59:11", "zip": 8050}, "type": "Feature"}, {"geometry": {"coordinates": [8.5156327, 47.3795837], "type": "Point"}, "properties": {"address": "Bullingerstrasse 5", "electric": 6, "id": "pb_80", "manual": 8, "name": "Bullingerplatz", "provider": "publibike", "timeStamp": "02/02/2020, 00:59:11", "zip": 8004}, "type": "Feature"}, {"geometry": {"coordinates": [8.5104051, 47.3899342], "type": "Point"}, "properties": {"address": "Pfingstweidstrasse 96e", "electric": 0, "id": "pb_81", "manual": 2, "name": "Herdern", "provider": "publibike", "timeStamp": "02/02/2020, 00:59:11", "zip": 8001}, "type": "Feature"}, {"geometry": {"coordinates": [8.535718, 47.359675], "type": "Point"}, "properties": {"address": "Mythenquai 50", "electric": 0, "id": "pb_82", "manual": 0, "name": "Hafen Enge", "provider": "publibike", "timeStamp": "02/02/2020, 00:59:11", "zip": 8002}, "type": "Feature"}, {"geometry": {"coordinates": [8.520370505, 47.358663827], "type": "Point"}, "properties": {"address": "Bubenbergstrasse 1", "electric": 4, "id": "pb_83", "manual": 5, "name": "Comerge", "provider": "publibike", "timeStamp": "02/02/2020, 00:59:11", "zip": 8045}, "type": "Feature"}, {"geometry": {"coordinates": [8.5412505, 47.3789825], "type": "Point"}, "properties": {"address": "Museumstrasse 2", "electric": 17, "id": "pb_84", "manual": 22, "name": "Landesmuseum", "provider": "publibike", "timeStamp": "02/02/2020, 00:59:11", "zip": 8001}, "type": "Feature"}, {"geometry": {"coordinates": [8.5235479, 47.3716661], "type": "Point"}, "properties": {"address": "Birmensdorferstrasse 80", "electric": 0, "id": "pb_85", "manual": 6, "name": "Bahnhof Wiedikon", "provider": "publibike", "timeStamp": "02/02/2020, 00:59:11", "zip": 8003}, "type": "Feature"}, {"geometry": {"coordinates": [8.506822854, 47.40781197], "type": "Point"}, "properties": {"address": "Stefano-Franscini-Platz 5", "electric": 1, "id": "pb_86", "manual": 0, "name": "ETH H\u00f6nggerberg", "provider": "publibike", "timeStamp": "02/02/2020, 00:59:11", "zip": 8093}, "type": "Feature"}, {"geometry": {"coordinates": [8.536101, 47.371083], "type": "Point"}, "properties": {"address": "Pelikanplatz 5", "electric": 2, "id": "pb_87", "manual": 8, "name": "Pelikanplatz", "provider": "publibike", "timeStamp": "02/02/2020, 00:59:11", "zip": 8001}, "type": "Feature"}, {"geometry": {"coordinates": [8.5257822, 47.3651936], "type": "Point"}, "properties": {"address": "H\u00fcrlimannplatz 90", "electric": 3, "id": "pb_88", "manual": 4, "name": "H\u00fcrlimannplatz", "provider": "publibike", "timeStamp": "02/02/2020, 00:59:11", "zip": 8002}, "type": "Feature"}, {"geometry": {"coordinates": [8.5313344, 47.3713591], "type": "Point"}, "properties": {"address": "Selnaustrasse 32", "electric": 1, "id": "pb_89", "manual": 4, "name": "Stauffacherbr\u00fccke", "provider": "publibike", "timeStamp": "02/02/2020, 00:59:11", "zip": 8001}, "type": "Feature"}, {"geometry": {"coordinates": [8.5056978, 47.3917964], "type": "Point"}, "properties": {"address": "Sportweg 25", "electric": 1, "id": "pb_90", "manual": 7, "name": "Sportweg", "provider": "publibike", "timeStamp": "02/02/2020, 00:59:11", "zip": 8005}, "type": "Feature"}, {"geometry": {"coordinates": [8.5181701, 47.3917837], "type": "Point"}, "properties": {"address": "Hardturmstrasse 11", "electric": 2, "id": "pb_91", "manual": 5, "name": "Puls 5", "provider": "publibike", "timeStamp": "02/02/2020, 00:59:11", "zip": 8005}, "type": "Feature"}, {"geometry": {"coordinates": [8.5286468, 47.3820827], "type": "Point"}, "properties": {"address": "R\u00f6ntgenstrasse 6", "electric": 9, "id": "pb_92", "manual": 0, "name": "R\u00f6ntgenstrasse", "provider": "publibike", "timeStamp": "02/02/2020, 00:59:11", "zip": 8005}, "type": "Feature"}, {"geometry": {"coordinates": [8.531935, 47.384918], "type": "Point"}, "properties": {"address": "Kornhausbr\u00fccke 1", "electric": 4, "id": "pb_93", "manual": 3, "name": "Limmatplatz", "provider": "publibike", "timeStamp": "02/02/2020, 00:59:11", "zip": 8005}, "type": "Feature"}, {"geometry": {"coordinates": [8.5354006, 47.3758639], "type": "Point"}, "properties": {"address": "Gessnerallee 15", "electric": 0, "id": "pb_94", "manual": 0, "name": "Gessnerallee", "provider": "publibike", "timeStamp": "02/02/2020, 00:59:11", "zip": 8001}, "type": "Feature"}, {"geometry": {"coordinates": [8.523818, 47.377148], "type": "Point"}, "properties": {"address": "Stauffacherstrasse 127", "electric": 5, "id": "pb_95", "manual": 6, "name": "B\u00e4ckeranlage", "provider": "publibike", "timeStamp": "02/02/2020, 00:59:11", "zip": 8004}, "type": "Feature"}, {"geometry": {"coordinates": [8.531836, 47.378548], "type": "Point"}, "properties": {"address": "Lagerstrasse 44", "electric": 6, "id": "pb_96", "manual": 7, "name": "Gustav-Gull-Platz", "provider": "publibike", "timeStamp": "02/02/2020, 00:59:11", "zip": 8004}, "type": "Feature"}, {"geometry": {"coordinates": [8.5104883, 47.3771535], "type": "Point"}, "properties": {"address": "Zurlindenstrasse 291", "electric": 0, "id": "pb_97", "manual": 1, "name": "Zurlindenstrasse", "provider": "publibike", "timeStamp": "02/02/2020, 00:59:11", "zip": 8003}, "type": "Feature"}, {"geometry": {"coordinates": [8.5333139, 47.3731102], "type": "Point"}, "properties": {"address": "Sihlstrasse 81", "electric": 3, "id": "pb_98", "manual": 0, "name": "Sihlstrasse", "provider": "publibike", "timeStamp": "02/02/2020, 00:59:11", "zip": 8001}, "type": "Feature"}, {"geometry": {"coordinates": [8.520532, 47.374951], "type": "Point"}, "properties": {"address": "Feldstrasse 24", "electric": 1, "id": "pb_99", "manual": 2, "name": "Kalkbreite", "provider": "publibike", "timeStamp": "02/02/2020, 00:59:11", "zip": 8004}, "type": "Feature"}, {"geometry": {"coordinates": [8.539046, 47.368064], "type": "Point"}, "properties": {"address": "Talstrasse 12", "electric": 3, "id": "pb_100", "manual": 8, "name": "Z\u00fcrcher Kantonalbank", "provider": "publibike", "timeStamp": "02/02/2020, 00:59:11", "zip": 8001}, "type": "Feature"}, {"geometry": {"coordinates": [8.5348427, 47.3625938], "type": "Point"}, "properties": {"address": "Breitingerstrasse 5", "electric": 1, "id": "pb_101", "manual": 3, "name": "Rentenanstalt", "provider": "publibike", "timeStamp": "02/02/2020, 00:59:11", "zip": 8002}, "type": "Feature"}, {"geometry": {"coordinates": [8.5166922, 47.3897772], "type": "Point"}, "properties": {"address": "Technoparkstrasse 4", "electric": 2, "id": "pb_102", "manual": 9, "name": "Turbinenplatz", "provider": "publibike", "timeStamp": "02/02/2020, 00:59:11", "zip": 8005}, "type": "Feature"}, {"geometry": {"coordinates": [8.539312, 47.3739964], "type": "Point"}, "properties": {"address": "Oetenbachgasse 14", "electric": 3, "id": "pb_104", "manual": 15, "name": "Rennweg", "provider": "publibike", "timeStamp": "02/02/2020, 00:59:11", "zip": 8001}, "type": "Feature"}, {"geometry": {"coordinates": [8.5360685, 47.3775022], "type": "Point"}, "properties": {"address": "Kasernenstrasse 101", "electric": 14, "id": "pb_105", "manual": 43, "name": "Sihlpost", "provider": "publibike", "timeStamp": "02/02/2020, 00:59:11", "zip": 8004}, "type": "Feature"}, {"geometry": {"coordinates": [8.53545, 47.382798], "type": "Point"}, "properties": {"address": "Ausstellungsstrasse 44", "electric": 15, "id": "pb_106", "manual": 1, "name": "Museum f\u00fcr Gestaltung", "provider": "publibike", "timeStamp": "02/02/2020, 00:59:11", "zip": 8005}, "type": "Feature"}, {"geometry": {"coordinates": [8.5306155, 47.3647902], "type": "Point"}, "properties": {"address": "Gutenbergstrasse 1", "electric": 0, "id": "pb_107", "manual": 3, "name": "Bederbr\u00fccke", "provider": "publibike", "timeStamp": "02/02/2020, 00:59:11", "zip": 8002}, "type": "Feature"}, {"geometry": {"coordinates": [8.518982, 47.386741], "type": "Point"}, "properties": {"address": "Geroldstrasse 4", "electric": 0, "id": "pb_108", "manual": 5, "name": "Bahnhof Hardbr\u00fccke", "provider": "publibike", "timeStamp": "02/02/2020, 00:59:11", "zip": 8005}, "type": "Feature"}, {"geometry": {"coordinates": [8.53001018, 47.37247535], "type": "Point"}, "properties": {"address": "Werdstrasse 21", "electric": 0, "id": "pb_109", "manual": 2, "name": "Tamedia", "provider": "publibike", "timeStamp": "02/02/2020, 00:59:11", "zip": 8004}, "type": "Feature"}, {"geometry": {"coordinates": [8.4860017, 47.396401], "type": "Point"}, "properties": {"address": "Gr\u00fcnauring 37", "electric": 9, "id": "pb_110", "manual": 3, "name": "Gr\u00fcnau", "provider": "publibike", "timeStamp": "02/02/2020, 00:59:11", "zip": 8064}, "type": "Feature"}, {"geometry": {"coordinates": [8.548519, 47.376756], "type": "Point"}, "properties": {"address": "R\u00e4mistrasse 101", "electric": 0, "id": "pb_111", "manual": 0, "name": "ETH Zentrum", "provider": "publibike", "timeStamp": "02/02/2020, 00:59:11", "zip": 8006}, "type": "Feature"}, {"geometry": {"coordinates": [8.520449, 47.388151], "type": "Point"}, "properties": {"address": "Josefstrasse 224", "electric": 2, "id": "pb_112", "manual": 5, "name": "Steinfelsareal", "provider": "publibike", "timeStamp": "02/02/2020, 00:59:11", "zip": 8005}, "type": "Feature"}, {"geometry": {"coordinates": [8.520482, 47.37209], "type": "Point"}, "properties": {"address": "Weststrasse 115", "electric": 9, "id": "pb_124", "manual": 3, "name": "Weststrasse", "provider": "publibike", "timeStamp": "02/02/2020, 00:59:11", "zip": 8003}, "type": "Feature"}, {"geometry": {"coordinates": [8.496727, 47.378521], "type": "Point"}, "properties": {"address": "Albisriederstrasse 200", "electric": 3, "id": "pb_125", "manual": 2, "name": "Utogrund", "provider": "publibike", "timeStamp": "02/02/2020, 00:59:11", "zip": 8047}, "type": "Feature"}, {"geometry": {"coordinates": [8.510418, 47.381356], "type": "Point"}, "properties": {"address": "Bullingerstrasse 73", "electric": 7, "id": "pb_126", "manual": 7, "name": "Hardau", "provider": "publibike", "timeStamp": "02/02/2020, 00:59:11", "zip": 8004}, "type": "Feature"}, {"geometry": {"coordinates": [8.525525, 47.361567], "type": "Point"}, "properties": {"address": "Klopstockstrasse 23", "electric": 7, "id": "pb_127", "manual": 1, "name": "Klopstockwiese", "provider": "publibike", "timeStamp": "02/02/2020, 00:59:11", "zip": 8002}, "type": "Feature"}, {"geometry": {"coordinates": [8.518143, 47.363148], "type": "Point"}, "properties": {"address": "Haldenstrasse 8", "electric": 0, "id": "pb_128", "manual": 2, "name": "Binz", "provider": "publibike", "timeStamp": "02/02/2020, 00:59:11", "zip": 8045}, "type": "Feature"}, {"geometry": {"coordinates": [8.542726, 47.379952], "type": "Point"}, "properties": {"address": "Walchestrasse 11", "electric": 1, "id": "pb_129", "manual": 1, "name": "Stampfenbachplatz", "provider": "publibike", "timeStamp": "02/02/2020, 00:59:11", "zip": 8006}, "type": "Feature"}, {"geometry": {"coordinates": [8.488108, 47.391366], "type": "Point"}, "properties": {"address": "Altstetterplatz 1", "electric": 9, "id": "pb_130", "manual": 6, "name": "Bahnhof Altstetten", "provider": "publibike", "timeStamp": "02/02/2020, 00:59:11", "zip": 8048}, "type": "Feature"}, {"geometry": {"coordinates": [8.554114, 47.365119], "type": "Point"}, "properties": {"address": "Kreuzplatz 2", "electric": 5, "id": "pb_131", "manual": 2, "name": "Kreuzplatz", "provider": "publibike", "timeStamp": "02/02/2020, 00:59:11", "zip": 8032}, "type": "Feature"}, {"geometry": {"coordinates": [8.549852, 47.35594], "type": "Point"}, "properties": {"address": "H\u00f6schgasse 3", "electric": 7, "id": "pb_132", "manual": 8, "name": "Blatterwiese", "provider": "publibike", "timeStamp": "02/02/2020, 00:59:11", "zip": 8008}, "type": "Feature"}, {"geometry": {"coordinates": [8.554501, 47.36162], "type": "Point"}, "properties": {"address": "Feldeggstrasse 80", "electric": 2, "id": "pb_133", "manual": 2, "name": "Villa Bleuler", "provider": "publibike", "timeStamp": "02/02/2020, 00:59:11", "zip": 8008}, "type": "Feature"}, {"geometry": {"coordinates": [8.557088, 47.358557], "type": "Point"}, "properties": {"address": "M\u00fchlebachstrasse 131", "electric": 3, "id": "pb_134", "manual": 1, "name": "M\u00fchlebachstrasse", "provider": "publibike", "timeStamp": "02/02/2020, 00:59:11", "zip": 8008}, "type": "Feature"}, {"geometry": {"coordinates": [8.547639, 47.361266], "type": "Point"}, "properties": {"address": "Utoquai 50", "electric": 5, "id": "pb_135", "manual": 7, "name": "Seebad Utoquai", "provider": "publibike", "timeStamp": "02/02/2020, 00:59:11", "zip": 8008}, "type": "Feature"}, {"geometry": {"coordinates": [8.548045, 47.370869], "type": "Point"}, "properties": {"address": "Heimplatz 1", "electric": 2, "id": "pb_137", "manual": 0, "name": "Kunsthaus", "provider": "publibike", "timeStamp": "02/02/2020, 00:59:11", "zip": 8001}, "type": "Feature"}, {"geometry": {"coordinates": [8.543447, 47.375933], "type": "Point"}, "properties": {"address": "Limmatquai 138", "electric": 2, "id": "pb_138", "manual": 3, "name": "Central", "provider": "publibike", "timeStamp": "02/02/2020, 00:59:11", "zip": 8001}, "type": "Feature"}, {"geometry": {"coordinates": [8.549356, 47.408827], "type": "Point"}, "properties": {"address": "Tramstrasse 35", "electric": 4, "id": "pb_139", "manual": 3, "name": "ewz Tramstrasse", "provider": "publibike", "timeStamp": "02/02/2020, 00:59:11", "zip": 8050}, "type": "Feature"}, {"geometry": {"coordinates": [8.533736, 47.366904], "type": "Point"}, "properties": {"address": "Bleicherweg 33", "electric": 1, "id": "pb_140", "manual": 12, "name": "Bleicherweg", "provider": "publibike", "timeStamp": "02/02/2020, 00:59:11", "zip": 8002}, "type": "Feature"}, {"geometry": {"coordinates": [8.544935, 47.366752], "type": "Point"}, "properties": {"address": "Bellevueplatz 2", "electric": 32, "id": "pb_141", "manual": 32, "name": "Bellevue", "provider": "publibike", "timeStamp": "02/02/2020, 00:59:11", "zip": 8001}, "type": "Feature"}, {"geometry": {"coordinates": [8.5285533, 47.3742296], "type": "Point"}, "properties": {"address": "Stauffacherstrasse 41", "electric": 1, "id": "pb_142", "manual": 4, "name": "Stauffacher", "provider": "publibike", "timeStamp": "02/02/2020, 00:59:11", "zip": 8004}, "type": "Feature"}, {"geometry": {"coordinates": [8.523722, 47.3899], "type": "Point"}, "properties": {"address": "Limmatstrasse 310", "electric": 0, "id": "pb_143", "manual": 2, "name": "Escher-Wyss-Platz", "provider": "publibike", "timeStamp": "02/02/2020, 00:59:11", "zip": 8005}, "type": "Feature"}, {"geometry": {"coordinates": [8.491061, 47.392336], "type": "Point"}, "properties": {"address": "Vulkanplatz 1", "electric": 0, "id": "pb_149", "manual": 4, "name": "Vulkanplatz", "provider": "publibike", "timeStamp": "02/02/2020, 00:59:11", "zip": 8048}, "type": "Feature"}, {"geometry": {"coordinates": [8.52306, 47.359872], "type": "Point"}, "properties": {"address": "Giessh\u00fcbelstrasse 15", "electric": 7, "id": "pb_150", "manual": 12, "name": "Utoplatz", "provider": "publibike", "timeStamp": "02/02/2020, 00:59:11", "zip": 8045}, "type": "Feature"}, {"geometry": {"coordinates": [8.486284, 47.387685], "type": "Point"}, "properties": {"address": "Lindenplatz 1", "electric": 4, "id": "pb_151", "manual": 8, "name": "Lindenplatz", "provider": "publibike", "timeStamp": "02/02/2020, 00:59:11", "zip": 8048}, "type": "Feature"}, {"geometry": {"coordinates": [8.49163, 47.389823], "type": "Point"}, "properties": {"address": "Hohlstrasse 563", "electric": 1, "id": "pb_152", "manual": 7, "name": "Luggweg", "provider": "publibike", "timeStamp": "02/02/2020, 00:59:11", "zip": 8048}, "type": "Feature"}, {"geometry": {"coordinates": [8.52174, 47.365272], "type": "Point"}, "properties": {"address": "Manessestrasse 87", "electric": 7, "id": "pb_153", "manual": 2, "name": "Manesseplatz", "provider": "publibike", "timeStamp": "02/02/2020, 00:59:11", "zip": 8045}, "type": "Feature"}, {"geometry": {"coordinates": [8.52714, 47.372329], "type": "Point"}, "properties": {"address": "Werdstrasse 75", "electric": 3, "id": "pb_154", "manual": 5, "name": "Werd", "provider": "publibike", "timeStamp": "02/02/2020, 00:59:11", "zip": 8004}, "type": "Feature"}, {"geometry": {"coordinates": [8.543042, 47.374711], "type": "Point"}, "properties": {"address": "Limmatquai 100", "electric": 0, "id": "pb_155", "manual": 0, "name": "Rudolf-Brun-Br\u00fccke", "provider": "publibike", "timeStamp": "02/02/2020, 00:59:11", "zip": 8001}, "type": "Feature"}, {"geometry": {"coordinates": [8.490837, 47.386596], "type": "Point"}, "properties": {"address": "Badenerstrasse 627", "electric": 1, "id": "pb_156", "manual": 8, "name": "Luggwegstrasse VBZ", "provider": "publibike", "timeStamp": "02/02/2020, 00:59:11", "zip": 8048}, "type": "Feature"}, {"geometry": {"coordinates": [8.535119, 47.355189], "type": "Point"}, "properties": {"address": "Mythenquai 95", "electric": 1, "id": "pb_157", "manual": 0, "name": "Strandbad Mythenquai", "provider": "publibike", "timeStamp": "02/02/2020, 00:59:11", "zip": 8002}, "type": "Feature"}, {"geometry": {"coordinates": [8.545505, 47.373675], "type": "Point"}, "properties": {"address": "Predigerpatz 21", "electric": 6, "id": "pb_158", "manual": 7, "name": "Predigerplatz", "provider": "publibike", "timeStamp": "02/02/2020, 00:59:11", "zip": 8001}, "type": "Feature"}, {"geometry": {"coordinates": [8.515558, 47.371868], "type": "Point"}, "properties": {"address": "Aemtlerstrasse 23", "electric": 10, "id": "pb_159", "manual": 0, "name": "Zwinglihaus", "provider": "publibike", "timeStamp": "02/02/2020, 00:59:11", "zip": 8003}, "type": "Feature"}, {"geometry": {"coordinates": [8.524629, 47.386072], "type": "Point"}, "properties": {"address": "Josefstrasse 188", "electric": 0, "id": "pb_160", "manual": 4, "name": "Josefwiese", "provider": "publibike", "timeStamp": "02/02/2020, 00:59:11", "zip": 8005}, "type": "Feature"}, {"geometry": {"coordinates": [8.527138, 47.387531], "type": "Point"}, "properties": {"address": "R\u00f6ntgenstrasse 87", "electric": 0, "id": "pb_164", "manual": 5, "name": "Markthalle", "provider": "publibike", "timeStamp": "02/02/2020, 00:59:11", "zip": 8005}, "type": "Feature"}, {"geometry": {"coordinates": [8.552717, 47.359978], "type": "Point"}, "properties": {"address": "Seefeldstrasse 96", "electric": 3, "id": "pb_263", "manual": 16, "name": "Feldeggstrasse", "provider": "publibike", "timeStamp": "02/02/2020, 00:59:11", "zip": 8008}, "type": "Feature"}, {"geometry": {"coordinates": [8.553189, 47.353198], "type": "Point"}, "properties": {"address": "Bellerivestrasse 170", "electric": 1, "id": "pb_264", "manual": 0, "name": "Lake Side", "provider": "publibike", "timeStamp": "02/02/2020, 00:59:11", "zip": 8008}, "type": "Feature"}, {"geometry": {"coordinates": [8.543437, 47.369256], "type": "Point"}, "properties": {"address": "Limmatquai 18", "electric": 0, "id": "pb_265", "manual": 0, "name": "Helmhaus", "provider": "publibike", "timeStamp": "02/02/2020, 00:59:11", "zip": 8032}, "type": "Feature"}, {"geometry": {"coordinates": [8.516676, 47.375819], "type": "Point"}, "properties": {"address": "Badenerstrasse 246", "electric": 3, "id": "pb_266", "manual": 0, "name": "Lochergut", "provider": "publibike", "timeStamp": "02/02/2020, 00:59:11", "zip": 8004}, "type": "Feature"}, {"geometry": {"coordinates": [8.514605, 47.389862], "type": "Point"}, "properties": {"address": "Pfingstweidstrasse 60", "electric": 0, "id": "pb_273", "manual": 4, "name": "Westpark", "provider": "publibike", "timeStamp": "02/02/2020, 00:59:11", "zip": 8005}, "type": "Feature"}, {"geometry": {"coordinates": [8.541239126, 47.375991201], "type": "Point"}, "properties": {"address": "Beatenplatz 1", "electric": 6, "id": "pb_274", "manual": 8, "name": "Beatenplatz", "provider": "publibike", "timeStamp": "02/02/2020, 00:59:11", "zip": 8001}, "type": "Feature"}, {"geometry": {"coordinates": [8.5417135, 47.3942197], "type": "Point"}, "properties": {"address": "Scheuchzerstrasse 181", "electric": 4, "id": "pb_275", "manual": 0, "name": "Pauluskirche", "provider": "publibike", "timeStamp": "02/02/2020, 00:59:11", "zip": 8057}, "type": "Feature"}, {"geometry": {"coordinates": [8.5528182, 47.414558], "type": "Point"}, "properties": {"address": "Hagenholzstrasse 51", "electric": 3, "id": "pb_276", "manual": 10, "name": "Airgate", "provider": "publibike", "timeStamp": "02/02/2020, 00:59:11", "zip": 8050}, "type": "Feature"}, {"geometry": {"coordinates": [8.537816, 47.413514], "type": "Point"}, "properties": {"address": "Birchstrasse 183", "electric": 2, "id": "pb_277", "manual": 3, "name": "Lamprechtweg", "provider": "publibike", "timeStamp": "02/02/2020, 00:59:11", "zip": 8050}, "type": "Feature"}, {"geometry": {"coordinates": [8.545602, 47.417701], "type": "Point"}, "properties": {"address": "Felsenrainstrasse 2", "electric": 7, "id": "pb_278", "manual": 7, "name": "Emil-Oberh\u00e4nsli", "provider": "publibike", "timeStamp": "02/02/2020, 00:59:11", "zip": 8050}, "type": "Feature"}, {"geometry": {"coordinates": [8.533647, 47.39808], "type": "Point"}, "properties": {"address": "Bucheggplatz 2", "electric": 2, "id": "pb_279", "manual": 1, "name": "Bucheggplatz", "provider": "publibike", "timeStamp": "02/02/2020, 00:59:11", "zip": 8057}, "type": "Feature"}, {"geometry": {"coordinates": [8.523549, 47.392347], "type": "Point"}, "properties": {"address": "Wipkingerplatz 4", "electric": 2, "id": "pb_280", "manual": 5, "name": "Wipkingerplatz", "provider": "publibike", "timeStamp": "02/02/2020, 00:59:11", "zip": 8037}, "type": "Feature"}, {"geometry": {"coordinates": [8.548562, 47.36691], "type": "Point"}, "properties": {"address": "Galerie \u00fcber Gleis 2/3", "electric": 22, "id": "pb_285", "manual": 5, "name": "Bahnhof Stadelhofen", "provider": "publibike", "timeStamp": "02/02/2020, 00:59:11", "zip": 8001}, "type": "Feature"}, {"geometry": {"coordinates": [8.493822, 47.3985553], "type": "Point"}, "properties": {"address": "Meierwiesenstrasse 12-4", "electric": 1, "id": "pb_286", "manual": 2, "name": "T\u00fcffenwies", "provider": "publibike", "timeStamp": "02/02/2020, 00:59:11", "zip": 8064}, "type": "Feature"}, {"geometry": {"coordinates": [8.552432, 47.3801757], "type": "Point"}, "properties": {"address": "Hochstrasse 34", "electric": 6, "id": "pb_356", "manual": 0, "name": "Siriuswiese", "provider": "publibike", "timeStamp": "02/02/2020, 00:59:11", "zip": 8044}, "type": "Feature"}, {"geometry": {"coordinates": [8.527298, 47.370141], "type": "Point"}, "properties": {"address": "Hallwylstrasse 71", "electric": 4, "id": "pb_357", "manual": 0, "name": "Hallwylstrasse", "provider": "publibike", "timeStamp": "02/02/2020, 00:59:11", "zip": 8004}, "type": "Feature"}, {"geometry": {"coordinates": [8.5414185, 47.3972455], "type": "Point"}, "properties": {"address": "Schaffhauserstrasse 137", "electric": 4, "id": "pb_358", "manual": 0, "name": "Milchbuck", "provider": "publibike", "timeStamp": "02/02/2020, 00:59:11", "zip": 8057}, "type": "Feature"}, {"geometry": {"coordinates": [8.512381, 47.393409], "type": "Point"}, "properties": {"address": "Hardturmstrasse 161", "electric": 5, "id": "pb_359", "manual": 1, "name": "Fischerweg", "provider": "publibike", "timeStamp": "02/02/2020, 00:59:11", "zip": 8005}, "type": "Feature"}, {"geometry": {"coordinates": [8.5421457, 47.3876979], "type": "Point"}, "properties": {"address": "Turnerstrasse 47", "electric": 0, "id": "pb_360", "manual": 0, "name": "Kirche Unterstrass", "provider": "publibike", "timeStamp": "02/02/2020, 00:59:11", "zip": 8006}, "type": "Feature"}, {"geometry": {"coordinates": [8.522117, 47.394554], "type": "Point"}, "properties": {"address": "Dorfstrasse 40", "electric": 8, "id": "pb_361", "manual": 2, "name": "Dorfstrasse", "provider": "publibike", "timeStamp": "02/02/2020, 00:59:11", "zip": 8037}, "type": "Feature"}, {"geometry": {"coordinates": [8.530437, 47.37271], "type": "Point"}, "properties": {"address": "Werdstrasse 25", "electric": 0, "id": "pb_362", "manual": 4, "name": "Stauffachertor", "provider": "publibike", "timeStamp": "02/02/2020, 00:59:11", "zip": 8004}, "type": "Feature"}, {"geometry": {"coordinates": [8.541712, 47.416155], "type": "Point"}, "properties": {"address": "Eggb\u00fchlstrasse 21", "electric": 2, "id": "pb_363", "manual": 3, "name": "Wahlenpark", "provider": "publibike", "timeStamp": "02/02/2020, 00:59:11", "zip": 8050}, "type": "Feature"}, {"geometry": {"coordinates": [8.5595335, 47.3708387], "type": "Point"}, "properties": {"address": "Dolderstrasse 32", "electric": 6, "id": "pb_364", "manual": 2, "name": "Kinderspital", "provider": "publibike", "timeStamp": "02/02/2020, 00:59:11", "zip": 8032}, "type": "Feature"}, {"geometry": {"coordinates": [8.536433, 47.388689], "type": "Point"}, "properties": {"address": "Kornhausstrasse 30", "electric": 0, "id": "pb_365", "manual": 0, "name": "Kornhausstrasse", "provider": "publibike", "timeStamp": "02/02/2020, 00:59:11", "zip": 8006}, "type": "Feature"}, {"geometry": {"coordinates": [8.55033, 47.407098], "type": "Point"}, "properties": {"address": "Schwamendingenstrasse 41", "electric": 3, "id": "pb_366", "manual": 7, "name": "Dorflinde", "provider": "publibike", "timeStamp": "02/02/2020, 00:59:11", "zip": 8050}, "type": "Feature"}, {"geometry": {"coordinates": [8.560476, 47.368199], "type": "Point"}, "properties": {"address": "R\u00f6merhofplatz 5", "electric": 11, "id": "pb_367", "manual": 3, "name": "R\u00f6merhof", "provider": "publibike", "timeStamp": "02/02/2020, 00:59:11", "zip": 8032}, "type": "Feature"}, {"geometry": {"coordinates": [8.5609218, 47.3619068], "type": "Point"}, "properties": {"address": "Forchstrasse 99", "electric": 13, "id": "pb_368", "manual": 3, "name": "Hegibachplatz", "provider": "publibike", "timeStamp": "02/02/2020, 00:59:11", "zip": 8032}, "type": "Feature"}, {"geometry": {"coordinates": [8.5721264, 47.4039985], "type": "Point"}, "properties": {"address": "Winterthurerstrasse 519", "electric": 4, "id": "pb_370", "manual": 4, "name": "Schwamendingerplatz", "provider": "publibike", "timeStamp": "02/02/2020, 00:59:11", "zip": 8051}, "type": "Feature"}, {"geometry": {"coordinates": [8.520168, 47.378556], "type": "Point"}, "properties": {"address": "Herman-Greulich-Strasse 56", "electric": 2, "id": "pb_384", "manual": 4, "name": "Hermann-Greulich-Weg", "provider": "publibike", "timeStamp": "02/02/2020, 00:59:11", "zip": 8004}, "type": "Feature"}, {"geometry": {"coordinates": [8.547912, 47.384923], "type": "Point"}, "properties": {"address": "Culmannstrasse", "electric": 0, "id": "pb_386", "manual": 0, "name": "Rigiplatz", "provider": "publibike", "timeStamp": "02/02/2020, 00:59:11", "zip": 8006}, "type": "Feature"}, {"geometry": {"coordinates": [8.543768, 47.411057], "type": "Point"}, "properties": {"address": "Hofwiesenstrasse 369", "electric": 0, "id": "pb_387", "manual": 2, "name": "Bahnhof Oerlikon S\u00fcd", "provider": "publibike", "timeStamp": "02/02/2020, 00:59:11", "zip": 8050}, "type": "Feature"}, {"geometry": {"coordinates": [8.544185, 47.412732], "type": "Point"}, "properties": {"address": "Jungholzstrasse 6", "electric": 5, "id": "pb_388", "manual": 1, "name": "Max-Frisch-Platz", "provider": "publibike", "timeStamp": "02/02/2020, 00:59:11", "zip": 8050}, "type": "Feature"}, {"geometry": {"coordinates": [8.558096, 47.413032], "type": "Point"}, "properties": {"address": "Andreasstrasse", "electric": 11, "id": "pb_389", "manual": 8, "name": "Hunziker-Areal", "provider": "publibike", "timeStamp": "02/02/2020, 00:59:11", "zip": 8050}, "type": "Feature"}, {"geometry": {"coordinates": [8.533265, 47.412873], "type": "Point"}, "properties": {"address": "Regina-K\u00e4gi-Strasse 1", "electric": 7, "id": "pb_390", "manual": 4, "name": "Luis-H\u00e4fliger-Park", "provider": "publibike", "timeStamp": "02/02/2020, 00:59:11", "zip": 8050}, "type": "Feature"}, {"geometry": {"coordinates": [8.499265, 47.401852], "type": "Point"}, "properties": {"address": "Limmattalstrasse 177", "electric": 1, "id": "pb_391", "manual": 0, "name": "Meierhofplatz", "provider": "publibike", "timeStamp": "02/02/2020, 00:59:11", "zip": 8049}, "type": "Feature"}, {"geometry": {"coordinates": [8.528356, 47.393255], "type": "Point"}, "properties": {"address": "R\u00f6schibachstrasse 73", "electric": 8, "id": "pb_392", "manual": 14, "name": "R\u00f6schibachplatz", "provider": "publibike", "timeStamp": "02/02/2020, 00:59:11", "zip": 8037}, "type": "Feature"}, {"geometry": {"coordinates": [8.538067, 47.415721], "type": "Point"}, "properties": {"address": "Birchstrasse 191", "electric": 9, "id": "pb_393", "manual": 2, "name": "Oerliker Park", "provider": "publibike", "timeStamp": "02/02/2020, 00:59:11", "zip": 8050}, "type": "Feature"}, {"geometry": {"coordinates": [8.5420304, 47.3669233], "type": "Point"}, "properties": {"address": "Stadthausquai 1", "electric": 0, "id": "pb_395", "manual": 4, "name": "B\u00fcrkliplatz", "provider": "publibike", "timeStamp": "02/02/2020, 00:59:11", "zip": 8001}, "type": "Feature"}, {"geometry": {"coordinates": [8.535767, 47.409881], "type": "Point"}, "properties": {"address": "Regensbergstrasse 195", "electric": 1, "id": "pb_396", "manual": 1, "name": "Holunderhof", "provider": "publibike", "timeStamp": "02/02/2020, 00:59:11", "zip": 8050}, "type": "Feature"}, {"geometry": {"coordinates": [8.5116245, 47.3616199], "type": "Point"}, "properties": {"address": "Grubenstrasse 42", "electric": 2, "id": "pb_431", "manual": 2, "name": "Binz Center", "provider": "publibike", "timeStamp": "02/02/2020, 00:59:11", "zip": 8045}, "type": "Feature"}, {"geometry": {"coordinates": [8.547195, 47.382089], "type": "Point"}, "properties": {"address": "Nelkenstrasse 24", "electric": 4, "id": "pb_430", "manual": 0, "name": "Stapferstube", "provider": "publibike", "timeStamp": "02/02/2020, 00:59:11", "zip": 8006}, "type": "Feature"}, {"geometry": {"coordinates": [8.5787183, 47.4039845], "type": "Point"}, "properties": {"address": "Kronwiesenstrasse 35", "electric": 3, "id": "pb_426", "manual": 3, "name": "Kronwiesen", "provider": "publibike", "timeStamp": "02/02/2020, 00:59:11", "zip": 8051}, "type": "Feature"}, {"geometry": {"coordinates": [8.508131, 47.420757], "type": "Point"}, "properties": {"address": "Riedenhaldenstrasse 20-18", "electric": 11, "id": "pb_425", "manual": 4, "name": "Bahnhof Affoltern", "provider": "publibike", "timeStamp": "02/02/2020, 00:59:11", "zip": 8046}, "type": "Feature"}, {"geometry": {"coordinates": [8.532464, 47.406988], "type": "Point"}, "properties": {"address": "K\u00fcnzlistrasse 41", "electric": 5, "id": "pb_424", "manual": 2, "name": "Birchd\u00f6rfli", "provider": "publibike", "timeStamp": "02/02/2020, 00:59:11", "zip": 8057}, "type": "Feature"}, {"geometry": {"coordinates": [8.5777038, 47.4080095], "type": "Point"}, "properties": {"address": "Luegislandstrasse 412", "electric": 4, "id": "pb_429", "manual": 3, "name": "Luegisland", "provider": "publibike", "timeStamp": "02/02/2020, 00:59:11", "zip": 8051}, "type": "Feature"}, {"geometry": {"coordinates": [8.58841, 47.40158], "type": "Point"}, "properties": {"address": "Hirzenbachstrasse 2-4", "electric": 7, "id": "pb_428", "manual": 0, "name": "Hirzenbachstrasse", "provider": "publibike", "timeStamp": "02/02/2020, 00:59:11", "zip": 8051}, "type": "Feature"}, {"geometry": {"coordinates": [8.5563463, 47.4095467], "type": "Point"}, "properties": {"address": "K\u00fchriedweg", "electric": 5, "id": "pb_445", "manual": 11, "name": "Hallenbad Oerlikon", "provider": "publibike", "timeStamp": "02/02/2020, 00:59:11", "zip": 8050}, "type": "Feature"}, {"geometry": {"coordinates": [8.537971, 47.364871], "type": "Point"}, "properties": {"address": "General-Guisan-Quai 17", "electric": 2, "id": "pb_454", "manual": 4, "name": "General-Guisan-Quai", "provider": "publibike", "timeStamp": "02/02/2020, 00:59:11", "zip": 8002}, "type": "Feature"}, {"geometry": {"coordinates": [8.560587, 47.350578], "type": "Point"}, "properties": {"address": "Bellerivestrasse 245", "electric": 6, "id": "pb_450", "manual": 5, "name": "Bahnhof Tiefenbrunnen", "provider": "publibike", "timeStamp": "02/02/2020, 00:59:11", "zip": 8008}, "type": "Feature"}, {"geometry": {"coordinates": [8.5269416, 47.3563719], "type": "Point"}, "properties": {"address": "Waffenplatzstrasse 89", "electric": 1, "id": "pb_452", "manual": 4, "name": "Rieterplatz", "provider": "publibike", "timeStamp": "02/02/2020, 00:59:11", "zip": 8002}, "type": "Feature"}, {"geometry": {"coordinates": [8.514176, 47.3663708], "type": "Point"}, "properties": {"address": "Talwiesenstrasse 92", "electric": 8, "id": "pb_446", "manual": 1, "name": "Binzallee", "provider": "publibike", "timeStamp": "02/02/2020, 00:59:11", "zip": 8055}, "type": "Feature"}, {"geometry": {"coordinates": [8.5070564, 47.371455], "type": "Point"}, "properties": {"address": "Gutstrasse 87", "electric": 2, "id": "pb_447", "manual": 4, "name": "Gutstrasse", "provider": "publibike", "timeStamp": "02/02/2020, 00:59:11", "zip": 8055}, "type": "Feature"}, {"geometry": {"coordinates": [8.4941268, 47.3836391], "type": "Point"}, "properties": {"address": "Flurstrasse 62", "electric": 6, "id": "pb_453", "manual": 3, "name": "Flurpark", "provider": "publibike", "timeStamp": "02/02/2020, 00:59:11", "zip": 8048}, "type": "Feature"}, {"geometry": {"coordinates": [8.500343, 47.380778], "type": "Point"}, "properties": {"address": "Edelweissstrasse 32", "electric": 8, "id": "pb_448", "manual": 1, "name": "Bl\u00fcemliquartier", "provider": "publibike", "timeStamp": "02/02/2020, 00:59:11", "zip": 8048}, "type": "Feature"}, {"geometry": {"coordinates": [8.528796, 47.383858], "type": "Point"}, "properties": {"address": "Gasometerstrasse 24", "electric": 3, "id": "pb_449", "manual": 4, "name": "Gasometerstrasse", "provider": "publibike", "timeStamp": "02/02/2020, 00:59:11", "zip": 8005}, "type": "Feature"}, {"geometry": {"coordinates": [8.4981964, 47.3859194], "type": "Point"}, "properties": {"address": "Baslerstrasse 57", "electric": 8, "id": "pb_455", "manual": 7, "name": "Letzipark", "provider": "publibike", "timeStamp": "02/02/2020, 00:59:11", "zip": 8048}, "type": "Feature"}, {"geometry": {"coordinates": [8.515252, 47.381915], "type": "Point"}, "properties": {"address": "Sihlfeldstrasse 175", "electric": 1, "id": "pb_451", "manual": 2, "name": "Hardplatz", "provider": "publibike", "timeStamp": "02/02/2020, 00:59:11", "zip": 8004}, "type": "Feature"}, {"geometry": {"coordinates": [8.5064743, 47.4188324], "type": "Point"}, "properties": {"address": "Wehntalerstrasse 541", "electric": 7, "id": "pb_427", "manual": 5, "name": "Zehntenhausplatz", "provider": "publibike", "timeStamp": "02/02/2020, 00:59:11", "zip": 8046}, "type": "Feature"}, {"geometry": {"coordinates": [8.537729, 47.379719], "type": "Point"}, "properties": {"address": "Sihlquai/HB", "electric": 10, "id": "pb_513", "manual": 8, "name": "Sihlquai", "provider": "publibike", "timeStamp": "02/02/2020, 00:59:11", "zip": 8005}, "type": "Feature"}, {"geometry": {"coordinates": [8.596202, 47.397885], "type": "Point"}, "properties": {"address": "Bahnhof Stettbach", "electric": 0, "id": "pb_514", "manual": 3, "name": "Bahnhof Stettbach", "provider": "publibike", "timeStamp": "02/02/2020, 00:59:11", "zip": 8051}, "type": "Feature"}, {"geometry": {"coordinates": [8.5543974, 47.3690153], "type": "Point"}, "properties": {"address": "Kasinostrasse 10", "electric": 3, "id": "pb_515", "manual": 0, "name": "Hottingerplatz", "provider": "publibike", "timeStamp": "02/02/2020, 00:59:11", "zip": 8032}, "type": "Feature"}, {"geometry": {"coordinates": [8.534444, 47.351525], "type": "Point"}, "properties": {"address": "Mobile Station Z\u00fcrich 1", "electric": 0, "id": "pb_282", "manual": 0, "name": "Theaterspektakel", "provider": "publibike", "timeStamp": "02/02/2020, 00:59:11", "zip": 8002}, "type": "Feature"}, {"geometry": {"coordinates": [8.516257, 47.367656], "type": "Point"}, "properties": {"address": "Goldbrunnenstrasse 54", "electric": 3, "id": "pb_538", "manual": 0, "name": "Kirche B\u00fchl", "provider": "publibike", "timeStamp": "02/02/2020, 00:59:11", "zip": 8055}, "type": "Feature"}, {"geometry": {"coordinates": [8.555639, 47.416873], "type": "Point"}, "properties": {"address": "Leutschenbachstrasse 50", "electric": 0, "id": "pb_537", "manual": 3, "name": "Leutschenpark", "provider": "publibike", "timeStamp": "02/02/2020, 00:59:11", "zip": 8050}, "type": "Feature"}, {"geometry": {"coordinates": [8.546464, 47.403822], "type": "Point"}, "properties": {"address": "Berninastrasse 45", "electric": 3, "id": "pb_540", "manual": 0, "name": "Berninaplatz", "provider": "publibike", "timeStamp": "02/02/2020, 00:59:11", "zip": 8057}, "type": "Feature"}, {"geometry": {"coordinates": [8.523134, 47.369004], "type": "Point"}, "properties": {"address": "Erlachstrasse 3", "electric": 1, "id": "pb_385", "manual": 4, "name": "Aegerten", "provider": "publibike", "timeStamp": "02/02/2020, 00:59:11", "zip": 8003}, "type": "Feature"}, {"geometry": {"coordinates": [8.49038, 47.381591], "type": "Point"}, "properties": {"address": "Rautistrasse 60", "electric": 7, "id": "pb_536", "manual": 6, "name": "Freilager", "provider": "publibike", "timeStamp": "02/02/2020, 00:59:11", "zip": 8048}, "type": "Feature"}, {"geometry": {"coordinates": [8.496511, 47.375247], "type": "Point"}, "properties": {"address": "Letzigraben 139", "electric": 2, "id": "pb_444", "manual": 3, "name": "Sackzelg", "provider": "publibike", "timeStamp": "02/02/2020, 00:59:11", "zip": 8047}, "type": "Feature"}, {"geometry": {"coordinates": [8.58131, 47.402801], "type": "Point"}, "properties": {"address": "Altwiesenstrasse 104", "electric": 0, "id": "pb_539", "manual": 4, "name": "Glattwiesen", "provider": "publibike", "timeStamp": "02/02/2020, 00:59:11", "zip": 8051}, "type": "Feature"}, {"geometry": {"coordinates": [8.52689, 47.3767], "type": "Point"}, "properties": {"address": "Molkenstrasse 5", "electric": 4, "id": "pb_560", "manual": 15, "name": "Helvetiaplatz", "provider": "publibike", "timeStamp": "02/02/2020, 00:59:11", "zip": 8004}, "type": "Feature"}, {"geometry": {"coordinates": [8.525602, 47.374241], "type": "Point"}, "properties": {"address": "Badenerstrasse 90", "electric": 1, "id": "pb_559", "manual": 6, "name": "Bezirksgeb\u00e4ude", "provider": "publibike", "timeStamp": "02/02/2020, 00:59:11", "zip": 8004}, "type": "Feature"}, {"geometry": {"coordinates": [8.535082, 47.345248], "type": "Point"}, "properties": {"address": "Bachstrasse 15", "electric": 8, "id": "pb_564", "manual": 5, "name": "GZ Wollishofen", "provider": "publibike", "timeStamp": "02/02/2020, 00:59:11", "zip": 8038}, "type": "Feature"}, {"geometry": {"coordinates": [8.514841, 47.370238], "type": "Point"}, "properties": {"address": "Schrennengasse 37", "electric": 1, "id": "pb_562", "manual": 4, "name": "Goldbrunnenplatz", "provider": "publibike", "timeStamp": "02/02/2020, 00:59:11", "zip": 8003}, "type": "Feature"}, {"geometry": {"coordinates": [8.514138, 47.374206], "type": "Point"}, "properties": {"address": "Idaplatz 4", "electric": 0, "id": "pb_557", "manual": 0, "name": "Idaplatz", "provider": "publibike", "timeStamp": "02/02/2020, 00:59:11", "zip": 8003}, "type": "Feature"}, {"geometry": {"coordinates": [8.518432, 47.369549], "type": "Point"}, "properties": {"address": "Brinerstrasse 2", "electric": 1, "id": "pb_558", "manual": 13, "name": "Schmiede Wiedikon", "provider": "publibike", "timeStamp": "02/02/2020, 00:59:11", "zip": 8003}, "type": "Feature"}, {"geometry": {"coordinates": [8.537546, 47.391289], "type": "Point"}, "properties": {"address": "Rotbuchstrasse 15", "electric": 3, "id": "pb_556", "manual": 0, "name": "Schaffhauserplatz", "provider": "publibike", "timeStamp": "02/02/2020, 00:59:11", "zip": 8006}, "type": "Feature"}, {"geometry": {"coordinates": [8.541541, 47.413733], "type": "Point"}, "properties": {"address": "Therese-Giehse-Strasse 11", "electric": 0, "id": "pb_561", "manual": 0, "name": "Center Eleven", "provider": "publibike", "timeStamp": "02/02/2020, 00:59:11", "zip": 8050}, "type": "Feature"}, {"geometry": {"coordinates": [8.534227, 47.360004], "type": "Point"}, "properties": {"address": "Alfred Escher-Strasse 76", "electric": 3, "id": "pb_563", "manual": 1, "name": "Mythenschloss", "provider": "publibike", "timeStamp": "02/02/2020, 00:59:11", "zip": 8002}, "type": "Feature"}, {"geometry": {"coordinates": [8.50373, 47.396172], "type": "Point"}, "properties": {"address": "Hardeggstrasse 6", "electric": 0, "id": "pb_566", "manual": 3, "name": "Am Wasser", "provider": "publibike", "timeStamp": "02/02/2020, 00:59:11", "zip": 8049}, "type": "Feature"}, {"geometry": {"coordinates": [8.532432, 47.381174], "type": "Point"}, "properties": {"address": "Klingenstrasse 9", "electric": 2, "id": "pb_565", "manual": 0, "name": "Zollstrasse", "provider": "publibike", "timeStamp": "02/02/2020, 00:59:11", "zip": 8005}, "type": "Feature"}, {"geometry": {"coordinates": [8.497982, 47.381447], "type": "Point"}, "properties": {"address": "Dennlerstrasse 23", "electric": 8, "id": "pb_567", "manual": 1, "name": "Dennlerstrasse", "provider": "publibike", "timeStamp": "02/02/2020, 00:59:11", "zip": 8047}, "type": "Feature"}, {"geometry": {"coordinates": [8.528049, 47.347701], "type": "Point"}, "properties": {"address": "Mutschellenstrasse 114", "electric": 3, "id": "pb_568", "manual": 7, "name": "Jugendherberge", "provider": "publibike", "timeStamp": "02/02/2020, 00:59:11", "zip": 8038}, "type": "Feature"}, {"geometry": {"coordinates": [8.539016, 47.405751], "type": "Point"}, "properties": {"address": "Ringstrasse 82", "electric": 1, "id": "pb_569", "manual": 4, "name": "Freibad Allenmoos", "provider": "publibike", "timeStamp": "02/02/2020, 00:59:11", "zip": 8057}, "type": "Feature"}, {"geometry": {"coordinates": [8.534974, 47.402164], "type": "Point"}, "properties": {"address": "Brache Guggach", "electric": 4, "id": "pb_572", "manual": 3, "name": "Radiostudio", "provider": "publibike", "timeStamp": "02/02/2020, 00:59:11", "zip": 8057}, "type": "Feature"}, {"geometry": {"coordinates": [8.547901, 47.375556], "type": "Point"}, "properties": {"address": "Karl-Schmid-Strasse 4", "electric": 0, "id": "pb_571", "manual": 1, "name": "ETH/Zoologisches Museum", "provider": "publibike", "timeStamp": "02/02/2020, 00:59:11", "zip": 8006}, "type": "Feature"}, {"geometry": {"coordinates": [8.532753, 47.336836], "type": "Point"}, "properties": {"charge": 66, "id": "smide_2901", "name": "ZH 267278", "provider": "smide", "range": 33.0, "size": 20, "time": "02/02/2020, 00:58:50"}, "type": "Feature"}, {"geometry": {"coordinates": [8.568805, 47.351705], "type": "Point"}, "properties": {"charge": 90, "id": "smide_2895", "name": "ZH 267279", "provider": "smide", "range": 45.0, "size": 20, "time": "02/02/2020, 00:58:50"}, "type": "Feature"}, {"geometry": {"coordinates": [8.486688, 47.388218], "type": "Point"}, "properties": {"charge": 84, "id": "smide_2880", "name": "ZH267289", "provider": "smide", "range": 42.0, "size": 17, "time": "02/02/2020, 00:58:50"}, "type": "Feature"}, {"geometry": {"coordinates": [8.519081, 47.337325], "type": "Point"}, "properties": {"charge": 82, "id": "smide_2871", "name": "ZH 267086", "provider": "smide", "range": 41.0, "size": 20, "time": "02/02/2020, 00:58:50"}, "type": "Feature"}, {"geometry": {"coordinates": [8.511471, 47.390678], "type": "Point"}, "properties": {"charge": 44, "id": "smide_2867", "name": "ZH 267090", "provider": "smide", "range": 22.0, "size": 20, "time": "02/02/2020, 00:58:50"}, "type": "Feature"}, {"geometry": {"coordinates": [8.53644, 47.362153], "type": "Point"}, "properties": {"charge": 15, "id": "smide_2861", "name": "ZH 267096", "provider": "smide", "range": 7.0, "size": 17, "time": "02/02/2020, 00:58:50"}, "type": "Feature"}, {"geometry": {"coordinates": [8.576041, 47.350083], "type": "Point"}, "properties": {"charge": 88, "id": "smide_2860", "name": "ZH 267097", "provider": "smide", "range": 44.0, "size": 17, "time": "02/02/2020, 00:58:50"}, "type": "Feature"}, {"geometry": {"coordinates": [8.536696, 47.375066], "type": "Point"}, "properties": {"charge": 100, "id": "smide_2859", "name": "ZH 267098", "provider": "smide", "range": 50.0, "size": 17, "time": "02/02/2020, 00:58:50"}, "type": "Feature"}, {"geometry": {"coordinates": [8.515015, 47.396005], "type": "Point"}, "properties": {"charge": 33, "id": "smide_2856", "name": "ZH 267101", "provider": "smide", "range": 16.0, "size": 17, "time": "02/02/2020, 00:58:50"}, "type": "Feature"}, {"geometry": {"coordinates": [8.540451, 47.375816], "type": "Point"}, "properties": {"charge": 76, "id": "smide_2855", "name": "ZH 267102", "provider": "smide", "range": 38.0, "size": 17, "time": "02/02/2020, 00:58:50"}, "type": "Feature"}, {"geometry": {"coordinates": [8.507101, 47.39967], "type": "Point"}, "properties": {"charge": 100, "id": "smide_2854", "name": "ZH 267103", "provider": "smide", "range": 50.0, "size": 17, "time": "02/02/2020, 00:58:50"}, "type": "Feature"}, {"geometry": {"coordinates": [8.53689, 47.403786], "type": "Point"}, "properties": {"charge": 96, "id": "smide_2833", "name": "ZH 267182", "provider": "smide", "range": 48.0, "size": 20, "time": "02/02/2020, 00:58:50"}, "type": "Feature"}, {"geometry": {"coordinates": [8.570183, 47.352296], "type": "Point"}, "properties": {"charge": 56, "id": "smide_2831", "name": "ZH 267180", "provider": "smide", "range": 28.0, "size": 20, "time": "02/02/2020, 00:58:50"}, "type": "Feature"}, {"geometry": {"coordinates": [8.572546, 47.357681], "type": "Point"}, "properties": {"charge": 52, "id": "smide_2829", "name": "ZH 267049", "provider": "smide", "range": 26.0, "size": 20, "time": "02/02/2020, 00:58:50"}, "type": "Feature"}, {"geometry": {"coordinates": [8.554075, 47.412206], "type": "Point"}, "properties": {"charge": 72, "id": "smide_2804", "name": "ZH266903", "provider": "smide", "range": 36.0, "size": 20, "time": "02/02/2020, 00:58:50"}, "type": "Feature"}, {"geometry": {"coordinates": [8.545133, 47.376261], "type": "Point"}, "properties": {"charge": 99, "id": "smide_2798", "name": "ZH266888", "provider": "smide", "range": 49.0, "size": 17, "time": "02/02/2020, 00:58:50"}, "type": "Feature"}, {"geometry": {"coordinates": [8.520923, 47.370263], "type": "Point"}, "properties": {"charge": 37, "id": "smide_2793", "name": "ZH266883", "provider": "smide", "range": 18.0, "size": 17, "time": "02/02/2020, 00:58:50"}, "type": "Feature"}, {"geometry": {"coordinates": [8.545406, 47.369781], "type": "Point"}, "properties": {"charge": 32, "id": "smide_2790", "name": "ZH266880", "provider": "smide", "range": 16.0, "size": 17, "time": "02/02/2020, 00:58:50"}, "type": "Feature"}, {"geometry": {"coordinates": [8.516985, 47.358568], "type": "Point"}, "properties": {"charge": 47, "id": "smide_2785", "name": "ZH266875", "provider": "smide", "range": 23.0, "size": 17, "time": "02/02/2020, 00:58:50"}, "type": "Feature"}, {"geometry": {"coordinates": [8.515383, 47.374973], "type": "Point"}, "properties": {"charge": 90, "id": "smide_2781", "name": "ZH 266871", "provider": "smide", "range": 45.0, "size": 17, "time": "02/02/2020, 00:58:50"}, "type": "Feature"}, {"geometry": {"coordinates": [8.515623, 47.397988], "type": "Point"}, "properties": {"charge": 92, "id": "smide_2780", "name": "ST1 X #1", "provider": "smide", "range": 46.0, "size": 17, "time": "02/02/2020, 00:58:50"}, "type": "Feature"}, {"geometry": {"coordinates": [8.554528, 47.403016], "type": "Point"}, "properties": {"charge": 60, "id": "smide_2773", "name": "ZH266561", "provider": "smide", "range": 30.0, "size": 17, "time": "02/02/2020, 00:58:50"}, "type": "Feature"}, {"geometry": {"coordinates": [8.483672, 47.381916], "type": "Point"}, "properties": {"charge": 55, "id": "smide_2763", "name": "ZH266641", "provider": "smide", "range": 27.0, "size": 17, "time": "02/02/2020, 00:58:50"}, "type": "Feature"}, {"geometry": {"coordinates": [8.560103, 47.381945], "type": "Point"}, "properties": {"charge": 36, "id": "smide_2761", "name": "ZH266642", "provider": "smide", "range": 18.0, "size": 20, "time": "02/02/2020, 00:58:50"}, "type": "Feature"}, {"geometry": {"coordinates": [8.5594, 47.376588], "type": "Point"}, "properties": {"charge": 98, "id": "smide_2758", "name": "ZH266638 M", "provider": "smide", "range": 49.0, "size": 17, "time": "02/02/2020, 00:58:50"}, "type": "Feature"}, {"geometry": {"coordinates": [8.496203, 47.388708], "type": "Point"}, "properties": {"charge": 65, "id": "smide_2752", "name": "BE343856", "provider": "smide", "range": 32.0, "size": 17, "time": "02/02/2020, 00:58:50"}, "type": "Feature"}, {"geometry": {"coordinates": [8.545065, 47.389308], "type": "Point"}, "properties": {"charge": 61, "id": "smide_2751", "name": "BE343857", "provider": "smide", "range": 30.0, "size": 17, "time": "02/02/2020, 00:58:50"}, "type": "Feature"}, {"geometry": {"coordinates": [8.496531, 47.39236], "type": "Point"}, "properties": {"charge": 19, "id": "smide_2749", "name": "BE343867", "provider": "smide", "range": 9.0, "size": 17, "time": "02/02/2020, 00:58:50"}, "type": "Feature"}, {"geometry": {"coordinates": [8.493875, 47.388108], "type": "Point"}, "properties": {"charge": 75, "id": "smide_2748", "name": "BE335758", "provider": "smide", "range": 37.0, "size": 17, "time": "02/02/2020, 00:58:50"}, "type": "Feature"}, {"geometry": {"coordinates": [8.562479, 47.382948], "type": "Point"}, "properties": {"charge": 56, "id": "smide_2746", "name": "BE335817", "provider": "smide", "range": 28.0, "size": 17, "time": "02/02/2020, 00:58:50"}, "type": "Feature"}, {"geometry": {"coordinates": [8.553904, 47.398856], "type": "Point"}, "properties": {"charge": 83, "id": "smide_2747", "name": "BE335820", "provider": "smide", "range": 41.0, "size": 17, "time": "02/02/2020, 00:58:50"}, "type": "Feature"}, {"geometry": {"coordinates": [8.546697, 47.401732], "type": "Point"}, "properties": {"charge": 91, "id": "smide_2745", "name": "BE335818", "provider": "smide", "range": 45.0, "size": 17, "time": "02/02/2020, 00:58:50"}, "type": "Feature"}, {"geometry": {"coordinates": [8.518336, 47.39854], "type": "Point"}, "properties": {"charge": 94, "id": "smide_2743", "name": "BE343864", "provider": "smide", "range": 47.0, "size": 17, "time": "02/02/2020, 00:58:50"}, "type": "Feature"}, {"geometry": {"coordinates": [8.532715, 47.38524], "type": "Point"}, "properties": {"charge": 76, "id": "smide_2742", "name": "BE343866", "provider": "smide", "range": 38.0, "size": 17, "time": "02/02/2020, 00:58:50"}, "type": "Feature"}, {"geometry": {"coordinates": [8.554416, 47.369388], "type": "Point"}, "properties": {"charge": 74, "id": "smide_2741", "name": "BE343874", "provider": "smide", "range": 37.0, "size": 17, "time": "02/02/2020, 00:58:50"}, "type": "Feature"}, {"geometry": {"coordinates": [8.529878, 47.369244], "type": "Point"}, "properties": {"charge": 65, "id": "smide_2740", "name": "BE343875", "provider": "smide", "range": 32.0, "size": 17, "time": "02/02/2020, 00:58:50"}, "type": "Feature"}, {"geometry": {"coordinates": [8.486438, 47.388675], "type": "Point"}, "properties": {"charge": 53, "id": "smide_2738", "name": "BE343865", "provider": "smide", "range": 26.0, "size": 17, "time": "02/02/2020, 00:58:50"}, "type": "Feature"}, {"geometry": {"coordinates": [8.558066, 47.352612], "type": "Point"}, "properties": {"charge": 36, "id": "smide_2737", "name": "BE336149", "provider": "smide", "range": 18.0, "size": 17, "time": "02/02/2020, 00:58:50"}, "type": "Feature"}, {"geometry": {"coordinates": [8.502095, 47.368948], "type": "Point"}, "properties": {"charge": 100, "id": "smide_2736", "name": "BE346639", "provider": "smide", "range": 50.0, "size": 17, "time": "02/02/2020, 00:58:50"}, "type": "Feature"}, {"geometry": {"coordinates": [8.518124, 47.367632], "type": "Point"}, "properties": {"charge": 41, "id": "smide_2734", "name": "BE343876", "provider": "smide", "range": 20.0, "size": 17, "time": "02/02/2020, 00:58:50"}, "type": "Feature"}, {"geometry": {"coordinates": [8.56648, 47.351728], "type": "Point"}, "properties": {"charge": 89, "id": "smide_2733", "name": "BE343873", "provider": "smide", "range": 44.0, "size": 17, "time": "02/02/2020, 00:58:50"}, "type": "Feature"}, {"geometry": {"coordinates": [8.47843, 47.389632], "type": "Point"}, "properties": {"charge": 78, "id": "smide_2732", "name": "BE343870", "provider": "smide", "range": 39.0, "size": 17, "time": "02/02/2020, 00:58:50"}, "type": "Feature"}, {"geometry": {"coordinates": [8.530513, 47.370924], "type": "Point"}, "properties": {"charge": 59, "id": "smide_2729", "name": "BE343878", "provider": "smide", "range": 29.0, "size": 17, "time": "02/02/2020, 00:58:50"}, "type": "Feature"}, {"geometry": {"coordinates": [8.507828, 47.407321], "type": "Point"}, "properties": {"charge": 100, "id": "smide_2725", "name": "ZH261545", "provider": "smide", "range": 50.0, "size": 0, "time": "02/02/2020, 00:58:50"}, "type": "Feature"}, {"geometry": {"coordinates": [8.563108, 47.38252], "type": "Point"}, "properties": {"charge": 59, "id": "smide_2718", "name": "ZH259019", "provider": "smide", "range": 29.0, "size": 20, "time": "02/02/2020, 00:58:50"}, "type": "Feature"}, {"geometry": {"coordinates": [8.553608, 47.397604], "type": "Point"}, "properties": {"charge": 34, "id": "smide_2717", "name": "ZH263287", "provider": "smide", "range": 17.0, "size": 17, "time": "02/02/2020, 00:58:50"}, "type": "Feature"}, {"geometry": {"coordinates": [8.530016, 47.390206], "type": "Point"}, "properties": {"charge": 95, "id": "smide_2716", "name": "ZH254606", "provider": "smide", "range": 47.0, "size": 17, "time": "02/02/2020, 00:58:50"}, "type": "Feature"}, {"geometry": {"coordinates": [8.516562, 47.39834], "type": "Point"}, "properties": {"charge": 99, "id": "smide_2715", "name": "ZH254605", "provider": "smide", "range": 49.0, "size": 17, "time": "02/02/2020, 00:58:50"}, "type": "Feature"}, {"geometry": {"coordinates": [8.56839, 47.36764], "type": "Point"}, "properties": {"charge": 73, "id": "smide_2710", "name": "ZH256460", "provider": "smide", "range": 36.0, "size": 17, "time": "02/02/2020, 00:58:50"}, "type": "Feature"}, {"geometry": {"coordinates": [8.515828, 47.368912], "type": "Point"}, "properties": {"charge": 100, "id": "smide_2712", "name": "ZH256462", "provider": "smide", "range": 50.0, "size": 17, "time": "02/02/2020, 00:58:50"}, "type": "Feature"}, {"geometry": {"coordinates": [8.534384, 47.361456], "type": "Point"}, "properties": {"charge": 46, "id": "smide_2711", "name": "ZH256463", "provider": "smide", "range": 23.0, "size": 17, "time": "02/02/2020, 00:58:50"}, "type": "Feature"}, {"geometry": {"coordinates": [8.563926, 47.348185], "type": "Point"}, "properties": {"charge": 74, "id": "smide_2709", "name": "ZH256466", "provider": "smide", "range": 37.0, "size": 20, "time": "02/02/2020, 00:58:50"}, "type": "Feature"}, {"geometry": {"coordinates": [8.544336, 47.41646], "type": "Point"}, "properties": {"charge": 64, "id": "smide_2707", "name": "ZH256467", "provider": "smide", "range": 32.0, "size": 20, "time": "02/02/2020, 00:58:50"}, "type": "Feature"}, {"geometry": {"coordinates": [8.542881, 47.371736], "type": "Point"}, "properties": {"charge": 95, "id": "smide_2708", "name": "ZH256464", "provider": "smide", "range": 47.0, "size": 17, "time": "02/02/2020, 00:58:50"}, "type": "Feature"}, {"geometry": {"coordinates": [8.547559, 47.364912], "type": "Point"}, "properties": {"charge": 80, "id": "smide_2706", "name": "ZH256322", "provider": "smide", "range": 40.0, "size": 20, "time": "02/02/2020, 00:58:50"}, "type": "Feature"}, {"geometry": {"coordinates": [8.563359, 47.372232], "type": "Point"}, "properties": {"charge": 94, "id": "smide_2701", "name": "ZH256468", "provider": "smide", "range": 47.0, "size": 20, "time": "02/02/2020, 00:58:50"}, "type": "Feature"}, {"geometry": {"coordinates": [8.543635, 47.371924], "type": "Point"}, "properties": {"charge": 85, "id": "smide_2700", "name": "ZH256470", "provider": "smide", "range": 42.0, "size": 20, "time": "02/02/2020, 00:58:50"}, "type": "Feature"}, {"geometry": {"coordinates": [8.56843, 47.367632], "type": "Point"}, "properties": {"charge": 100, "id": "smide_2699", "name": "ZH254611", "provider": "smide", "range": 50.0, "size": 20, "time": "02/02/2020, 00:58:50"}, "type": "Feature"}, {"geometry": {"coordinates": [8.509432, 47.395252], "type": "Point"}, "properties": {"charge": 99, "id": "smide_2696", "name": "ZH254616", "provider": "smide", "range": 49.0, "size": 20, "time": "02/02/2020, 00:58:50"}, "type": "Feature"}, {"geometry": {"coordinates": [8.551841, 47.389184], "type": "Point"}, "properties": {"charge": 86, "id": "smide_2694", "name": "ZH254610", "provider": "smide", "range": 43.0, "size": 20, "time": "02/02/2020, 00:58:50"}, "type": "Feature"}, {"geometry": {"coordinates": [8.558738, 47.403776], "type": "Point"}, "properties": {"charge": 49, "id": "smide_2691", "name": "ZH254622", "provider": "smide", "range": 24.0, "size": 20, "time": "02/02/2020, 00:58:50"}, "type": "Feature"}, {"geometry": {"coordinates": [8.545201, 47.37377], "type": "Point"}, "properties": {"charge": 100, "id": "smide_2690", "name": "ZH254625", "provider": "smide", "range": 50.0, "size": 20, "time": "02/02/2020, 00:58:50"}, "type": "Feature"}, {"geometry": {"coordinates": [8.496807, 47.423992], "type": "Point"}, "properties": {"charge": 85, "id": "smide_2689", "name": "ZH254623", "provider": "smide", "range": 42.0, "size": 20, "time": "02/02/2020, 00:58:50"}, "type": "Feature"}, {"geometry": {"coordinates": [8.502098, 47.368948], "type": "Point"}, "properties": {"charge": 100, "id": "smide_2687", "name": "ZH263529", "provider": "smide", "range": 50.0, "size": 20, "time": "02/02/2020, 00:58:50"}, "type": "Feature"}, {"geometry": {"coordinates": [8.563418, 47.382376], "type": "Point"}, "properties": {"charge": 69, "id": "smide_2684", "name": "ZH254626", "provider": "smide", "range": 34.0, "size": 20, "time": "02/02/2020, 00:58:50"}, "type": "Feature"}, {"geometry": {"coordinates": [8.560635, 47.350506], "type": "Point"}, "properties": {"charge": 43, "id": "smide_2683", "name": "ZH254620", "provider": "smide", "range": 21.0, "size": 20, "time": "02/02/2020, 00:58:50"}, "type": "Feature"}, {"geometry": {"coordinates": [8.550897, 47.392368], "type": "Point"}, "properties": {"charge": 59, "id": "smide_2680", "name": "ZH254619", "provider": "smide", "range": 29.0, "size": 20, "time": "02/02/2020, 00:58:50"}, "type": "Feature"}, {"geometry": {"coordinates": [8.576425, 47.351104], "type": "Point"}, "properties": {"charge": 83, "id": "smide_2679", "name": "ZH258489", "provider": "smide", "range": 41.0, "size": 17, "time": "02/02/2020, 00:58:50"}, "type": "Feature"}, {"geometry": {"coordinates": [8.502151, 47.369052], "type": "Point"}, "properties": {"charge": 100, "id": "smide_2677", "name": "ZH258487", "provider": "smide", "range": 50.0, "size": 17, "time": "02/02/2020, 00:58:50"}, "type": "Feature"}, {"geometry": {"coordinates": [8.533112, 47.336792], "type": "Point"}, "properties": {"charge": 74, "id": "smide_2674", "name": "ZH258654", "provider": "smide", "range": 37.0, "size": 17, "time": "02/02/2020, 00:58:50"}, "type": "Feature"}, {"geometry": {"coordinates": [8.494564, 47.42346], "type": "Point"}, "properties": {"charge": 88, "id": "smide_2671", "name": "ZH258645", "provider": "smide", "range": 44.0, "size": 17, "time": "02/02/2020, 00:58:50"}, "type": "Feature"}, {"geometry": {"coordinates": [8.527379, 47.354232], "type": "Point"}, "properties": {"charge": 40, "id": "smide_2669", "name": "ZH263294", "provider": "smide", "range": 20.0, "size": 17, "time": "02/02/2020, 00:58:50"}, "type": "Feature"}, {"geometry": {"coordinates": [8.541675, 47.36746], "type": "Point"}, "properties": {"charge": 56, "id": "smide_2666", "name": "ZH258653", "provider": "smide", "range": 28.0, "size": 17, "time": "02/02/2020, 00:58:50"}, "type": "Feature"}, {"geometry": {"coordinates": [8.546246, 47.409424], "type": "Point"}, "properties": {"charge": 47, "id": "smide_2665", "name": "ZH258644", "provider": "smide", "range": 23.0, "size": 17, "time": "02/02/2020, 00:58:50"}, "type": "Feature"}, {"geometry": {"coordinates": [8.537684, 47.379372], "type": "Point"}, "properties": {"charge": 98, "id": "smide_2664", "name": "ZH258652", "provider": "smide", "range": 49.0, "size": 17, "time": "02/02/2020, 00:58:50"}, "type": "Feature"}, {"geometry": {"coordinates": [8.541492, 47.379156], "type": "Point"}, "properties": {"charge": 41, "id": "smide_2663", "name": "ZH258649", "provider": "smide", "range": 20.0, "size": 17, "time": "02/02/2020, 00:58:50"}, "type": "Feature"}, {"geometry": {"coordinates": [8.568461, 47.36684], "type": "Point"}, "properties": {"charge": 35, "id": "smide_2662", "name": "ZH258643", "provider": "smide", "range": 17.0, "size": 17, "time": "02/02/2020, 00:58:50"}, "type": "Feature"}, {"geometry": {"coordinates": [8.502188, 47.370256], "type": "Point"}, "properties": {"charge": 71, "id": "smide_2660", "name": "ZH258647", "provider": "smide", "range": 35.0, "size": 17, "time": "02/02/2020, 00:58:50"}, "type": "Feature"}, {"geometry": {"coordinates": [8.518505, 47.36292], "type": "Point"}, "properties": {"charge": 90, "id": "smide_2648", "name": "ZH257930", "provider": "smide", "range": 45.0, "size": 20, "time": "02/02/2020, 00:58:50"}, "type": "Feature"}, {"geometry": {"coordinates": [8.569998, 47.352335], "type": "Point"}, "properties": {"charge": 49, "id": "smide_2657", "name": "ZH257936", "provider": "smide", "range": 24.0, "size": 17, "time": "02/02/2020, 00:58:50"}, "type": "Feature"}, {"geometry": {"coordinates": [8.568948, 47.372984], "type": "Point"}, "properties": {"charge": 26, "id": "smide_2645", "name": "ZH257933", "provider": "smide", "range": 13.0, "size": 20, "time": "02/02/2020, 00:58:50"}, "type": "Feature"}, {"geometry": {"coordinates": [8.498838, 47.399735], "type": "Point"}, "properties": {"charge": 87, "id": "smide_3", "name": "ZH253765", "provider": "smide", "range": 43.0, "size": 20, "time": "02/02/2020, 00:58:50"}, "type": "Feature"}, {"geometry": {"coordinates": [8.525926, 47.408446], "type": "Point"}, "properties": {"charge": 72, "id": "smide_105", "name": "ZH253804", "provider": "smide", "range": 36.0, "size": 17, "time": "02/02/2020, 00:58:50"}, "type": "Feature"}, {"geometry": {"coordinates": [8.542092, 47.407608], "type": "Point"}, "properties": {"charge": 91, "id": "smide_186", "name": "ZH253751", "provider": "smide", "range": 45.0, "size": 20, "time": "02/02/2020, 00:58:50"}, "type": "Feature"}, {"geometry": {"coordinates": [8.571168, 47.352548], "type": "Point"}, "properties": {"charge": 89, "id": "smide_173", "name": "ZH258501", "provider": "smide", "range": 44.0, "size": 17, "time": "02/02/2020, 00:58:50"}, "type": "Feature"}, {"geometry": {"coordinates": [8.559279, 47.406], "type": "Point"}, "properties": {"charge": 73, "id": "smide_77", "name": "ZH261548", "provider": "smide", "range": 36.0, "size": 20, "time": "02/02/2020, 00:58:50"}, "type": "Feature"}, {"geometry": {"coordinates": [8.563047, 47.365136], "type": "Point"}, "properties": {"charge": 85, "id": "smide_200", "name": "ZH253801", "provider": "smide", "range": 42.0, "size": 20, "time": "02/02/2020, 00:58:50"}, "type": "Feature"}, {"geometry": {"coordinates": [8.541901, 47.369876], "type": "Point"}, "properties": {"charge": 66, "id": "smide_197", "name": "ZH253864", "provider": "smide", "range": 33.0, "size": 20, "time": "02/02/2020, 00:58:50"}, "type": "Feature"}, {"geometry": {"coordinates": [8.558825, 47.414428], "type": "Point"}, "properties": {"charge": 100, "id": "smide_199", "name": "ZH253766", "provider": "smide", "range": 50.0, "size": 20, "time": "02/02/2020, 00:58:50"}, "type": "Feature"}, {"geometry": {"coordinates": [8.56041, 47.382088], "type": "Point"}, "properties": {"charge": 57, "id": "smide_8", "name": "ZH253861", "provider": "smide", "range": 28.0, "size": 17, "time": "02/02/2020, 00:58:50"}, "type": "Feature"}, {"geometry": {"coordinates": [8.563243, 47.382516], "type": "Point"}, "properties": {"charge": 76, "id": "smide_45", "name": "ZH253716", "provider": "smide", "range": 38.0, "size": 17, "time": "02/02/2020, 00:58:50"}, "type": "Feature"}, {"geometry": {"coordinates": [8.542991, 47.391816], "type": "Point"}, "properties": {"charge": 47, "id": "smide_188", "name": "ZH261543", "provider": "smide", "range": 23.0, "size": 20, "time": "02/02/2020, 00:58:50"}, "type": "Feature"}, {"geometry": {"coordinates": [8.540536, 47.417356], "type": "Point"}, "properties": {"charge": 43, "id": "smide_101", "name": "ZH253814", "provider": "smide", "range": 21.0, "size": 17, "time": "02/02/2020, 00:58:50"}, "type": "Feature"}, {"geometry": {"coordinates": [8.492556, 47.3683], "type": "Point"}, "properties": {"charge": 80, "id": "smide_9", "name": "ZH253796", "provider": "smide", "range": 40.0, "size": 17, "time": "02/02/2020, 00:58:50"}, "type": "Feature"}, {"geometry": {"coordinates": [8.559171, 47.414708], "type": "Point"}, "properties": {"charge": 95, "id": "smide_143", "name": "ZH253778", "provider": "smide", "range": 47.0, "size": 17, "time": "02/02/2020, 00:58:50"}, "type": "Feature"}, {"geometry": {"coordinates": [8.560148, 47.413986], "type": "Point"}, "properties": {"charge": 100, "id": "smide_180", "name": "ZH253824", "provider": "smide", "range": 50.0, "size": 20, "time": "02/02/2020, 00:58:50"}, "type": "Feature"}, {"geometry": {"coordinates": [8.541737, 47.369084], "type": "Point"}, "properties": {"charge": 52, "id": "smide_20", "name": "ZH253770", "provider": "smide", "range": 26.0, "size": 20, "time": "02/02/2020, 00:58:50"}, "type": "Feature"}, {"geometry": {"coordinates": [8.55491, 47.377264], "type": "Point"}, "properties": {"charge": 86, "id": "smide_50", "name": "ZH253853", "provider": "smide", "range": 43.0, "size": 17, "time": "02/02/2020, 00:58:50"}, "type": "Feature"}, {"geometry": {"coordinates": [8.536885, 47.38987], "type": "Point"}, "properties": {"charge": 88, "id": "smide_30", "name": "ZH253813", "provider": "smide", "range": 44.0, "size": 20, "time": "02/02/2020, 00:58:50"}, "type": "Feature"}, {"geometry": {"coordinates": [8.53567, 47.374635], "type": "Point"}, "properties": {"charge": 80, "id": "smide_10", "name": "ZH253855", "provider": "smide", "range": 40.0, "size": 17, "time": "02/02/2020, 00:58:50"}, "type": "Feature"}, {"geometry": {"coordinates": [8.541708, 47.376128], "type": "Point"}, "properties": {"charge": 48, "id": "smide_165", "name": "ZH253752", "provider": "smide", "range": 24.0, "size": 17, "time": "02/02/2020, 00:58:50"}, "type": "Feature"}, {"geometry": {"coordinates": [8.541599, 47.367452], "type": "Point"}, "properties": {"charge": 27, "id": "smide_76", "name": "ZH253764", "provider": "smide", "range": 13.0, "size": 17, "time": "02/02/2020, 00:58:50"}, "type": "Feature"}, {"geometry": {"coordinates": [8.560639, 47.350488], "type": "Point"}, "properties": {"charge": 100, "id": "smide_129", "name": "ZH261378", "provider": "smide", "range": 50.0, "size": 17, "time": "02/02/2020, 00:58:50"}, "type": "Feature"}, {"geometry": {"coordinates": [8.554145, 47.357236], "type": "Point"}, "properties": {"charge": 36, "id": "smide_94", "name": "ZH253754", "provider": "smide", "range": 18.0, "size": 17, "time": "02/02/2020, 00:58:50"}, "type": "Feature"}, {"geometry": {"coordinates": [8.532446, 47.397388], "type": "Point"}, "properties": {"charge": 46, "id": "smide_37", "name": "ZH261377", "provider": "smide", "range": 23.0, "size": 20, "time": "02/02/2020, 00:58:50"}, "type": "Feature"}, {"geometry": {"coordinates": [8.54519, 47.369431], "type": "Point"}, "properties": {"charge": 83, "id": "smide_191", "name": "ZH253762", "provider": "smide", "range": 41.0, "size": 17, "time": "02/02/2020, 00:58:50"}, "type": "Feature"}, {"geometry": {"coordinates": [8.544758, 47.377901], "type": "Point"}, "properties": {"charge": 100, "id": "smide_202", "name": "ZH253830", "provider": "smide", "range": 50.0, "size": 17, "time": "02/02/2020, 00:58:50"}, "type": "Feature"}, {"geometry": {"coordinates": [8.532587, 47.384008], "type": "Point"}, "properties": {"charge": 63, "id": "smide_56", "name": "ZH261442", "provider": "smide", "range": 31.0, "size": 20, "time": "02/02/2020, 00:58:50"}, "type": "Feature"}, {"geometry": {"coordinates": [8.483053, 47.384678], "type": "Point"}, "properties": {"charge": 36, "id": "smide_47", "name": "ZH253858", "provider": "smide", "range": 18.0, "size": 17, "time": "02/02/2020, 00:58:50"}, "type": "Feature"}, {"geometry": {"coordinates": [8.55978, 47.404204], "type": "Point"}, "properties": {"charge": 100, "id": "smide_66", "name": "ZH253818", "provider": "smide", "range": 50.0, "size": 20, "time": "02/02/2020, 00:58:50"}, "type": "Feature"}, {"geometry": {"coordinates": [8.548583, 47.40578], "type": "Point"}, "properties": {"charge": 94, "id": "smide_17", "name": "ZH253793", "provider": "smide", "range": 47.0, "size": 17, "time": "02/02/2020, 00:58:50"}, "type": "Feature"}, {"geometry": {"coordinates": [8.560511, 47.351656], "type": "Point"}, "properties": {"charge": 65, "id": "smide_127", "name": "ZH253808", "provider": "smide", "range": 32.0, "size": 20, "time": "02/02/2020, 00:58:50"}, "type": "Feature"}, {"geometry": {"coordinates": [8.53978, 47.415105], "type": "Point"}, "properties": {"charge": 81, "id": "smide_145", "name": "ZH253780", "provider": "smide", "range": 40.0, "size": 20, "time": "02/02/2020, 00:58:50"}, "type": "Feature"}, {"geometry": {"coordinates": [8.532937, 47.416336], "type": "Point"}, "properties": {"charge": 100, "id": "smide_114", "name": "ZH253878", "provider": "smide", "range": 50.0, "size": 20, "time": "02/02/2020, 00:58:50"}, "type": "Feature"}, {"geometry": {"coordinates": [8.548914, 47.421568], "type": "Point"}, "properties": {"charge": 59, "id": "smide_203", "name": "ZH261547", "provider": "smide", "range": 29.0, "size": 17, "time": "02/02/2020, 00:58:50"}, "type": "Feature"}, {"geometry": {"coordinates": [8.543246, 47.372952], "type": "Point"}, "properties": {"charge": 80, "id": "smide_21", "name": "ZH253841", "provider": "smide", "range": 40.0, "size": 17, "time": "02/02/2020, 00:58:50"}, "type": "Feature"}, {"geometry": {"coordinates": [8.487435, 47.367652], "type": "Point"}, "properties": {"charge": 93, "id": "smide_189", "name": "ZH253845", "provider": "smide", "range": 46.0, "size": 20, "time": "02/02/2020, 00:58:50"}, "type": "Feature"}, {"geometry": {"coordinates": [8.545351, 47.37368], "type": "Point"}, "properties": {"charge": 22, "id": "smide_81", "name": "ZH253753", "provider": "smide", "range": 11.0, "size": 17, "time": "02/02/2020, 00:58:50"}, "type": "Feature"}, {"geometry": {"coordinates": [8.571664, 47.3815], "type": "Point"}, "properties": {"charge": 86, "id": "smide_171", "name": "ZH253689", "provider": "smide", "range": 43.0, "size": 20, "time": "02/02/2020, 00:58:50"}, "type": "Feature"}, {"geometry": {"coordinates": [8.495412, 47.386856], "type": "Point"}, "properties": {"charge": 48, "id": "smide_93", "name": "ZH253681", "provider": "smide", "range": 24.0, "size": 17, "time": "02/02/2020, 00:58:50"}, "type": "Feature"}, {"geometry": {"coordinates": [8.573173, 47.352504], "type": "Point"}, "properties": {"charge": 88, "id": "smide_67", "name": "ZH253779", "provider": "smide", "range": 44.0, "size": 17, "time": "02/02/2020, 00:58:50"}, "type": "Feature"}, {"geometry": {"coordinates": [8.536642, 47.419168], "type": "Point"}, "properties": {"charge": 100, "id": "smide_133", "name": "ZH253848", "provider": "smide", "range": 50.0, "size": 20, "time": "02/02/2020, 00:58:50"}, "type": "Feature"}, {"geometry": {"coordinates": [8.48198, 47.386176], "type": "Point"}, "properties": {"charge": 98, "id": "smide_118", "name": "ZH253759", "provider": "smide", "range": 49.0, "size": 20, "time": "02/02/2020, 00:58:50"}, "type": "Feature"}, {"geometry": {"coordinates": [8.550542, 47.39254], "type": "Point"}, "properties": {"charge": 92, "id": "smide_142", "name": "ZH258745", "provider": "smide", "range": 46.0, "size": 17, "time": "02/02/2020, 00:58:50"}, "type": "Feature"}, {"geometry": {"coordinates": [8.537593, 47.375861], "type": "Point"}, "properties": {"charge": 55, "id": "smide_166", "name": "ZH253728", "provider": "smide", "range": 27.0, "size": 17, "time": "02/02/2020, 00:58:50"}, "type": "Feature"}, {"geometry": {"coordinates": [8.49459, 47.397948], "type": "Point"}, "properties": {"charge": 55, "id": "smide_126", "name": "ZH268400", "provider": "smide", "range": 27.0, "size": 17, "time": "02/02/2020, 00:58:50"}, "type": "Feature"}, {"geometry": {"coordinates": [8.546443, 47.3643], "type": "Point"}, "properties": {"charge": 100, "id": "smide_98", "name": "ZH256321", "provider": "smide", "range": 50.0, "size": 17, "time": "02/02/2020, 00:58:50"}, "type": "Feature"}, {"geometry": {"coordinates": [8.484722, 47.3942], "type": "Point"}, "properties": {"charge": 75, "id": "smide_154", "name": "ZH253744", "provider": "smide", "range": 37.0, "size": 20, "time": "02/02/2020, 00:58:50"}, "type": "Feature"}, {"geometry": {"coordinates": [8.521729, 47.357388], "type": "Point"}, "properties": {"charge": 48, "id": "smide_7", "name": "ZH256289", "provider": "smide", "range": 24.0, "size": 20, "time": "02/02/2020, 00:58:50"}, "type": "Feature"}, {"geometry": {"coordinates": [8.560384, 47.372352], "type": "Point"}, "properties": {"charge": 86, "id": "smide_92", "name": "ZH253798", "provider": "smide", "range": 43.0, "size": 17, "time": "02/02/2020, 00:58:50"}, "type": "Feature"}, {"geometry": {"coordinates": [8.51746, 47.42482], "type": "Point"}, "properties": {"charge": 59, "id": "smide_167", "name": "ZH253854", "provider": "smide", "range": 29.0, "size": 17, "time": "02/02/2020, 00:58:50"}, "type": "Feature"}, {"geometry": {"coordinates": [8.500347, 47.370204], "type": "Point"}, "properties": {"charge": 23, "id": "smide_65", "name": "ZH253810", "provider": "smide", "range": 11.0, "size": 17, "time": "02/02/2020, 00:58:50"}, "type": "Feature"}, {"geometry": {"coordinates": [8.531738, 47.390032], "type": "Point"}, "properties": {"charge": 75, "id": "smide_111", "name": "ZH253763", "provider": "smide", "range": 37.0, "size": 17, "time": "02/02/2020, 00:58:50"}, "type": "Feature"}, {"geometry": {"coordinates": [8.562191, 47.414976], "type": "Point"}, "properties": {"charge": 94, "id": "smide_40", "name": "ZH253690", "provider": "smide", "range": 47.0, "size": 20, "time": "02/02/2020, 00:58:50"}, "type": "Feature"}, {"geometry": {"coordinates": [8.557668, 47.351944], "type": "Point"}, "properties": {"charge": 99, "id": "smide_1", "name": "ZH253776", "provider": "smide", "range": 49.0, "size": 17, "time": "02/02/2020, 00:58:50"}, "type": "Feature"}, {"geometry": {"coordinates": [8.539433, 47.378952], "type": "Point"}, "properties": {"charge": 71, "id": "smide_28", "name": "ZH253831", "provider": "smide", "range": 35.0, "size": 17, "time": "02/02/2020, 00:58:50"}, "type": "Feature"}, {"geometry": {"coordinates": [8.519535, 47.339436], "type": "Point"}, "properties": {"charge": 75, "id": "smide_14", "name": "ZH253749", "provider": "smide", "range": 37.0, "size": 20, "time": "02/02/2020, 00:58:50"}, "type": "Feature"}, {"geometry": {"coordinates": [8.531564, 47.3792], "type": "Point"}, "properties": {"charge": 100, "id": "smide_130", "name": "ZH253847", "provider": "smide", "range": 50.0, "size": 20, "time": "02/02/2020, 00:58:50"}, "type": "Feature"}, {"geometry": {"coordinates": [8.540902, 47.378448], "type": "Point"}, "properties": {"charge": 40, "id": "smide_24", "name": "ZH253696", "provider": "smide", "range": 20.0, "size": 20, "time": "02/02/2020, 00:58:50"}, "type": "Feature"}, {"geometry": {"coordinates": [8.502098, 47.368932], "type": "Point"}, "properties": {"charge": 94, "id": "smide_107", "name": "ZH253819", "provider": "smide", "range": 47.0, "size": 17, "time": "02/02/2020, 00:58:50"}, "type": "Feature"}, {"geometry": {"coordinates": [8.540101, 47.378828], "type": "Point"}, "properties": {"charge": 98, "id": "smide_136", "name": "ZH253682", "provider": "smide", "range": 49.0, "size": 17, "time": "02/02/2020, 00:58:50"}, "type": "Feature"}, {"geometry": {"coordinates": [8.520868, 47.411672], "type": "Point"}, "properties": {"charge": 100, "id": "smide_83", "name": "ZH253869", "provider": "smide", "range": 50.0, "size": 20, "time": "02/02/2020, 00:58:50"}, "type": "Feature"}, {"geometry": {"coordinates": [8.536302, 47.37116], "type": "Point"}, "properties": {"charge": 29, "id": "smide_193", "name": "ZH253738", "provider": "smide", "range": 14.0, "size": 20, "time": "02/02/2020, 00:58:50"}, "type": "Feature"}, {"geometry": {"coordinates": [8.545181, 47.412256], "type": "Point"}, "properties": {"charge": 98, "id": "smide_73", "name": "ZH261379", "provider": "smide", "range": 49.0, "size": 20, "time": "02/02/2020, 00:58:50"}, "type": "Feature"}, {"geometry": {"coordinates": [8.48529, 47.375575], "type": "Point"}, "properties": {"charge": 100, "id": "smide_158", "name": "ZH253870", "provider": "smide", "range": 50.0, "size": 20, "time": "02/02/2020, 00:58:50"}, "type": "Feature"}, {"geometry": {"coordinates": [8.534108, 47.404136], "type": "Point"}, "properties": {"charge": 87, "id": "smide_100", "name": "ZH253862", "provider": "smide", "range": 43.0, "size": 20, "time": "02/02/2020, 00:58:50"}, "type": "Feature"}, {"geometry": {"coordinates": [8.48921, 47.392973], "type": "Point"}, "properties": {"charge": 100, "id": "smide_134", "name": "ZH253741", "provider": "smide", "range": 50.0, "size": 20, "time": "02/02/2020, 00:58:50"}, "type": "Feature"}, {"geometry": {"coordinates": [8.51771, 47.414335], "type": "Point"}, "properties": {"charge": 100, "id": "smide_141", "name": "ZH253800", "provider": "smide", "range": 50.0, "size": 20, "time": "02/02/2020, 00:58:50"}, "type": "Feature"}, {"geometry": {"coordinates": [8.544074, 47.384552], "type": "Point"}, "properties": {"charge": 55, "id": "smide_16", "name": "ZH253713", "provider": "smide", "range": 27.0, "size": 20, "time": "02/02/2020, 00:58:50"}, "type": "Feature"}, {"geometry": {"coordinates": [8.562944, 47.366124], "type": "Point"}, "properties": {"charge": 49, "id": "smide_74", "name": "ZH253693", "provider": "smide", "range": 24.0, "size": 20, "time": "02/02/2020, 00:58:50"}, "type": "Feature"}, {"geometry": {"coordinates": [8.576686, 47.351423], "type": "Point"}, "properties": {"charge": 83, "id": "smide_33", "name": "ZH253782", "provider": "smide", "range": 41.0, "size": 20, "time": "02/02/2020, 00:58:50"}, "type": "Feature"}, {"geometry": {"coordinates": [8.560353, 47.372404], "type": "Point"}, "properties": {"charge": 58, "id": "smide_161", "name": "ZH253691", "provider": "smide", "range": 28.0, "size": 20, "time": "02/02/2020, 00:58:50"}, "type": "Feature"}, {"geometry": {"coordinates": [8.523331, 47.362901], "type": "Point"}, "properties": {"charge": 50, "id": "smide_183", "name": "ZH253868", "provider": "smide", "range": 25.0, "size": 17, "time": "02/02/2020, 00:58:50"}, "type": "Feature"}, {"geometry": {"coordinates": [8.543272, 47.375244], "type": "Point"}, "properties": {"charge": 78, "id": "smide_42", "name": "ZH253846", "provider": "smide", "range": 39.0, "size": 20, "time": "02/02/2020, 00:58:50"}, "type": "Feature"}, {"geometry": {"coordinates": [8.539401, 47.419224], "type": "Point"}, "properties": {"charge": 97, "id": "smide_4", "name": "ZH253740", "provider": "smide", "range": 48.0, "size": 20, "time": "02/02/2020, 00:58:50"}, "type": "Feature"}, {"geometry": {"coordinates": [8.55559, 47.366904], "type": "Point"}, "properties": {"charge": 97, "id": "smide_160", "name": "ZH253722", "provider": "smide", "range": 48.0, "size": 17, "time": "02/02/2020, 00:58:50"}, "type": "Feature"}, {"geometry": {"coordinates": [8.573306, 47.349135], "type": "Point"}, "properties": {"charge": 89, "id": "smide_137", "name": "ZH258502", "provider": "smide", "range": 44.0, "size": 17, "time": "02/02/2020, 00:58:50"}, "type": "Feature"}, {"geometry": {"coordinates": [8.577462, 47.353044], "type": "Point"}, "properties": {"charge": 98, "id": "smide_178", "name": "ZH253803", "provider": "smide", "range": 49.0, "size": 17, "time": "02/02/2020, 00:58:50"}, "type": "Feature"}, {"geometry": {"coordinates": [8.522539, 47.379056], "type": "Point"}, "properties": {"charge": 89, "id": "smide_96", "name": "ZH256146", "provider": "smide", "range": 44.0, "size": 20, "time": "02/02/2020, 00:58:50"}, "type": "Feature"}, {"geometry": {"coordinates": [8.545018, 47.38524], "type": "Point"}, "properties": {"charge": 27, "id": "smide_58", "name": "ZH259246", "provider": "smide", "range": 13.0, "size": 20, "time": "02/02/2020, 00:58:50"}, "type": "Feature"}, {"geometry": {"coordinates": [8.50209, 47.368932], "type": "Point"}, "properties": {"charge": 100, "id": "smide_54", "name": "ZH253874", "provider": "smide", "range": 50.0, "size": 20, "time": "02/02/2020, 00:58:50"}, "type": "Feature"}, {"geometry": {"coordinates": [8.551963, 47.389356], "type": "Point"}, "properties": {"charge": 89, "id": "smide_175", "name": "ZH253730", "provider": "smide", "range": 44.0, "size": 17, "time": "02/02/2020, 00:58:50"}, "type": "Feature"}, {"geometry": {"coordinates": [8.53272, 47.38394], "type": "Point"}, "properties": {"charge": 94, "id": "smide_95", "name": "ZH253773", "provider": "smide", "range": 47.0, "size": 17, "time": "02/02/2020, 00:58:50"}, "type": "Feature"}, {"geometry": {"coordinates": [8.512808, 47.375112], "type": "Point"}, "properties": {"charge": 35, "id": "smide_163", "name": "ZH256147", "provider": "smide", "range": 17.0, "size": 20, "time": "02/02/2020, 00:58:50"}, "type": "Feature"}, {"geometry": {"coordinates": [8.541456, 47.41354], "type": "Point"}, "properties": {"charge": 57, "id": "smide_112", "name": "ZH263530", "provider": "smide", "range": 28.0, "size": 20, "time": "02/02/2020, 00:58:50"}, "type": "Feature"}, {"geometry": {"coordinates": [8.564344, 47.369352], "type": "Point"}, "properties": {"charge": 34, "id": "smide_122", "name": "ZH253850", "provider": "smide", "range": 17.0, "size": 20, "time": "02/02/2020, 00:58:50"}, "type": "Feature"}, {"geometry": {"coordinates": [8.544233, 47.37192], "type": "Point"}, "properties": {"charge": 85, "id": "smide_38", "name": "ZH253851", "provider": "smide", "range": 42.0, "size": 20, "time": "02/02/2020, 00:58:50"}, "type": "Feature"}, {"geometry": {"coordinates": [8.557764, 47.404376], "type": "Point"}, "properties": {"charge": 89, "id": "smide_6", "name": "ZH253787", "provider": "smide", "range": 44.0, "size": 17, "time": "02/02/2020, 00:58:50"}, "type": "Feature"}, {"geometry": {"coordinates": [8.556976, 47.403976], "type": "Point"}, "properties": {"charge": 100, "id": "smide_18", "name": "ZH253859", "provider": "smide", "range": 50.0, "size": 17, "time": "02/02/2020, 00:58:50"}, "type": "Feature"}, {"geometry": {"coordinates": [8.498188, 47.399176], "type": "Point"}, "properties": {"charge": 59, "id": "smide_12", "name": "ZH253685", "provider": "smide", "range": 29.0, "size": 17, "time": "02/02/2020, 00:58:50"}, "type": "Feature"}, {"geometry": {"coordinates": [8.576298, 47.348776], "type": "Point"}, "properties": {"charge": 95, "id": "smide_192", "name": "ZH253706", "provider": "smide", "range": 47.0, "size": 20, "time": "02/02/2020, 00:58:50"}, "type": "Feature"}, {"geometry": {"coordinates": [8.559651, 47.35734], "type": "Point"}, "properties": {"charge": 65, "id": "smide_39", "name": "ZH253714", "provider": "smide", "range": 32.0, "size": 20, "time": "02/02/2020, 00:58:50"}, "type": "Feature"}, {"geometry": {"coordinates": [8.519235, 47.337396], "type": "Point"}, "properties": {"charge": 59, "id": "smide_5", "name": "ZH261443", "provider": "smide", "range": 29.0, "size": 20, "time": "02/02/2020, 00:58:50"}, "type": "Feature"}, {"geometry": {"coordinates": [8.5625, 47.377688], "type": "Point"}, "properties": {"charge": 98, "id": "smide_85", "name": "ZH253729", "provider": "smide", "range": 49.0, "size": 17, "time": "02/02/2020, 00:58:50"}, "type": "Feature"}, {"geometry": {"coordinates": [8.562346, 47.373], "type": "Point"}, "properties": {"charge": 14, "id": "smide_29", "name": "ZH253723", "provider": "smide", "range": 7.0, "size": 17, "time": "02/02/2020, 00:58:50"}, "type": "Feature"}, {"geometry": {"coordinates": [8.547509, 47.391], "type": "Point"}, "properties": {"charge": 55, "id": "smide_48", "name": "ZH253849", "provider": "smide", "range": 27.0, "size": 20, "time": "02/02/2020, 00:58:50"}, "type": "Feature"}, {"geometry": {"coordinates": [8.548258, 47.384628], "type": "Point"}, "properties": {"charge": 13, "id": "smide_46", "name": "ZH253843", "provider": "smide", "range": 6.0, "size": 20, "time": "02/02/2020, 00:58:50"}, "type": "Feature"}, {"geometry": {"coordinates": [8.51826833333333, 47.3864366666667], "type": "Point"}, "properties": {"charge": 19, "id": "bird_b4dfa3a8-3508-4e0f-b882-470fe1f4fe00", "provider": "bird", "timeStamp": "02/02/2020, 00:58:49"}, "type": "Feature"}, {"geometry": {"coordinates": [8.51812166666667, 47.38628], "type": "Point"}, "properties": {"charge": 11, "id": "bird_7eba84b2-f987-4265-8946-4ce20d1f2d1b", "provider": "bird", "timeStamp": "02/02/2020, 00:58:49"}, "type": "Feature"}, {"geometry": {"coordinates": [8.51823, 47.3862916666667], "type": "Point"}, "properties": {"charge": 10, "id": "bird_5346e916-94c9-4180-8fb6-74a98e9f14a4", "provider": "bird", "timeStamp": "02/02/2020, 00:58:49"}, "type": "Feature"}, {"geometry": {"coordinates": [8.54407, 47.3764916666667], "type": "Point"}, "properties": {"charge": 90, "id": "bird_cfd154b4-5a26-4524-81c0-dca3517ded2f", "provider": "bird", "timeStamp": "02/02/2020, 00:58:49"}, "type": "Feature"}, {"geometry": {"coordinates": [8.51534166666667, 47.3821183333333], "type": "Point"}, "properties": {"charge": 62, "id": "bird_e15d4ca0-a5c3-481b-861d-7718c9aebfef", "provider": "bird", "timeStamp": "02/02/2020, 00:58:49"}, "type": "Feature"}, {"geometry": {"coordinates": [8.51773, 47.3857616666667], "type": "Point"}, "properties": {"charge": 36, "id": "bird_9e9db36a-8d03-41d8-bd42-326380f30579", "provider": "bird", "timeStamp": "02/02/2020, 00:58:49"}, "type": "Feature"}, {"geometry": {"coordinates": [8.51835333333333, 47.3863266666667], "type": "Point"}, "properties": {"charge": 10, "id": "bird_b3c2806a-04c7-4a2c-8568-28dbf1465895", "provider": "bird", "timeStamp": "02/02/2020, 00:58:49"}, "type": "Feature"}, {"geometry": {"coordinates": [8.515075, 47.3799166666667], "type": "Point"}, "properties": {"charge": 31, "id": "bird_7e664e32-b9df-4f21-b776-466d8e1d9828", "provider": "bird", "timeStamp": "02/02/2020, 00:58:49"}, "type": "Feature"}, {"geometry": {"coordinates": [8.54349666666667, 47.375695], "type": "Point"}, "properties": {"charge": 74, "id": "bird_9bf1bea5-a6a6-44d7-a5c2-ff8976db6191", "provider": "bird", "timeStamp": "02/02/2020, 00:58:49"}, "type": "Feature"}, {"geometry": {"coordinates": [8.54395833333333, 47.376465], "type": "Point"}, "properties": {"charge": 89, "id": "bird_d059bb1e-3366-4e74-909c-35b51bb507e2", "provider": "bird", "timeStamp": "02/02/2020, 00:58:49"}, "type": "Feature"}, {"geometry": {"coordinates": [8.51781666666667, 47.385795], "type": "Point"}, "properties": {"charge": 80, "id": "bird_3481a0d7-7e82-4075-98a6-764a47f72237", "provider": "bird", "timeStamp": "02/02/2020, 00:58:49"}, "type": "Feature"}, {"geometry": {"coordinates": [8.53299, 47.3898616666667], "type": "Point"}, "properties": {"charge": 31, "id": "bird_0d81403c-dabd-4b36-8e15-3f894b513242", "provider": "bird", "timeStamp": "02/02/2020, 00:58:49"}, "type": "Feature"}, {"geometry": {"coordinates": [8.54388833333333, 47.37643], "type": "Point"}, "properties": {"charge": 35, "id": "bird_0ad2b1a1-ee3f-456d-8d5e-0d4e1552ca33", "provider": "bird", "timeStamp": "02/02/2020, 00:58:49"}, "type": "Feature"}, {"geometry": {"coordinates": [8.51635333333333, 47.3760533333333], "type": "Point"}, "properties": {"charge": 74, "id": "bird_850f28dd-4cd0-4b3b-a9f6-60d3f8ccab9c", "provider": "bird", "timeStamp": "02/02/2020, 00:58:49"}, "type": "Feature"}, {"geometry": {"coordinates": [8.518415, 47.38628], "type": "Point"}, "properties": {"charge": 18, "id": "bird_60c15414-e452-42bf-a70b-e5b5031228ab", "provider": "bird", "timeStamp": "02/02/2020, 00:58:49"}, "type": "Feature"}, {"geometry": {"coordinates": [8.5184, 47.386235], "type": "Point"}, "properties": {"charge": 15, "id": "bird_e82f978b-55de-4892-b03b-30e8bc6b3ea2", "provider": "bird", "timeStamp": "02/02/2020, 00:58:49"}, "type": "Feature"}, {"geometry": {"coordinates": [8.51859833333333, 47.3863683333333], "type": "Point"}, "properties": {"charge": 16, "id": "bird_dd50d4f3-42f9-4e7e-bf48-345d51c1b7dd", "provider": "bird", "timeStamp": "02/02/2020, 00:58:49"}, "type": "Feature"}, {"geometry": {"coordinates": [8.51846333333333, 47.386245], "type": "Point"}, "properties": {"charge": 15, "id": "bird_413029c6-0606-48c4-9313-fc7d8bed4e59", "provider": "bird", "timeStamp": "02/02/2020, 00:58:49"}, "type": "Feature"}, {"geometry": {"coordinates": [8.51968333333333, 47.3728566666667], "type": "Point"}, "properties": {"charge": 62, "id": "bird_e6d0e6e1-5800-467f-b292-c6304a9ab0a0", "provider": "bird", "timeStamp": "02/02/2020, 00:58:49"}, "type": "Feature"}, {"geometry": {"coordinates": [8.51848166666667, 47.386235], "type": "Point"}, "properties": {"charge": 15, "id": "bird_881810d1-0ded-4b4b-8f82-bacf221347c1", "provider": "bird", "timeStamp": "02/02/2020, 00:58:49"}, "type": "Feature"}, {"geometry": {"coordinates": [8.51839833333333, 47.3861383333333], "type": "Point"}, "properties": {"charge": 20, "id": "bird_9c64cd80-badf-4376-90d6-eeeb6c3178f5", "provider": "bird", "timeStamp": "02/02/2020, 00:58:49"}, "type": "Feature"}, {"geometry": {"coordinates": [8.5230508, 47.3712162], "type": "Point"}, "properties": {"charge": 35, "id": "bird_cecdc2e5-fe58-4e29-860b-1dfd630e037d", "provider": "bird", "timeStamp": "02/02/2020, 00:58:49"}, "type": "Feature"}, {"geometry": {"coordinates": [8.51850833333333, 47.3862183333333], "type": "Point"}, "properties": {"charge": 17, "id": "bird_7284aa09-a82c-4434-9740-aed4725ec536", "provider": "bird", "timeStamp": "02/02/2020, 00:58:49"}, "type": "Feature"}, {"geometry": {"coordinates": [8.51859333333333, 47.386245], "type": "Point"}, "properties": {"charge": 12, "id": "bird_c1b47f97-81c4-4fd2-9621-ee439b5ea517", "provider": "bird", "timeStamp": "02/02/2020, 00:58:49"}, "type": "Feature"}, {"geometry": {"coordinates": [8.51854333333333, 47.386155], "type": "Point"}, "properties": {"charge": 17, "id": "bird_0c42abea-7092-4537-8a45-f55302aae064", "provider": "bird", "timeStamp": "02/02/2020, 00:58:49"}, "type": "Feature"}, {"geometry": {"coordinates": [8.51860333333333, 47.38615], "type": "Point"}, "properties": {"charge": 21, "id": "bird_8ff3ba24-aeff-4f9e-88fa-3178139d3d4a", "provider": "bird", "timeStamp": "02/02/2020, 00:58:49"}, "type": "Feature"}, {"geometry": {"coordinates": [8.54379333333333, 47.37696], "type": "Point"}, "properties": {"charge": 22, "id": "bird_a812116b-5cab-482a-9501-9a0d35d5498d", "provider": "bird", "timeStamp": "02/02/2020, 00:58:49"}, "type": "Feature"}, {"geometry": {"coordinates": [8.51877166666667, 47.386085], "type": "Point"}, "properties": {"charge": 21, "id": "bird_55a849bd-6c5e-4eda-a613-678998d9bb9e", "provider": "bird", "timeStamp": "02/02/2020, 00:58:49"}, "type": "Feature"}, {"geometry": {"coordinates": [8.53191666666667, 47.3703683333333], "type": "Point"}, "properties": {"charge": 27, "id": "bird_443eedb5-4ef4-4f9a-a269-892e1913c25d", "provider": "bird", "timeStamp": "02/02/2020, 00:58:49"}, "type": "Feature"}, {"geometry": {"coordinates": [8.53196333333333, 47.3704066666667], "type": "Point"}, "properties": {"charge": 61, "id": "bird_e29ee889-0237-4b1d-a7e0-b97f925c73d3", "provider": "bird", "timeStamp": "02/02/2020, 00:58:49"}, "type": "Feature"}, {"geometry": {"coordinates": [8.52605333333333, 47.38929], "type": "Point"}, "properties": {"charge": 88, "id": "bird_316de46f-db63-4691-9b94-43a909998b92", "provider": "bird", "timeStamp": "02/02/2020, 00:58:49"}, "type": "Feature"}, {"geometry": {"coordinates": [8.54419666666667, 47.3799316666667], "type": "Point"}, "properties": {"charge": 87, "id": "bird_d98eca43-b8fb-45be-9aac-9b59c0b975b0", "provider": "bird", "timeStamp": "02/02/2020, 00:58:49"}, "type": "Feature"}, {"geometry": {"coordinates": [8.518885, 47.37402], "type": "Point"}, "properties": {"charge": 60, "id": "bird_eda25e25-de51-4909-8011-cce44595f2f2", "provider": "bird", "timeStamp": "02/02/2020, 00:58:49"}, "type": "Feature"}, {"geometry": {"coordinates": [8.51852666666667, 47.3855433333333], "type": "Point"}, "properties": {"charge": 67, "id": "bird_efd2b5e2-f310-4826-85a5-8e31662b4578", "provider": "bird", "timeStamp": "02/02/2020, 00:58:49"}, "type": "Feature"}, {"geometry": {"coordinates": [8.51603833333333, 47.378735], "type": "Point"}, "properties": {"charge": 80, "id": "bird_d4db1019-8418-42f3-bc2b-1eca922ea57c", "provider": "bird", "timeStamp": "02/02/2020, 00:58:49"}, "type": "Feature"}, {"geometry": {"coordinates": [8.54405333333333, 47.3799283333333], "type": "Point"}, "properties": {"charge": 93, "id": "bird_9e60c00d-1d79-4e6e-b8e7-9d1bff62195d", "provider": "bird", "timeStamp": "02/02/2020, 00:58:49"}, "type": "Feature"}, {"geometry": {"coordinates": [8.54096166666667, 47.374245], "type": "Point"}, "properties": {"charge": 38, "id": "bird_250f1b13-2e8b-40a6-b12f-cf9c33908e63", "provider": "bird", "timeStamp": "02/02/2020, 00:58:49"}, "type": "Feature"}, {"geometry": {"coordinates": [8.51909666666667, 47.3857733333333], "type": "Point"}, "properties": {"charge": 71, "id": "bird_f2d71ba1-f567-41b5-86e7-fd4e8f549198", "provider": "bird", "timeStamp": "02/02/2020, 00:58:49"}, "type": "Feature"}, {"geometry": {"coordinates": [8.51802, 47.375465], "type": "Point"}, "properties": {"charge": 84, "id": "bird_761a1636-5086-4910-aa56-4dc0098f0492", "provider": "bird", "timeStamp": "02/02/2020, 00:58:49"}, "type": "Feature"}, {"geometry": {"coordinates": [8.54122166666667, 47.3746533333333], "type": "Point"}, "properties": {"charge": 67, "id": "bird_c08c46f7-aa8e-4944-a34c-532360d14e9b", "provider": "bird", "timeStamp": "02/02/2020, 00:58:49"}, "type": "Feature"}, {"geometry": {"coordinates": [8.524815, 47.3714033333333], "type": "Point"}, "properties": {"charge": 10, "id": "bird_26d870bc-d186-4e57-bea6-bf04cc9cc9e8", "provider": "bird", "timeStamp": "02/02/2020, 00:58:49"}, "type": "Feature"}, {"geometry": {"coordinates": [8.52072666666667, 47.3732566666667], "type": "Point"}, "properties": {"charge": 73, "id": "bird_6d245d91-5a8e-42c6-8080-a958ecbb4257", "provider": "bird", "timeStamp": "02/02/2020, 00:58:49"}, "type": "Feature"}, {"geometry": {"coordinates": [8.543415, 47.3786616666667], "type": "Point"}, "properties": {"charge": 66, "id": "bird_41bf8f70-439b-4eab-abdb-b37868a06280", "provider": "bird", "timeStamp": "02/02/2020, 00:58:49"}, "type": "Feature"}, {"geometry": {"coordinates": [8.51774833333333, 47.3761516666667], "type": "Point"}, "properties": {"charge": 21, "id": "bird_ce224952-2e83-483d-85af-3bb1cd989196", "provider": "bird", "timeStamp": "02/02/2020, 00:58:49"}, "type": "Feature"}, {"geometry": {"coordinates": [8.53521666666667, 47.37167], "type": "Point"}, "properties": {"charge": 27, "id": "bird_24a66b82-0ca1-42c4-bcac-724c65170a6b", "provider": "bird", "timeStamp": "02/02/2020, 00:58:49"}, "type": "Feature"}, {"geometry": {"coordinates": [8.54044, 47.3743633333333], "type": "Point"}, "properties": {"charge": 40, "id": "bird_236b649b-fcf3-4b7b-93c8-633f53d24dfc", "provider": "bird", "timeStamp": "02/02/2020, 00:58:49"}, "type": "Feature"}, {"geometry": {"coordinates": [8.53636, 47.3721116666667], "type": "Point"}, "properties": {"charge": 91, "id": "bird_3dbd4111-f81e-463c-9bce-8eff9a1d9b57", "provider": "bird", "timeStamp": "02/02/2020, 00:58:49"}, "type": "Feature"}, {"geometry": {"coordinates": [8.51997, 47.3858383333333], "type": "Point"}, "properties": {"charge": 34, "id": "bird_2a1ed4b9-a8a2-4cc6-8a81-6f502aca7fd8", "provider": "bird", "timeStamp": "02/02/2020, 00:58:49"}, "type": "Feature"}, {"geometry": {"coordinates": [8.53629, 47.3721583333333], "type": "Point"}, "properties": {"charge": 81, "id": "bird_c3745d68-a2a5-405f-9eb8-699444d12706", "provider": "bird", "timeStamp": "02/02/2020, 00:58:49"}, "type": "Feature"}, {"geometry": {"coordinates": [8.51988666666667, 47.3857], "type": "Point"}, "properties": {"charge": 27, "id": "bird_f96bc0cd-1886-4b18-b3fb-5ed44d96a0fe", "provider": "bird", "timeStamp": "02/02/2020, 00:58:49"}, "type": "Feature"}, {"geometry": {"coordinates": [8.54007666666667, 47.3744933333333], "type": "Point"}, "properties": {"charge": 91, "id": "bird_1a0afd92-6fe6-402d-84a1-394598043016", "provider": "bird", "timeStamp": "02/02/2020, 00:58:49"}, "type": "Feature"}, {"geometry": {"coordinates": [8.51931833333333, 47.375175], "type": "Point"}, "properties": {"charge": 60, "id": "bird_2623e96a-316f-4048-a278-3bb03b6ced8c", "provider": "bird", "timeStamp": "02/02/2020, 00:58:49"}, "type": "Feature"}, {"geometry": {"coordinates": [8.54205833333333, 47.377255], "type": "Point"}, "properties": {"charge": 87, "id": "bird_ac24ed62-fdb0-44ae-85d6-1fd1785594b9", "provider": "bird", "timeStamp": "02/02/2020, 00:58:49"}, "type": "Feature"}, {"geometry": {"coordinates": [8.536, 47.3724066666667], "type": "Point"}, "properties": {"charge": 51, "id": "bird_f9dc1ab7-7753-4243-8953-728f97a35253", "provider": "bird", "timeStamp": "02/02/2020, 00:58:49"}, "type": "Feature"}, {"geometry": {"coordinates": [8.54177, 47.383145], "type": "Point"}, "properties": {"charge": 78, "id": "bird_cdefaee5-b2d9-451b-8545-03372c7c5786", "provider": "bird", "timeStamp": "02/02/2020, 00:58:49"}, "type": "Feature"}, {"geometry": {"coordinates": [8.54165333333333, 47.3768416666667], "type": "Point"}, "properties": {"charge": 91, "id": "bird_e25eff2a-fb42-4b69-9c8a-1ffd677f7658", "provider": "bird", "timeStamp": "02/02/2020, 00:58:49"}, "type": "Feature"}, {"geometry": {"coordinates": [8.51801833333333, 47.3774683333333], "type": "Point"}, "properties": {"charge": 31, "id": "bird_f89d6558-7daa-4773-853d-beabacd01455", "provider": "bird", "timeStamp": "02/02/2020, 00:58:49"}, "type": "Feature"}, {"geometry": {"coordinates": [8.537095, 47.3729966666667], "type": "Point"}, "properties": {"charge": 80, "id": "bird_6ea72e95-f01c-4d2a-8298-fae21e93a222", "provider": "bird", "timeStamp": "02/02/2020, 00:58:49"}, "type": "Feature"}, {"geometry": {"coordinates": [8.51780166666667, 47.3781166666667], "type": "Point"}, "properties": {"charge": 44, "id": "bird_1f8eae8f-2173-44ee-b1da-6670f4298b41", "provider": "bird", "timeStamp": "02/02/2020, 00:58:49"}, "type": "Feature"}, {"geometry": {"coordinates": [8.521825, 47.373645], "type": "Point"}, "properties": {"charge": 57, "id": "bird_4e6911b1-ed7d-4f39-b985-f03d2de581f0", "provider": "bird", "timeStamp": "02/02/2020, 00:58:49"}, "type": "Feature"}, {"geometry": {"coordinates": [8.53778833333333, 47.3865733333333], "type": "Point"}, "properties": {"charge": 52, "id": "bird_a69571b4-d2fb-4ee2-8937-3493bf5c486b", "provider": "bird", "timeStamp": "02/02/2020, 00:58:49"}, "type": "Feature"}, {"geometry": {"coordinates": [8.520665, 47.38546], "type": "Point"}, "properties": {"charge": 37, "id": "bird_e3a91aee-ccea-434f-97cd-f505cb3c8c6a", "provider": "bird", "timeStamp": "02/02/2020, 00:58:49"}, "type": "Feature"}, {"geometry": {"coordinates": [8.52064, 47.37463], "type": "Point"},