{"features": [{"geometry": {"coordinates": [8.540062, 47.374392], "type": "Point"}, "properties": {"address": "Uraniastrasse 7", "electric": 1, "id": "pb_60", "manual": 2, "name": "Demo Station Werdm\u00fchleplatz", "provider": "publibike", "timeStamp": "03/13/2020, 06:29:32", "zip": 8001}, "type": "Feature"}, {"geometry": {"coordinates": [8.5452956, 47.4099615], "type": "Point"}, "properties": {"address": "Querstrasse 8", "electric": 6, "id": "pb_61", "manual": 4, "name": "Marktplatz", "provider": "publibike", "timeStamp": "03/13/2020, 06:29:32", "zip": 8050}, "type": "Feature"}, {"geometry": {"coordinates": [8.5156327, 47.3795837], "type": "Point"}, "properties": {"address": "Bullingerstrasse 5", "electric": 6, "id": "pb_80", "manual": 14, "name": "Bullingerplatz", "provider": "publibike", "timeStamp": "03/13/2020, 06:29:32", "zip": 8004}, "type": "Feature"}, {"geometry": {"coordinates": [8.5104051, 47.3899342], "type": "Point"}, "properties": {"address": "Pfingstweidstrasse 96e", "electric": 2, "id": "pb_81", "manual": 0, "name": "Herdern", "provider": "publibike", "timeStamp": "03/13/2020, 06:29:32", "zip": 8001}, "type": "Feature"}, {"geometry": {"coordinates": [8.535718, 47.359675], "type": "Point"}, "properties": {"address": "Mythenquai 50", "electric": 0, "id": "pb_82", "manual": 0, "name": "Hafen Enge", "provider": "publibike", "timeStamp": "03/13/2020, 06:29:32", "zip": 8002}, "type": "Feature"}, {"geometry": {"coordinates": [8.520370505, 47.358663827], "type": "Point"}, "properties": {"address": "Bubenbergstrasse 1", "electric": 6, "id": "pb_83", "manual": 5, "name": "Comerge", "provider": "publibike", "timeStamp": "03/13/2020, 06:29:32", "zip": 8045}, "type": "Feature"}, {"geometry": {"coordinates": [8.5412505, 47.3789825], "type": "Point"}, "properties": {"address": "Museumstrasse 2", "electric": 2, "id": "pb_84", "manual": 16, "name": "Landesmuseum", "provider": "publibike", "timeStamp": "03/13/2020, 06:29:32", "zip": 8001}, "type": "Feature"}, {"geometry": {"coordinates": [8.5235479, 47.3716661], "type": "Point"}, "properties": {"address": "Birmensdorferstrasse 80", "electric": 1, "id": "pb_85", "manual": 6, "name": "Bahnhof Wiedikon", "provider": "publibike", "timeStamp": "03/13/2020, 06:29:32", "zip": 8003}, "type": "Feature"}, {"geometry": {"coordinates": [8.506822854, 47.40781197], "type": "Point"}, "properties": {"address": "Stefano-Franscini-Platz 5", "electric": 1, "id": "pb_86", "manual": 0, "name": "ETH H\u00f6nggerberg", "provider": "publibike", "timeStamp": "03/13/2020, 06:29:32", "zip": 8093}, "type": "Feature"}, {"geometry": {"coordinates": [8.536101, 47.371083], "type": "Point"}, "properties": {"address": "Pelikanplatz 5", "electric": 1, "id": "pb_87", "manual": 5, "name": "Pelikanplatz", "provider": "publibike", "timeStamp": "03/13/2020, 06:29:32", "zip": 8001}, "type": "Feature"}, {"geometry": {"coordinates": [8.5257822, 47.3651936], "type": "Point"}, "properties": {"address": "H\u00fcrlimannplatz 90", "electric": 0, "id": "pb_88", "manual": 6, "name": "H\u00fcrlimannplatz", "provider": "publibike", "timeStamp": "03/13/2020, 06:29:32", "zip": 8002}, "type": "Feature"}, {"geometry": {"coordinates": [8.5313344, 47.3713591], "type": "Point"}, "properties": {"address": "Selnaustrasse 32", "electric": 0, "id": "pb_89", "manual": 4, "name": "Stauffacherbr\u00fccke", "provider": "publibike", "timeStamp": "03/13/2020, 06:29:32", "zip": 8001}, "type": "Feature"}, {"geometry": {"coordinates": [8.5056978, 47.3917964], "type": "Point"}, "properties": {"address": "Sportweg 25", "electric": 4, "id": "pb_90", "manual": 3, "name": "Sportweg", "provider": "publibike", "timeStamp": "03/13/2020, 06:29:32", "zip": 8005}, "type": "Feature"}, {"geometry": {"coordinates": [8.5181701, 47.3917837], "type": "Point"}, "properties": {"address": "Hardturmstrasse 11", "electric": 1, "id": "pb_91", "manual": 4, "name": "Puls 5", "provider": "publibike", "timeStamp": "03/13/2020, 06:29:32", "zip": 8005}, "type": "Feature"}, {"geometry": {"coordinates": [8.5286468, 47.3820827], "type": "Point"}, "properties": {"address": "R\u00f6ntgenstrasse 6", "electric": 0, "id": "pb_92", "manual": 1, "name": "R\u00f6ntgenstrasse", "provider": "publibike", "timeStamp": "03/13/2020, 06:29:32", "zip": 8005}, "type": "Feature"}, {"geometry": {"coordinates": [8.531935, 47.384918], "type": "Point"}, "properties": {"address": "Kornhausbr\u00fccke 1", "electric": 0, "id": "pb_93", "manual": 10, "name": "Limmatplatz", "provider": "publibike", "timeStamp": "03/13/2020, 06:29:32", "zip": 8005}, "type": "Feature"}, {"geometry": {"coordinates": [8.5354006, 47.3758639], "type": "Point"}, "properties": {"address": "Gessnerallee 15", "electric": 0, "id": "pb_94", "manual": 0, "name": "Gessnerallee", "provider": "publibike", "timeStamp": "03/13/2020, 06:29:32", "zip": 8001}, "type": "Feature"}, {"geometry": {"coordinates": [8.523818, 47.377148], "type": "Point"}, "properties": {"address": "Stauffacherstrasse 127", "electric": 0, "id": "pb_95", "manual": 3, "name": "B\u00e4ckeranlage", "provider": "publibike", "timeStamp": "03/13/2020, 06:29:32", "zip": 8004}, "type": "Feature"}, {"geometry": {"coordinates": [8.531836, 47.378548], "type": "Point"}, "properties": {"address": "Lagerstrasse 44", "electric": 2, "id": "pb_96", "manual": 10, "name": "Gustav-Gull-Platz", "provider": "publibike", "timeStamp": "03/13/2020, 06:29:32", "zip": 8004}, "type": "Feature"}, {"geometry": {"coordinates": [8.5104883, 47.3771535], "type": "Point"}, "properties": {"address": "Zurlindenstrasse 291", "electric": 6, "id": "pb_97", "manual": 4, "name": "Zurlindenstrasse", "provider": "publibike", "timeStamp": "03/13/2020, 06:29:32", "zip": 8003}, "type": "Feature"}, {"geometry": {"coordinates": [8.5333139, 47.3731102], "type": "Point"}, "properties": {"address": "Sihlstrasse 81", "electric": 6, "id": "pb_98", "manual": 6, "name": "Sihlstrasse", "provider": "publibike", "timeStamp": "03/13/2020, 06:29:32", "zip": 8001}, "type": "Feature"}, {"geometry": {"coordinates": [8.520532, 47.374951], "type": "Point"}, "properties": {"address": "Feldstrasse 24", "electric": 1, "id": "pb_99", "manual": 4, "name": "Kalkbreite", "provider": "publibike", "timeStamp": "03/13/2020, 06:29:32", "zip": 8004}, "type": "Feature"}, {"geometry": {"coordinates": [8.539046, 47.368064], "type": "Point"}, "properties": {"address": "Talstrasse 12", "electric": 1, "id": "pb_100", "manual": 3, "name": "Z\u00fcrcher Kantonalbank", "provider": "publibike", "timeStamp": "03/13/2020, 06:29:32", "zip": 8001}, "type": "Feature"}, {"geometry": {"coordinates": [8.5348427, 47.3625938], "type": "Point"}, "properties": {"address": "Breitingerstrasse 5", "electric": 0, "id": "pb_101", "manual": 0, "name": "Rentenanstalt", "provider": "publibike", "timeStamp": "03/13/2020, 06:29:32", "zip": 8002}, "type": "Feature"}, {"geometry": {"coordinates": [8.5166922, 47.3897772], "type": "Point"}, "properties": {"address": "Technoparkstrasse 4", "electric": 0, "id": "pb_102", "manual": 0, "name": "Turbinenplatz", "provider": "publibike", "timeStamp": "03/13/2020, 06:29:32", "zip": 8005}, "type": "Feature"}, {"geometry": {"coordinates": [8.539312, 47.3739964], "type": "Point"}, "properties": {"address": "Oetenbachgasse 14", "electric": 0, "id": "pb_104", "manual": 1, "name": "Rennweg", "provider": "publibike", "timeStamp": "03/13/2020, 06:29:32", "zip": 8001}, "type": "Feature"}, {"geometry": {"coordinates": [8.5360685, 47.3775022], "type": "Point"}, "properties": {"address": "Kasernenstrasse 101", "electric": 6, "id": "pb_105", "manual": 27, "name": "Sihlpost", "provider": "publibike", "timeStamp": "03/13/2020, 06:29:32", "zip": 8004}, "type": "Feature"}, {"geometry": {"coordinates": [8.53545, 47.382798], "type": "Point"}, "properties": {"address": "Ausstellungsstrasse 44", "electric": 0, "id": "pb_106", "manual": 7, "name": "Museum f\u00fcr Gestaltung", "provider": "publibike", "timeStamp": "03/13/2020, 06:29:32", "zip": 8005}, "type": "Feature"}, {"geometry": {"coordinates": [8.5306155, 47.3647902], "type": "Point"}, "properties": {"address": "Gutenbergstrasse 1", "electric": 0, "id": "pb_107", "manual": 5, "name": "Bederbr\u00fccke", "provider": "publibike", "timeStamp": "03/13/2020, 06:29:32", "zip": 8002}, "type": "Feature"}, {"geometry": {"coordinates": [8.518982, 47.386741], "type": "Point"}, "properties": {"address": "Geroldstrasse 4", "electric": 5, "id": "pb_108", "manual": 16, "name": "Bahnhof Hardbr\u00fccke", "provider": "publibike", "timeStamp": "03/13/2020, 06:29:32", "zip": 8005}, "type": "Feature"}, {"geometry": {"coordinates": [8.53001018, 47.37247535], "type": "Point"}, "properties": {"address": "Werdstrasse 21", "electric": 1, "id": "pb_109", "manual": 2, "name": "Tamedia", "provider": "publibike", "timeStamp": "03/13/2020, 06:29:32", "zip": 8004}, "type": "Feature"}, {"geometry": {"coordinates": [8.4860017, 47.396401], "type": "Point"}, "properties": {"address": "Gr\u00fcnauring 37", "electric": 9, "id": "pb_110", "manual": 0, "name": "Gr\u00fcnau", "provider": "publibike", "timeStamp": "03/13/2020, 06:29:32", "zip": 8064}, "type": "Feature"}, {"geometry": {"coordinates": [8.548519, 47.376756], "type": "Point"}, "properties": {"address": "R\u00e4mistrasse 101", "electric": 0, "id": "pb_111", "manual": 0, "name": "ETH Zentrum", "provider": "publibike", "timeStamp": "03/13/2020, 06:29:32", "zip": 8006}, "type": "Feature"}, {"geometry": {"coordinates": [8.520449, 47.388151], "type": "Point"}, "properties": {"address": "Josefstrasse 224", "electric": 1, "id": "pb_112", "manual": 0, "name": "Steinfelsareal", "provider": "publibike", "timeStamp": "03/13/2020, 06:29:32", "zip": 8005}, "type": "Feature"}, {"geometry": {"coordinates": [8.520482, 47.37209], "type": "Point"}, "properties": {"address": "Weststrasse 115", "electric": 0, "id": "pb_124", "manual": 6, "name": "Weststrasse", "provider": "publibike", "timeStamp": "03/13/2020, 06:29:32", "zip": 8003}, "type": "Feature"}, {"geometry": {"coordinates": [8.496727, 47.378521], "type": "Point"}, "properties": {"address": "Albisriederstrasse 200", "electric": 1, "id": "pb_125", "manual": 17, "name": "Utogrund", "provider": "publibike", "timeStamp": "03/13/2020, 06:29:32", "zip": 8047}, "type": "Feature"}, {"geometry": {"coordinates": [8.510418, 47.381356], "type": "Point"}, "properties": {"address": "Bullingerstrasse 73", "electric": 9, "id": "pb_126", "manual": 5, "name": "Hardau", "provider": "publibike", "timeStamp": "03/13/2020, 06:29:32", "zip": 8004}, "type": "Feature"}, {"geometry": {"coordinates": [8.525525, 47.361567], "type": "Point"}, "properties": {"address": "Klopstockstrasse 23", "electric": 2, "id": "pb_127", "manual": 6, "name": "Klopstockwiese", "provider": "publibike", "timeStamp": "03/13/2020, 06:29:32", "zip": 8002}, "type": "Feature"}, {"geometry": {"coordinates": [8.518143, 47.363148], "type": "Point"}, "properties": {"address": "Haldenstrasse 8", "electric": 5, "id": "pb_128", "manual": 2, "name": "Binz", "provider": "publibike", "timeStamp": "03/13/2020, 06:29:32", "zip": 8045}, "type": "Feature"}, {"geometry": {"coordinates": [8.542726, 47.379952], "type": "Point"}, "properties": {"address": "Walchestrasse 11", "electric": 0, "id": "pb_129", "manual": 0, "name": "Stampfenbachplatz", "provider": "publibike", "timeStamp": "03/13/2020, 06:29:32", "zip": 8006}, "type": "Feature"}, {"geometry": {"coordinates": [8.488108, 47.391366], "type": "Point"}, "properties": {"address": "Altstetterplatz 1", "electric": 4, "id": "pb_130", "manual": 2, "name": "Bahnhof Altstetten", "provider": "publibike", "timeStamp": "03/13/2020, 06:29:32", "zip": 8048}, "type": "Feature"}, {"geometry": {"coordinates": [8.554114, 47.365119], "type": "Point"}, "properties": {"address": "Kreuzplatz 2", "electric": 10, "id": "pb_131", "manual": 7, "name": "Kreuzplatz", "provider": "publibike", "timeStamp": "03/13/2020, 06:29:32", "zip": 8032}, "type": "Feature"}, {"geometry": {"coordinates": [8.549852, 47.35594], "type": "Point"}, "properties": {"address": "H\u00f6schgasse 3", "electric": 2, "id": "pb_132", "manual": 8, "name": "Blatterwiese", "provider": "publibike", "timeStamp": "03/13/2020, 06:29:32", "zip": 8008}, "type": "Feature"}, {"geometry": {"coordinates": [8.554501, 47.36162], "type": "Point"}, "properties": {"address": "Feldeggstrasse 80", "electric": 8, "id": "pb_133", "manual": 0, "name": "Villa Bleuler", "provider": "publibike", "timeStamp": "03/13/2020, 06:29:32", "zip": 8008}, "type": "Feature"}, {"geometry": {"coordinates": [8.557088, 47.358557], "type": "Point"}, "properties": {"address": "M\u00fchlebachstrasse 131", "electric": 2, "id": "pb_134", "manual": 4, "name": "M\u00fchlebachstrasse", "provider": "publibike", "timeStamp": "03/13/2020, 06:29:32", "zip": 8008}, "type": "Feature"}, {"geometry": {"coordinates": [8.547639, 47.361266], "type": "Point"}, "properties": {"address": "Utoquai 50", "electric": 8, "id": "pb_135", "manual": 1, "name": "Seebad Utoquai", "provider": "publibike", "timeStamp": "03/13/2020, 06:29:32", "zip": 8008}, "type": "Feature"}, {"geometry": {"coordinates": [8.548045, 47.370869], "type": "Point"}, "properties": {"address": "Heimplatz 1", "electric": 1, "id": "pb_137", "manual": 8, "name": "Kunsthaus", "provider": "publibike", "timeStamp": "03/13/2020, 06:29:32", "zip": 8001}, "type": "Feature"}, {"geometry": {"coordinates": [8.543447, 47.375933], "type": "Point"}, "properties": {"address": "Limmatquai 138", "electric": 0, "id": "pb_138", "manual": 1, "name": "Central", "provider": "publibike", "timeStamp": "03/13/2020, 06:29:32", "zip": 8001}, "type": "Feature"}, {"geometry": {"coordinates": [8.549356, 47.408827], "type": "Point"}, "properties": {"address": "Tramstrasse 35", "electric": 1, "id": "pb_139", "manual": 1, "name": "ewz Tramstrasse", "provider": "publibike", "timeStamp": "03/13/2020, 06:29:32", "zip": 8050}, "type": "Feature"}, {"geometry": {"coordinates": [8.533736, 47.366904], "type": "Point"}, "properties": {"address": "Bleicherweg 33", "electric": 3, "id": "pb_140", "manual": 4, "name": "Bleicherweg", "provider": "publibike", "timeStamp": "03/13/2020, 06:29:32", "zip": 8002}, "type": "Feature"}, {"geometry": {"coordinates": [8.544935, 47.366752], "type": "Point"}, "properties": {"address": "Bellevueplatz 2", "electric": 7, "id": "pb_141", "manual": 20, "name": "Bellevue", "provider": "publibike", "timeStamp": "03/13/2020, 06:29:32", "zip": 8001}, "type": "Feature"}, {"geometry": {"coordinates": [8.5285533, 47.3742296], "type": "Point"}, "properties": {"address": "Stauffacherstrasse 41", "electric": 2, "id": "pb_142", "manual": 2, "name": "Stauffacher", "provider": "publibike", "timeStamp": "03/13/2020, 06:29:32", "zip": 8004}, "type": "Feature"}, {"geometry": {"coordinates": [8.523722, 47.3899], "type": "Point"}, "properties": {"address": "Limmatstrasse 310", "electric": 0, "id": "pb_143", "manual": 10, "name": "Escher-Wyss-Platz", "provider": "publibike", "timeStamp": "03/13/2020, 06:29:32", "zip": 8005}, "type": "Feature"}, {"geometry": {"coordinates": [8.491061, 47.392336], "type": "Point"}, "properties": {"address": "Vulkanplatz 1", "electric": 4, "id": "pb_149", "manual": 14, "name": "Vulkanplatz", "provider": "publibike", "timeStamp": "03/13/2020, 06:29:32", "zip": 8048}, "type": "Feature"}, {"geometry": {"coordinates": [8.52306, 47.359872], "type": "Point"}, "properties": {"address": "Giessh\u00fcbelstrasse 15", "electric": 3, "id": "pb_150", "manual": 8, "name": "Utoplatz", "provider": "publibike", "timeStamp": "03/13/2020, 06:29:32", "zip": 8045}, "type": "Feature"}, {"geometry": {"coordinates": [8.486284, 47.387685], "type": "Point"}, "properties": {"address": "Lindenplatz 1", "electric": 13, "id": "pb_151", "manual": 5, "name": "Lindenplatz", "provider": "publibike", "timeStamp": "03/13/2020, 06:29:32", "zip": 8048}, "type": "Feature"}, {"geometry": {"coordinates": [8.49163, 47.389823], "type": "Point"}, "properties": {"address": "Hohlstrasse 563", "electric": 1, "id": "pb_152", "manual": 0, "name": "Luggweg", "provider": "publibike", "timeStamp": "03/13/2020, 06:29:32", "zip": 8048}, "type": "Feature"}, {"geometry": {"coordinates": [8.52174, 47.365272], "type": "Point"}, "properties": {"address": "Manessestrasse 87", "electric": 12, "id": "pb_153", "manual": 3, "name": "Manesseplatz", "provider": "publibike", "timeStamp": "03/13/2020, 06:29:32", "zip": 8045}, "type": "Feature"}, {"geometry": {"coordinates": [8.52714, 47.372329], "type": "Point"}, "properties": {"address": "Werdstrasse 75", "electric": 2, "id": "pb_154", "manual": 2, "name": "Werd", "provider": "publibike", "timeStamp": "03/13/2020, 06:29:32", "zip": 8004}, "type": "Feature"}, {"geometry": {"coordinates": [8.543042, 47.374711], "type": "Point"}, "properties": {"address": "Limmatquai 100", "electric": 0, "id": "pb_155", "manual": 0, "name": "Rudolf-Brun-Br\u00fccke", "provider": "publibike", "timeStamp": "03/13/2020, 06:29:32", "zip": 8001}, "type": "Feature"}, {"geometry": {"coordinates": [8.490837, 47.386596], "type": "Point"}, "properties": {"address": "Badenerstrasse 627", "electric": 5, "id": "pb_156", "manual": 13, "name": "Luggwegstrasse VBZ", "provider": "publibike", "timeStamp": "03/13/2020, 06:29:32", "zip": 8048}, "type": "Feature"}, {"geometry": {"coordinates": [8.535119, 47.355189], "type": "Point"}, "properties": {"address": "Mythenquai 95", "electric": 7, "id": "pb_157", "manual": 6, "name": "Strandbad Mythenquai", "provider": "publibike", "timeStamp": "03/13/2020, 06:29:32", "zip": 8002}, "type": "Feature"}, {"geometry": {"coordinates": [8.545505, 47.373675], "type": "Point"}, "properties": {"address": "Predigerpatz 21", "electric": 3, "id": "pb_158", "manual": 4, "name": "Predigerplatz", "provider": "publibike", "timeStamp": "03/13/2020, 06:29:32", "zip": 8001}, "type": "Feature"}, {"geometry": {"coordinates": [8.515558, 47.371868], "type": "Point"}, "properties": {"address": "Aemtlerstrasse 23", "electric": 15, "id": "pb_159", "manual": 15, "name": "Zwinglihaus", "provider": "publibike", "timeStamp": "03/13/2020, 06:29:32", "zip": 8003}, "type": "Feature"}, {"geometry": {"coordinates": [8.524629, 47.386072], "type": "Point"}, "properties": {"address": "Josefstrasse 188", "electric": 5, "id": "pb_160", "manual": 10, "name": "Josefwiese", "provider": "publibike", "timeStamp": "03/13/2020, 06:29:32", "zip": 8005}, "type": "Feature"}, {"geometry": {"coordinates": [8.527138, 47.387531], "type": "Point"}, "properties": {"address": "R\u00f6ntgenstrasse 87", "electric": 0, "id": "pb_164", "manual": 13, "name": "Markthalle", "provider": "publibike", "timeStamp": "03/13/2020, 06:29:32", "zip": 8005}, "type": "Feature"}, {"geometry": {"coordinates": [8.552717, 47.359978], "type": "Point"}, "properties": {"address": "Seefeldstrasse 96", "electric": 4, "id": "pb_263", "manual": 5, "name": "Feldeggstrasse", "provider": "publibike", "timeStamp": "03/13/2020, 06:29:32", "zip": 8008}, "type": "Feature"}, {"geometry": {"coordinates": [8.553189, 47.353198], "type": "Point"}, "properties": {"address": "Bellerivestrasse 170", "electric": 3, "id": "pb_264", "manual": 3, "name": "Lake Side", "provider": "publibike", "timeStamp": "03/13/2020, 06:29:32", "zip": 8008}, "type": "Feature"}, {"geometry": {"coordinates": [8.543437, 47.369256], "type": "Point"}, "properties": {"address": "Limmatquai 18", "electric": 0, "id": "pb_265", "manual": 0, "name": "Helmhaus", "provider": "publibike", "timeStamp": "03/13/2020, 06:29:32", "zip": 8032}, "type": "Feature"}, {"geometry": {"coordinates": [8.516676, 47.375819], "type": "Point"}, "properties": {"address": "Badenerstrasse 246", "electric": 14, "id": "pb_266", "manual": 10, "name": "Lochergut", "provider": "publibike", "timeStamp": "03/13/2020, 06:29:32", "zip": 8004}, "type": "Feature"}, {"geometry": {"coordinates": [8.514605, 47.389862], "type": "Point"}, "properties": {"address": "Pfingstweidstrasse 60", "electric": 0, "id": "pb_273", "manual": 0, "name": "Westpark", "provider": "publibike", "timeStamp": "03/13/2020, 06:29:32", "zip": 8005}, "type": "Feature"}, {"geometry": {"coordinates": [8.541239126, 47.375991201], "type": "Point"}, "properties": {"address": "Beatenplatz 1", "electric": 0, "id": "pb_274", "manual": 2, "name": "Beatenplatz", "provider": "publibike", "timeStamp": "03/13/2020, 06:29:32", "zip": 8001}, "type": "Feature"}, {"geometry": {"coordinates": [8.5417135, 47.3942197], "type": "Point"}, "properties": {"address": "Scheuchzerstrasse 181", "electric": 4, "id": "pb_275", "manual": 0, "name": "Pauluskirche", "provider": "publibike", "timeStamp": "03/13/2020, 06:29:32", "zip": 8057}, "type": "Feature"}, {"geometry": {"coordinates": [8.5528182, 47.414558], "type": "Point"}, "properties": {"address": "Hagenholzstrasse 51", "electric": 1, "id": "pb_276", "manual": 9, "name": "Airgate", "provider": "publibike", "timeStamp": "03/13/2020, 06:29:32", "zip": 8050}, "type": "Feature"}, {"geometry": {"coordinates": [8.537816, 47.413514], "type": "Point"}, "properties": {"address": "Birchstrasse 183", "electric": 1, "id": "pb_277", "manual": 1, "name": "Lamprechtweg", "provider": "publibike", "timeStamp": "03/13/2020, 06:29:32", "zip": 8050}, "type": "Feature"}, {"geometry": {"coordinates": [8.545602, 47.417701], "type": "Point"}, "properties": {"address": "Felsenrainstrasse 2", "electric": 6, "id": "pb_278", "manual": 5, "name": "Emil-Oberh\u00e4nsli", "provider": "publibike", "timeStamp": "03/13/2020, 06:29:32", "zip": 8050}, "type": "Feature"}, {"geometry": {"coordinates": [8.533647, 47.39808], "type": "Point"}, "properties": {"address": "Bucheggplatz 2", "electric": 7, "id": "pb_279", "manual": 3, "name": "Bucheggplatz", "provider": "publibike", "timeStamp": "03/13/2020, 06:29:32", "zip": 8057}, "type": "Feature"}, {"geometry": {"coordinates": [8.523549, 47.392347], "type": "Point"}, "properties": {"address": "Wipkingerplatz 4", "electric": 2, "id": "pb_280", "manual": 8, "name": "Wipkingerplatz", "provider": "publibike", "timeStamp": "03/13/2020, 06:29:32", "zip": 8037}, "type": "Feature"}, {"geometry": {"coordinates": [8.548562, 47.36691], "type": "Point"}, "properties": {"address": "Galerie \u00fcber Gleis 2/3", "electric": 13, "id": "pb_285", "manual": 9, "name": "Bahnhof Stadelhofen", "provider": "publibike", "timeStamp": "03/13/2020, 06:29:32", "zip": 8001}, "type": "Feature"}, {"geometry": {"coordinates": [8.493822, 47.3985553], "type": "Point"}, "properties": {"address": "Meierwiesenstrasse 12-4", "electric": 3, "id": "pb_286", "manual": 4, "name": "T\u00fcffenwies", "provider": "publibike", "timeStamp": "03/13/2020, 06:29:32", "zip": 8064}, "type": "Feature"}, {"geometry": {"coordinates": [8.552432, 47.3801757], "type": "Point"}, "properties": {"address": "Hochstrasse 34", "electric": 5, "id": "pb_356", "manual": 1, "name": "Siriuswiese", "provider": "publibike", "timeStamp": "03/13/2020, 06:29:32", "zip": 8044}, "type": "Feature"}, {"geometry": {"coordinates": [8.527298, 47.370141], "type": "Point"}, "properties": {"address": "Hallwylstrasse 71", "electric": 2, "id": "pb_357", "manual": 5, "name": "Hallwylstrasse", "provider": "publibike", "timeStamp": "03/13/2020, 06:29:32", "zip": 8004}, "type": "Feature"}, {"geometry": {"coordinates": [8.5414185, 47.3972455], "type": "Point"}, "properties": {"address": "Schaffhauserstrasse 137", "electric": 9, "id": "pb_358", "manual": 2, "name": "Milchbuck", "provider": "publibike", "timeStamp": "03/13/2020, 06:29:32", "zip": 8057}, "type": "Feature"}, {"geometry": {"coordinates": [8.512381, 47.393409], "type": "Point"}, "properties": {"address": "Hardturmstrasse 161", "electric": 1, "id": "pb_359", "manual": 4, "name": "Fischerweg", "provider": "publibike", "timeStamp": "03/13/2020, 06:29:32", "zip": 8005}, "type": "Feature"}, {"geometry": {"coordinates": [8.5421457, 47.3876979], "type": "Point"}, "properties": {"address": "Turnerstrasse 47", "electric": 5, "id": "pb_360", "manual": 2, "name": "Kirche Unterstrass", "provider": "publibike", "timeStamp": "03/13/2020, 06:29:32", "zip": 8006}, "type": "Feature"}, {"geometry": {"coordinates": [8.522117, 47.394554], "type": "Point"}, "properties": {"address": "Dorfstrasse 40", "electric": 5, "id": "pb_361", "manual": 1, "name": "Dorfstrasse", "provider": "publibike", "timeStamp": "03/13/2020, 06:29:32", "zip": 8037}, "type": "Feature"}, {"geometry": {"coordinates": [8.530437, 47.37271], "type": "Point"}, "properties": {"address": "Werdstrasse 25", "electric": 0, "id": "pb_362", "manual": 4, "name": "Stauffachertor", "provider": "publibike", "timeStamp": "03/13/2020, 06:29:32", "zip": 8004}, "type": "Feature"}, {"geometry": {"coordinates": [8.541712, 47.416155], "type": "Point"}, "properties": {"address": "Eggb\u00fchlstrasse 21", "electric": 2, "id": "pb_363", "manual": 5, "name": "Wahlenpark", "provider": "publibike", "timeStamp": "03/13/2020, 06:29:32", "zip": 8050}, "type": "Feature"}, {"geometry": {"coordinates": [8.5595335, 47.3708387], "type": "Point"}, "properties": {"address": "Dolderstrasse 32", "electric": 3, "id": "pb_364", "manual": 0, "name": "Kinderspital", "provider": "publibike", "timeStamp": "03/13/2020, 06:29:32", "zip": 8032}, "type": "Feature"}, {"geometry": {"coordinates": [8.536433, 47.388689], "type": "Point"}, "properties": {"address": "Kornhausstrasse 30", "electric": 1, "id": "pb_365", "manual": 1, "name": "Kornhausstrasse", "provider": "publibike", "timeStamp": "03/13/2020, 06:29:32", "zip": 8006}, "type": "Feature"}, {"geometry": {"coordinates": [8.55033, 47.407098], "type": "Point"}, "properties": {"address": "Schwamendingenstrasse 41", "electric": 7, "id": "pb_366", "manual": 5, "name": "Dorflinde", "provider": "publibike", "timeStamp": "03/13/2020, 06:29:32", "zip": 8050}, "type": "Feature"}, {"geometry": {"coordinates": [8.560476, 47.368199], "type": "Point"}, "properties": {"address": "R\u00f6merhofplatz 5", "electric": 11, "id": "pb_367", "manual": 1, "name": "R\u00f6merhof", "provider": "publibike", "timeStamp": "03/13/2020, 06:29:32", "zip": 8032}, "type": "Feature"}, {"geometry": {"coordinates": [8.5609218, 47.3619068], "type": "Point"}, "properties": {"address": "Forchstrasse 99", "electric": 7, "id": "pb_368", "manual": 8, "name": "Hegibachplatz", "provider": "publibike", "timeStamp": "03/13/2020, 06:29:32", "zip": 8032}, "type": "Feature"}, {"geometry": {"coordinates": [8.5721264, 47.4039985], "type": "Point"}, "properties": {"address": "Winterthurerstrasse 519", "electric": 12, "id": "pb_370", "manual": 7, "name": "Schwamendingerplatz", "provider": "publibike", "timeStamp": "03/13/2020, 06:29:32", "zip": 8051}, "type": "Feature"}, {"geometry": {"coordinates": [8.520168, 47.378556], "type": "Point"}, "properties": {"address": "Herman-Greulich-Strasse 56", "electric": 3, "id": "pb_384", "manual": 4, "name": "Hermann-Greulich-Weg", "provider": "publibike", "timeStamp": "03/13/2020, 06:29:32", "zip": 8004}, "type": "Feature"}, {"geometry": {"coordinates": [8.547912, 47.384923], "type": "Point"}, "properties": {"address": "Culmannstrasse", "electric": 2, "id": "pb_386", "manual": 0, "name": "Rigiplatz", "provider": "publibike", "timeStamp": "03/13/2020, 06:29:32", "zip": 8006}, "type": "Feature"}, {"geometry": {"coordinates": [8.543768, 47.411057], "type": "Point"}, "properties": {"address": "Hofwiesenstrasse 369", "electric": 0, "id": "pb_387", "manual": 1, "name": "Bahnhof Oerlikon S\u00fcd", "provider": "publibike", "timeStamp": "03/13/2020, 06:29:32", "zip": 8050}, "type": "Feature"}, {"geometry": {"coordinates": [8.544185, 47.412732], "type": "Point"}, "properties": {"address": "Jungholzstrasse 6", "electric": 2, "id": "pb_388", "manual": 0, "name": "Max-Frisch-Platz", "provider": "publibike", "timeStamp": "03/13/2020, 06:29:32", "zip": 8050}, "type": "Feature"}, {"geometry": {"coordinates": [8.558096, 47.413032], "type": "Point"}, "properties": {"address": "Andreasstrasse", "electric": 9, "id": "pb_389", "manual": 6, "name": "Hunziker-Areal", "provider": "publibike", "timeStamp": "03/13/2020, 06:29:32", "zip": 8050}, "type": "Feature"}, {"geometry": {"coordinates": [8.533265, 47.412873], "type": "Point"}, "properties": {"address": "Regina-K\u00e4gi-Strasse 1", "electric": 2, "id": "pb_390", "manual": 3, "name": "Luis-H\u00e4fliger-Park", "provider": "publibike", "timeStamp": "03/13/2020, 06:29:32", "zip": 8050}, "type": "Feature"}, {"geometry": {"coordinates": [8.499265, 47.401852], "type": "Point"}, "properties": {"address": "Limmattalstrasse 177", "electric": 2, "id": "pb_391", "manual": 0, "name": "Meierhofplatz", "provider": "publibike", "timeStamp": "03/13/2020, 06:29:32", "zip": 8049}, "type": "Feature"}, {"geometry": {"coordinates": [8.528356, 47.393255], "type": "Point"}, "properties": {"address": "R\u00f6schibachstrasse 73", "electric": 1, "id": "pb_392", "manual": 1, "name": "R\u00f6schibachplatz", "provider": "publibike", "timeStamp": "03/13/2020, 06:29:32", "zip": 8037}, "type": "Feature"}, {"geometry": {"coordinates": [8.538067, 47.415721], "type": "Point"}, "properties": {"address": "Birchstrasse 191", "electric": 3, "id": "pb_393", "manual": 1, "name": "Oerliker Park", "provider": "publibike", "timeStamp": "03/13/2020, 06:29:32", "zip": 8050}, "type": "Feature"}, {"geometry": {"coordinates": [8.5420304, 47.3669233], "type": "Point"}, "properties": {"address": "Stadthausquai 1", "electric": 0, "id": "pb_395", "manual": 9, "name": "B\u00fcrkliplatz", "provider": "publibike", "timeStamp": "03/13/2020, 06:29:32", "zip": 8001}, "type": "Feature"}, {"geometry": {"coordinates": [8.535767, 47.409881], "type": "Point"}, "properties": {"address": "Regensbergstrasse 195", "electric": 6, "id": "pb_396", "manual": 2, "name": "Holunderhof", "provider": "publibike", "timeStamp": "03/13/2020, 06:29:32", "zip": 8050}, "type": "Feature"}, {"geometry": {"coordinates": [8.5116245, 47.3616199], "type": "Point"}, "properties": {"address": "Grubenstrasse 42", "electric": 1, "id": "pb_431", "manual": 0, "name": "Binz Center", "provider": "publibike", "timeStamp": "03/13/2020, 06:29:32", "zip": 8045}, "type": "Feature"}, {"geometry": {"coordinates": [8.547195, 47.382089], "type": "Point"}, "properties": {"address": "Nelkenstrasse 24", "electric": 12, "id": "pb_430", "manual": 0, "name": "Stapferstube", "provider": "publibike", "timeStamp": "03/13/2020, 06:29:32", "zip": 8006}, "type": "Feature"}, {"geometry": {"coordinates": [8.5787183, 47.4039845], "type": "Point"}, "properties": {"address": "Kronwiesenstrasse 35", "electric": 5, "id": "pb_426", "manual": 3, "name": "Kronwiesen", "provider": "publibike", "timeStamp": "03/13/2020, 06:29:32", "zip": 8051}, "type": "Feature"}, {"geometry": {"coordinates": [8.508131, 47.420757], "type": "Point"}, "properties": {"address": "Riedenhaldenstrasse 20-18", "electric": 4, "id": "pb_425", "manual": 4, "name": "Bahnhof Affoltern", "provider": "publibike", "timeStamp": "03/13/2020, 06:29:32", "zip": 8046}, "type": "Feature"}, {"geometry": {"coordinates": [8.532464, 47.406988], "type": "Point"}, "properties": {"address": "K\u00fcnzlistrasse 41", "electric": 9, "id": "pb_424", "manual": 0, "name": "Birchd\u00f6rfli", "provider": "publibike", "timeStamp": "03/13/2020, 06:29:32", "zip": 8057}, "type": "Feature"}, {"geometry": {"coordinates": [8.5777038, 47.4080095], "type": "Point"}, "properties": {"address": "Luegislandstrasse 412", "electric": 7, "id": "pb_429", "manual": 2, "name": "Luegisland", "provider": "publibike", "timeStamp": "03/13/2020, 06:29:32", "zip": 8051}, "type": "Feature"}, {"geometry": {"coordinates": [8.58841, 47.40158], "type": "Point"}, "properties": {"address": "Hirzenbachstrasse 2-4", "electric": 13, "id": "pb_428", "manual": 7, "name": "Hirzenbachstrasse", "provider": "publibike", "timeStamp": "03/13/2020, 06:29:32", "zip": 8051}, "type": "Feature"}, {"geometry": {"coordinates": [8.5563463, 47.4095467], "type": "Point"}, "properties": {"address": "K\u00fchriedweg", "electric": 4, "id": "pb_445", "manual": 5, "name": "Hallenbad Oerlikon", "provider": "publibike", "timeStamp": "03/13/2020, 06:29:32", "zip": 8050}, "type": "Feature"}, {"geometry": {"coordinates": [8.537971, 47.364871], "type": "Point"}, "properties": {"address": "General-Guisan-Quai 17", "electric": 0, "id": "pb_454", "manual": 0, "name": "General-Guisan-Quai", "provider": "publibike", "timeStamp": "03/13/2020, 06:29:32", "zip": 8002}, "type": "Feature"}, {"geometry": {"coordinates": [8.560587, 47.350578], "type": "Point"}, "properties": {"address": "Bellerivestrasse 245", "electric": 11, "id": "pb_450", "manual": 6, "name": "Bahnhof Tiefenbrunnen", "provider": "publibike", "timeStamp": "03/13/2020, 06:29:32", "zip": 8008}, "type": "Feature"}, {"geometry": {"coordinates": [8.5269416, 47.3563719], "type": "Point"}, "properties": {"address": "Waffenplatzstrasse 89", "electric": 7, "id": "pb_452", "manual": 5, "name": "Rieterplatz", "provider": "publibike", "timeStamp": "03/13/2020, 06:29:32", "zip": 8002}, "type": "Feature"}, {"geometry": {"coordinates": [8.514176, 47.3663708], "type": "Point"}, "properties": {"address": "Talwiesenstrasse 92", "electric": 5, "id": "pb_446", "manual": 2, "name": "Binzallee", "provider": "publibike", "timeStamp": "03/13/2020, 06:29:32", "zip": 8055}, "type": "Feature"}, {"geometry": {"coordinates": [8.5070564, 47.371455], "type": "Point"}, "properties": {"address": "Gutstrasse 87", "electric": 7, "id": "pb_447", "manual": 4, "name": "Gutstrasse", "provider": "publibike", "timeStamp": "03/13/2020, 06:29:32", "zip": 8055}, "type": "Feature"}, {"geometry": {"coordinates": [8.4941268, 47.3836391], "type": "Point"}, "properties": {"address": "Flurstrasse 62", "electric": 6, "id": "pb_453", "manual": 2, "name": "Flurpark", "provider": "publibike", "timeStamp": "03/13/2020, 06:29:32", "zip": 8048}, "type": "Feature"}, {"geometry": {"coordinates": [8.500343, 47.380778], "type": "Point"}, "properties": {"address": "Edelweissstrasse 32", "electric": 3, "id": "pb_448", "manual": 7, "name": "Bl\u00fcemliquartier", "provider": "publibike", "timeStamp": "03/13/2020, 06:29:32", "zip": 8048}, "type": "Feature"}, {"geometry": {"coordinates": [8.528796, 47.383858], "type": "Point"}, "properties": {"address": "Gasometerstrasse 24", "electric": 1, "id": "pb_449", "manual": 7, "name": "Gasometerstrasse", "provider": "publibike", "timeStamp": "03/13/2020, 06:29:32", "zip": 8005}, "type": "Feature"}, {"geometry": {"coordinates": [8.4981964, 47.3859194], "type": "Point"}, "properties": {"address": "Baslerstrasse 57", "electric": 7, "id": "pb_455", "manual": 2, "name": "Letzipark", "provider": "publibike", "timeStamp": "03/13/2020, 06:29:32", "zip": 8048}, "type": "Feature"}, {"geometry": {"coordinates": [8.515252, 47.381915], "type": "Point"}, "properties": {"address": "Sihlfeldstrasse 175", "electric": 6, "id": "pb_451", "manual": 12, "name": "Hardplatz", "provider": "publibike", "timeStamp": "03/13/2020, 06:29:32", "zip": 8004}, "type": "Feature"}, {"geometry": {"coordinates": [8.5064743, 47.4188324], "type": "Point"}, "properties": {"address": "Wehntalerstrasse 541", "electric": 5, "id": "pb_427", "manual": 4, "name": "Zehntenhausplatz", "provider": "publibike", "timeStamp": "03/13/2020, 06:29:32", "zip": 8046}, "type": "Feature"}, {"geometry": {"coordinates": [8.537729, 47.379719], "type": "Point"}, "properties": {"address": "Sihlquai/HB", "electric": 8, "id": "pb_513", "manual": 16, "name": "Sihlquai", "provider": "publibike", "timeStamp": "03/13/2020, 06:29:32", "zip": 8005}, "type": "Feature"}, {"geometry": {"coordinates": [8.596202, 47.397885], "type": "Point"}, "properties": {"address": "Bahnhof Stettbach", "electric": 7, "id": "pb_514", "manual": 1, "name": "Bahnhof Stettbach", "provider": "publibike", "timeStamp": "03/13/2020, 06:29:32", "zip": 8051}, "type": "Feature"}, {"geometry": {"coordinates": [8.5543974, 47.3690153], "type": "Point"}, "properties": {"address": "Kasinostrasse 10", "electric": 5, "id": "pb_515", "manual": 5, "name": "Hottingerplatz", "provider": "publibike", "timeStamp": "03/13/2020, 06:29:32", "zip": 8032}, "type": "Feature"}, {"geometry": {"coordinates": [8.534444, 47.351525], "type": "Point"}, "properties": {"address": "Mobile Station Z\u00fcrich 1", "electric": 0, "id": "pb_282", "manual": 0, "name": "Theaterspektakel", "provider": "publibike", "timeStamp": "03/13/2020, 06:29:32", "zip": 8002}, "type": "Feature"}, {"geometry": {"coordinates": [8.516257, 47.367656], "type": "Point"}, "properties": {"address": "Goldbrunnenstrasse 54", "electric": 10, "id": "pb_538", "manual": 0, "name": "Kirche B\u00fchl", "provider": "publibike", "timeStamp": "03/13/2020, 06:29:32", "zip": 8055}, "type": "Feature"}, {"geometry": {"coordinates": [8.555639, 47.416873], "type": "Point"}, "properties": {"address": "Leutschenbachstrasse 50", "electric": 3, "id": "pb_537", "manual": 6, "name": "Leutschenpark", "provider": "publibike", "timeStamp": "03/13/2020, 06:29:32", "zip": 8050}, "type": "Feature"}, {"geometry": {"coordinates": [8.546464, 47.403822], "type": "Point"}, "properties": {"address": "Berninastrasse 45", "electric": 11, "id": "pb_540", "manual": 3, "name": "Berninaplatz", "provider": "publibike", "timeStamp": "03/13/2020, 06:29:32", "zip": 8057}, "type": "Feature"}, {"geometry": {"coordinates": [8.523134, 47.369004], "type": "Point"}, "properties": {"address": "Erlachstrasse 3", "electric": 1, "id": "pb_385", "manual": 1, "name": "Aegerten", "provider": "publibike", "timeStamp": "03/13/2020, 06:29:32", "zip": 8003}, "type": "Feature"}, {"geometry": {"coordinates": [8.49038, 47.381591], "type": "Point"}, "properties": {"address": "Rautistrasse 60", "electric": 11, "id": "pb_536", "manual": 3, "name": "Freilager", "provider": "publibike", "timeStamp": "03/13/2020, 06:29:32", "zip": 8048}, "type": "Feature"}, {"geometry": {"coordinates": [8.496511, 47.375247], "type": "Point"}, "properties": {"address": "Letzigraben 139", "electric": 10, "id": "pb_444", "manual": 4, "name": "Sackzelg", "provider": "publibike", "timeStamp": "03/13/2020, 06:29:32", "zip": 8047}, "type": "Feature"}, {"geometry": {"coordinates": [8.58131, 47.402801], "type": "Point"}, "properties": {"address": "Altwiesenstrasse 104", "electric": 3, "id": "pb_539", "manual": 2, "name": "Glattwiesen", "provider": "publibike", "timeStamp": "03/13/2020, 06:29:32", "zip": 8051}, "type": "Feature"}, {"geometry": {"coordinates": [8.52689, 47.3767], "type": "Point"}, "properties": {"address": "Molkenstrasse 5", "electric": 1, "id": "pb_560", "manual": 8, "name": "Helvetiaplatz", "provider": "publibike", "timeStamp": "03/13/2020, 06:29:32", "zip": 8004}, "type": "Feature"}, {"geometry": {"coordinates": [8.525602, 47.374241], "type": "Point"}, "properties": {"address": "Badenerstrasse 90", "electric": 0, "id": "pb_559", "manual": 7, "name": "Bezirksgeb\u00e4ude", "provider": "publibike", "timeStamp": "03/13/2020, 06:29:32", "zip": 8004}, "type": "Feature"}, {"geometry": {"coordinates": [8.535082, 47.345248], "type": "Point"}, "properties": {"address": "Bachstrasse 15", "electric": 11, "id": "pb_564", "manual": 8, "name": "GZ Wollishofen", "provider": "publibike", "timeStamp": "03/13/2020, 06:29:32", "zip": 8038}, "type": "Feature"}, {"geometry": {"coordinates": [8.514841, 47.370238], "type": "Point"}, "properties": {"address": "Schrennengasse 37", "electric": 2, "id": "pb_562", "manual": 7, "name": "Goldbrunnenplatz", "provider": "publibike", "timeStamp": "03/13/2020, 06:29:32", "zip": 8003}, "type": "Feature"}, {"geometry": {"coordinates": [8.514138, 47.374206], "type": "Point"}, "properties": {"address": "Idaplatz 4", "electric": 4, "id": "pb_557", "manual": 11, "name": "Idaplatz", "provider": "publibike", "timeStamp": "03/13/2020, 06:29:32", "zip": 8003}, "type": "Feature"}, {"geometry": {"coordinates": [8.518432, 47.369549], "type": "Point"}, "properties": {"address": "Brinerstrasse 2", "electric": 7, "id": "pb_558", "manual": 10, "name": "Schmiede Wiedikon", "provider": "publibike", "timeStamp": "03/13/2020, 06:29:32", "zip": 8003}, "type": "Feature"}, {"geometry": {"coordinates": [8.537546, 47.391289], "type": "Point"}, "properties": {"address": "Rotbuchstrasse 15", "electric": 4, "id": "pb_556", "manual": 2, "name": "Schaffhauserplatz", "provider": "publibike", "timeStamp": "03/13/2020, 06:29:32", "zip": 8006}, "type": "Feature"}, {"geometry": {"coordinates": [8.541541, 47.413733], "type": "Point"}, "properties": {"address": "Therese-Giehse-Strasse 11", "electric": 0, "id": "pb_561", "manual": 2, "name": "Center Eleven", "provider": "publibike", "timeStamp": "03/13/2020, 06:29:32", "zip": 8050}, "type": "Feature"}, {"geometry": {"coordinates": [8.534227, 47.360004], "type": "Point"}, "properties": {"address": "Alfred Escher-Strasse 76", "electric": 2, "id": "pb_563", "manual": 0, "name": "Mythenschloss", "provider": "publibike", "timeStamp": "03/13/2020, 06:29:32", "zip": 8002}, "type": "Feature"}, {"geometry": {"coordinates": [8.50373, 47.396172], "type": "Point"}, "properties": {"address": "Hardeggstrasse 6", "electric": 2, "id": "pb_566", "manual": 1, "name": "Am Wasser", "provider": "publibike", "timeStamp": "03/13/2020, 06:29:32", "zip": 8049}, "type": "Feature"}, {"geometry": {"coordinates": [8.532432, 47.381174], "type": "Point"}, "properties": {"address": "Klingenstrasse 9", "electric": 0, "id": "pb_565", "manual": 8, "name": "Zollstrasse", "provider": "publibike", "timeStamp": "03/13/2020, 06:29:32", "zip": 8005}, "type": "Feature"}, {"geometry": {"coordinates": [8.497982, 47.381447], "type": "Point"}, "properties": {"address": "Dennlerstrasse 23", "electric": 1, "id": "pb_567", "manual": 4, "name": "Dennlerstrasse", "provider": "publibike", "timeStamp": "03/13/2020, 06:29:32", "zip": 8047}, "type": "Feature"}, {"geometry": {"coordinates": [8.528049, 47.347701], "type": "Point"}, "properties": {"address": "Mutschellenstrasse 114", "electric": 8, "id": "pb_568", "manual": 4, "name": "Jugendherberge", "provider": "publibike", "timeStamp": "03/13/2020, 06:29:32", "zip": 8038}, "type": "Feature"}, {"geometry": {"coordinates": [8.539016, 47.405751], "type": "Point"}, "properties": {"address": "Ringstrasse 82", "electric": 5, "id": "pb_569", "manual": 4, "name": "Freibad Allenmoos", "provider": "publibike", "timeStamp": "03/13/2020, 06:29:32", "zip": 8057}, "type": "Feature"}, {"geometry": {"coordinates": [8.534974, 47.402164], "type": "Point"}, "properties": {"address": "Brache Guggach", "electric": 4, "id": "pb_572", "manual": 2, "name": "Radiostudio", "provider": "publibike", "timeStamp": "03/13/2020, 06:29:32", "zip": 8057}, "type": "Feature"}, {"geometry": {"coordinates": [8.547901, 47.375556], "type": "Point"}, "properties": {"address": "Karl-Schmid-Strasse 4", "electric": 1, "id": "pb_571", "manual": 0, "name": "ETH/Zoologisches Museum", "provider": "publibike", "timeStamp": "03/13/2020, 06:29:32", "zip": 8006}, "type": "Feature"}, {"geometry": {"coordinates": [8.578183, 47.348851], "type": "Point"}, "properties": {"charge": 94, "id": "smide_2871", "name": "ZH 267086", "provider": "smide", "range": 47.0, "size": 20, "time": "03/13/2020, 06:29:00"}, "type": "Feature"}, {"geometry": {"coordinates": [8.57422, 47.347863], "type": "Point"}, "properties": {"charge": 92, "id": "smide_2861", "name": "ZH 267096", "provider": "smide", "range": 46.0, "size": 17, "time": "03/13/2020, 06:29:00"}, "type": "Feature"}, {"geometry": {"coordinates": [8.560908, 47.383428], "type": "Point"}, "properties": {"charge": 63, "id": "smide_2856", "name": "ZH 267101", "provider": "smide", "range": 31.0, "size": 17, "time": "03/13/2020, 06:29:00"}, "type": "Feature"}, {"geometry": {"coordinates": [8.560688, 47.416588], "type": "Point"}, "properties": {"charge": 93, "id": "smide_2855", "name": "ZH 267102", "provider": "smide", "range": 46.0, "size": 17, "time": "03/13/2020, 06:29:00"}, "type": "Feature"}, {"geometry": {"coordinates": [8.538796, 47.422158], "type": "Point"}, "properties": {"charge": 73, "id": "smide_2831", "name": "ZH 267180", "provider": "smide", "range": 36.0, "size": 20, "time": "03/13/2020, 06:29:00"}, "type": "Feature"}, {"geometry": {"coordinates": [8.493646, 47.385201], "type": "Point"}, "properties": {"charge": 61, "id": "smide_2819", "name": "ZH266943", "provider": "smide", "range": 30.0, "size": 20, "time": "03/13/2020, 06:29:00"}, "type": "Feature"}, {"geometry": {"coordinates": [8.527703, 47.343016], "type": "Point"}, "properties": {"charge": 58, "id": "smide_2785", "name": "ZH266875", "provider": "smide", "range": 28.0, "size": 17, "time": "03/13/2020, 06:29:00"}, "type": "Feature"}, {"geometry": {"coordinates": [8.502676, 47.369035], "type": "Point"}, "properties": {"charge": 64, "id": "smide_2775", "name": "ZH267283", "provider": "smide", "range": 32.0, "size": 20, "time": "03/13/2020, 06:29:00"}, "type": "Feature"}, {"geometry": {"coordinates": [8.559001, 47.376176], "type": "Point"}, "properties": {"charge": 55, "id": "smide_2773", "name": "ZH266561", "provider": "smide", "range": 27.0, "size": 17, "time": "03/13/2020, 06:29:00"}, "type": "Feature"}, {"geometry": {"coordinates": [8.487283, 47.384344], "type": "Point"}, "properties": {"charge": 14, "id": "smide_2771", "name": "ZH266559", "provider": "smide", "range": 7.0, "size": 17, "time": "03/13/2020, 06:29:00"}, "type": "Feature"}, {"geometry": {"coordinates": [8.574105, 47.352068], "type": "Point"}, "properties": {"charge": 98, "id": "smide_2763", "name": "ZH266641", "provider": "smide", "range": 49.0, "size": 17, "time": "03/13/2020, 06:29:00"}, "type": "Feature"}, {"geometry": {"coordinates": [8.569451, 47.35191], "type": "Point"}, "properties": {"charge": 100, "id": "smide_2761", "name": "ZH266642", "provider": "smide", "range": 50.0, "size": 20, "time": "03/13/2020, 06:29:00"}, "type": "Feature"}, {"geometry": {"coordinates": [8.566166, 47.36218], "type": "Point"}, "properties": {"charge": 48, "id": "smide_2759", "name": "ZH266639", "provider": "smide", "range": 24.0, "size": 17, "time": "03/13/2020, 06:29:00"}, "type": "Feature"}, {"geometry": {"coordinates": [8.562546, 47.410431], "type": "Point"}, "properties": {"charge": 77, "id": "smide_2752", "name": "BE343856", "provider": "smide", "range": 38.0, "size": 17, "time": "03/13/2020, 06:29:00"}, "type": "Feature"}, {"geometry": {"coordinates": [8.528088, 47.357648], "type": "Point"}, "properties": {"charge": 10, "id": "smide_2751", "name": "BE343857", "provider": "smide", "range": 5.0, "size": 17, "time": "03/13/2020, 06:29:00"}, "type": "Feature"}, {"geometry": {"coordinates": [8.565412, 47.408152], "type": "Point"}, "properties": {"charge": 78, "id": "smide_2749", "name": "BE343867", "provider": "smide", "range": 39.0, "size": 17, "time": "03/13/2020, 06:29:00"}, "type": "Feature"}, {"geometry": {"coordinates": [8.534026, 47.342056], "type": "Point"}, "properties": {"charge": 83, "id": "smide_2748", "name": "BE335758", "provider": "smide", "range": 41.0, "size": 17, "time": "03/13/2020, 06:29:00"}, "type": "Feature"}, {"geometry": {"coordinates": [8.58077, 47.350685], "type": "Point"}, "properties": {"charge": 60, "id": "smide_2747", "name": "BE335820", "provider": "smide", "range": 30.0, "size": 17, "time": "03/13/2020, 06:29:00"}, "type": "Feature"}, {"geometry": {"coordinates": [8.518419, 47.413588], "type": "Point"}, "properties": {"charge": 78, "id": "smide_2743", "name": "BE343864", "provider": "smide", "range": 39.0, "size": 17, "time": "03/13/2020, 06:29:00"}, "type": "Feature"}, {"geometry": {"coordinates": [8.556485, 47.420772], "type": "Point"}, "properties": {"charge": 71, "id": "smide_2742", "name": "BE343866", "provider": "smide", "range": 35.0, "size": 17, "time": "03/13/2020, 06:29:00"}, "type": "Feature"}, {"geometry": {"coordinates": [8.559323, 47.415151], "type": "Point"}, "properties": {"charge": 42, "id": "smide_2738", "name": "BE343865", "provider": "smide", "range": 21.0, "size": 17, "time": "03/13/2020, 06:29:00"}, "type": "Feature"}, {"geometry": {"coordinates": [8.551068, 47.389556], "type": "Point"}, "properties": {"charge": 91, "id": "smide_2737", "name": "BE336149", "provider": "smide", "range": 45.0, "size": 17, "time": "03/13/2020, 06:29:00"}, "type": "Feature"}, {"geometry": {"coordinates": [8.563033, 47.382632], "type": "Point"}, "properties": {"charge": 71, "id": "smide_2734", "name": "BE343876", "provider": "smide", "range": 35.0, "size": 17, "time": "03/13/2020, 06:29:00"}, "type": "Feature"}, {"geometry": {"coordinates": [8.484626, 47.394296], "type": "Point"}, "properties": {"charge": 77, "id": "smide_2733", "name": "BE343873", "provider": "smide", "range": 38.0, "size": 17, "time": "03/13/2020, 06:29:00"}, "type": "Feature"}, {"geometry": {"coordinates": [8.520657, 47.375136], "type": "Point"}, "properties": {"charge": 51, "id": "smide_2732", "name": "BE343870", "provider": "smide", "range": 25.0, "size": 17, "time": "03/13/2020, 06:29:00"}, "type": "Feature"}, {"geometry": {"coordinates": [8.514889, 47.367984], "type": "Point"}, "properties": {"charge": 97, "id": "smide_2729", "name": "BE343878", "provider": "smide", "range": 48.0, "size": 17, "time": "03/13/2020, 06:29:00"}, "type": "Feature"}, {"geometry": {"coordinates": [8.56511, 47.34897], "type": "Point"}, "properties": {"charge": 63, "id": "smide_2725", "name": "ZH261545", "provider": "smide", "range": 31.0, "size": 0, "time": "03/13/2020, 06:29:00"}, "type": "Feature"}, {"geometry": {"coordinates": [8.573907, 47.352776], "type": "Point"}, "properties": {"charge": 79, "id": "smide_2717", "name": "ZH263287", "provider": "smide", "range": 39.0, "size": 17, "time": "03/13/2020, 06:29:00"}, "type": "Feature"}, {"geometry": {"coordinates": [8.519218, 47.371298], "type": "Point"}, "properties": {"charge": 41, "id": "smide_2716", "name": "ZH254606", "provider": "smide", "range": 20.0, "size": 17, "time": "03/13/2020, 06:29:00"}, "type": "Feature"}, {"geometry": {"coordinates": [8.526714, 47.352868], "type": "Point"}, "properties": {"charge": 24, "id": "smide_2715", "name": "ZH254605", "provider": "smide", "range": 12.0, "size": 17, "time": "03/13/2020, 06:29:00"}, "type": "Feature"}, {"geometry": {"coordinates": [8.508494, 47.390956], "type": "Point"}, "properties": {"charge": 100, "id": "smide_2714", "name": "ZH256461", "provider": "smide", "range": 50.0, "size": 17, "time": "03/13/2020, 06:29:00"}, "type": "Feature"}, {"geometry": {"coordinates": [8.54424, 47.41622], "type": "Point"}, "properties": {"charge": 81, "id": "smide_2710", "name": "ZH256460", "provider": "smide", "range": 40.0, "size": 17, "time": "03/13/2020, 06:29:00"}, "type": "Feature"}, {"geometry": {"coordinates": [8.518666, 47.33926], "type": "Point"}, "properties": {"charge": 82, "id": "smide_2711", "name": "ZH256463", "provider": "smide", "range": 41.0, "size": 17, "time": "03/13/2020, 06:29:00"}, "type": "Feature"}, {"geometry": {"coordinates": [8.563561, 47.369118], "type": "Point"}, "properties": {"charge": 49, "id": "smide_2709", "name": "ZH256466", "provider": "smide", "range": 24.0, "size": 20, "time": "03/13/2020, 06:29:00"}, "type": "Feature"}, {"geometry": {"coordinates": [8.573299, 47.352376], "type": "Point"}, "properties": {"charge": 62, "id": "smide_2707", "name": "ZH256467", "provider": "smide", "range": 31.0, "size": 20, "time": "03/13/2020, 06:29:00"}, "type": "Feature"}, {"geometry": {"coordinates": [8.508644, 47.42064], "type": "Point"}, "properties": {"charge": 92, "id": "smide_2708", "name": "ZH256464", "provider": "smide", "range": 46.0, "size": 17, "time": "03/13/2020, 06:29:00"}, "type": "Feature"}, {"geometry": {"coordinates": [8.514633, 47.378484], "type": "Point"}, "properties": {"charge": 94, "id": "smide_2706", "name": "ZH256322", "provider": "smide", "range": 47.0, "size": 20, "time": "03/13/2020, 06:29:00"}, "type": "Feature"}, {"geometry": {"coordinates": [8.537105, 47.419128], "type": "Point"}, "properties": {"charge": 41, "id": "smide_2701", "name": "ZH256468", "provider": "smide", "range": 20.0, "size": 20, "time": "03/13/2020, 06:29:00"}, "type": "Feature"}, {"geometry": {"coordinates": [8.502502, 47.38046], "type": "Point"}, "properties": {"charge": 89, "id": "smide_2700", "name": "ZH256470", "provider": "smide", "range": 44.0, "size": 20, "time": "03/13/2020, 06:29:00"}, "type": "Feature"}, {"geometry": {"coordinates": [8.544359, 47.402336], "type": "Point"}, "properties": {"charge": 98, "id": "smide_2697", "name": "ZH254629", "provider": "smide", "range": 49.0, "size": 20, "time": "03/13/2020, 06:29:00"}, "type": "Feature"}, {"geometry": {"coordinates": [8.531561, 47.369368], "type": "Point"}, "properties": {"charge": 91, "id": "smide_2694", "name": "ZH254610", "provider": "smide", "range": 45.0, "size": 20, "time": "03/13/2020, 06:29:00"}, "type": "Feature"}, {"geometry": {"coordinates": [8.542065, 47.398153], "type": "Point"}, "properties": {"charge": 12, "id": "smide_2691", "name": "ZH254622", "provider": "smide", "range": 6.0, "size": 20, "time": "03/13/2020, 06:29:00"}, "type": "Feature"}, {"geometry": {"coordinates": [8.524805, 47.336766], "type": "Point"}, "properties": {"charge": 64, "id": "smide_2690", "name": "ZH254625", "provider": "smide", "range": 32.0, "size": 20, "time": "03/13/2020, 06:29:00"}, "type": "Feature"}, {"geometry": {"coordinates": [8.568728, 47.37362], "type": "Point"}, "properties": {"charge": 44, "id": "smide_2689", "name": "ZH254623", "provider": "smide", "range": 22.0, "size": 20, "time": "03/13/2020, 06:29:00"}, "type": "Feature"}, {"geometry": {"coordinates": [8.510691, 47.372092], "type": "Point"}, "properties": {"charge": 77, "id": "smide_2687", "name": "ZH263529", "provider": "smide", "range": 38.0, "size": 20, "time": "03/13/2020, 06:29:00"}, "type": "Feature"}, {"geometry": {"coordinates": [8.516863, 47.375452], "type": "Point"}, "properties": {"charge": 85, "id": "smide_2686", "name": "ZH263288", "provider": "smide", "range": 42.0, "size": 20, "time": "03/13/2020, 06:29:00"}, "type": "Feature"}, {"geometry": {"coordinates": [8.543591, 47.372536], "type": "Point"}, "properties": {"charge": 59, "id": "smide_2684", "name": "ZH254626", "provider": "smide", "range": 29.0, "size": 20, "time": "03/13/2020, 06:29:00"}, "type": "Feature"}, {"geometry": {"coordinates": [8.567208, 47.37623], "type": "Point"}, "properties": {"charge": 32, "id": "smide_2683", "name": "ZH254620", "provider": "smide", "range": 16.0, "size": 20, "time": "03/13/2020, 06:29:00"}, "type": "Feature"}, {"geometry": {"coordinates": [8.483713, 47.39754], "type": "Point"}, "properties": {"charge": 78, "id": "smide_2680", "name": "ZH254619", "provider": "smide", "range": 39.0, "size": 20, "time": "03/13/2020, 06:29:00"}, "type": "Feature"}, {"geometry": {"coordinates": [8.517693, 47.414332], "type": "Point"}, "properties": {"charge": 88, "id": "smide_2679", "name": "ZH258489", "provider": "smide", "range": 44.0, "size": 17, "time": "03/13/2020, 06:29:00"}, "type": "Feature"}, {"geometry": {"coordinates": [8.510785, 47.390168], "type": "Point"}, "properties": {"charge": 24, "id": "smide_2674", "name": "ZH258654", "provider": "smide", "range": 12.0, "size": 17, "time": "03/13/2020, 06:29:00"}, "type": "Feature"}, {"geometry": {"coordinates": [8.571511, 47.347224], "type": "Point"}, "properties": {"charge": 97, "id": "smide_2671", "name": "ZH258645", "provider": "smide", "range": 48.0, "size": 17, "time": "03/13/2020, 06:29:00"}, "type": "Feature"}, {"geometry": {"coordinates": [8.566082, 47.356732], "type": "Point"}, "properties": {"charge": 73, "id": "smide_2669", "name": "ZH263294", "provider": "smide", "range": 36.0, "size": 17, "time": "03/13/2020, 06:29:00"}, "type": "Feature"}, {"geometry": {"coordinates": [8.525799, 47.365008], "type": "Point"}, "properties": {"charge": 46, "id": "smide_2666", "name": "ZH258653", "provider": "smide", "range": 23.0, "size": 17, "time": "03/13/2020, 06:29:00"}, "type": "Feature"}, {"geometry": {"coordinates": [8.487416, 47.393668], "type": "Point"}, "properties": {"charge": 42, "id": "smide_2662", "name": "ZH258643", "provider": "smide", "range": 21.0, "size": 17, "time": "03/13/2020, 06:29:00"}, "type": "Feature"}, {"geometry": {"coordinates": [8.569458, 47.352052], "type": "Point"}, "properties": {"charge": 75, "id": "smide_2660", "name": "ZH258647", "provider": "smide", "range": 37.0, "size": 17, "time": "03/13/2020, 06:29:00"}, "type": "Feature"}, {"geometry": {"coordinates": [8.493123, 47.375664], "type": "Point"}, "properties": {"charge": 87, "id": "smide_2648", "name": "ZH257930", "provider": "smide", "range": 43.0, "size": 20, "time": "03/13/2020, 06:29:00"}, "type": "Feature"}, {"geometry": {"coordinates": [8.570098, 47.352206], "type": "Point"}, "properties": {"charge": 43, "id": "smide_2657", "name": "ZH257936", "provider": "smide", "range": 21.0, "size": 17, "time": "03/13/2020, 06:29:00"}, "type": "Feature"}, {"geometry": {"coordinates": [8.556326, 47.354416], "type": "Point"}, "properties": {"charge": 88, "id": "smide_2645", "name": "ZH257933", "provider": "smide", "range": 44.0, "size": 20, "time": "03/13/2020, 06:29:00"}, "type": "Feature"}, {"geometry": {"coordinates": [8.559631, 47.413356], "type": "Point"}, "properties": {"charge": 100, "id": "smide_3", "name": "ZH253765", "provider": "smide", "range": 50.0, "size": 20, "time": "03/13/2020, 06:29:00"}, "type": "Feature"}, {"geometry": {"coordinates": [8.498133, 47.358088], "type": "Point"}, "properties": {"charge": 70, "id": "smide_105", "name": "ZH253804", "provider": "smide", "range": 35.0, "size": 17, "time": "03/13/2020, 06:29:00"}, "type": "Feature"}, {"geometry": {"coordinates": [8.550755, 47.384], "type": "Point"}, "properties": {"charge": 74, "id": "smide_77", "name": "ZH261548", "provider": "smide", "range": 37.0, "size": 20, "time": "03/13/2020, 06:29:00"}, "type": "Feature"}, {"geometry": {"coordinates": [8.572035, 47.352778], "type": "Point"}, "properties": {"charge": 78, "id": "smide_199", "name": "ZH253766", "provider": "smide", "range": 39.0, "size": 20, "time": "03/13/2020, 06:29:00"}, "type": "Feature"}, {"geometry": {"coordinates": [8.489557, 47.373888], "type": "Point"}, "properties": {"charge": 81, "id": "smide_8", "name": "ZH253861", "provider": "smide", "range": 40.0, "size": 17, "time": "03/13/2020, 06:29:00"}, "type": "Feature"}, {"geometry": {"coordinates": [8.507988, 47.353848], "type": "Point"}, "properties": {"charge": 46, "id": "smide_201", "name": "ZH253698", "provider": "smide", "range": 23.0, "size": 17, "time": "03/13/2020, 06:29:00"}, "type": "Feature"}, {"geometry": {"coordinates": [8.523469, 47.39542], "type": "Point"}, "properties": {"charge": 77, "id": "smide_71", "name": "ZH253742", "provider": "smide", "range": 38.0, "size": 20, "time": "03/13/2020, 06:29:00"}, "type": "Feature"}, {"geometry": {"coordinates": [8.529187, 47.355864], "type": "Point"}, "properties": {"charge": 61, "id": "smide_101", "name": "ZH253814", "provider": "smide", "range": 30.0, "size": 17, "time": "03/13/2020, 06:29:00"}, "type": "Feature"}, {"geometry": {"coordinates": [8.526624, 47.392552], "type": "Point"}, "properties": {"charge": 50, "id": "smide_9", "name": "ZH253796", "provider": "smide", "range": 25.0, "size": 17, "time": "03/13/2020, 06:29:00"}, "type": "Feature"}, {"geometry": {"coordinates": [8.573929, 47.352764], "type": "Point"}, "properties": {"charge": 92, "id": "smide_143", "name": "ZH253778", "provider": "smide", "range": 46.0, "size": 17, "time": "03/13/2020, 06:29:00"}, "type": "Feature"}, {"geometry": {"coordinates": [8.507848, 47.394235], "type": "Point"}, "properties": {"charge": 100, "id": "smide_180", "name": "ZH253824", "provider": "smide", "range": 50.0, "size": 20, "time": "03/13/2020, 06:29:00"}, "type": "Feature"}, {"geometry": {"coordinates": [8.569558, 47.351972], "type": "Point"}, "properties": {"charge": 65, "id": "smide_50", "name": "ZH253853", "provider": "smide", "range": 32.0, "size": 17, "time": "03/13/2020, 06:29:00"}, "type": "Feature"}, {"geometry": {"coordinates": [8.550145, 47.385431], "type": "Point"}, "properties": {"charge": 78, "id": "smide_30", "name": "ZH253813", "provider": "smide", "range": 39.0, "size": 20, "time": "03/13/2020, 06:29:00"}, "type": "Feature"}, {"geometry": {"coordinates": [8.5302, 47.390301], "type": "Point"}, "properties": {"charge": 24, "id": "smide_10", "name": "ZH253855", "provider": "smide", "range": 12.0, "size": 17, "time": "03/13/2020, 06:29:00"}, "type": "Feature"}, {"geometry": {"coordinates": [8.550096, 47.387858], "type": "Point"}, "properties": {"charge": 73, "id": "smide_79", "name": "ZH253711", "provider": "smide", "range": 36.0, "size": 20, "time": "03/13/2020, 06:29:00"}, "type": "Feature"}, {"geometry": {"coordinates": [8.53968, 47.399732], "type": "Point"}, "properties": {"charge": 36, "id": "smide_84", "name": "ZH253733", "provider": "smide", "range": 18.0, "size": 17, "time": "03/13/2020, 06:29:00"}, "type": "Feature"}, {"geometry": {"coordinates": [8.537074, 47.419128], "type": "Point"}, "properties": {"charge": 34, "id": "smide_165", "name": "ZH253752", "provider": "smide", "range": 17.0, "size": 17, "time": "03/13/2020, 06:29:00"}, "type": "Feature"}, {"geometry": {"coordinates": [8.541246, 47.390616], "type": "Point"}, "properties": {"charge": 77, "id": "smide_35", "name": "ZH253755", "provider": "smide", "range": 38.0, "size": 20, "time": "03/13/2020, 06:29:00"}, "type": "Feature"}, {"geometry": {"coordinates": [8.506625, 47.362032], "type": "Point"}, "properties": {"charge": 97, "id": "smide_119", "name": "ZH253686", "provider": "smide", "range": 48.0, "size": 20, "time": "03/13/2020, 06:29:00"}, "type": "Feature"}, {"geometry": {"coordinates": [8.535884, 47.368576], "type": "Point"}, "properties": {"charge": 50, "id": "smide_129", "name": "ZH261378", "provider": "smide", "range": 25.0, "size": 17, "time": "03/13/2020, 06:29:00"}, "type": "Feature"}, {"geometry": {"coordinates": [8.570033, 47.3523], "type": "Point"}, "properties": {"charge": 48, "id": "smide_49", "name": "ZH253873", "provider": "smide", "range": 24.0, "size": 17, "time": "03/13/2020, 06:29:00"}, "type": "Feature"}, {"geometry": {"coordinates": [8.50827, 47.395324], "type": "Point"}, "properties": {"charge": 100, "id": "smide_94", "name": "ZH253754", "provider": "smide", "range": 50.0, "size": 17, "time": "03/13/2020, 06:29:00"}, "type": "Feature"}, {"geometry": {"coordinates": [8.582225, 47.351888], "type": "Point"}, "properties": {"charge": 77, "id": "smide_37", "name": "ZH261377", "provider": "smide", "range": 38.0, "size": 20, "time": "03/13/2020, 06:29:00"}, "type": "Feature"}, {"geometry": {"coordinates": [8.543908, 47.391001], "type": "Point"}, "properties": {"charge": 81, "id": "smide_191", "name": "ZH253762", "provider": "smide", "range": 40.0, "size": 17, "time": "03/13/2020, 06:29:00"}, "type": "Feature"}, {"geometry": {"coordinates": [8.504258, 47.381586], "type": "Point"}, "properties": {"charge": 50, "id": "smide_202", "name": "ZH253830", "provider": "smide", "range": 25.0, "size": 17, "time": "03/13/2020, 06:29:00"}, "type": "Feature"}, {"geometry": {"coordinates": [8.528501, 47.394484], "type": "Point"}, "properties": {"charge": 57, "id": "smide_56", "name": "ZH261442", "provider": "smide", "range": 28.0, "size": 20, "time": "03/13/2020, 06:29:00"}, "type": "Feature"}, {"geometry": {"coordinates": [8.518895, 47.33726], "type": "Point"}, "properties": {"charge": 74, "id": "smide_47", "name": "ZH253858", "provider": "smide", "range": 37.0, "size": 17, "time": "03/13/2020, 06:29:00"}, "type": "Feature"}, {"geometry": {"coordinates": [8.519306, 47.392856], "type": "Point"}, "properties": {"charge": 29, "id": "smide_150", "name": "ZH253703", "provider": "smide", "range": 14.0, "size": 20, "time": "03/13/2020, 06:29:00"}, "type": "Feature"}, {"geometry": {"coordinates": [8.533148, 47.347985], "type": "Point"}, "properties": {"charge": 100, "id": "smide_97", "name": "ZH253799", "provider": "smide", "range": 50.0, "size": 20, "time": "03/13/2020, 06:29:00"}, "type": "Feature"}, {"geometry": {"coordinates": [8.573915, 47.352744], "type": "Point"}, "properties": {"charge": 38, "id": "smide_66", "name": "ZH253818", "provider": "smide", "range": 19.0, "size": 20, "time": "03/13/2020, 06:29:00"}, "type": "Feature"}, {"geometry": {"coordinates": [8.483213, 47.384708], "type": "Point"}, "properties": {"charge": 59, "id": "smide_17", "name": "ZH253793", "provider": "smide", "range": 29.0, "size": 17, "time": "03/13/2020, 06:29:00"}, "type": "Feature"}, {"geometry": {"coordinates": [8.566972, 47.360368], "type": "Point"}, "properties": {"charge": 24, "id": "smide_127", "name": "ZH253808", "provider": "smide", "range": 12.0, "size": 20, "time": "03/13/2020, 06:29:00"}, "type": "Feature"}, {"geometry": {"coordinates": [8.51468, 47.357546], "type": "Point"}, "properties": {"charge": 91, "id": "smide_145", "name": "ZH253780", "provider": "smide", "range": 45.0, "size": 20, "time": "03/13/2020, 06:29:00"}, "type": "Feature"}, {"geometry": {"coordinates": [8.5537, 47.381972], "type": "Point"}, "properties": {"charge": 76, "id": "smide_114", "name": "ZH253878", "provider": "smide", "range": 38.0, "size": 20, "time": "03/13/2020, 06:29:00"}, "type": "Feature"}, {"geometry": {"coordinates": [8.522154, 47.39662], "type": "Point"}, "properties": {"charge": 40, "id": "smide_21", "name": "ZH253841", "provider": "smide", "range": 20.0, "size": 17, "time": "03/13/2020, 06:29:00"}, "type": "Feature"}, {"geometry": {"coordinates": [8.514118, 47.374056], "type": "Point"}, "properties": {"charge": 56, "id": "smide_164", "name": "ZH253775", "provider": "smide", "range": 28.0, "size": 17, "time": "03/13/2020, 06:29:00"}, "type": "Feature"}, {"geometry": {"coordinates": [8.524418, 47.398032], "type": "Point"}, "properties": {"charge": 91, "id": "smide_189", "name": "ZH253845", "provider": "smide", "range": 45.0, "size": 20, "time": "03/13/2020, 06:29:00"}, "type": "Feature"}, {"geometry": {"coordinates": [8.573914, 47.352756], "type": "Point"}, "properties": {"charge": 83, "id": "smide_81", "name": "ZH253753", "provider": "smide", "range": 41.0, "size": 17, "time": "03/13/2020, 06:29:00"}, "type": "Feature"}, {"geometry": {"coordinates": [8.532144, 47.40816], "type": "Point"}, "properties": {"charge": 56, "id": "smide_171", "name": "ZH253689", "provider": "smide", "range": 28.0, "size": 20, "time": "03/13/2020, 06:29:00"}, "type": "Feature"}, {"geometry": {"coordinates": [8.54692, 47.41926], "type": "Point"}, "properties": {"charge": 61, "id": "smide_93", "name": "ZH253681", "provider": "smide", "range": 30.0, "size": 17, "time": "03/13/2020, 06:29:00"}, "type": "Feature"}, {"geometry": {"coordinates": [8.549908, 47.363096], "type": "Point"}, "properties": {"charge": 59, "id": "smide_142", "name": "ZH258745", "provider": "smide", "range": 29.0, "size": 17, "time": "03/13/2020, 06:29:00"}, "type": "Feature"}, {"geometry": {"coordinates": [8.545846, 47.419511], "type": "Point"}, "properties": {"charge": 100, "id": "smide_166", "name": "ZH253728", "provider": "smide", "range": 50.0, "size": 17, "time": "03/13/2020, 06:29:00"}, "type": "Feature"}, {"geometry": {"coordinates": [8.534017, 47.362636], "type": "Point"}, "properties": {"charge": 99, "id": "smide_126", "name": "ZH268400", "provider": "smide", "range": 49.0, "size": 17, "time": "03/13/2020, 06:29:00"}, "type": "Feature"}, {"geometry": {"coordinates": [8.540646, 47.416276], "type": "Point"}, "properties": {"charge": 87, "id": "smide_44", "name": "ZH253837", "provider": "smide", "range": 43.0, "size": 17, "time": "03/13/2020, 06:29:00"}, "type": "Feature"}, {"geometry": {"coordinates": [8.50198, 47.368738], "type": "Point"}, "properties": {"charge": 100, "id": "smide_57", "name": "ZH253772", "provider": "smide", "range": 50.0, "size": 17, "time": "03/13/2020, 06:29:00"}, "type": "Feature"}, {"geometry": {"coordinates": [8.515669, 47.411636], "type": "Point"}, "properties": {"charge": 78, "id": "smide_154", "name": "ZH253744", "provider": "smide", "range": 39.0, "size": 20, "time": "03/13/2020, 06:29:00"}, "type": "Feature"}, {"geometry": {"coordinates": [8.518209, 47.380096], "type": "Point"}, "properties": {"charge": 49, "id": "smide_92", "name": "ZH253798", "provider": "smide", "range": 24.0, "size": 17, "time": "03/13/2020, 06:29:00"}, "type": "Feature"}, {"geometry": {"coordinates": [8.531566, 47.401152], "type": "Point"}, "properties": {"charge": 100, "id": "smide_65", "name": "ZH253810", "provider": "smide", "range": 50.0, "size": 17, "time": "03/13/2020, 06:29:00"}, "type": "Feature"}, {"geometry": {"coordinates": [8.5209, 47.411656], "type": "Point"}, "properties": {"charge": 88, "id": "smide_111", "name": "ZH253763", "provider": "smide", "range": 44.0, "size": 17, "time": "03/13/2020, 06:29:00"}, "type": "Feature"}, {"geometry": {"coordinates": [8.533301, 47.389532], "type": "Point"}, "properties": {"charge": 27, "id": "smide_40", "name": "ZH253690", "provider": "smide", "range": 13.0, "size": 20, "time": "03/13/2020, 06:29:00"}, "type": "Feature"}, {"geometry": {"coordinates": [8.57368, 47.355464], "type": "Point"}, "properties": {"charge": 100, "id": "smide_28", "name": "ZH253831", "provider": "smide", "range": 50.0, "size": 17, "time": "03/13/2020, 06:29:00"}, "type": "Feature"}, {"geometry": {"coordinates": [8.521346, 47.397318], "type": "Point"}, "properties": {"charge": 95, "id": "smide_14", "name": "ZH253749", "provider": "smide", "range": 47.0, "size": 20, "time": "03/13/2020, 06:29:00"}, "type": "Feature"}, {"geometry": {"coordinates": [8.563045, 47.382632], "type": "Point"}, "properties": {"charge": 71, "id": "smide_130", "name": "ZH253847", "provider": "smide", "range": 35.0, "size": 20, "time": "03/13/2020, 06:29:00"}, "type": "Feature"}, {"geometry": {"coordinates": [8.52588, 47.365112], "type": "Point"}, "properties": {"charge": 100, "id": "smide_136", "name": "ZH253682", "provider": "smide", "range": 50.0, "size": 17, "time": "03/13/2020, 06:29:00"}, "type": "Feature"}, {"geometry": {"coordinates": [8.516371, 47.39807], "type": "Point"}, "properties": {"charge": 95, "id": "smide_73", "name": "ZH261379", "provider": "smide", "range": 47.0, "size": 20, "time": "03/13/2020, 06:29:00"}, "type": "Feature"}, {"geometry": {"coordinates": [8.494835, 47.37928], "type": "Point"}, "properties": {"charge": 28, "id": "smide_158", "name": "ZH253870", "provider": "smide", "range": 14.0, "size": 20, "time": "03/13/2020, 06:29:00"}, "type": "Feature"}, {"geometry": {"coordinates": [8.564701, 47.372812], "type": "Point"}, "properties": {"charge": 58, "id": "smide_100", "name": "ZH253862", "provider": "smide", "range": 28.0, "size": 20, "time": "03/13/2020, 06:29:00"}, "type": "Feature"}, {"geometry": {"coordinates": [8.555148, 47.383861], "type": "Point"}, "properties": {"charge": 62, "id": "smide_141", "name": "ZH253800", "provider": "smide", "range": 31.0, "size": 20, "time": "03/13/2020, 06:29:00"}, "type": "Feature"}, {"geometry": {"coordinates": [8.533101, 47.348006], "type": "Point"}, "properties": {"charge": 37, "id": "smide_149", "name": "ZH253743", "provider": "smide", "range": 18.0, "size": 20, "time": "03/13/2020, 06:29:00"}, "type": "Feature"}, {"geometry": {"coordinates": [8.550878, 47.392372], "type": "Point"}, "properties": {"charge": 35, "id": "smide_16", "name": "ZH253713", "provider": "smide", "range": 17.0, "size": 20, "time": "03/13/2020, 06:29:00"}, "type": "Feature"}, {"geometry": {"coordinates": [8.562625, 47.408936], "type": "Point"}, "properties": {"charge": 45, "id": "smide_74", "name": "ZH253693", "provider": "smide", "range": 22.0, "size": 20, "time": "03/13/2020, 06:29:00"}, "type": "Feature"}, {"geometry": {"coordinates": [8.557621, 47.406915], "type": "Point"}, "properties": {"charge": 14, "id": "smide_33", "name": "ZH253782", "provider": "smide", "range": 7.0, "size": 20, "time": "03/13/2020, 06:29:00"}, "type": "Feature"}, {"geometry": {"coordinates": [8.573933, 47.352752], "type": "Point"}, "properties": {"charge": 56, "id": "smide_161", "name": "ZH253691", "provider": "smide", "range": 28.0, "size": 20, "time": "03/13/2020, 06:29:00"}, "type": "Feature"}, {"geometry": {"coordinates": [8.48833, 47.38947], "type": "Point"}, "properties": {"charge": 12, "id": "smide_183", "name": "ZH253868", "provider": "smide", "range": 6.0, "size": 17, "time": "03/13/2020, 06:29:00"}, "type": "Feature"}, {"geometry": {"coordinates": [8.507593, 47.421352], "type": "Point"}, "properties": {"charge": 89, "id": "smide_42", "name": "ZH253846", "provider": "smide", "range": 44.0, "size": 20, "time": "03/13/2020, 06:29:00"}, "type": "Feature"}, {"geometry": {"coordinates": [8.508659, 47.420596], "type": "Point"}, "properties": {"charge": 100, "id": "smide_4", "name": "ZH253740", "provider": "smide", "range": 50.0, "size": 20, "time": "03/13/2020, 06:29:00"}, "type": "Feature"}, {"geometry": {"coordinates": [8.543715, 47.392603], "type": "Point"}, "properties": {"charge": 76, "id": "smide_137", "name": "ZH258502", "provider": "smide", "range": 38.0, "size": 17, "time": "03/13/2020, 06:29:00"}, "type": "Feature"}, {"geometry": {"coordinates": [8.524726, 47.360815], "type": "Point"}, "properties": {"charge": 89, "id": "smide_55", "name": "ZH253875", "provider": "smide", "range": 44.0, "size": 17, "time": "03/13/2020, 06:29:00"}, "type": "Feature"}, {"geometry": {"coordinates": [8.52386, 47.410968], "type": "Point"}, "properties": {"charge": 92, "id": "smide_96", "name": "ZH256146", "provider": "smide", "range": 46.0, "size": 20, "time": "03/13/2020, 06:29:00"}, "type": "Feature"}, {"geometry": {"coordinates": [8.557787, 47.352668], "type": "Point"}, "properties": {"charge": 41, "id": "smide_58", "name": "ZH259246", "provider": "smide", "range": 20.0, "size": 20, "time": "03/13/2020, 06:29:00"}, "type": "Feature"}, {"geometry": {"coordinates": [8.560205, 47.381348], "type": "Point"}, "properties": {"charge": 38, "id": "smide_54", "name": "ZH253874", "provider": "smide", "range": 19.0, "size": 20, "time": "03/13/2020, 06:29:00"}, "type": "Feature"}, {"geometry": {"coordinates": [8.510715, 47.379916], "type": "Point"}, "properties": {"charge": 65, "id": "smide_175", "name": "ZH253730", "provider": "smide", "range": 32.0, "size": 17, "time": "03/13/2020, 06:29:00"}, "type": "Feature"}, {"geometry": {"coordinates": [8.557191, 47.383123], "type": "Point"}, "properties": {"charge": 31, "id": "smide_162", "name": "ZH253760", "provider": "smide", "range": 15.0, "size": 17, "time": "03/13/2020, 06:29:00"}, "type": "Feature"}, {"geometry": {"coordinates": [8.525937, 47.358984], "type": "Point"}, "properties": {"charge": 27, "id": "smide_95", "name": "ZH253773", "provider": "smide", "range": 13.0, "size": 17, "time": "03/13/2020, 06:29:00"}, "type": "Feature"}, {"geometry": {"coordinates": [8.544362, 47.368372], "type": "Point"}, "properties": {"charge": 95, "id": "smide_163", "name": "ZH256147", "provider": "smide", "range": 47.0, "size": 20, "time": "03/13/2020, 06:29:00"}, "type": "Feature"}, {"geometry": {"coordinates": [8.528286, 47.347284], "type": "Point"}, "properties": {"charge": 100, "id": "smide_112", "name": "ZH263530", "provider": "smide", "range": 50.0, "size": 20, "time": "03/13/2020, 06:29:00"}, "type": "Feature"}, {"geometry": {"coordinates": [8.57482, 47.373335], "type": "Point"}, "properties": {"charge": 100, "id": "smide_38", "name": "ZH253851", "provider": "smide", "range": 50.0, "size": 20, "time": "03/13/2020, 06:29:00"}, "type": "Feature"}, {"geometry": {"coordinates": [8.5598, 47.376672], "type": "Point"}, "properties": {"charge": 90, "id": "smide_6", "name": "ZH253787", "provider": "smide", "range": 45.0, "size": 17, "time": "03/13/2020, 06:29:00"}, "type": "Feature"}, {"geometry": {"coordinates": [8.551851, 47.36166], "type": "Point"}, "properties": {"charge": 62, "id": "smide_192", "name": "ZH253706", "provider": "smide", "range": 31.0, "size": 20, "time": "03/13/2020, 06:29:00"}, "type": "Feature"}, {"geometry": {"coordinates": [8.574243, 47.34783], "type": "Point"}, "properties": {"charge": 57, "id": "smide_39", "name": "ZH253714", "provider": "smide", "range": 28.0, "size": 20, "time": "03/13/2020, 06:29:00"}, "type": "Feature"}, {"geometry": {"coordinates": [8.5479, 47.365873], "type": "Point"}, "properties": {"charge": 49, "id": "smide_5", "name": "ZH261443", "provider": "smide", "range": 24.0, "size": 20, "time": "03/13/2020, 06:29:00"}, "type": "Feature"}, {"geometry": {"coordinates": [8.501858, 47.370821], "type": "Point"}, "properties": {"charge": 17, "id": "smide_85", "name": "ZH253729", "provider": "smide", "range": 8.0, "size": 17, "time": "03/13/2020, 06:29:00"}, "type": "Feature"}, {"geometry": {"coordinates": [8.510142, 47.352756], "type": "Point"}, "properties": {"charge": 65, "id": "smide_29", "name": "ZH253723", "provider": "smide", "range": 32.0, "size": 17, "time": "03/13/2020, 06:29:00"}, "type": "Feature"}, {"geometry": {"coordinates": [8.545841, 47.38938], "type": "Point"}, "properties": {"charge": 53, "id": "smide_132", "name": "ZH253857", "provider": "smide", "range": 26.0, "size": 17, "time": "03/13/2020, 06:29:00"}, "type": "Feature"}, {"geometry": {"coordinates": [8.564442, 47.369376], "type": "Point"}, "properties": {"charge": 53, "id": "smide_46", "name": "ZH253843", "provider": "smide", "range": 26.0, "size": 20, "time": "03/13/2020, 06:29:00"}, "type": "Feature"}, {"geometry": {"coordinates": [8.53998833333333, 47.3722033333333], "type": "Point"}, "properties": {"charge": 43, "id": "bird_938c185d-aec2-4638-b853-6cdc9e16fbc0", "provider": "bird", "timeStamp": "03/13/2020, 06:29:02"}, "type": "Feature"}, {"geometry": {"coordinates": [8.53549833333333, 47.389625], "type": "Point"}, "properties": {"charge": 30, "id": "bird_e8d0088d-4ee8-47b8-a3e4-a9f6ace12ffc", "provider": "bird", "timeStamp": "03/13/2020, 06:29:02"}, "type": "Feature"}, {"geometry": {"coordinates": [8.517975, 47.3863183333333], "type": "Point"}, "properties": {"charge": 75, "id": "bird_c75cbe95-92af-4f25-848e-fca9917eedbc", "provider": "bird", "timeStamp": "03/13/2020, 06:29:02"}, "type": "Feature"}, {"geometry": {"coordinates": [8.52667166666667, 47.369945], "type": "Point"}, "properties": {"charge": 54, "id": "bird_27228f9c-651e-4fbc-9059-17ff4b4ac755", "provider": "bird", "timeStamp": "03/13/2020, 06:29:02"}, "type": "Feature"}, {"geometry": {"coordinates": [8.521835, 47.3886833333333], "type": "Point"}, "properties": {"charge": 36, "id": "bird_6d14641a-43d3-421b-93f6-13e88c5b2cde", "provider": "bird", "timeStamp": "03/13/2020, 06:29:02"}, "type": "Feature"}, {"geometry": {"coordinates": [8.51786833333333, 47.3861083333333], "type": "Point"}, "properties": {"charge": 82, "id": "bird_dfd41f91-74de-4789-820b-77cf47883e34", "provider": "bird", "timeStamp": "03/13/2020, 06:29:02"}, "type": "Feature"}, {"geometry": {"coordinates": [8.51643333333333, 47.3754883333333], "type": "Point"}, "properties": {"charge": 100, "id": "bird_90b2405d-eacc-43a1-bc72-c13eedbd59fb", "provider": "bird", "timeStamp": "03/13/2020, 06:29:02"}, "type": "Feature"}, {"geometry": {"coordinates": [8.52215833333333, 47.388745], "type": "Point"}, "properties": {"charge": 96, "id": "bird_cd84d7c8-8bc4-48ed-8f04-ab3ce0caefaf", "provider": "bird", "timeStamp": "03/13/2020, 06:29:02"}, "type": "Feature"}, {"geometry": {"coordinates": [8.516505, 47.3754433333333], "type": "Point"}, "properties": {"charge": 100, "id": "bird_bbbe13ae-9599-4bf5-91db-7d9ee97938b5", "provider": "bird", "timeStamp": "03/13/2020, 06:29:02"}, "type": "Feature"}, {"geometry": {"coordinates": [8.51645333333333, 47.37553], "type": "Point"}, "properties": {"charge": 100, "id": "bird_578edb48-a5da-402d-8eaf-b3f86b82610c", "provider": "bird", "timeStamp": "03/13/2020, 06:29:02"}, "type": "Feature"}, {"geometry": {"coordinates": [8.51810166666667, 47.3862566666667], "type": "Point"}, "properties": {"charge": 24, "id": "bird_a49ff720-6610-4bf8-a6c3-76e06eccac3d", "provider": "bird", "timeStamp": "03/13/2020, 06:29:02"}, "type": "Feature"}, {"geometry": {"coordinates": [8.52224333333333, 47.3887366666667], "type": "Point"}, "properties": {"charge": 98, "id": "bird_f30a9175-9645-492a-a9a2-fcda2f03636f", "provider": "bird", "timeStamp": "03/13/2020, 06:29:02"}, "type": "Feature"}, {"geometry": {"coordinates": [8.51649333333333, 47.3755066666667], "type": "Point"}, "properties": {"charge": 18, "id": "bird_4f503c22-235c-4e5a-b56c-6042314f155f", "provider": "bird", "timeStamp": "03/13/2020, 06:29:02"}, "type": "Feature"}, {"geometry": {"coordinates": [8.51825166666667, 47.3863683333333], "type": "Point"}, "properties": {"charge": 91, "id": "bird_239b18c8-baf5-4329-aab0-86790c51d1cd", "provider": "bird", "timeStamp": "03/13/2020, 06:29:02"}, "type": "Feature"}, {"geometry": {"coordinates": [8.51947166666667, 47.3727266666667], "type": "Point"}, "properties": {"charge": 36, "id": "bird_4a2ead64-e3f3-442f-9061-9c95d77df1e2", "provider": "bird", "timeStamp": "03/13/2020, 06:29:02"}, "type": "Feature"}, {"geometry": {"coordinates": [8.52727, 47.370015], "type": "Point"}, "properties": {"charge": 74, "id": "bird_94738ae7-ef9e-4e8d-aabb-ff3a86025d7e", "provider": "bird", "timeStamp": "03/13/2020, 06:29:02"}, "type": "Feature"}, {"geometry": {"coordinates": [8.52704166666667, 47.3700516666667], "type": "Point"}, "properties": {"charge": 58, "id": "bird_d50180ad-6a94-48c6-826f-749ab435d402", "provider": "bird", "timeStamp": "03/13/2020, 06:29:02"}, "type": "Feature"}, {"geometry": {"coordinates": [8.51768, 47.3857733333333], "type": "Point"}, "properties": {"charge": 100, "id": "bird_e49e3860-def3-4bf2-a28c-0e239ba97d58", "provider": "bird", "timeStamp": "03/13/2020, 06:29:02"}, "type": "Feature"}, {"geometry": {"coordinates": [8.543435, 47.3755266666667], "type": "Point"}, "properties": {"charge": 72, "id": "bird_c3f8f501-753d-418c-bbe0-7452d5b06c8c", "provider": "bird", "timeStamp": "03/13/2020, 06:29:02"}, "type": "Feature"}, {"geometry": {"coordinates": [8.51962666666667, 47.3727116666667], "type": "Point"}, "properties": {"charge": 63, "id": "bird_9c74a8dd-2d37-4b88-8136-624679a3bcfc", "provider": "bird", "timeStamp": "03/13/2020, 06:29:02"}, "type": "Feature"}, {"geometry": {"coordinates": [8.51684, 47.3752366666667], "type": "Point"}, "properties": {"charge": 100, "id": "bird_280470cb-d875-4827-8f56-0d87654f29e3", "provider": "bird", "timeStamp": "03/13/2020, 06:29:02"}, "type": "Feature"}, {"geometry": {"coordinates": [8.51688166666667, 47.3752133333333], "type": "Point"}, "properties": {"charge": 100, "id": "bird_f2c90331-b0b2-46d1-9f86-3b5884465ee7", "provider": "bird", "timeStamp": "03/13/2020, 06:29:02"}, "type": "Feature"}, {"geometry": {"coordinates": [8.543925, 47.376415], "type": "Point"}, "properties": {"charge": 58, "id": "bird_e86bcb9d-3d8e-422d-afa4-dadbe546b4ac", "provider": "bird", "timeStamp": "03/13/2020, 06:29:02"}, "type": "Feature"}, {"geometry": {"coordinates": [8.515545, 47.3775633333333], "type": "Point"}, "properties": {"charge": 22, "id": "bird_61fe1fd7-5cea-46f9-a963-4bca629c4eab", "provider": "bird", "timeStamp": "03/13/2020, 06:29:02"}, "type": "Feature"}, {"geometry": {"coordinates": [8.51826, 47.38615], "type": "Point"}, "properties": {"charge": 65, "id": "bird_6fb1e0c3-b8bf-4359-9743-d09b06a4b474", "provider": "bird", "timeStamp": "03/13/2020, 06:29:02"}, "type": "Feature"}, {"geometry": {"coordinates": [8.51674, 47.3755066666667], "type": "Point"}, "properties": {"charge": 100, "id": "bird_0651cb9e-887b-410c-9685-b98b170374a0", "provider": "bird", "timeStamp": "03/13/2020, 06:29:02"}, "type": "Feature"}, {"geometry": {"coordinates": [8.51679833333333, 47.3754316666667], "type": "Point"}, "properties": {"charge": 100, "id": "bird_625881aa-0a68-4863-b628-7ea21df184e7", "provider": "bird", "timeStamp": "03/13/2020, 06:29:02"}, "type": "Feature"}, {"geometry": {"coordinates": [8.51792166666667, 47.3858216666667], "type": "Point"}, "properties": {"charge": 99, "id": "bird_0b3bf1e3-f51a-416b-8e07-96685aa816a4", "provider": "bird", "timeStamp": "03/13/2020, 06:29:02"}, "type": "Feature"}, {"geometry": {"coordinates": [8.51850833333333, 47.373695], "type": "Point"}, "properties": {"charge": 31, "id": "bird_c82dd76c-834e-4850-be94-6c6bcc80acb3", "provider": "bird", "timeStamp": "03/13/2020, 06:29:02"}, "type": "Feature"}, {"geometry": {"coordinates": [8.54234166666667, 47.3855166666667], "type": "Point"}, "properties": {"charge": 70, "id": "bird_7c4bd238-a35e-4850-bd20-6b9582274455", "provider": "bird", "timeStamp": "03/13/2020, 06:29:02"}, "type": "Feature"}, {"geometry": {"coordinates": [8.51686833333333, 47.3754083333333], "type": "Point"}, "properties": {"charge": 100, "id": "bird_12685897-d4b5-4ff4-9834-40ae72589730", "provider": "bird", "timeStamp": "03/13/2020, 06:29:02"}, "type": "Feature"}, {"geometry": {"coordinates": [8.516805, 47.3755116666667], "type": "Point"}, "properties": {"charge": 100, "id": "bird_0128f0cd-759b-4203-854f-c97c2c889062", "provider": "bird", "timeStamp": "03/13/2020, 06:29:02"}, "type": "Feature"}, {"geometry": {"coordinates": [8.52319833333333, 47.37114], "type": "Point"}, "properties": {"charge": 57, "id": "bird_5b8a4db8-e455-4f17-92b6-aeb7b125ba78", "provider": "bird", "timeStamp": "03/13/2020, 06:29:02"}, "type": "Feature"}, {"geometry": {"coordinates": [8.54379333333333, 47.3765566666667], "type": "Point"}, "properties": {"charge": 34, "id": "bird_d0bbc022-ac9a-4b50-bc29-e2e737ac44ab", "provider": "bird", "timeStamp": "03/13/2020, 06:29:02"}, "type": "Feature"}, {"geometry": {"coordinates": [8.51803, 47.3857766666667], "type": "Point"}, "properties": {"charge": 82, "id": "bird_f2abfdd9-244f-486d-8e29-f57b95992c8a", "provider": "bird", "timeStamp": "03/13/2020, 06:29:02"}, "type": "Feature"}, {"geometry": {"coordinates": [8.51656, 47.3760216666667], "type": "Point"}, "properties": {"charge": 76, "id": "bird_61f1654f-cdfd-42d5-81f0-918e4a7e328d", "provider": "bird", "timeStamp": "03/13/2020, 06:29:02"}, "type": "Feature"}, {"geometry": {"coordinates": [8.523015, 47.3712883333333], "type": "Point"}, "properties": {"charge": 69, "id": "bird_919ee249-52ea-40d1-9bab-f65c35516460", "provider": "bird", "timeStamp": "03/13/2020, 06:29:02"}, "type": "Feature"}, {"geometry": {"coordinates": [8.516805, 47.37571], "type": "Point"}, "properties": {"charge": 100, "id": "bird_fe7f5cff-b24f-4e18-b2d3-487380fd9052", "provider": "bird", "timeStamp": "03/13/2020, 06:29:02"}, "type": "Feature"}, {"geometry": {"coordinates": [8.51678166666667, 47.3757516666667], "type": "Point"}, "properties": {"charge": 99, "id": "bird_0317ec2a-b44d-4deb-8d0b-0c1322042639", "provider": "bird", "timeStamp": "03/13/2020, 06:29:02"}, "type": "Feature"}, {"geometry": {"coordinates": [8.51844166666667, 47.3860583333333], "type": "Point"}, "properties": {"charge": 79, "id": "bird_b20f41c7-c287-4071-bda6-1baeb5d6549a", "provider": "bird", "timeStamp": "03/13/2020, 06:29:02"}, "type": "Feature"}, {"geometry": {"coordinates": [8.523025, 47.3713533333333], "type": "Point"}, "properties": {"charge": 82, "id": "bird_ac02e68c-70df-4052-90b3-55be2ad7a5d3", "provider": "bird", "timeStamp": "03/13/2020, 06:29:02"}, "type": "Feature"}, {"geometry": {"coordinates": [8.51843166666667, 47.3859716666667], "type": "Point"}, "properties": {"charge": 70, "id": "bird_d5d36279-f8a9-43eb-8559-fad21a047e75", "provider": "bird", "timeStamp": "03/13/2020, 06:29:02"}, "type": "Feature"}, {"geometry": {"coordinates": [8.51793666666667, 47.385495], "type": "Point"}, "properties": {"charge": 100, "id": "bird_0fee0591-9949-4543-a059-9d2980940169", "provider": "bird", "timeStamp": "03/13/2020, 06:29:02"}, "type": "Feature"}, {"geometry": {"coordinates": [8.51693333333333, 47.37569], "type": "Point"}, "properties": {"charge": 100, "id": "bird_fb3c2f0e-60c8-4c6b-b61d-9a67f24b3b8f", "provider": "bird", "timeStamp": "03/13/2020, 06:29:02"}, "type": "Feature"}, {"geometry": {"coordinates": [8.53714166666667, 47.3714483333333], "type": "Point"}, "properties": {"charge": 62, "id": "bird_003b7967-c56b-48f5-b9d0-28f499993f38", "provider": "bird", "timeStamp": "03/13/2020, 06:29:02"}, "type": "Feature"}, {"geometry": {"coordinates": [8.51698666666667, 47.3757283333333], "type": "Point"}, "properties": {"charge": 11, "id": "bird_8ba3d714-21c5-401a-95ca-dc79d5fabc8e", "provider": "bird", "timeStamp": "03/13/2020, 06:29:02"}, "type": "Feature"}, {"geometry": {"coordinates": [8.51757, 47.3850016666667], "type": "Point"}, "properties": {"charge": 54, "id": "bird_5f566b97-6c62-4e8c-8fc9-771310722a16", "provider": "bird", "timeStamp": "03/13/2020, 06:29:02"}, "type": "Feature"}, {"geometry": {"coordinates": [8.51560666666667, 47.379685], "type": "Point"}, "properties": {"charge": 47, "id": "bird_12b11e30-67e9-43c9-90f0-361d95006764", "provider": "bird", "timeStamp": "03/13/2020, 06:29:02"}, "type": "Feature"}, {"geometry": {"coordinates": [8.53616166666667, 47.3712], "type": "Point"}, "properties": {"charge": 89, "id": "bird_4b1bfb27-4dd2-4d4c-aa56-786c65fc6230", "provider": "bird", "timeStamp": "03/13/2020, 06:29:02"}, "type": "Feature"}, {"geometry": {"coordinates": [8.51605666666667, 47.3822016666667], "type": "Point"}, "properties": {"charge": 72, "id": "bird_f14e664d-537e-4806-a54f-a3124caa9dd2", "provider": "bird", "timeStamp": "03/13/2020, 06:29:02"}, "type": "Feature"}, {"geometry": {"coordinates": [8.51591666666667, 47.3787733333333], "type": "Point"}, "properties": {"charge": 39, "id": "bird_d2e1e668-180a-409d-84ed-4f45ea04f8ca", "provider": "bird", "timeStamp": "03/13/2020, 06:29:02"}, "type": "Feature"}, {"geometry": {"coordinates": [8.51617, 47.3778383333333], "type": "Point"}, "properties": {"charge": 25, "id": "bird_be52b1ef-0497-4dc5-ac1a-09e883f73cd7", "provider": "bird", "timeStamp": "03/13/2020, 06:29:02"}, "type": "Feature"}, {"geometry": {"coordinates": [8.51617833333333, 47.3778383333333], "type": "Point"}, "properties": {"charge": 66, "id": "bird_acc6057f-f341-4424-90aa-ed058087851b", "provider": "bird", "timeStamp": "03/13/2020, 06:29:02"}, "type": "Feature"}, {"geometry": {"coordinates": [8.51583333333333, 47.3798133333333], "type": "Point"}, "properties": {"charge": 35, "id": "bird_08ce10c1-dbfc-4455-9e66-0502015304c9", "provider": "bird", "timeStamp": "03/13/2020, 06:29:02"}, "type": "Feature"}, {"geometry": {"coordinates": [8.53662833333333, 47.3715316666667], "type": "Point"}, "properties": {"charge": 61, "id": "bird_f18dfc59-8f77-49b3-9020-c90cca644615", "provider": "bird", "timeStamp": "03/13/2020, 06:29:02"}, "type": "Feature"}, {"geometry": {"coordinates": [8.51599333333333, 47.3786433333333], "type": "Point"}, "properties": {"charge": 73, "id": "bird_c5dda5b3-1198-4e83-a5d7-1ee21fc40928", "provider": "bird", "timeStamp": "03/13/2020, 06:29:02"}, "type": "Feature"}, {"geometry": {"coordinates": [8.52655666666667, 47.3892866666667], "type": "Point"}, "properties": {"charge": 16, "id": "bird_967c99c4-b6f1-4aed-a5e0-6607c073940a", "provider": "bird", "timeStamp": "03/13/2020, 06:29:02"}, "type": "Feature"}, {"geometry": {"coordinates": [8.543485, 47.3771583333333], "type": "Point"}, "properties": {"charge": 52, "id": "bird_7063aba3-4f70-4a34-8acd-9d5dce9f267f", "provider": "bird", "timeStamp": "03/13/2020, 06:29:02"}, "type": "Feature"}, {"geometry": {"coordinates": [8.52398333333333, 47.37136], "type": "Point"}, "properties": {"charge": 78, "id": "bird_1ff0b9de-87fd-4693-aca8-5d800abdfbbe", "provider": "bird", "timeStamp": "03/13/2020, 06:29:02"}, "type": "Feature"}, {"geometry": {"coordinates": [8.51789333333334, 47.3849033333333], "type": "Point"}, "properties": {"charge": 26, "id": "bird_13de090d-bc6d-43a0-80a9-b7ab0612185a", "provider": "bird", "timeStamp": "03/13/2020, 06:29:02"}, "type": "Feature"}, {"geometry": {"coordinates": [8.51627666666667, 47.37785], "type": "Point"}, "properties": {"charge": 75, "id": "bird_ce1e903d-e3d9-429e-9e98-ad170dea9102", "provider": "bird", "timeStamp": "03/13/2020, 06:29:02"}, "type": "Feature"}, {"geometry": {"coordinates": [8.51990333333333, 47.3734783333333], "type": "Point"}, "properties": {"charge": 35, "id": "bird_d8139b6e-45d6-43b6-9fb6-d7ee6d91e638", "provider": "bird", "timeStamp": "03/13/2020, 06:29:02"}, "type": "Feature"}, {"geometry": {"coordinates": [8.54333166666667, 47.3772233333333], "type": "Point"}, "properties": {"charge": 31, "id": "bird_d5f3332c-9a81-4628-b49c-064f4ddf62b2", "provider": "bird", "timeStamp": "03/13/2020, 06:29:02"}, "type": "Feature"}, {"geometry": {"coordinates": [8.52026166666667, 47.3732866666667], "type": "Point"}, "properties": {"charge": 53, "id": "bird_33a0d49b-3633-4e7c-b5ba-4082bdbefcde", "provider": "bird", "timeStamp": "03/13/2020, 06:29:02"}, "type": "Feature"}, {"geometry": {"coordinates": [8.51616333333333, 47.3793266666667], "type": "Point"}, "properties": {"charge": 54, "id": "bird_6b9dab07-2532-493a-a00c-2b8668c300c8", "provider": "bird", "timeStamp": "03/13/2020, 06:29:02"}, "type": "Feature"}, {"geometry": {"coordinates": [8.5175, 47.3759466666667], "type": "Point"}, "properties": {"charge": 40, "id": "bird_487563dd-8acd-4f43-81f2-c1bbf7e6f513", "provider": "bird", "timeStamp": "03/13/2020, 06:29:02"}, "type": "Feature"}, {"geometry": {"coordinates": [8.51749166666667, 47.3759766666667], "type": "Point"}, "properties": {"charge": 79, "id": "bird_ef3b011e-585e-41c9-a59c-da7d2ecf66aa", "provider": "bird", "timeStamp": "03/13/2020, 06:29:02"}, "type": "Feature"}, {"geometry": {"coordinates": [8.54083833333333, 47.3741683333333], "type": "Point"}, "properties": {"charge": 66, "id": "bird_8361bfe3-0e6f-4115-a481-d4446d0e3692", "provider": "bird", "timeStamp": "03/13/2020, 06:29:02"}, "type": "Feature"}, {"geometry": {"coordinates": [8.51635833333333, 47.3813583333333], "type": "Point"}, "properties": {"charge": 47, "id": "bird_7809a02b-8183-41bc-b7fa-3839261175c9", "provider": "bird", "timeStamp": "03/13/2020, 06:29:02"}, "type": "Feature"}, {"geometry": {"coordinates": [8.51625, 47.3796], "type": "Point"}, "properties": {"charge": 78, "id": "bird_9c1ad7ec-f541-401f-947d-6e37c4e2a769", "provider": "bird", "timeStamp": "03/13/2020, 06:29:02"}, "type": "Feature"}, {"geometry": {"coordinates": [8.52922666666667, 47.3707083333333], "type": "Point"}, "properties": {"charge": 35, "id": "bird_b57b73f5-3d31-4e6a-a491-d1828117a703", "provider": "bird", "timeStamp": "03/13/2020, 06:29:02"}, "type": "Feature"}, {"geometry": {"coordinates": [8.516265, 47.3797066666667], "type": "Point"}, "properties": {"charge": 31, "id": "bird_d5918888-7ce1-4baa-b472-ec6752d0775c", "provider": "bird", "timeStamp": "03/13/2020, 06:29:02"}, "type": "Feature"}, {"geometry": {"coordinates": [8.53669666666667, 47.3718866666667], "type": "Point"}, "properties": {"charge": 53, "id": "bird_493588e9-57c9-4b01-8c35-1dfc7743c3d0", "provider": "bird", "timeStamp": "03/13/2020, 06:29:02"}, "type": "Feature"}, {"geometry": {"coordinates": [8.53755, 47.37225], "type": "Point"}, "properties": {"charge": 27, "id": "bird_14a03c43-5d58-4b47-819f-1b99ebdd16cd", "provider": "bird", "timeStamp": "03/13/2020, 06:29:02"}, "type": "Feature"}, {"geometry": {"coordinates": [8.519095, 47.3856166666667], "type": "Point"}, "properties": {"charge": 66, "id": "bird_ee9b8435-5dcb-4a5b-b770-273f22e066ca", "provider": "bird", "timeStamp": "03/13/2020, 06:29:02"}, "type": "Feature"}, {"geometry": {"coordinates": [8.51647166666667, 47.3796883333333], "type": "Point"}, "properties": {"charge": 65, "id": "bird_87b2806d-385e-47be-813e-21e449a0ab6b", "provider": "bird", "timeStamp": "03/13/2020, 06:29:02"}, "type": "Feature"}, {"geometry": {"coordinates": [8.536305, 47.3719833333333], "type": "Point"}, "properties": {"charge": 35, "id": "bird_78f5e29c-b71c-4031-9752-e852f6cfa001", "provider": "bird", "timeStamp": "03/13/2020, 06:29:02"}, "type": "Feature"}, {"geometry": {"coordinates": [8.54306833333333, 47.379665], "type": "Point"}, "properties": {"charge": 24, "id": "bird_7755aa02-c80c-4451-9314-6f6bdecd01ef", "provider": "bird", "timeStamp": "03/13/2020, 06:29:02"}, "type": "Feature"}, {"geometry": {"coordinates": [8.52447, 47.3876883333333], "type": "Point"}, "properties": {"charge": 63, "id": "bird_c677ebc8-7476-4e7d-9504-dbf2731f4d66", "provider": "bird", "timeStamp": "03/13/2020, 06:29:02"}, "type": "Feature"}, {"geometry": {"coordinates": [8.54163666666667, 47.37687], "type": "Point"}, "properties": {"charge": 28, "id": "bird_c8a36677-84e7-46ed-84b1-56bf1737a454", "provider": "bird", "timeStamp": "03/13/2020, 06:29:02"}, "type": "Feature"}, {"geometry": {"coordinates": [8.52146333333333, 47.3861616666667], "type": "Point"}, "properties": {"charge": 38, "id": "bird_477020e2-9d6c-47b8-9d84-d00053b0b027", "provider": "bird", "timeStamp": "03/13/2020, 06:29:02"}, "type": "Feature"}, {"geometry": {"coordinates": [8.51756166666667, 47.3793633333333], "type": "Point"}, "properties": {"charge": 55, "id": "bird_46177b4c-e8dc-4eb4-985c-09a744a9780f", "provider": "bird", "timeStamp": "03/13/2020, 06:29:02"}, "type": "Feature"}, {"geometry": {"coordinates": [8.53979833333333, 47.3747866666667], "type": "Point"}, "properties": {"charge": 38, "id": "bird_f4cbbdc8-e094-4f96-ab24-e58979b0f4f7", "provider": "bird", "timeStamp": "03/13/2020, 06:29:02"}, "type": "Feature"}, {"geometry": {"coordinates": [8.53689333333333, 47.3730133333333], "type": "Point"}, "properties": {"charge": 70, "id": "bird_2b2421e0-3977-481f-8869-1c7d88a4942e", "provider": "bird", "timeStamp": "03/13/2020, 06:29:02"}, "type": "Feature"}, {"geometry": {"coordinates": [8.53691333333333, 47.37304], "type": "Point"}, "properties": {"charge": 69, "id": "bird_d8df5408-517c-4a81-b5d1-ea22bddb6ac3", "provider": "bird", "timeStamp": "03/13/2020, 06:29:02"}, "type": "Feature"}, {"geometry": {"coordinates": [8.536845, 47.373035], "type": "Point"}, "properties": {"charge": 62, "id": "bird_9fbf4558-ec39-4aef-827c-ac1c1d559fb1", "provider": "bird", "timeStamp": "03/13/2020, 06:29:02"}, "type": "Feature"}, {"geometry": {"coordinates": [8.53691333333333, 47.3730816666667], "type": "Point"}, "properties": {"charge": 69, "id": "bird_28354cbd-6276-49cf-be97-5626163b891c", "provider": "bird", "timeStamp": "03/13/2020, 06:29:02"}, "type": "Feature"}, {"geometry": {"coordinates": [8.54070666666667, 47.376075], "type": "Point"}, "properties": {"charge": 20, "id": "bird_be891ad7-17c0-4a05-b5cd-484f332d1d90", "provider": "bird", "timeStamp": "03/13/2020, 06:29:02"}, "type": "Feature"}, {"geometry": {"coordinates": [8.540705, 47.3761016666667], "type": "Point"}, "properties": {"charge": 19, "id": "bird_2a281720-876a-4dd0-8770-359b9478b12e", "provider": "bird", "timeStamp": "03/13/2020, 06:29:02"}, "type": "Feature"}, {"geometry": {"coordinates": [8.54071, 47.3761133333333], "type": "Point"}, "properties": {"charge": 19, "id": "bird_dc58998f-519c-42ef-8234-cc7e877e5ae6", "provider": "bird", "timeStamp": "03/13/2020, 06:29:02"}, "type": "Feature"}, {"geometry": {"coordinates": [8.52089, 47.385445], "type": "Point"}, "properties": {"charge": 58, "id": "bird_ce855ead-285a-4fa1-a692-bcf810a52b03", "provider": "bird", "timeStamp": "03/13/2020, 06:29:02"}, "type": "Feature"}, {"geometry": {"coordinates": [8.54070666666667, 47.3761183333333], "type": "Point"}, "properties": {"charge": 21, "id": "bird_393c61c7-74dd-441e-acb2-9a7da48615ae", "provider": "bird", "timeStamp": "03/13/2020, 06:29:02"}, "type": "Feature"}, {"geometry": {"coordinates": [8.54071833333333, 47.3761366666667], "type": "Point"}, "properties": {"charge": 20, "id": "bird_028e90b3-e4eb-4aaa-b674-aa64e186a0d2", "provider": "bird", "timeStamp": "03/13/2020, 06:29:02"}, "type": "Feature"}, {"geometry": {"coordinates": [8.53639833333333, 47.3730616666667], "type": "Point"}, "properties": {"charge": 55, "id": "bird_80cd843e-26b9-4f86-b20d-289ae6eb139a", "provider": "bird", "timeStamp": "03/13/2020, 06:29:02"}, "type": "Feature"}, {"geometry": {"coordinates": [8.54062833333333, 47.3761366666667], "type": "Point"}, "properties": {"charge": 19, "id": "bird_539a79f0-72c5-434e-b7fc-9328228745fe", "provider": "bird", "timeStamp": "03/13/2020, 06:29:02"}, "type": "Feature"}, {"geometry": {"coordinates": [8.54085, 47.3765], "type": "Point"},