{"features": [{"geometry": {"coordinates": [8.540062, 47.374392], "type": "Point"}, "properties": {"address": "Uraniastrasse 7", "electric": 7, "id": "pb_60", "manual": 6, "name": "Demo Station Werdm\u00fchleplatz", "provider": "publibike", "timeStamp": "02/07/2020, 11:39:38", "zip": 8001}, "type": "Feature"}, {"geometry": {"coordinates": [8.5452956, 47.4099615], "type": "Point"}, "properties": {"address": "Querstrasse 8", "electric": 0, "id": "pb_61", "manual": 2, "name": "Marktplatz", "provider": "publibike", "timeStamp": "02/07/2020, 11:39:38", "zip": 8050}, "type": "Feature"}, {"geometry": {"coordinates": [8.5156327, 47.3795837], "type": "Point"}, "properties": {"address": "Bullingerstrasse 5", "electric": 2, "id": "pb_80", "manual": 6, "name": "Bullingerplatz", "provider": "publibike", "timeStamp": "02/07/2020, 11:39:38", "zip": 8004}, "type": "Feature"}, {"geometry": {"coordinates": [8.5104051, 47.3899342], "type": "Point"}, "properties": {"address": "Pfingstweidstrasse 96e", "electric": 1, "id": "pb_81", "manual": 5, "name": "Herdern", "provider": "publibike", "timeStamp": "02/07/2020, 11:39:38", "zip": 8001}, "type": "Feature"}, {"geometry": {"coordinates": [8.535718, 47.359675], "type": "Point"}, "properties": {"address": "Mythenquai 50", "electric": 18, "id": "pb_82", "manual": 4, "name": "Hafen Enge", "provider": "publibike", "timeStamp": "02/07/2020, 11:39:38", "zip": 8002}, "type": "Feature"}, {"geometry": {"coordinates": [8.520370505, 47.358663827], "type": "Point"}, "properties": {"address": "Bubenbergstrasse 1", "electric": 4, "id": "pb_83", "manual": 3, "name": "Comerge", "provider": "publibike", "timeStamp": "02/07/2020, 11:39:38", "zip": 8045}, "type": "Feature"}, {"geometry": {"coordinates": [8.5412505, 47.3789825], "type": "Point"}, "properties": {"address": "Museumstrasse 2", "electric": 3, "id": "pb_84", "manual": 13, "name": "Landesmuseum", "provider": "publibike", "timeStamp": "02/07/2020, 11:39:38", "zip": 8001}, "type": "Feature"}, {"geometry": {"coordinates": [8.5235479, 47.3716661], "type": "Point"}, "properties": {"address": "Birmensdorferstrasse 80", "electric": 1, "id": "pb_85", "manual": 6, "name": "Bahnhof Wiedikon", "provider": "publibike", "timeStamp": "02/07/2020, 11:39:38", "zip": 8003}, "type": "Feature"}, {"geometry": {"coordinates": [8.506822854, 47.40781197], "type": "Point"}, "properties": {"address": "Stefano-Franscini-Platz 5", "electric": 19, "id": "pb_86", "manual": 0, "name": "ETH H\u00f6nggerberg", "provider": "publibike", "timeStamp": "02/07/2020, 11:39:38", "zip": 8093}, "type": "Feature"}, {"geometry": {"coordinates": [8.536101, 47.371083], "type": "Point"}, "properties": {"address": "Pelikanplatz 5", "electric": 2, "id": "pb_87", "manual": 14, "name": "Pelikanplatz", "provider": "publibike", "timeStamp": "02/07/2020, 11:39:38", "zip": 8001}, "type": "Feature"}, {"geometry": {"coordinates": [8.5257822, 47.3651936], "type": "Point"}, "properties": {"address": "H\u00fcrlimannplatz 90", "electric": 37, "id": "pb_88", "manual": 4, "name": "H\u00fcrlimannplatz", "provider": "publibike", "timeStamp": "02/07/2020, 11:39:38", "zip": 8002}, "type": "Feature"}, {"geometry": {"coordinates": [8.5313344, 47.3713591], "type": "Point"}, "properties": {"address": "Selnaustrasse 32", "electric": 2, "id": "pb_89", "manual": 9, "name": "Stauffacherbr\u00fccke", "provider": "publibike", "timeStamp": "02/07/2020, 11:39:38", "zip": 8001}, "type": "Feature"}, {"geometry": {"coordinates": [8.5056978, 47.3917964], "type": "Point"}, "properties": {"address": "Sportweg 25", "electric": 2, "id": "pb_90", "manual": 7, "name": "Sportweg", "provider": "publibike", "timeStamp": "02/07/2020, 11:39:38", "zip": 8005}, "type": "Feature"}, {"geometry": {"coordinates": [8.5181701, 47.3917837], "type": "Point"}, "properties": {"address": "Hardturmstrasse 11", "electric": 0, "id": "pb_91", "manual": 6, "name": "Puls 5", "provider": "publibike", "timeStamp": "02/07/2020, 11:39:38", "zip": 8005}, "type": "Feature"}, {"geometry": {"coordinates": [8.5286468, 47.3820827], "type": "Point"}, "properties": {"address": "R\u00f6ntgenstrasse 6", "electric": 0, "id": "pb_92", "manual": 3, "name": "R\u00f6ntgenstrasse", "provider": "publibike", "timeStamp": "02/07/2020, 11:39:38", "zip": 8005}, "type": "Feature"}, {"geometry": {"coordinates": [8.531935, 47.384918], "type": "Point"}, "properties": {"address": "Kornhausbr\u00fccke 1", "electric": 3, "id": "pb_93", "manual": 3, "name": "Limmatplatz", "provider": "publibike", "timeStamp": "02/07/2020, 11:39:38", "zip": 8005}, "type": "Feature"}, {"geometry": {"coordinates": [8.5354006, 47.3758639], "type": "Point"}, "properties": {"address": "Gessnerallee 15", "electric": 0, "id": "pb_94", "manual": 3, "name": "Gessnerallee", "provider": "publibike", "timeStamp": "02/07/2020, 11:39:38", "zip": 8001}, "type": "Feature"}, {"geometry": {"coordinates": [8.523818, 47.377148], "type": "Point"}, "properties": {"address": "Stauffacherstrasse 127", "electric": 0, "id": "pb_95", "manual": 5, "name": "B\u00e4ckeranlage", "provider": "publibike", "timeStamp": "02/07/2020, 11:39:38", "zip": 8004}, "type": "Feature"}, {"geometry": {"coordinates": [8.531836, 47.378548], "type": "Point"}, "properties": {"address": "Lagerstrasse 44", "electric": 6, "id": "pb_96", "manual": 6, "name": "Gustav-Gull-Platz", "provider": "publibike", "timeStamp": "02/07/2020, 11:39:38", "zip": 8004}, "type": "Feature"}, {"geometry": {"coordinates": [8.5104883, 47.3771535], "type": "Point"}, "properties": {"address": "Zurlindenstrasse 291", "electric": 1, "id": "pb_97", "manual": 3, "name": "Zurlindenstrasse", "provider": "publibike", "timeStamp": "02/07/2020, 11:39:38", "zip": 8003}, "type": "Feature"}, {"geometry": {"coordinates": [8.5333139, 47.3731102], "type": "Point"}, "properties": {"address": "Sihlstrasse 81", "electric": 0, "id": "pb_98", "manual": 1, "name": "Sihlstrasse", "provider": "publibike", "timeStamp": "02/07/2020, 11:39:38", "zip": 8001}, "type": "Feature"}, {"geometry": {"coordinates": [8.520532, 47.374951], "type": "Point"}, "properties": {"address": "Feldstrasse 24", "electric": 1, "id": "pb_99", "manual": 6, "name": "Kalkbreite", "provider": "publibike", "timeStamp": "02/07/2020, 11:39:38", "zip": 8004}, "type": "Feature"}, {"geometry": {"coordinates": [8.539046, 47.368064], "type": "Point"}, "properties": {"address": "Talstrasse 12", "electric": 5, "id": "pb_100", "manual": 4, "name": "Z\u00fcrcher Kantonalbank", "provider": "publibike", "timeStamp": "02/07/2020, 11:39:38", "zip": 8001}, "type": "Feature"}, {"geometry": {"coordinates": [8.5348427, 47.3625938], "type": "Point"}, "properties": {"address": "Breitingerstrasse 5", "electric": 3, "id": "pb_101", "manual": 3, "name": "Rentenanstalt", "provider": "publibike", "timeStamp": "02/07/2020, 11:39:38", "zip": 8002}, "type": "Feature"}, {"geometry": {"coordinates": [8.5166922, 47.3897772], "type": "Point"}, "properties": {"address": "Technoparkstrasse 4", "electric": 5, "id": "pb_102", "manual": 4, "name": "Turbinenplatz", "provider": "publibike", "timeStamp": "02/07/2020, 11:39:38", "zip": 8005}, "type": "Feature"}, {"geometry": {"coordinates": [8.539312, 47.3739964], "type": "Point"}, "properties": {"address": "Oetenbachgasse 14", "electric": 3, "id": "pb_104", "manual": 1, "name": "Rennweg", "provider": "publibike", "timeStamp": "02/07/2020, 11:39:38", "zip": 8001}, "type": "Feature"}, {"geometry": {"coordinates": [8.5360685, 47.3775022], "type": "Point"}, "properties": {"address": "Kasernenstrasse 101", "electric": 22, "id": "pb_105", "manual": 26, "name": "Sihlpost", "provider": "publibike", "timeStamp": "02/07/2020, 11:39:38", "zip": 8004}, "type": "Feature"}, {"geometry": {"coordinates": [8.53545, 47.382798], "type": "Point"}, "properties": {"address": "Ausstellungsstrasse 44", "electric": 7, "id": "pb_106", "manual": 9, "name": "Museum f\u00fcr Gestaltung", "provider": "publibike", "timeStamp": "02/07/2020, 11:39:38", "zip": 8005}, "type": "Feature"}, {"geometry": {"coordinates": [8.5306155, 47.3647902], "type": "Point"}, "properties": {"address": "Gutenbergstrasse 1", "electric": 2, "id": "pb_107", "manual": 1, "name": "Bederbr\u00fccke", "provider": "publibike", "timeStamp": "02/07/2020, 11:39:38", "zip": 8002}, "type": "Feature"}, {"geometry": {"coordinates": [8.518982, 47.386741], "type": "Point"}, "properties": {"address": "Geroldstrasse 4", "electric": 0, "id": "pb_108", "manual": 8, "name": "Bahnhof Hardbr\u00fccke", "provider": "publibike", "timeStamp": "02/07/2020, 11:39:38", "zip": 8005}, "type": "Feature"}, {"geometry": {"coordinates": [8.53001018, 47.37247535], "type": "Point"}, "properties": {"address": "Werdstrasse 21", "electric": 9, "id": "pb_109", "manual": 4, "name": "Tamedia", "provider": "publibike", "timeStamp": "02/07/2020, 11:39:38", "zip": 8004}, "type": "Feature"}, {"geometry": {"coordinates": [8.4860017, 47.396401], "type": "Point"}, "properties": {"address": "Gr\u00fcnauring 37", "electric": 3, "id": "pb_110", "manual": 5, "name": "Gr\u00fcnau", "provider": "publibike", "timeStamp": "02/07/2020, 11:39:38", "zip": 8064}, "type": "Feature"}, {"geometry": {"coordinates": [8.548519, 47.376756], "type": "Point"}, "properties": {"address": "R\u00e4mistrasse 101", "electric": 35, "id": "pb_111", "manual": 0, "name": "ETH Zentrum", "provider": "publibike", "timeStamp": "02/07/2020, 11:39:38", "zip": 8006}, "type": "Feature"}, {"geometry": {"coordinates": [8.520449, 47.388151], "type": "Point"}, "properties": {"address": "Josefstrasse 224", "electric": 3, "id": "pb_112", "manual": 2, "name": "Steinfelsareal", "provider": "publibike", "timeStamp": "02/07/2020, 11:39:38", "zip": 8005}, "type": "Feature"}, {"geometry": {"coordinates": [8.520482, 47.37209], "type": "Point"}, "properties": {"address": "Weststrasse 115", "electric": 0, "id": "pb_124", "manual": 2, "name": "Weststrasse", "provider": "publibike", "timeStamp": "02/07/2020, 11:39:38", "zip": 8003}, "type": "Feature"}, {"geometry": {"coordinates": [8.496727, 47.378521], "type": "Point"}, "properties": {"address": "Albisriederstrasse 200", "electric": 3, "id": "pb_125", "manual": 3, "name": "Utogrund", "provider": "publibike", "timeStamp": "02/07/2020, 11:39:38", "zip": 8047}, "type": "Feature"}, {"geometry": {"coordinates": [8.510418, 47.381356], "type": "Point"}, "properties": {"address": "Bullingerstrasse 73", "electric": 0, "id": "pb_126", "manual": 8, "name": "Hardau", "provider": "publibike", "timeStamp": "02/07/2020, 11:39:38", "zip": 8004}, "type": "Feature"}, {"geometry": {"coordinates": [8.525525, 47.361567], "type": "Point"}, "properties": {"address": "Klopstockstrasse 23", "electric": 1, "id": "pb_127", "manual": 1, "name": "Klopstockwiese", "provider": "publibike", "timeStamp": "02/07/2020, 11:39:38", "zip": 8002}, "type": "Feature"}, {"geometry": {"coordinates": [8.518143, 47.363148], "type": "Point"}, "properties": {"address": "Haldenstrasse 8", "electric": 0, "id": "pb_128", "manual": 6, "name": "Binz", "provider": "publibike", "timeStamp": "02/07/2020, 11:39:38", "zip": 8045}, "type": "Feature"}, {"geometry": {"coordinates": [8.542726, 47.379952], "type": "Point"}, "properties": {"address": "Walchestrasse 11", "electric": 1, "id": "pb_129", "manual": 2, "name": "Stampfenbachplatz", "provider": "publibike", "timeStamp": "02/07/2020, 11:39:38", "zip": 8006}, "type": "Feature"}, {"geometry": {"coordinates": [8.488108, 47.391366], "type": "Point"}, "properties": {"address": "Altstetterplatz 1", "electric": 4, "id": "pb_130", "manual": 3, "name": "Bahnhof Altstetten", "provider": "publibike", "timeStamp": "02/07/2020, 11:39:38", "zip": 8048}, "type": "Feature"}, {"geometry": {"coordinates": [8.554114, 47.365119], "type": "Point"}, "properties": {"address": "Kreuzplatz 2", "electric": 2, "id": "pb_131", "manual": 2, "name": "Kreuzplatz", "provider": "publibike", "timeStamp": "02/07/2020, 11:39:38", "zip": 8032}, "type": "Feature"}, {"geometry": {"coordinates": [8.549852, 47.35594], "type": "Point"}, "properties": {"address": "H\u00f6schgasse 3", "electric": 5, "id": "pb_132", "manual": 9, "name": "Blatterwiese", "provider": "publibike", "timeStamp": "02/07/2020, 11:39:38", "zip": 8008}, "type": "Feature"}, {"geometry": {"coordinates": [8.554501, 47.36162], "type": "Point"}, "properties": {"address": "Feldeggstrasse 80", "electric": 2, "id": "pb_133", "manual": 4, "name": "Villa Bleuler", "provider": "publibike", "timeStamp": "02/07/2020, 11:39:38", "zip": 8008}, "type": "Feature"}, {"geometry": {"coordinates": [8.557088, 47.358557], "type": "Point"}, "properties": {"address": "M\u00fchlebachstrasse 131", "electric": 2, "id": "pb_134", "manual": 2, "name": "M\u00fchlebachstrasse", "provider": "publibike", "timeStamp": "02/07/2020, 11:39:38", "zip": 8008}, "type": "Feature"}, {"geometry": {"coordinates": [8.547639, 47.361266], "type": "Point"}, "properties": {"address": "Utoquai 50", "electric": 6, "id": "pb_135", "manual": 11, "name": "Seebad Utoquai", "provider": "publibike", "timeStamp": "02/07/2020, 11:39:38", "zip": 8008}, "type": "Feature"}, {"geometry": {"coordinates": [8.548045, 47.370869], "type": "Point"}, "properties": {"address": "Heimplatz 1", "electric": 11, "id": "pb_137", "manual": 3, "name": "Kunsthaus", "provider": "publibike", "timeStamp": "02/07/2020, 11:39:38", "zip": 8001}, "type": "Feature"}, {"geometry": {"coordinates": [8.543447, 47.375933], "type": "Point"}, "properties": {"address": "Limmatquai 138", "electric": 4, "id": "pb_138", "manual": 2, "name": "Central", "provider": "publibike", "timeStamp": "02/07/2020, 11:39:38", "zip": 8001}, "type": "Feature"}, {"geometry": {"coordinates": [8.549356, 47.408827], "type": "Point"}, "properties": {"address": "Tramstrasse 35", "electric": 7, "id": "pb_139", "manual": 3, "name": "ewz Tramstrasse", "provider": "publibike", "timeStamp": "02/07/2020, 11:39:38", "zip": 8050}, "type": "Feature"}, {"geometry": {"coordinates": [8.533736, 47.366904], "type": "Point"}, "properties": {"address": "Bleicherweg 33", "electric": 2, "id": "pb_140", "manual": 4, "name": "Bleicherweg", "provider": "publibike", "timeStamp": "02/07/2020, 11:39:38", "zip": 8002}, "type": "Feature"}, {"geometry": {"coordinates": [8.544935, 47.366752], "type": "Point"}, "properties": {"address": "Bellevueplatz 2", "electric": 22, "id": "pb_141", "manual": 12, "name": "Bellevue", "provider": "publibike", "timeStamp": "02/07/2020, 11:39:38", "zip": 8001}, "type": "Feature"}, {"geometry": {"coordinates": [8.5285533, 47.3742296], "type": "Point"}, "properties": {"address": "Stauffacherstrasse 41", "electric": 3, "id": "pb_142", "manual": 2, "name": "Stauffacher", "provider": "publibike", "timeStamp": "02/07/2020, 11:39:38", "zip": 8004}, "type": "Feature"}, {"geometry": {"coordinates": [8.523722, 47.3899], "type": "Point"}, "properties": {"address": "Limmatstrasse 310", "electric": 0, "id": "pb_143", "manual": 3, "name": "Escher-Wyss-Platz", "provider": "publibike", "timeStamp": "02/07/2020, 11:39:38", "zip": 8005}, "type": "Feature"}, {"geometry": {"coordinates": [8.491061, 47.392336], "type": "Point"}, "properties": {"address": "Vulkanplatz 1", "electric": 4, "id": "pb_149", "manual": 8, "name": "Vulkanplatz", "provider": "publibike", "timeStamp": "02/07/2020, 11:39:38", "zip": 8048}, "type": "Feature"}, {"geometry": {"coordinates": [8.52306, 47.359872], "type": "Point"}, "properties": {"address": "Giessh\u00fcbelstrasse 15", "electric": 10, "id": "pb_150", "manual": 5, "name": "Utoplatz", "provider": "publibike", "timeStamp": "02/07/2020, 11:39:38", "zip": 8045}, "type": "Feature"}, {"geometry": {"coordinates": [8.486284, 47.387685], "type": "Point"}, "properties": {"address": "Lindenplatz 1", "electric": 5, "id": "pb_151", "manual": 10, "name": "Lindenplatz", "provider": "publibike", "timeStamp": "02/07/2020, 11:39:38", "zip": 8048}, "type": "Feature"}, {"geometry": {"coordinates": [8.49163, 47.389823], "type": "Point"}, "properties": {"address": "Hohlstrasse 563", "electric": 0, "id": "pb_152", "manual": 4, "name": "Luggweg", "provider": "publibike", "timeStamp": "02/07/2020, 11:39:38", "zip": 8048}, "type": "Feature"}, {"geometry": {"coordinates": [8.52174, 47.365272], "type": "Point"}, "properties": {"address": "Manessestrasse 87", "electric": 0, "id": "pb_153", "manual": 0, "name": "Manesseplatz", "provider": "publibike", "timeStamp": "02/07/2020, 11:39:38", "zip": 8045}, "type": "Feature"}, {"geometry": {"coordinates": [8.52714, 47.372329], "type": "Point"}, "properties": {"address": "Werdstrasse 75", "electric": 0, "id": "pb_154", "manual": 2, "name": "Werd", "provider": "publibike", "timeStamp": "02/07/2020, 11:39:38", "zip": 8004}, "type": "Feature"}, {"geometry": {"coordinates": [8.543042, 47.374711], "type": "Point"}, "properties": {"address": "Limmatquai 100", "electric": 0, "id": "pb_155", "manual": 0, "name": "Rudolf-Brun-Br\u00fccke", "provider": "publibike", "timeStamp": "02/07/2020, 11:39:38", "zip": 8001}, "type": "Feature"}, {"geometry": {"coordinates": [8.490837, 47.386596], "type": "Point"}, "properties": {"address": "Badenerstrasse 627", "electric": 10, "id": "pb_156", "manual": 9, "name": "Luggwegstrasse VBZ", "provider": "publibike", "timeStamp": "02/07/2020, 11:39:38", "zip": 8048}, "type": "Feature"}, {"geometry": {"coordinates": [8.535119, 47.355189], "type": "Point"}, "properties": {"address": "Mythenquai 95", "electric": 2, "id": "pb_157", "manual": 7, "name": "Strandbad Mythenquai", "provider": "publibike", "timeStamp": "02/07/2020, 11:39:38", "zip": 8002}, "type": "Feature"}, {"geometry": {"coordinates": [8.545505, 47.373675], "type": "Point"}, "properties": {"address": "Predigerpatz 21", "electric": 2, "id": "pb_158", "manual": 1, "name": "Predigerplatz", "provider": "publibike", "timeStamp": "02/07/2020, 11:39:38", "zip": 8001}, "type": "Feature"}, {"geometry": {"coordinates": [8.515558, 47.371868], "type": "Point"}, "properties": {"address": "Aemtlerstrasse 23", "electric": 2, "id": "pb_159", "manual": 0, "name": "Zwinglihaus", "provider": "publibike", "timeStamp": "02/07/2020, 11:39:38", "zip": 8003}, "type": "Feature"}, {"geometry": {"coordinates": [8.524629, 47.386072], "type": "Point"}, "properties": {"address": "Josefstrasse 188", "electric": 1, "id": "pb_160", "manual": 1, "name": "Josefwiese", "provider": "publibike", "timeStamp": "02/07/2020, 11:39:38", "zip": 8005}, "type": "Feature"}, {"geometry": {"coordinates": [8.527138, 47.387531], "type": "Point"}, "properties": {"address": "R\u00f6ntgenstrasse 87", "electric": 3, "id": "pb_164", "manual": 16, "name": "Markthalle", "provider": "publibike", "timeStamp": "02/07/2020, 11:39:38", "zip": 8005}, "type": "Feature"}, {"geometry": {"coordinates": [8.552717, 47.359978], "type": "Point"}, "properties": {"address": "Seefeldstrasse 96", "electric": 2, "id": "pb_263", "manual": 8, "name": "Feldeggstrasse", "provider": "publibike", "timeStamp": "02/07/2020, 11:39:38", "zip": 8008}, "type": "Feature"}, {"geometry": {"coordinates": [8.553189, 47.353198], "type": "Point"}, "properties": {"address": "Bellerivestrasse 170", "electric": 7, "id": "pb_264", "manual": 1, "name": "Lake Side", "provider": "publibike", "timeStamp": "02/07/2020, 11:39:38", "zip": 8008}, "type": "Feature"}, {"geometry": {"coordinates": [8.543437, 47.369256], "type": "Point"}, "properties": {"address": "Limmatquai 18", "electric": 0, "id": "pb_265", "manual": 0, "name": "Helmhaus", "provider": "publibike", "timeStamp": "02/07/2020, 11:39:38", "zip": 8032}, "type": "Feature"}, {"geometry": {"coordinates": [8.516676, 47.375819], "type": "Point"}, "properties": {"address": "Badenerstrasse 246", "electric": 0, "id": "pb_266", "manual": 0, "name": "Lochergut", "provider": "publibike", "timeStamp": "02/07/2020, 11:39:38", "zip": 8004}, "type": "Feature"}, {"geometry": {"coordinates": [8.514605, 47.389862], "type": "Point"}, "properties": {"address": "Pfingstweidstrasse 60", "electric": 6, "id": "pb_273", "manual": 4, "name": "Westpark", "provider": "publibike", "timeStamp": "02/07/2020, 11:39:38", "zip": 8005}, "type": "Feature"}, {"geometry": {"coordinates": [8.541239126, 47.375991201], "type": "Point"}, "properties": {"address": "Beatenplatz 1", "electric": 1, "id": "pb_274", "manual": 10, "name": "Beatenplatz", "provider": "publibike", "timeStamp": "02/07/2020, 11:39:38", "zip": 8001}, "type": "Feature"}, {"geometry": {"coordinates": [8.5417135, 47.3942197], "type": "Point"}, "properties": {"address": "Scheuchzerstrasse 181", "electric": 2, "id": "pb_275", "manual": 0, "name": "Pauluskirche", "provider": "publibike", "timeStamp": "02/07/2020, 11:39:38", "zip": 8057}, "type": "Feature"}, {"geometry": {"coordinates": [8.5528182, 47.414558], "type": "Point"}, "properties": {"address": "Hagenholzstrasse 51", "electric": 1, "id": "pb_276", "manual": 4, "name": "Airgate", "provider": "publibike", "timeStamp": "02/07/2020, 11:39:38", "zip": 8050}, "type": "Feature"}, {"geometry": {"coordinates": [8.537816, 47.413514], "type": "Point"}, "properties": {"address": "Birchstrasse 183", "electric": 6, "id": "pb_277", "manual": 2, "name": "Lamprechtweg", "provider": "publibike", "timeStamp": "02/07/2020, 11:39:38", "zip": 8050}, "type": "Feature"}, {"geometry": {"coordinates": [8.545602, 47.417701], "type": "Point"}, "properties": {"address": "Felsenrainstrasse 2", "electric": 2, "id": "pb_278", "manual": 4, "name": "Emil-Oberh\u00e4nsli", "provider": "publibike", "timeStamp": "02/07/2020, 11:39:38", "zip": 8050}, "type": "Feature"}, {"geometry": {"coordinates": [8.533647, 47.39808], "type": "Point"}, "properties": {"address": "Bucheggplatz 2", "electric": 3, "id": "pb_279", "manual": 4, "name": "Bucheggplatz", "provider": "publibike", "timeStamp": "02/07/2020, 11:39:38", "zip": 8057}, "type": "Feature"}, {"geometry": {"coordinates": [8.523549, 47.392347], "type": "Point"}, "properties": {"address": "Wipkingerplatz 4", "electric": 0, "id": "pb_280", "manual": 5, "name": "Wipkingerplatz", "provider": "publibike", "timeStamp": "02/07/2020, 11:39:38", "zip": 8037}, "type": "Feature"}, {"geometry": {"coordinates": [8.548562, 47.36691], "type": "Point"}, "properties": {"address": "Galerie \u00fcber Gleis 2/3", "electric": 9, "id": "pb_285", "manual": 2, "name": "Bahnhof Stadelhofen", "provider": "publibike", "timeStamp": "02/07/2020, 11:39:38", "zip": 8001}, "type": "Feature"}, {"geometry": {"coordinates": [8.493822, 47.3985553], "type": "Point"}, "properties": {"address": "Meierwiesenstrasse 12-4", "electric": 5, "id": "pb_286", "manual": 1, "name": "T\u00fcffenwies", "provider": "publibike", "timeStamp": "02/07/2020, 11:39:38", "zip": 8064}, "type": "Feature"}, {"geometry": {"coordinates": [8.552432, 47.3801757], "type": "Point"}, "properties": {"address": "Hochstrasse 34", "electric": 1, "id": "pb_356", "manual": 0, "name": "Siriuswiese", "provider": "publibike", "timeStamp": "02/07/2020, 11:39:38", "zip": 8044}, "type": "Feature"}, {"geometry": {"coordinates": [8.527298, 47.370141], "type": "Point"}, "properties": {"address": "Hallwylstrasse 71", "electric": 0, "id": "pb_357", "manual": 1, "name": "Hallwylstrasse", "provider": "publibike", "timeStamp": "02/07/2020, 11:39:38", "zip": 8004}, "type": "Feature"}, {"geometry": {"coordinates": [8.5414185, 47.3972455], "type": "Point"}, "properties": {"address": "Schaffhauserstrasse 137", "electric": 3, "id": "pb_358", "manual": 6, "name": "Milchbuck", "provider": "publibike", "timeStamp": "02/07/2020, 11:39:38", "zip": 8057}, "type": "Feature"}, {"geometry": {"coordinates": [8.512381, 47.393409], "type": "Point"}, "properties": {"address": "Hardturmstrasse 161", "electric": 1, "id": "pb_359", "manual": 2, "name": "Fischerweg", "provider": "publibike", "timeStamp": "02/07/2020, 11:39:38", "zip": 8005}, "type": "Feature"}, {"geometry": {"coordinates": [8.5421457, 47.3876979], "type": "Point"}, "properties": {"address": "Turnerstrasse 47", "electric": 1, "id": "pb_360", "manual": 2, "name": "Kirche Unterstrass", "provider": "publibike", "timeStamp": "02/07/2020, 11:39:38", "zip": 8006}, "type": "Feature"}, {"geometry": {"coordinates": [8.522117, 47.394554], "type": "Point"}, "properties": {"address": "Dorfstrasse 40", "electric": 9, "id": "pb_361", "manual": 1, "name": "Dorfstrasse", "provider": "publibike", "timeStamp": "02/07/2020, 11:39:38", "zip": 8037}, "type": "Feature"}, {"geometry": {"coordinates": [8.530437, 47.37271], "type": "Point"}, "properties": {"address": "Werdstrasse 25", "electric": 7, "id": "pb_362", "manual": 6, "name": "Stauffachertor", "provider": "publibike", "timeStamp": "02/07/2020, 11:39:38", "zip": 8004}, "type": "Feature"}, {"geometry": {"coordinates": [8.541712, 47.416155], "type": "Point"}, "properties": {"address": "Eggb\u00fchlstrasse 21", "electric": 7, "id": "pb_363", "manual": 2, "name": "Wahlenpark", "provider": "publibike", "timeStamp": "02/07/2020, 11:39:38", "zip": 8050}, "type": "Feature"}, {"geometry": {"coordinates": [8.5595335, 47.3708387], "type": "Point"}, "properties": {"address": "Dolderstrasse 32", "electric": 3, "id": "pb_364", "manual": 6, "name": "Kinderspital", "provider": "publibike", "timeStamp": "02/07/2020, 11:39:38", "zip": 8032}, "type": "Feature"}, {"geometry": {"coordinates": [8.536433, 47.388689], "type": "Point"}, "properties": {"address": "Kornhausstrasse 30", "electric": 2, "id": "pb_365", "manual": 1, "name": "Kornhausstrasse", "provider": "publibike", "timeStamp": "02/07/2020, 11:39:38", "zip": 8006}, "type": "Feature"}, {"geometry": {"coordinates": [8.55033, 47.407098], "type": "Point"}, "properties": {"address": "Schwamendingenstrasse 41", "electric": 4, "id": "pb_366", "manual": 9, "name": "Dorflinde", "provider": "publibike", "timeStamp": "02/07/2020, 11:39:38", "zip": 8050}, "type": "Feature"}, {"geometry": {"coordinates": [8.560476, 47.368199], "type": "Point"}, "properties": {"address": "R\u00f6merhofplatz 5", "electric": 6, "id": "pb_367", "manual": 0, "name": "R\u00f6merhof", "provider": "publibike", "timeStamp": "02/07/2020, 11:39:38", "zip": 8032}, "type": "Feature"}, {"geometry": {"coordinates": [8.5609218, 47.3619068], "type": "Point"}, "properties": {"address": "Forchstrasse 99", "electric": 8, "id": "pb_368", "manual": 0, "name": "Hegibachplatz", "provider": "publibike", "timeStamp": "02/07/2020, 11:39:38", "zip": 8032}, "type": "Feature"}, {"geometry": {"coordinates": [8.5721264, 47.4039985], "type": "Point"}, "properties": {"address": "Winterthurerstrasse 519", "electric": 7, "id": "pb_370", "manual": 3, "name": "Schwamendingerplatz", "provider": "publibike", "timeStamp": "02/07/2020, 11:39:38", "zip": 8051}, "type": "Feature"}, {"geometry": {"coordinates": [8.520168, 47.378556], "type": "Point"}, "properties": {"address": "Herman-Greulich-Strasse 56", "electric": 6, "id": "pb_384", "manual": 9, "name": "Hermann-Greulich-Weg", "provider": "publibike", "timeStamp": "02/07/2020, 11:39:38", "zip": 8004}, "type": "Feature"}, {"geometry": {"coordinates": [8.547912, 47.384923], "type": "Point"}, "properties": {"address": "Culmannstrasse", "electric": 0, "id": "pb_386", "manual": 2, "name": "Rigiplatz", "provider": "publibike", "timeStamp": "02/07/2020, 11:39:38", "zip": 8006}, "type": "Feature"}, {"geometry": {"coordinates": [8.543768, 47.411057], "type": "Point"}, "properties": {"address": "Hofwiesenstrasse 369", "electric": 1, "id": "pb_387", "manual": 3, "name": "Bahnhof Oerlikon S\u00fcd", "provider": "publibike", "timeStamp": "02/07/2020, 11:39:38", "zip": 8050}, "type": "Feature"}, {"geometry": {"coordinates": [8.544185, 47.412732], "type": "Point"}, "properties": {"address": "Jungholzstrasse 6", "electric": 4, "id": "pb_388", "manual": 1, "name": "Max-Frisch-Platz", "provider": "publibike", "timeStamp": "02/07/2020, 11:39:38", "zip": 8050}, "type": "Feature"}, {"geometry": {"coordinates": [8.558096, 47.413032], "type": "Point"}, "properties": {"address": "Andreasstrasse", "electric": 0, "id": "pb_389", "manual": 6, "name": "Hunziker-Areal", "provider": "publibike", "timeStamp": "02/07/2020, 11:39:38", "zip": 8050}, "type": "Feature"}, {"geometry": {"coordinates": [8.533265, 47.412873], "type": "Point"}, "properties": {"address": "Regina-K\u00e4gi-Strasse 1", "electric": 7, "id": "pb_390", "manual": 6, "name": "Luis-H\u00e4fliger-Park", "provider": "publibike", "timeStamp": "02/07/2020, 11:39:38", "zip": 8050}, "type": "Feature"}, {"geometry": {"coordinates": [8.499265, 47.401852], "type": "Point"}, "properties": {"address": "Limmattalstrasse 177", "electric": 3, "id": "pb_391", "manual": 1, "name": "Meierhofplatz", "provider": "publibike", "timeStamp": "02/07/2020, 11:39:38", "zip": 8049}, "type": "Feature"}, {"geometry": {"coordinates": [8.528356, 47.393255], "type": "Point"}, "properties": {"address": "R\u00f6schibachstrasse 73", "electric": 4, "id": "pb_392", "manual": 9, "name": "R\u00f6schibachplatz", "provider": "publibike", "timeStamp": "02/07/2020, 11:39:38", "zip": 8037}, "type": "Feature"}, {"geometry": {"coordinates": [8.538067, 47.415721], "type": "Point"}, "properties": {"address": "Birchstrasse 191", "electric": 5, "id": "pb_393", "manual": 2, "name": "Oerliker Park", "provider": "publibike", "timeStamp": "02/07/2020, 11:39:38", "zip": 8050}, "type": "Feature"}, {"geometry": {"coordinates": [8.5420304, 47.3669233], "type": "Point"}, "properties": {"address": "Stadthausquai 1", "electric": 2, "id": "pb_395", "manual": 7, "name": "B\u00fcrkliplatz", "provider": "publibike", "timeStamp": "02/07/2020, 11:39:38", "zip": 8001}, "type": "Feature"}, {"geometry": {"coordinates": [8.535767, 47.409881], "type": "Point"}, "properties": {"address": "Regensbergstrasse 195", "electric": 2, "id": "pb_396", "manual": 2, "name": "Holunderhof", "provider": "publibike", "timeStamp": "02/07/2020, 11:39:38", "zip": 8050}, "type": "Feature"}, {"geometry": {"coordinates": [8.5116245, 47.3616199], "type": "Point"}, "properties": {"address": "Grubenstrasse 42", "electric": 4, "id": "pb_431", "manual": 1, "name": "Binz Center", "provider": "publibike", "timeStamp": "02/07/2020, 11:39:38", "zip": 8045}, "type": "Feature"}, {"geometry": {"coordinates": [8.547195, 47.382089], "type": "Point"}, "properties": {"address": "Nelkenstrasse 24", "electric": 3, "id": "pb_430", "manual": 0, "name": "Stapferstube", "provider": "publibike", "timeStamp": "02/07/2020, 11:39:38", "zip": 8006}, "type": "Feature"}, {"geometry": {"coordinates": [8.5787183, 47.4039845], "type": "Point"}, "properties": {"address": "Kronwiesenstrasse 35", "electric": 1, "id": "pb_426", "manual": 4, "name": "Kronwiesen", "provider": "publibike", "timeStamp": "02/07/2020, 11:39:38", "zip": 8051}, "type": "Feature"}, {"geometry": {"coordinates": [8.508131, 47.420757], "type": "Point"}, "properties": {"address": "Riedenhaldenstrasse 20-18", "electric": 7, "id": "pb_425", "manual": 1, "name": "Bahnhof Affoltern", "provider": "publibike", "timeStamp": "02/07/2020, 11:39:38", "zip": 8046}, "type": "Feature"}, {"geometry": {"coordinates": [8.532464, 47.406988], "type": "Point"}, "properties": {"address": "K\u00fcnzlistrasse 41", "electric": 2, "id": "pb_424", "manual": 0, "name": "Birchd\u00f6rfli", "provider": "publibike", "timeStamp": "02/07/2020, 11:39:38", "zip": 8057}, "type": "Feature"}, {"geometry": {"coordinates": [8.5777038, 47.4080095], "type": "Point"}, "properties": {"address": "Luegislandstrasse 412", "electric": 6, "id": "pb_429", "manual": 3, "name": "Luegisland", "provider": "publibike", "timeStamp": "02/07/2020, 11:39:38", "zip": 8051}, "type": "Feature"}, {"geometry": {"coordinates": [8.58841, 47.40158], "type": "Point"}, "properties": {"address": "Hirzenbachstrasse 2-4", "electric": 6, "id": "pb_428", "manual": 2, "name": "Hirzenbachstrasse", "provider": "publibike", "timeStamp": "02/07/2020, 11:39:38", "zip": 8051}, "type": "Feature"}, {"geometry": {"coordinates": [8.5563463, 47.4095467], "type": "Point"}, "properties": {"address": "K\u00fchriedweg", "electric": 4, "id": "pb_445", "manual": 4, "name": "Hallenbad Oerlikon", "provider": "publibike", "timeStamp": "02/07/2020, 11:39:38", "zip": 8050}, "type": "Feature"}, {"geometry": {"coordinates": [8.537971, 47.364871], "type": "Point"}, "properties": {"address": "General-Guisan-Quai 17", "electric": 3, "id": "pb_454", "manual": 3, "name": "General-Guisan-Quai", "provider": "publibike", "timeStamp": "02/07/2020, 11:39:38", "zip": 8002}, "type": "Feature"}, {"geometry": {"coordinates": [8.560587, 47.350578], "type": "Point"}, "properties": {"address": "Bellerivestrasse 245", "electric": 9, "id": "pb_450", "manual": 6, "name": "Bahnhof Tiefenbrunnen", "provider": "publibike", "timeStamp": "02/07/2020, 11:39:38", "zip": 8008}, "type": "Feature"}, {"geometry": {"coordinates": [8.5269416, 47.3563719], "type": "Point"}, "properties": {"address": "Waffenplatzstrasse 89", "electric": 1, "id": "pb_452", "manual": 3, "name": "Rieterplatz", "provider": "publibike", "timeStamp": "02/07/2020, 11:39:38", "zip": 8002}, "type": "Feature"}, {"geometry": {"coordinates": [8.514176, 47.3663708], "type": "Point"}, "properties": {"address": "Talwiesenstrasse 92", "electric": 2, "id": "pb_446", "manual": 4, "name": "Binzallee", "provider": "publibike", "timeStamp": "02/07/2020, 11:39:38", "zip": 8055}, "type": "Feature"}, {"geometry": {"coordinates": [8.5070564, 47.371455], "type": "Point"}, "properties": {"address": "Gutstrasse 87", "electric": 4, "id": "pb_447", "manual": 1, "name": "Gutstrasse", "provider": "publibike", "timeStamp": "02/07/2020, 11:39:38", "zip": 8055}, "type": "Feature"}, {"geometry": {"coordinates": [8.4941268, 47.3836391], "type": "Point"}, "properties": {"address": "Flurstrasse 62", "electric": 6, "id": "pb_453", "manual": 5, "name": "Flurpark", "provider": "publibike", "timeStamp": "02/07/2020, 11:39:38", "zip": 8048}, "type": "Feature"}, {"geometry": {"coordinates": [8.500343, 47.380778], "type": "Point"}, "properties": {"address": "Edelweissstrasse 32", "electric": 6, "id": "pb_448", "manual": 0, "name": "Bl\u00fcemliquartier", "provider": "publibike", "timeStamp": "02/07/2020, 11:39:38", "zip": 8048}, "type": "Feature"}, {"geometry": {"coordinates": [8.528796, 47.383858], "type": "Point"}, "properties": {"address": "Gasometerstrasse 24", "electric": 0, "id": "pb_449", "manual": 7, "name": "Gasometerstrasse", "provider": "publibike", "timeStamp": "02/07/2020, 11:39:38", "zip": 8005}, "type": "Feature"}, {"geometry": {"coordinates": [8.4981964, 47.3859194], "type": "Point"}, "properties": {"address": "Baslerstrasse 57", "electric": 11, "id": "pb_455", "manual": 6, "name": "Letzipark", "provider": "publibike", "timeStamp": "02/07/2020, 11:39:38", "zip": 8048}, "type": "Feature"}, {"geometry": {"coordinates": [8.515252, 47.381915], "type": "Point"}, "properties": {"address": "Sihlfeldstrasse 175", "electric": 2, "id": "pb_451", "manual": 3, "name": "Hardplatz", "provider": "publibike", "timeStamp": "02/07/2020, 11:39:38", "zip": 8004}, "type": "Feature"}, {"geometry": {"coordinates": [8.5064743, 47.4188324], "type": "Point"}, "properties": {"address": "Wehntalerstrasse 541", "electric": 1, "id": "pb_427", "manual": 5, "name": "Zehntenhausplatz", "provider": "publibike", "timeStamp": "02/07/2020, 11:39:38", "zip": 8046}, "type": "Feature"}, {"geometry": {"coordinates": [8.537729, 47.379719], "type": "Point"}, "properties": {"address": "Sihlquai/HB", "electric": 4, "id": "pb_513", "manual": 8, "name": "Sihlquai", "provider": "publibike", "timeStamp": "02/07/2020, 11:39:38", "zip": 8005}, "type": "Feature"}, {"geometry": {"coordinates": [8.596202, 47.397885], "type": "Point"}, "properties": {"address": "Bahnhof Stettbach", "electric": 2, "id": "pb_514", "manual": 3, "name": "Bahnhof Stettbach", "provider": "publibike", "timeStamp": "02/07/2020, 11:39:38", "zip": 8051}, "type": "Feature"}, {"geometry": {"coordinates": [8.5543974, 47.3690153], "type": "Point"}, "properties": {"address": "Kasinostrasse 10", "electric": 12, "id": "pb_515", "manual": 3, "name": "Hottingerplatz", "provider": "publibike", "timeStamp": "02/07/2020, 11:39:38", "zip": 8032}, "type": "Feature"}, {"geometry": {"coordinates": [8.534444, 47.351525], "type": "Point"}, "properties": {"address": "Mobile Station Z\u00fcrich 1", "electric": 0, "id": "pb_282", "manual": 0, "name": "Theaterspektakel", "provider": "publibike", "timeStamp": "02/07/2020, 11:39:38", "zip": 8002}, "type": "Feature"}, {"geometry": {"coordinates": [8.516257, 47.367656], "type": "Point"}, "properties": {"address": "Goldbrunnenstrasse 54", "electric": 3, "id": "pb_538", "manual": 1, "name": "Kirche B\u00fchl", "provider": "publibike", "timeStamp": "02/07/2020, 11:39:38", "zip": 8055}, "type": "Feature"}, {"geometry": {"coordinates": [8.555639, 47.416873], "type": "Point"}, "properties": {"address": "Leutschenbachstrasse 50", "electric": 1, "id": "pb_537", "manual": 4, "name": "Leutschenpark", "provider": "publibike", "timeStamp": "02/07/2020, 11:39:38", "zip": 8050}, "type": "Feature"}, {"geometry": {"coordinates": [8.546464, 47.403822], "type": "Point"}, "properties": {"address": "Berninastrasse 45", "electric": 9, "id": "pb_540", "manual": 0, "name": "Berninaplatz", "provider": "publibike", "timeStamp": "02/07/2020, 11:39:38", "zip": 8057}, "type": "Feature"}, {"geometry": {"coordinates": [8.523134, 47.369004], "type": "Point"}, "properties": {"address": "Erlachstrasse 3", "electric": 0, "id": "pb_385", "manual": 0, "name": "Aegerten", "provider": "publibike", "timeStamp": "02/07/2020, 11:39:38", "zip": 8003}, "type": "Feature"}, {"geometry": {"coordinates": [8.49038, 47.381591], "type": "Point"}, "properties": {"address": "Rautistrasse 60", "electric": 2, "id": "pb_536", "manual": 8, "name": "Freilager", "provider": "publibike", "timeStamp": "02/07/2020, 11:39:38", "zip": 8048}, "type": "Feature"}, {"geometry": {"coordinates": [8.496511, 47.375247], "type": "Point"}, "properties": {"address": "Letzigraben 139", "electric": 3, "id": "pb_444", "manual": 0, "name": "Sackzelg", "provider": "publibike", "timeStamp": "02/07/2020, 11:39:38", "zip": 8047}, "type": "Feature"}, {"geometry": {"coordinates": [8.58131, 47.402801], "type": "Point"}, "properties": {"address": "Altwiesenstrasse 104", "electric": 0, "id": "pb_539", "manual": 3, "name": "Glattwiesen", "provider": "publibike", "timeStamp": "02/07/2020, 11:39:38", "zip": 8051}, "type": "Feature"}, {"geometry": {"coordinates": [8.52689, 47.3767], "type": "Point"}, "properties": {"address": "Molkenstrasse 5", "electric": 0, "id": "pb_560", "manual": 15, "name": "Helvetiaplatz", "provider": "publibike", "timeStamp": "02/07/2020, 11:39:38", "zip": 8004}, "type": "Feature"}, {"geometry": {"coordinates": [8.525602, 47.374241], "type": "Point"}, "properties": {"address": "Badenerstrasse 90", "electric": 2, "id": "pb_559", "manual": 1, "name": "Bezirksgeb\u00e4ude", "provider": "publibike", "timeStamp": "02/07/2020, 11:39:38", "zip": 8004}, "type": "Feature"}, {"geometry": {"coordinates": [8.535082, 47.345248], "type": "Point"}, "properties": {"address": "Bachstrasse 15", "electric": 6, "id": "pb_564", "manual": 3, "name": "GZ Wollishofen", "provider": "publibike", "timeStamp": "02/07/2020, 11:39:38", "zip": 8038}, "type": "Feature"}, {"geometry": {"coordinates": [8.514841, 47.370238], "type": "Point"}, "properties": {"address": "Schrennengasse 37", "electric": 2, "id": "pb_562", "manual": 3, "name": "Goldbrunnenplatz", "provider": "publibike", "timeStamp": "02/07/2020, 11:39:38", "zip": 8003}, "type": "Feature"}, {"geometry": {"coordinates": [8.514138, 47.374206], "type": "Point"}, "properties": {"address": "Idaplatz 4", "electric": 0, "id": "pb_557", "manual": 3, "name": "Idaplatz", "provider": "publibike", "timeStamp": "02/07/2020, 11:39:38", "zip": 8003}, "type": "Feature"}, {"geometry": {"coordinates": [8.518432, 47.369549], "type": "Point"}, "properties": {"address": "Brinerstrasse 2", "electric": 1, "id": "pb_558", "manual": 8, "name": "Schmiede Wiedikon", "provider": "publibike", "timeStamp": "02/07/2020, 11:39:38", "zip": 8003}, "type": "Feature"}, {"geometry": {"coordinates": [8.537546, 47.391289], "type": "Point"}, "properties": {"address": "Rotbuchstrasse 15", "electric": 4, "id": "pb_556", "manual": 1, "name": "Schaffhauserplatz", "provider": "publibike", "timeStamp": "02/07/2020, 11:39:38", "zip": 8006}, "type": "Feature"}, {"geometry": {"coordinates": [8.541541, 47.413733], "type": "Point"}, "properties": {"address": "Therese-Giehse-Strasse 11", "electric": 5, "id": "pb_561", "manual": 0, "name": "Center Eleven", "provider": "publibike", "timeStamp": "02/07/2020, 11:39:38", "zip": 8050}, "type": "Feature"}, {"geometry": {"coordinates": [8.534227, 47.360004], "type": "Point"}, "properties": {"address": "Alfred Escher-Strasse 76", "electric": 6, "id": "pb_563", "manual": 3, "name": "Mythenschloss", "provider": "publibike", "timeStamp": "02/07/2020, 11:39:38", "zip": 8002}, "type": "Feature"}, {"geometry": {"coordinates": [8.50373, 47.396172], "type": "Point"}, "properties": {"address": "Hardeggstrasse 6", "electric": 3, "id": "pb_566", "manual": 5, "name": "Am Wasser", "provider": "publibike", "timeStamp": "02/07/2020, 11:39:38", "zip": 8049}, "type": "Feature"}, {"geometry": {"coordinates": [8.532432, 47.381174], "type": "Point"}, "properties": {"address": "Klingenstrasse 9", "electric": 1, "id": "pb_565", "manual": 6, "name": "Zollstrasse", "provider": "publibike", "timeStamp": "02/07/2020, 11:39:38", "zip": 8005}, "type": "Feature"}, {"geometry": {"coordinates": [8.497982, 47.381447], "type": "Point"}, "properties": {"address": "Dennlerstrasse 23", "electric": 15, "id": "pb_567", "manual": 8, "name": "Dennlerstrasse", "provider": "publibike", "timeStamp": "02/07/2020, 11:39:38", "zip": 8047}, "type": "Feature"}, {"geometry": {"coordinates": [8.528049, 47.347701], "type": "Point"}, "properties": {"address": "Mutschellenstrasse 114", "electric": 5, "id": "pb_568", "manual": 4, "name": "Jugendherberge", "provider": "publibike", "timeStamp": "02/07/2020, 11:39:38", "zip": 8038}, "type": "Feature"}, {"geometry": {"coordinates": [8.539016, 47.405751], "type": "Point"}, "properties": {"address": "Ringstrasse 82", "electric": 0, "id": "pb_569", "manual": 3, "name": "Freibad Allenmoos", "provider": "publibike", "timeStamp": "02/07/2020, 11:39:38", "zip": 8057}, "type": "Feature"}, {"geometry": {"coordinates": [8.534974, 47.402164], "type": "Point"}, "properties": {"address": "Brache Guggach", "electric": 0, "id": "pb_572", "manual": 5, "name": "Radiostudio", "provider": "publibike", "timeStamp": "02/07/2020, 11:39:38", "zip": 8057}, "type": "Feature"}, {"geometry": {"coordinates": [8.547901, 47.375556], "type": "Point"}, "properties": {"address": "Karl-Schmid-Strasse 4", "electric": 3, "id": "pb_571", "manual": 1, "name": "ETH/Zoologisches Museum", "provider": "publibike", "timeStamp": "02/07/2020, 11:39:38", "zip": 8006}, "type": "Feature"}, {"geometry": {"coordinates": [8.56232, 47.382865], "type": "Point"}, "properties": {"charge": 26, "id": "smide_2901", "name": "ZH 267278", "provider": "smide", "range": 13.0, "size": 20, "time": "02/07/2020, 11:39:10"}, "type": "Feature"}, {"geometry": {"coordinates": [8.490983, 47.376798], "type": "Point"}, "properties": {"charge": 58, "id": "smide_2895", "name": "ZH 267279", "provider": "smide", "range": 28.0, "size": 20, "time": "02/07/2020, 11:39:10"}, "type": "Feature"}, {"geometry": {"coordinates": [8.555075, 47.401665], "type": "Point"}, "properties": {"charge": 30, "id": "smide_2880", "name": "ZH267289", "provider": "smide", "range": 15.0, "size": 17, "time": "02/07/2020, 11:39:10"}, "type": "Feature"}, {"geometry": {"coordinates": [8.54778, 47.364833], "type": "Point"}, "properties": {"charge": 63, "id": "smide_2874", "name": "ZH 267288", "provider": "smide", "range": 31.0, "size": 17, "time": "02/07/2020, 11:39:10"}, "type": "Feature"}, {"geometry": {"coordinates": [8.51457, 47.364281], "type": "Point"}, "properties": {"charge": 60, "id": "smide_2871", "name": "ZH 267086", "provider": "smide", "range": 30.0, "size": 20, "time": "02/07/2020, 11:39:10"}, "type": "Feature"}, {"geometry": {"coordinates": [8.51586, 47.428828], "type": "Point"}, "properties": {"charge": 50, "id": "smide_2867", "name": "ZH 267090", "provider": "smide", "range": 25.0, "size": 20, "time": "02/07/2020, 11:39:10"}, "type": "Feature"}, {"geometry": {"coordinates": [8.528286, 47.378381], "type": "Point"}, "properties": {"charge": 92, "id": "smide_2861", "name": "ZH 267096", "provider": "smide", "range": 46.0, "size": 17, "time": "02/07/2020, 11:39:10"}, "type": "Feature"}, {"geometry": {"coordinates": [8.554648, 47.369168], "type": "Point"}, "properties": {"charge": 10, "id": "smide_2859", "name": "ZH 267098", "provider": "smide", "range": 5.0, "size": 17, "time": "02/07/2020, 11:39:10"}, "type": "Feature"}, {"geometry": {"coordinates": [8.544195, 47.366878], "type": "Point"}, "properties": {"charge": 84, "id": "smide_2856", "name": "ZH 267101", "provider": "smide", "range": 42.0, "size": 17, "time": "02/07/2020, 11:39:10"}, "type": "Feature"}, {"geometry": {"coordinates": [8.524491, 47.39798], "type": "Point"}, "properties": {"charge": 81, "id": "smide_2855", "name": "ZH 267102", "provider": "smide", "range": 40.0, "size": 17, "time": "02/07/2020, 11:39:10"}, "type": "Feature"}, {"geometry": {"coordinates": [8.529333, 47.352061], "type": "Point"}, "properties": {"charge": 60, "id": "smide_2833", "name": "ZH 267182", "provider": "smide", "range": 30.0, "size": 20, "time": "02/07/2020, 11:39:10"}, "type": "Feature"}, {"geometry": {"coordinates": [8.514783, 47.357061], "type": "Point"}, "properties": {"charge": 58, "id": "smide_2831", "name": "ZH 267180", "provider": "smide", "range": 28.0, "size": 20, "time": "02/07/2020, 11:39:10"}, "type": "Feature"}, {"geometry": {"coordinates": [8.564006, 47.416008], "type": "Point"}, "properties": {"charge": 97, "id": "smide_2804", "name": "ZH266903", "provider": "smide", "range": 48.0, "size": 20, "time": "02/07/2020, 11:39:10"}, "type": "Feature"}, {"geometry": {"coordinates": [8.520618, 47.340105], "type": "Point"}, "properties": {"charge": 63, "id": "smide_2793", "name": "ZH266883", "provider": "smide", "range": 31.0, "size": 17, "time": "02/07/2020, 11:39:10"}, "type": "Feature"}, {"geometry": {"coordinates": [8.546133, 47.37815], "type": "Point"}, "properties": {"charge": 52, "id": "smide_2790", "name": "ZH266880", "provider": "smide", "range": 26.0, "size": 17, "time": "02/07/2020, 11:39:10"}, "type": "Feature"}, {"geometry": {"coordinates": [8.54842, 47.37796], "type": "Point"}, "properties": {"charge": 70, "id": "smide_2785", "name": "ZH266875", "provider": "smide", "range": 35.0, "size": 17, "time": "02/07/2020, 11:39:10"}, "type": "Feature"}, {"geometry": {"coordinates": [8.509285, 47.361611], "type": "Point"}, "properties": {"charge": 85, "id": "smide_2780", "name": "ST1 X #1", "provider": "smide", "range": 42.0, "size": 17, "time": "02/07/2020, 11:39:10"}, "type": "Feature"}, {"geometry": {"coordinates": [8.538818, 47.373852], "type": "Point"}, "properties": {"charge": 27, "id": "smide_2773", "name": "ZH266561", "provider": "smide", "range": 13.0, "size": 17, "time": "02/07/2020, 11:39:10"}, "type": "Feature"}, {"geometry": {"coordinates": [8.502049, 47.368948], "type": "Point"}, "properties": {"charge": 100, "id": "smide_2771", "name": "ZH266559", "provider": "smide", "range": 50.0, "size": 17, "time": "02/07/2020, 11:39:10"}, "type": "Feature"}, {"geometry": {"coordinates": [8.550594, 47.375212], "type": "Point"}, "properties": {"charge": 66, "id": "smide_2763", "name": "ZH266641", "provider": "smide", "range": 33.0, "size": 17, "time": "02/07/2020, 11:39:10"}, "type": "Feature"}, {"geometry": {"coordinates": [8.556323, 47.384525], "type": "Point"}, "properties": {"charge": 65, "id": "smide_2761", "name": "ZH266642", "provider": "smide", "range": 32.0, "size": 20, "time": "02/07/2020, 11:39:10"}, "type": "Feature"}, {"geometry": {"coordinates": [8.502131, 47.369008], "type": "Point"}, "properties": {"charge": 100, "id": "smide_2759", "name": "ZH266639", "provider": "smide", "range": 50.0, "size": 17, "time": "02/07/2020, 11:39:10"}, "type": "Feature"}, {"geometry": {"coordinates": [8.550942, 47.359536], "type": "Point"}, "properties": {"charge": 51, "id": "smide_2752", "name": "BE343856", "provider": "smide", "range": 25.0, "size": 17, "time": "02/07/2020, 11:39:10"}, "type": "Feature"}, {"geometry": {"coordinates": [8.516116, 47.428664], "type": "Point"}, "properties": {"charge": 45, "id": "smide_2751", "name": "BE343857", "provider": "smide", "range": 22.0, "size": 17, "time": "02/07/2020, 11:39:10"}, "type": "Feature"}, {"geometry": {"coordinates": [8.514342, 47.357284], "type": "Point"}, "properties": {"charge": 48, "id": "smide_2749", "name": "BE343867", "provider": "smide", "range": 24.0, "size": 17, "time": "02/07/2020, 11:39:10"}, "type": "Feature"}, {"geometry": {"coordinates": [8.475423, 47.385444], "type": "Point"}, "properties": {"charge": 59, "id": "smide_2748", "name": "BE335758", "provider": "smide", "range": 29.0, "size": 17, "time": "02/07/2020, 11:39:10"}, "type": "Feature"}, {"geometry": {"coordinates": [8.513599, 47.377916], "type": "Point"}, "properties": {"charge": 69, "id": "smide_2745", "name": "BE335818", "provider": "smide", "range": 34.0, "size": 17, "time": "02/07/2020, 11:39:10"}, "type": "Feature"}, {"geometry": {"coordinates": [8.488627, 47.380484], "type": "Point"}, "properties": {"charge": 48, "id": "smide_2743", "name": "BE343864", "provider": "smide", "range": 24.0, "size": 17, "time": "02/07/2020, 11:39:10"}, "type": "Feature"}, {"geometry": {"coordinates": [8.5537, 47.376328], "type": "Point"}, "properties": {"charge": 89, "id": "smide_2741", "name": "BE343874", "provider": "smide", "range": 44.0, "size": 17, "time": "02/07/2020, 11:39:10"}, "type": "Feature"}, {"geometry": {"coordinates": [8.521865, 47.357992], "type": "Point"}, "properties": {"charge": 60, "id": "smide_2740", "name": "BE343875", "provider": "smide", "range": 30.0, "size": 17, "time": "02/07/2020, 11:39:10"}, "type": "Feature"}, {"geometry": {"coordinates": [8.514405, 47.376345], "type": "Point"}, "properties": {"charge": 64, "id": "smide_2738", "name": "BE343865", "provider": "smide", "range": 32.0, "size": 17, "time": "02/07/2020, 11:39:10"}, "type": "Feature"}, {"geometry": {"coordinates": [8.564955, 47.370912], "type": "Point"}, "properties": {"charge": 41, "id": "smide_2737", "name": "BE336149", "provider": "smide", "range": 20.0, "size": 17, "time": "02/07/2020, 11:39:10"}, "type": "Feature"}, {"geometry": {"coordinates": [8.555778, 47.384244], "type": "Point"}, "properties": {"charge": 37, "id": "smide_2734", "name": "BE343876", "provider": "smide", "range": 18.0, "size": 17, "time": "02/07/2020, 11:39:10"}, "type": "Feature"}, {"geometry": {"coordinates": [8.535872, 47.356272], "type": "Point"}, "properties": {"charge": 89, "id": "smide_2729", "name": "BE343878", "provider": "smide", "range": 44.0, "size": 17, "time": "02/07/2020, 11:39:10"}, "type": "Feature"}, {"geometry": {"coordinates": [8.515823, 47.37941], "type": "Point"}, "properties": {"charge": 100, "id": "smide_2718", "name": "ZH259019", "provider": "smide", "range": 50.0, "size": 20, "time": "02/07/2020, 11:39:10"}, "type": "Feature"}, {"geometry": {"coordinates": [8.55028, 47.37242], "type": "Point"}, "properties": {"charge": 38, "id": "smide_2717", "name": "ZH263287", "provider": "smide", "range": 19.0, "size": 17, "time": "02/07/2020, 11:39:10"}, "type": "Feature"}, {"geometry": {"coordinates": [8.534068, 47.39115], "type": "Point"}, "properties": {"charge": 44, "id": "smide_2716", "name": "ZH254606", "provider": "smide", "range": 22.0, "size": 17, "time": "02/07/2020, 11:39:10"}, "type": "Feature"}, {"geometry": {"coordinates": [8.526843, 47.368804], "type": "Point"}, "properties": {"charge": 100, "id": "smide_2715", "name": "ZH254605", "provider": "smide", "range": 50.0, "size": 17, "time": "02/07/2020, 11:39:10"}, "type": "Feature"}, {"geometry": {"coordinates": [8.488922, 47.393104], "type": "Point"}, "properties": {"charge": 88, "id": "smide_2710", "name": "ZH256460", "provider": "smide", "range": 44.0, "size": 17, "time": "02/07/2020, 11:39:10"}, "type": "Feature"}, {"geometry": {"coordinates": [8.548708, 47.379792], "type": "Point"}, "properties": {"charge": 36, "id": "smide_2712", "name": "ZH256462", "provider": "smide", "range": 18.0, "size": 17, "time": "02/07/2020, 11:39:10"}, "type": "Feature"}, {"geometry": {"coordinates": [8.547915, 47.368852], "type": "Point"}, "properties": {"charge": 55, "id": "smide_2711", "name": "ZH256463", "provider": "smide", "range": 27.0, "size": 17, "time": "02/07/2020, 11:39:10"}, "type": "Feature"}, {"geometry": {"coordinates": [8.56439, 47.348213], "type": "Point"}, "properties": {"charge": 94, "id": "smide_2709", "name": "ZH256466", "provider": "smide", "range": 47.0, "size": 20, "time": "02/07/2020, 11:39:10"}, "type": "Feature"}, {"geometry": {"coordinates": [8.563908, 47.409632], "type": "Point"}, "properties": {"charge": 34, "id": "smide_2707", "name": "ZH256467", "provider": "smide", "range": 17.0, "size": 20, "time": "02/07/2020, 11:39:10"}, "type": "Feature"}, {"geometry": {"coordinates": [8.515583, 47.388628], "type": "Point"}, "properties": {"charge": 24, "id": "smide_2708", "name": "ZH256464", "provider": "smide", "range": 12.0, "size": 17, "time": "02/07/2020, 11:39:10"}, "type": "Feature"}, {"geometry": {"coordinates": [8.552299, 47.378292], "type": "Point"}, "properties": {"charge": 24, "id": "smide_2701", "name": "ZH256468", "provider": "smide", "range": 12.0, "size": 20, "time": "02/07/2020, 11:39:10"}, "type": "Feature"}, {"geometry": {"coordinates": [8.548351, 47.378736], "type": "Point"}, "properties": {"charge": 100, "id": "smide_2699", "name": "ZH254611", "provider": "smide", "range": 50.0, "size": 20, "time": "02/07/2020, 11:39:10"}, "type": "Feature"}, {"geometry": {"coordinates": [8.537064, 47.387372], "type": "Point"}, "properties": {"charge": 100, "id": "smide_2697", "name": "ZH254629", "provider": "smide", "range": 50.0, "size": 20, "time": "02/07/2020, 11:39:10"}, "type": "Feature"}, {"geometry": {"coordinates": [8.556752, 47.419948], "type": "Point"}, "properties": {"charge": 100, "id": "smide_2696", "name": "ZH254616", "provider": "smide", "range": 50.0, "size": 20, "time": "02/07/2020, 11:39:10"}, "type": "Feature"}, {"geometry": {"coordinates": [8.532403, 47.34732], "type": "Point"}, "properties": {"charge": 55, "id": "smide_2694", "name": "ZH254610", "provider": "smide", "range": 27.0, "size": 20, "time": "02/07/2020, 11:39:10"}, "type": "Feature"}, {"geometry": {"coordinates": [8.558455, 47.403741], "type": "Point"}, "properties": {"charge": 93, "id": "smide_2691", "name": "ZH254622", "provider": "smide", "range": 46.0, "size": 20, "time": "02/07/2020, 11:39:10"}, "type": "Feature"}, {"geometry": {"coordinates": [8.527275, 47.360145], "type": "Point"}, "properties": {"charge": 100, "id": "smide_2690", "name": "ZH254625", "provider": "smide", "range": 50.0, "size": 20, "time": "02/07/2020, 11:39:10"}, "type": "Feature"}, {"geometry": {"coordinates": [8.514259, 47.391624], "type": "Point"}, "properties": {"charge": 95, "id": "smide_2689", "name": "ZH254623", "provider": "smide", "range": 47.0, "size": 20, "time": "02/07/2020, 11:39:10"}, "type": "Feature"}, {"geometry": {"coordinates": [8.525535, 47.389396], "type": "Point"}, "properties": {"charge": 47, "id": "smide_2687", "name": "ZH263529", "provider": "smide", "range": 23.0, "size": 20, "time": "02/07/2020, 11:39:10"}, "type": "Feature"}, {"geometry": {"coordinates": [8.502117, 47.369116], "type": "Point"}, "properties": {"charge": 100, "id": "smide_2686", "name": "ZH263288", "provider": "smide", "range": 50.0, "size": 20, "time": "02/07/2020, 11:39:10"}, "type": "Feature"}, {"geometry": {"coordinates": [8.524063, 47.364836], "type": "Point"}, "properties": {"charge": 92, "id": "smide_2684", "name": "ZH254626", "provider": "smide", "range": 46.0, "size": 20, "time": "02/07/2020, 11:39:10"}, "type": "Feature"}, {"geometry": {"coordinates": [8.499644, 47.38702], "type": "Point"}, "properties": {"charge": 52, "id": "smide_2680", "name": "ZH254619", "provider": "smide", "range": 26.0, "size": 20, "time": "02/07/2020, 11:39:10"}, "type": "Feature"}, {"geometry": {"coordinates": [8.50564, 47.381128], "type": "Point"}, "properties": {"charge": 35, "id": "smide_2677", "name": "ZH258487", "provider": "smide", "range": 17.0, "size": 17, "time": "02/07/2020, 11:39:10"}, "type": "Feature"}, {"geometry": {"coordinates": [8.492813, 47.38606], "type": "Point"}, "properties": {"charge": 61, "id": "smide_2671", "name": "ZH258645", "provider": "smide", "range": 30.0, "size": 17, "time": "02/07/2020, 11:39:10"}, "type": "Feature"}, {"geometry": {"coordinates": [8.549846, 47.3973], "type": "Point"}, "properties": {"charge": 75, "id": "smide_2669", "name": "ZH263294", "provider": "smide", "range": 37.0, "size": 17, "time": "02/07/2020, 11:39:10"}, "type": "Feature"}, {"geometry": {"coordinates": [8.535955, 47.377408], "type": "Point"}, "properties": {"charge": 98, "id": "smide_2668", "name": "ZH258640", "provider": "smide", "range": 49.0, "size": 17, "time": "02/07/2020, 11:39:10"}, "type": "Feature"}, {"geometry": {"coordinates": [8.514333, 47.357256], "type": "Point"}, "properties": {"charge": 53, "id": "smide_2666", "name": "ZH258653", "provider": "smide", "range": 26.0, "size": 17, "time": "02/07/2020, 11:39:10"}, "type": "Feature"}, {"geometry": {"coordinates": [8.57879, 47.353592], "type": "Point"}, "properties": {"charge": 55, "id": "smide_2665", "name": "ZH258644", "provider": "smide", "range": 27.0, "size": 17, "time": "02/07/2020, 11:39:10"}, "type": "Feature"}, {"geometry": {"coordinates": [8.544059, 47.39192], "type": "Point"}, "properties": {"charge": 99, "id": "smide_2663", "name": "ZH258649", "provider": "smide", "range": 49.0, "size": 17, "time": "02/07/2020, 11:39:10"}, "type": "Feature"}, {"geometry": {"coordinates": [8.57278, 47.380564], "type": "Point"}, "properties": {"charge": 79, "id": "smide_2662", "name": "ZH258643", "provider": "smide", "range": 39.0, "size": 17, "time": "02/07/2020, 11:39:10"}, "type": "Feature"}, {"geometry": {"coordinates": [8.514688, 47.391704], "type": "Point"}, "properties": {"charge": 79, "id": "smide_2660", "name": "ZH258647", "provider": "smide", "range": 39.0, "size": 17, "time": "02/07/2020, 11:39:10"}, "type": "Feature"}, {"geometry": {"coordinates": [8.486629, 47.388356], "type": "Point"}, "properties": {"charge": 15, "id": "smide_2648", "name": "ZH257930", "provider": "smide", "range": 7.0, "size": 20, "time": "02/07/2020, 11:39:10"}, "type": "Feature"}, {"geometry": {"coordinates": [8.518176, 47.388292], "type": "Point"}, "properties": {"charge": 35, "id": "smide_2647", "name": "ZH257932", "provider": "smide", "range": 17.0, "size": 20, "time": "02/07/2020, 11:39:10"}, "type": "Feature"}, {"geometry": {"coordinates": [8.544993, 47.3678], "type": "Point"}, "properties": {"charge": 23, "id": "smide_2645", "name": "ZH257933", "provider": "smide", "range": 11.0, "size": 20, "time": "02/07/2020, 11:39:10"}, "type": "Feature"}, {"geometry": {"coordinates": [8.532038, 47.365141], "type": "Point"}, "properties": {"charge": 58, "id": "smide_3", "name": "ZH253765", "provider": "smide", "range": 28.0, "size": 20, "time": "02/07/2020, 11:39:10"}, "type": "Feature"}, {"geometry": {"coordinates": [8.526018, 47.408495], "type": "Point"}, "properties": {"charge": 44, "id": "smide_105", "name": "ZH253804", "provider": "smide", "range": 22.0, "size": 17, "time": "02/07/2020, 11:39:10"}, "type": "Feature"}, {"geometry": {"coordinates": [8.542075, 47.407608], "type": "Point"}, "properties": {"charge": 84, "id": "smide_186", "name": "ZH253751", "provider": "smide", "range": 42.0, "size": 20, "time": "02/07/2020, 11:39:10"}, "type": "Feature"}, {"geometry": {"coordinates": [8.535753, 47.387544], "type": "Point"}, "properties": {"charge": 42, "id": "smide_173", "name": "ZH258501", "provider": "smide", "range": 21.0, "size": 17, "time": "02/07/2020, 11:39:10"}, "type": "Feature"}, {"geometry": {"coordinates": [8.559289, 47.40596], "type": "Point"}, "properties": {"charge": 73, "id": "smide_77", "name": "ZH261548", "provider": "smide", "range": 36.0, "size": 20, "time": "02/07/2020, 11:39:10"}, "type": "Feature"}, {"geometry": {"coordinates": [8.547473, 47.364972], "type": "Point"}, "properties": {"charge": 59, "id": "smide_200", "name": "ZH253801", "provider": "smide", "range": 29.0, "size": 20, "time": "02/07/2020, 11:39:10"}, "type": "Feature"}, {"geometry": {"coordinates": [8.501121, 47.383906], "type": "Point"}, "properties": {"charge": 35, "id": "smide_197", "name": "ZH253864", "provider": "smide", "range": 17.0, "size": 20, "time": "02/07/2020, 11:39:10"}, "type": "Feature"}, {"geometry": {"coordinates": [8.540988, 47.377216], "type": "Point"}, "properties": {"charge": 51, "id": "smide_8", "name": "ZH253861", "provider": "smide", "range": 25.0, "size": 17, "time": "02/07/2020, 11:39:10"}, "type": "Feature"}, {"geometry": {"coordinates": [8.548743, 47.37791], "type": "Point"}, "properties": {"charge": 90, "id": "smide_45", "name": "ZH253716", "provider": "smide", "range": 45.0, "size": 17, "time": "02/07/2020, 11:39:10"}, "type": "Feature"}, {"geometry": {"coordinates": [8.521903, 47.358244], "type": "Point"}, "properties": {"charge": 80, "id": "smide_71", "name": "ZH253742", "provider": "smide", "range": 40.0, "size": 20, "time": "02/07/2020, 11:39:10"}, "type": "Feature"}, {"geometry": {"coordinates": [8.532641, 47.39056], "type": "Point"}, "properties": {"charge": 99, "id": "smide_101", "name": "ZH253814", "provider": "smide", "range": 49.0, "size": 17, "time": "02/07/2020, 11:39:10"}, "type": "Feature"}, {"geometry": {"coordinates": [8.541536, 47.38264], "type": "Point"}, "properties": {"charge": 10, "id": "smide_9", "name": "ZH253796", "provider": "smide", "range": 5.0, "size": 17, "time": "02/07/2020, 11:39:10"}, "type": "Feature"}, {"geometry": {"coordinates": [8.509408, 47.395252], "type": "Point"}, "properties": {"charge": 89, "id": "smide_143", "name": "ZH253778", "provider": "smide", "range": 44.0, "size": 17, "time": "02/07/2020, 11:39:10"}, "type": "Feature"}, {"geometry": {"coordinates": [8.535916, 47.356271], "type": "Point"}, "properties": {"charge": 100, "id": "smide_180", "name": "ZH253824", "provider": "smide", "range": 50.0, "size": 20, "time": "02/07/2020, 11:39:10"}, "type": "Feature"}, {"geometry": {"coordinates": [8.492465, 47.385908], "type": "Point"}, "properties": {"charge": 67, "id": "smide_20", "name": "ZH253770", "provider": "smide", "range": 33.0, "size": 20, "time": "02/07/2020, 11:39:10"}, "type": "Feature"}, {"geometry": {"coordinates": [8.478042, 47.39234], "type": "Point"}, "properties": {"charge": 22, "id": "smide_50", "name": "ZH253853", "provider": "smide", "range": 11.0, "size": 17, "time": "02/07/2020, 11:39:10"}, "type": "Feature"}, {"geometry": {"coordinates": [8.568415, 47.382263], "type": "Point"}, "properties": {"charge": 99, "id": "smide_30", "name": "ZH253813", "provider": "smide", "range": 49.0, "size": 20, "time": "02/07/2020, 11:39:10"}, "type": "Feature"}, {"geometry": {"coordinates": [8.55765, 47.412416], "type": "Point"}, "properties": {"charge": 80, "id": "smide_10", "name": "ZH253855", "provider": "smide", "range": 40.0, "size": 17, "time": "02/07/2020, 11:39:10"}, "type": "Feature"}, {"geometry": {"coordinates": [8.540471, 47.388832], "type": "Point"}, "properties": {"charge": 61, "id": "smide_84", "name": "ZH253733", "provider": "smide", "range": 30.0, "size": 17, "time": "02/07/2020, 11:39:10"}, "type": "Feature"}, {"geometry": {"coordinates": [8.53828, 47.390884], "type": "Point"}, "properties": {"charge": 27, "id": "smide_165", "name": "ZH253752", "provider": "smide", "range": 13.0, "size": 17, "time": "02/07/2020, 11:39:10"}, "type": "Feature"}, {"geometry": {"coordinates": [8.511539, 47.369408], "type": "Point"}, "properties": {"charge": 69, "id": "smide_35", "name": "ZH253755", "provider": "smide", "range": 34.0, "size": 20, "time": "02/07/2020, 11:39:10"}, "type": "Feature"}, {"geometry": {"coordinates": [8.522799, 47.360032], "type": "Point"}, "properties": {"charge": 67, "id": "smide_119", "name": "ZH253686", "provider": "smide", "range": 33.0, "size": 20, "time": "02/07/2020, 11:39:10"}, "type": "Feature"}, {"geometry": {"coordinates": [8.536201, 47.33802], "type": "Point"}, "properties": {"charge": 63, "id": "smide_76", "name": "ZH253764", "provider": "smide", "range": 31.0, "size": 17, "time": "02/07/2020, 11:39:10"}, "type": "Feature"}, {"geometry": {"coordinates": [8.541027, 47.382392], "type": "Point"}, "properties": {"charge": 100, "id": "smide_129", "name": "ZH261378", "provider": "smide", "range": 50.0, "size": 17, "time": "02/07/2020, 11:39:10"}, "type": "Feature"}, {"geometry": {"coordinates": [8.488118, 47.367728], "type": "Point"}, "properties": {"charge": 47, "id": "smide_49", "name": "ZH253873", "provider": "smide", "range": 23.0, "size": 17, "time": "02/07/2020, 11:39:10"}, "type": "Feature"}, {"geometry": {"coordinates": [8.496625, 47.381023], "type": "Point"}, "properties": {"charge": 64, "id": "smide_191", "name": "ZH253762", "provider": "smide", "range": 32.0, "size": 17, "time": "02/07/2020, 11:39:10"}, "type": "Feature"}, {"geometry": {"coordinates": [8.514865, 47.390005], "type": "Point"}, "properties": {"charge": 67, "id": "smide_202", "name": "ZH253830", "provider": "smide", "range": 33.0, "size": 17, "time": "02/07/2020, 11:39:10"}, "type": "Feature"}, {"geometry": {"coordinates": [8.528152, 47.38604], "type": "Point"}, "properties": {"charge": 81, "id": "smide_56", "name": "ZH261442", "provider": "smide", "range": 40.0, "size": 20, "time": "02/07/2020, 11:39:10"}, "type": "Feature"}, {"geometry": {"coordinates": [8.51662, 47.363768], "type": "Point"}, "properties": {"charge": 48, "id": "smide_23", "name": "ZH253704", "provider": "smide", "range": 24.0, "size": 17, "time": "02/07/2020, 11:39:10"}, "type": "Feature"}, {"geometry": {"coordinates": [8.50761, 47.406372], "type": "Point"}, "properties": {"charge": 73, "id": "smide_66", "name": "ZH253818", "provider": "smide", "range": 36.0, "size": 20, "time": "02/07/2020, 11:39:10"}, "type": "Feature"}, {"geometry": {"coordinates": [8.547436, 47.382144], "type": "Point"}, "properties": {"charge": 76, "id": "smide_114", "name": "ZH253878", "provider": "smide", "range": 38.0, "size": 20, "time": "02/07/2020, 11:39:10"}, "type": "Feature"}, {"geometry": {"coordinates": [8.514714, 47.35546], "type": "Point"}, "properties": {"charge": 61, "id": "smide_203", "name": "ZH261547", "provider": "smide", "range": 30.0, "size": 17, "time": "02/07/2020, 11:39:10"}, "type": "Feature"}, {"geometry": {"coordinates": [8.51986, 47.337112], "type": "Point"}, "properties": {"charge": 97, "id": "smide_21", "name": "ZH253841", "provider": "smide", "range": 48.0, "size": 17, "time": "02/07/2020, 11:39:10"}, "type": "Feature"}, {"geometry": {"coordinates": [8.514242, 47.389328], "type": "Point"}, "properties": {"charge": 45, "id": "smide_164", "name": "ZH253775", "provider": "smide", "range": 22.0, "size": 17, "time": "02/07/2020, 11:39:10"}, "type": "Feature"}, {"geometry": {"coordinates": [8.541754, 47.411492], "type": "Point"}, "properties": {"charge": 73, "id": "smide_189", "name": "ZH253845", "provider": "smide", "range": 36.0, "size": 20, "time": "02/07/2020, 11:39:10"}, "type": "Feature"}, {"geometry": {"coordinates": [8.484589, 47.394028], "type": "Point"}, "properties": {"charge": 80, "id": "smide_81", "name": "ZH253753", "provider": "smide", "range": 40.0, "size": 17, "time": "02/07/2020, 11:39:10"}, "type": "Feature"}, {"geometry": {"coordinates": [8.528889, 47.395052], "type": "Point"}, "properties": {"charge": 98, "id": "smide_171", "name": "ZH253689", "provider": "smide", "range": 49.0, "size": 20, "time": "02/07/2020, 11:39:10"}, "type": "Feature"}, {"geometry": {"coordinates": [8.487583, 47.375796], "type": "Point"}, "properties": {"charge": 29, "id": "smide_93", "name": "ZH253681", "provider": "smide", "range": 14.0, "size": 17, "time": "02/07/2020, 11:39:10"}, "type": "Feature"}, {"geometry": {"coordinates": [8.528729, 47.381896], "type": "Point"}, "properties": {"charge": 63, "id": "smide_67", "name": "ZH253779", "provider": "smide", "range": 31.0, "size": 17, "time": "02/07/2020, 11:39:10"}, "type": "Feature"}, {"geometry": {"coordinates": [8.514059, 47.366352], "type": "Point"}, "properties": {"charge": 73, "id": "smide_133", "name": "ZH253848", "provider": "smide", "range": 36.0, "size": 20, "time": "02/07/2020, 11:39:10"}, "type": "Feature"}, {"geometry": {"coordinates": [8.547485, 47.422571], "type": "Point"}, "properties": {"charge": 53, "id": "smide_118", "name": "ZH253759", "provider": "smide", "range": 26.0, "size": 20, "time": "02/07/2020, 11:39:10"}, "type": "Feature"}, {"geometry": {"coordinates": [8.532095, 47.399196], "type": "Point"}, "properties": {"charge": 92, "id": "smide_142", "name": "ZH258745", "provider": "smide", "range": 46.0, "size": 17, "time": "02/07/2020, 11:39:10"}, "type": "Feature"}, {"geometry": {"coordinates": [8.544403, 47.386366], "type": "Point"}, "properties": {"charge": 57, "id": "smide_166", "name": "ZH253728", "provider": "smide", "range": 28.0, "size": 17, "time": "02/07/2020, 11:39:10"}, "type": "Feature"}, {"geometry": {"coordinates": [8.513468, 47.391608], "type": "Point"}, "properties": {"charge": 55, "id": "smide_126", "name": "ZH268400", "provider": "smide", "range": 27.0, "size": 17, "time": "02/07/2020, 11:39:10"}, "type": "Feature"}, {"geometry": {"coordinates": [8.54877, 47.413808], "type": "Point"}, "properties": {"charge": 34, "id": "smide_98", "name": "ZH256321", "provider": "smide", "range": 17.0, "size": 17, "time": "02/07/2020, 11:39:10"}, "type": "Feature"}, {"geometry": {"coordinates": [8.541995, 47.424596], "type": "Point"}, "properties": {"charge": 73, "id": "smide_154", "name": "ZH253744", "provider": "smide", "range": 36.0, "size": 20, "time": "02/07/2020, 11:39:10"}, "type": "Feature"}, {"geometry": {"coordinates": [8.517623, 47.367424], "type": "Point"}, "properties": {"charge": 99, "id": "smide_7", "name": "ZH256289", "provider": "smide", "range": 49.0, "size": 20, "time": "02/07/2020, 11:39:10"}, "type": "Feature"}, {"geometry": {"coordinates": [8.477579, 47.389864], "type": "Point"}, "properties": {"charge": 84, "id": "smide_92", "name": "ZH253798", "provider": "smide", "range": 42.0, "size": 17, "time": "02/07/2020, 11:39:10"}, "type": "Feature"}, {"geometry": {"coordinates": [8.514441, 47.364712], "type": "Point"}, "properties": {"charge": 87, "id": "smide_65", "name": "ZH253810", "provider": "smide", "range": 43.0, "size": 17, "time": "02/07/2020, 11:39:10"}, "type": "Feature"}, {"geometry": {"coordinates": [8.52032, 47.39634], "type": "Point"}, "properties": {"charge": 98, "id": "smide_111", "name": "ZH253763", "provider": "smide", "range": 49.0, "size": 17, "time": "02/07/2020, 11:39:10"}, "type": "Feature"}, {"geometry": {"coordinates": [8.536916, 47.390244], "type": "Point"}, "properties": {"charge": 78, "id": "smide_40", "name": "ZH253690", "provider": "smide", "range": 39.0, "size": 20, "time": "02/07/2020, 11:39:10"}, "type": "Feature"}, {"geometry": {"coordinates": [8.526056, 47.392132], "type": "Point"}, "properties": {"charge": 100, "id": "smide_1", "name": "ZH253776", "provider": "smide", "range": 50.0, "size": 17, "time": "02/07/2020, 11:39:10"}, "type": "Feature"}, {"geometry": {"coordinates": [8.520676, 47.340205], "type": "Point"}, "properties": {"charge": 100, "id": "smide_14", "name": "ZH253749", "provider": "smide", "range": 50.0, "size": 20, "time": "02/07/2020, 11:39:10"}, "type": "Feature"}, {"geometry": {"coordinates": [8.521868, 47.394516], "type": "Point"}, "properties": {"charge": 100, "id": "smide_130", "name": "ZH253847", "provider": "smide", "range": 50.0, "size": 20, "time": "02/07/2020, 11:39:10"}, "type": "Feature"}, {"geometry": {"coordinates": [8.515506, 47.393104], "type": "Point"}, "properties": {"charge": 26, "id": "smide_107", "name": "ZH253819", "provider": "smide", "range": 13.0, "size": 17, "time": "02/07/2020, 11:39:10"}, "type": "Feature"}, {"geometry": {"coordinates": [8.540659, 47.372868], "type": "Point"}, "properties": {"charge": 55, "id": "smide_136", "name": "ZH253682", "provider": "smide", "range": 27.0, "size": 17, "time": "02/07/2020, 11:39:10"}, "type": "Feature"}, {"geometry": {"coordinates": [8.537078, 47.387308], "type": "Point"}, "properties": {"charge": 100, "id": "smide_83", "name": "ZH253869", "provider": "smide", "range": 50.0, "size": 20, "time": "02/07/2020, 11:39:10"}, "type": "Feature"}, {"geometry": {"coordinates": [8.502089, 47.3683], "type": "Point"}, "properties": {"charge": 100, "id": "smide_205", "name": "ZH253805", "provider": "smide", "range": 50.0, "size": 17, "time": "02/07/2020, 11:39:10"}, "type": "Feature"}, {"geometry": {"coordinates": [8.534124, 47.344332], "type": "Point"}, "properties": {"charge": 71, "id": "smide_193", "name": "ZH253738", "provider": "smide", "range": 35.0, "size": 20, "time": "02/07/2020, 11:39:10"}, "type": "Feature"}, {"geometry": {"coordinates": [8.54208, 47.411723], "type": "Point"}, "properties": {"charge": 51, "id": "smide_134", "name": "ZH253741", "provider": "smide", "range": 25.0, "size": 20, "time": "02/07/2020, 11:39:10"}, "type": "Feature"}, {"geometry": {"coordinates": [8.572794, 47.351512], "type": "Point"}, "properties": {"charge": 75, "id": "smide_16", "name": "ZH253713", "provider": "smide", "range": 37.0, "size": 20, "time": "02/07/2020, 11:39:10"}, "type": "Feature"}, {"geometry": {"coordinates": [8.562648, 47.355231], "type": "Point"}, "properties": {"charge": 100, "id": "smide_33", "name": "ZH253782", "provider": "smide", "range": 50.0, "size": 20, "time": "02/07/2020, 11:39:10"}, "type": "Feature"}, {"geometry": {"coordinates": [8.550558, 47.392564], "type": "Point"}, "properties": {"charge": 100, "id": "smide_161", "name": "ZH253691", "provider": "smide", "range": 50.0, "size": 20, "time": "02/07/2020, 11:39:10"}, "type": "Feature"}, {"geometry": {"coordinates": [8.510876, 47.393075], "type": "Point"}, "properties": {"charge": 100, "id": "smide_183", "name": "ZH253868", "provider": "smide", "range": 50.0, "size": 17, "time": "02/07/2020, 11:39:10"}, "type": "Feature"}, {"geometry": {"coordinates": [8.524054, 47.375644], "type": "Point"}, "properties": {"charge": 87, "id": "smide_42", "name": "ZH253846", "provider": "smide", "range": 43.0, "size": 20, "time": "02/07/2020, 11:39:10"}, "type": "Feature"}, {"geometry": {"coordinates": [8.546081, 47.413024], "type": "Point"}, "properties": {"charge": 65, "id": "smide_4", "name": "ZH253740", "provider": "smide", "range": 32.0, "size": 20, "time": "02/07/2020, 11:39:10"}, "type": "Feature"}, {"geometry": {"coordinates": [8.479381, 47.384548], "type": "Point"}, "properties": {"charge": 87, "id": "smide_160", "name": "ZH253722", "provider": "smide", "range": 43.0, "size": 17, "time": "02/07/2020, 11:39:10"}, "type": "Feature"}, {"geometry": {"coordinates": [8.535211, 47.365691], "type": "Point"}, "properties": {"charge": 51, "id": "smide_137", "name": "ZH258502", "provider": "smide", "range": 25.0, "size": 17, "time": "02/07/2020, 11:39:10"}, "type": "Feature"}, {"geometry": {"coordinates": [8.548196, 47.366336], "type": "Point"}, "properties": {"charge": 81, "id": "smide_178", "name": "ZH253803", "provider": "smide", "range": 40.0, "size": 17, "time": "02/07/2020, 11:39:10"}, "type": "Feature"}, {"geometry": {"coordinates": [8.517641, 47.367543], "type": "Point"}, "properties": {"charge": 75, "id": "smide_55", "name": "ZH253875", "provider": "smide", "range": 37.0, "size": 17, "time": "02/07/2020, 11:39:10"}, "type": "Feature"}, {"geometry": {"coordinates": [8.540525, 47.393848], "type": "Point"}, "properties": {"charge": 35, "id": "smide_96", "name": "ZH256146", "provider": "smide", "range": 17.0, "size": 20, "time": "02/07/2020, 11:39:10"}, "type": "Feature"}, {"geometry": {"coordinates": [8.525616, 47.37426], "type": "Point"}, "properties": {"charge": 21, "id": "smide_58", "name": "ZH259246", "provider": "smide", "range": 10.0, "size": 20, "time": "02/07/2020, 11:39:10"}, "type": "Feature"}, {"geometry": {"coordinates": [8.540759, 47.3784], "type": "Point"}, "properties": {"charge": 78, "id": "smide_175", "name": "ZH253730", "provider": "smide", "range": 39.0, "size": 17, "time": "02/07/2020, 11:39:10"}, "type": "Feature"}, {"geometry": {"coordinates": [8.548487, 47.376844], "type": "Point"}, "properties": {"charge": 63, "id": "smide_163", "name": "ZH256147", "provider": "smide", "range": 31.0, "size": 20, "time": "02/07/2020, 11:39:10"}, "type": "Feature"}, {"geometry": {"coordinates": [8.4928, 47.388444], "type": "Point"}, "properties": {"charge": 66, "id": "smide_122", "name": "ZH253850", "provider": "smide", "range": 33.0, "size": 20, "time": "02/07/2020, 11:39:10"}, "type": "Feature"}, {"geometry": {"coordinates": [8.542993, 47.420826], "type": "Point"}, "properties": {"charge": 34, "id": "smide_38", "name": "ZH253851", "provider": "smide", "range": 17.0, "size": 20, "time": "02/07/2020, 11:39:10"}, "type": "Feature"}, {"geometry": {"coordinates": [8.557769, 47.404408], "type": "Point"}, "properties": {"charge": 77, "id": "smide_6", "name": "ZH253787", "provider": "smide", "range": 38.0, "size": 17, "time": "02/07/2020, 11:39:10"}, "type": "Feature"}, {"geometry": {"coordinates": [8.556865, 47.403792], "type": "Point"}, "properties": {"charge": 59, "id": "smide_18", "name": "ZH253859", "provider": "smide", "range": 29.0, "size": 17, "time": "02/07/2020, 11:39:10"}, "type": "Feature"}, {"geometry": {"coordinates": [8.534709, 47.401332], "type": "Point"}, "properties": {"charge": 100, "id": "smide_12", "name": "ZH253685", "provider": "smide", "range": 50.0, "size": 17, "time": "02/07/2020, 11:39:10"}, "type": "Feature"}, {"geometry": {"coordinates": [8.543367, 47.375336], "type": "Point"}, "properties": {"charge": 81, "id": "smide_192", "name": "ZH253706", "provider": "smide", "range": 40.0, "size": 20, "time": "02/07/2020, 11:39:10"}, "type": "Feature"}, {"geometry": {"coordinates": [8.560174, 47.381364], "type": "Point"}, "properties": {"charge": 50, "id": "smide_39", "name": "ZH253714", "provider": "smide", "range": 25.0, "size": 20, "time": "02/07/2020, 11:39:10"}, "type": "Feature"}, {"geometry": {"coordinates": [8.51392, 47.365165], "type": "Point"}, "properties": {"charge": 71, "id": "smide_5", "name": "ZH261443", "provider": "smide", "range": 35.0, "size": 20, "time": "02/07/2020, 11:39:10"}, "type": "Feature"}, {"geometry": {"coordinates": [8.475214, 47.385456], "type": "Point"}, "properties": {"charge": 64, "id": "smide_29", "name": "ZH253723", "provider": "smide", "range": 32.0, "size": 17, "time": "02/07/2020, 11:39:10"}, "type": "Feature"}, {"geometry": {"coordinates": [8.545669, 47.374784], "type": "Point"}, "properties": {"charge": 94, "id": "smide_46", "name": "ZH253843", "provider": "smide", "range": 47.0, "size": 20, "time": "02/07/2020, 11:39:10"}, "type": "Feature"}, {"geometry": {"coordinates": [8.52026166666667, 47.3887216666667], "type": "Point"}, "properties": {"charge": 63, "id": "bird_26b8646f-2814-40ed-9aa8-e9f66ea35e93", "provider": "bird", "timeStamp": "02/07/2020, 11:39:10"}, "type": "Feature"}, {"geometry": {"coordinates": [8.51856, 47.3877033333333], "type": "Point"}, "properties": {"charge": 76, "id": "bird_dc4213c3-7632-4efe-b911-ea8c2bff0efa", "provider": "bird", "timeStamp": "02/07/2020, 11:39:10"}, "type": "Feature"}, {"geometry": {"coordinates": [8.51410333333333, 47.380565], "type": "Point"}, "properties": {"charge": 42, "id": "bird_9886a21b-9780-490b-ba3d-9c9267c24431", "provider": "bird", "timeStamp": "02/07/2020, 11:39:10"}, "type": "Feature"}, {"geometry": {"coordinates": [8.54134, 47.3724366666667], "type": "Point"}, "properties": {"charge": 67, "id": "bird_9e75f4c7-6954-46bd-97a4-6ece45351cb6", "provider": "bird", "timeStamp": "02/07/2020, 11:39:10"}, "type": "Feature"}, {"geometry": {"coordinates": [8.518875, 47.3723533333333], "type": "Point"}, "properties": {"charge": 28, "id": "bird_e25d36fd-c771-4244-bc71-25471a0faa22", "provider": "bird", "timeStamp": "02/07/2020, 11:39:10"}, "type": "Feature"}, {"geometry": {"coordinates": [8.54305, 47.3742066666667], "type": "Point"}, "properties": {"charge": 69, "id": "bird_048353f6-52d0-4165-9528-9fc61e5a7de8", "provider": "bird", "timeStamp": "02/07/2020, 11:39:10"}, "type": "Feature"}, {"geometry": {"coordinates": [8.53625666666667, 47.3703733333333], "type": "Point"}, "properties": {"charge": 79, "id": "bird_e5f1396a-8f3b-4b52-be78-3c3ce1ff15b1", "provider": "bird", "timeStamp": "02/07/2020, 11:39:10"}, "type": "Feature"}, {"geometry": {"coordinates": [8.51775666666667, 47.3864166666667], "type": "Point"}, "properties": {"charge": 55, "id": "bird_68076511-4846-4d1a-8e1d-32546432298e", "provider": "bird", "timeStamp": "02/07/2020, 11:39:10"}, "type": "Feature"}, {"geometry": {"coordinates": [8.520415, 47.3882133333333], "type": "Point"}, "properties": {"charge": 84, "id": "bird_5d40ca93-13d6-41f3-a84f-ba57fb59df9a", "provider": "bird", "timeStamp": "02/07/2020, 11:39:10"}, "type": "Feature"}, {"geometry": {"coordinates": [8.53948333333333, 47.38826], "type": "Point"}, "properties": {"charge": 62, "id": "bird_1c9c676d-754d-48cf-a974-f8d6d01e3933", "provider": "bird", "timeStamp": "02/07/2020, 11:39:10"}, "type": "Feature"}, {"geometry": {"coordinates": [8.52048833333333, 47.3881916666667], "type": "Point"}, "properties": {"charge": 91, "id": "bird_0656f367-aeb4-4f53-a904-b2c7337ef307", "provider": "bird", "timeStamp": "02/07/2020, 11:39:10"}, "type": "Feature"}, {"geometry": {"coordinates": [8.51540833333333, 47.376735], "type": "Point"}, "properties": {"charge": 64, "id": "bird_a086ef7c-b1de-44d1-b734-fda3f839452b", "provider": "bird", "timeStamp": "02/07/2020, 11:39:10"}, "type": "Feature"}, {"geometry": {"coordinates": [8.517205, 47.3857383333333], "type": "Point"}, "properties": {"charge": 38, "id": "bird_e53c4dbe-dd60-4165-9ee7-81ceb62f43b3", "provider": "bird", "timeStamp": "02/07/2020, 11:39:10"}, "type": "Feature"}, {"geometry": {"coordinates": [8.51515333333333, 47.377605], "type": "Point"}, "properties": {"charge": 53, "id": "bird_875b9fcd-a59e-4d6f-82da-ba1afe0a0877", "provider": "bird", "timeStamp": "02/07/2020, 11:39:10"}, "type": "Feature"}, {"geometry": {"coordinates": [8.51780166666667, 47.3862], "type": "Point"}, "properties": {"charge": 66, "id": "bird_31c894bf-f0ff-434a-bf5a-cfaa588b84b0", "provider": "bird", "timeStamp": "02/07/2020, 11:39:10"}, "type": "Feature"}, {"geometry": {"coordinates": [8.51654166666667, 47.3848383333333], "type": "Point"}, "properties": {"charge": 53, "id": "bird_a8859374-762c-48a6-9234-ac2fb60a51a7", "provider": "bird", "timeStamp": "02/07/2020, 11:39:10"}, "type": "Feature"}, {"geometry": {"coordinates": [8.517685, 47.38602], "type": "Point"}, "properties": {"charge": 55, "id": "bird_041d712c-0756-409f-a43b-e883a48c0d80", "provider": "bird", "timeStamp": "02/07/2020, 11:39:10"}, "type": "Feature"}, {"geometry": {"coordinates": [8.53436166666667, 47.38985], "type": "Point"}, "properties": {"charge": 69, "id": "bird_3d781b9e-5c99-4024-b9e5-9b17ec1f0248", "provider": "bird", "timeStamp": "02/07/2020, 11:39:10"}, "type": "Feature"}, {"geometry": {"coordinates": [8.53950666666667, 47.3720283333333], "type": "Point"}, "properties": {"charge": 66, "id": "bird_afc59af8-aac2-414b-a328-51686094888e", "provider": "bird", "timeStamp": "02/07/2020, 11:39:10"}, "type": "Feature"}, {"geometry": {"coordinates": [8.51841166666667, 47.3865733333333], "type": "Point"}, "properties": {"charge": 82, "id": "bird_388fc789-952b-4d79-990c-210fa836f632", "provider": "bird", "timeStamp": "02/07/2020, 11:39:10"}, "type": "Feature"}, {"geometry": {"coordinates": [8.53637, 47.3892816666667], "type": "Point"}, "properties": {"charge": 49, "id": "bird_b98de12f-21b0-47e2-b295-a3eec8e12f7b", "provider": "bird", "timeStamp": "02/07/2020, 11:39:10"}, "type": "Feature"}, {"geometry": {"coordinates": [8.517985, 47.3861583333333], "type": "Point"}, "properties": {"charge": 92, "id": "bird_50e2e11c-36d5-4e9c-a46a-0642372fcea9", "provider": "bird", "timeStamp": "02/07/2020, 11:39:10"}, "type": "Feature"}, {"geometry": {"coordinates": [8.51649833333333, 47.3755233333333], "type": "Point"}, "properties": {"charge": 93, "id": "bird_f28d469c-583f-4fce-b0af-616de1e1fe22", "provider": "bird", "timeStamp": "02/07/2020, 11:39:10"}, "type": "Feature"}, {"geometry": {"coordinates": [8.517775, 47.3858983333333], "type": "Point"}, "properties": {"charge": 22, "id": "bird_3dd108ca-78a1-46be-91a7-a4ecf3011fb2", "provider": "bird", "timeStamp": "02/07/2020, 11:39:10"}, "type": "Feature"}, {"geometry": {"coordinates": [8.51653, 47.3755233333333], "type": "Point"}, "properties": {"charge": 93, "id": "bird_da216cf3-7a5d-4a39-a131-4a887a7d0596", "provider": "bird", "timeStamp": "02/07/2020, 11:39:10"}, "type": "Feature"}, {"geometry": {"coordinates": [8.51927, 47.3870933333333], "type": "Point"}, "properties": {"charge": 79, "id": "bird_adfdca71-319b-4908-8194-ddc185347121", "provider": "bird", "timeStamp": "02/07/2020, 11:39:10"}, "type": "Feature"}, {"geometry": {"coordinates": [8.51803333333333, 47.3861083333333], "type": "Point"}, "properties": {"charge": 91, "id": "bird_145c4a4d-4ad6-4b90-948b-dea1a4ea1ce6", "provider": "bird", "timeStamp": "02/07/2020, 11:39:10"}, "type": "Feature"}, {"geometry": {"coordinates": [8.51814333333333, 47.3861916666667], "type": "Point"}, "properties": {"charge": 79, "id": "bird_a0012910-54d2-41d5-85c8-f5f259080c57", "provider": "bird", "timeStamp": "02/07/2020, 11:39:10"}, "type": "Feature"}, {"geometry": {"coordinates": [8.54341166666667, 47.3754966666667], "type": "Point"}, "properties": {"charge": 54, "id": "bird_e5ac4ad5-adb0-42e2-b3bc-96cca65cbaf1", "provider": "bird", "timeStamp": "02/07/2020, 11:39:10"}, "type": "Feature"}, {"geometry": {"coordinates": [8.54445166666667, 47.3826366666667], "type": "Point"}, "properties": {"charge": 49, "id": "bird_a00592cb-5b67-4c0b-9e76-e49f6944bd11", "provider": "bird", "timeStamp": "02/07/2020, 11:39:10"}, "type": "Feature"}, {"geometry": {"coordinates": [8.51797333333333, 47.3860016666667], "type": "Point"}, "properties": {"charge": 89, "id": "bird_ef6cb0a7-466d-4ec8-9726-d1b1df540637", "provider": "bird", "timeStamp": "02/07/2020, 11:39:10"}, "type": "Feature"}, {"geometry": {"coordinates": [8.53515, 47.3705183333333], "type": "Point"}, "properties": {"charge": 24, "id": "bird_951dc4e3-8139-4fec-bfce-e0237e511304", "provider": "bird", "timeStamp": "02/07/2020, 11:39:10"}, "type": "Feature"}, {"geometry": {"coordinates": [8.52311833333333, 47.3710666666667], "type": "Point"}, "properties": {"charge": 80, "id": "bird_0f43ed75-c364-4524-b764-fa37134ef3db", "provider": "bird", "timeStamp": "02/07/2020, 11:39:10"}, "type": "Feature"}, {"geometry": {"coordinates": [8.54383833333333, 47.376305], "type": "Point"}, "properties": {"charge": 91, "id": "bird_33f41798-f0f5-406b-8917-7137ade8eeaa", "provider": "bird", "timeStamp": "02/07/2020, 11:39:10"}, "type": "Feature"}, {"geometry": {"coordinates": [8.516355, 47.3760116666667], "type": "Point"}, "properties": {"charge": 62, "id": "bird_683114e8-4352-4971-9b47-b7dac5e3fee1", "provider": "bird", "timeStamp": "02/07/2020, 11:39:10"}, "type": "Feature"}, {"geometry": {"coordinates": [8.51932833333333, 47.38699], "type": "Point"}, "properties": {"charge": 47, "id": "bird_758a9975-b2bc-4ab3-b74d-03bdf039c163", "provider": "bird", "timeStamp": "02/07/2020, 11:39:10"}, "type": "Feature"}, {"geometry": {"coordinates": [8.53508166666667, 47.3705566666667], "type": "Point"}, "properties": {"charge": 75, "id": "bird_cbfc6496-ef18-467f-a30d-3c636a6bd79d", "provider": "bird", "timeStamp": "02/07/2020, 11:39:10"}, "type": "Feature"}, {"geometry": {"coordinates": [8.54395666666667, 47.3766166666667], "type": "Point"}, "properties": {"charge": 82, "id": "bird_6efd0a01-16d9-414e-af7b-05f49ed021e7", "provider": "bird", "timeStamp": "02/07/2020, 11:39:10"}, "type": "Feature"}, {"geometry": {"coordinates": [8.51667833333333, 47.37561], "type": "Point"}, "properties": {"charge": 84, "id": "bird_37e23459-1daf-431c-b2d3-5e0bbd0f97c0", "provider": "bird", "timeStamp": "02/07/2020, 11:39:10"}, "type": "Feature"}, {"geometry": {"coordinates": [8.54365833333333, 47.3761133333333], "type": "Point"}, "properties": {"charge": 67, "id": "bird_c10cddad-aff0-4dca-8985-74ffbb17c104", "provider": "bird", "timeStamp": "02/07/2020, 11:39:10"}, "type": "Feature"}, {"geometry": {"coordinates": [8.52769666666667, 47.37009], "type": "Point"}, "properties": {"charge": 63, "id": "bird_2575f248-1e93-409b-9b77-ac9523ea5d05", "provider": "bird", "timeStamp": "02/07/2020, 11:39:10"}, "type": "Feature"}, {"geometry": {"coordinates": [8.523185, 47.3711133333333], "type": "Point"}, "properties": {"charge": 83, "id": "bird_ed495f74-adf0-47c3-9527-933f4d8e299d", "provider": "bird", "timeStamp": "02/07/2020, 11:39:10"}, "type": "Feature"}, {"geometry": {"coordinates": [8.52218166666667, 47.3884933333333], "type": "Point"}, "properties": {"charge": 87, "id": "bird_704e4e47-514a-4371-af7a-a122e07a9fb0", "provider": "bird", "timeStamp": "02/07/2020, 11:39:10"}, "type": "Feature"}, {"geometry": {"coordinates": [8.52355, 47.3710016666667], "type": "Point"}, "properties": {"charge": 84, "id": "bird_bd7ce0dc-2135-4178-9af3-455acedbf083", "provider": "bird", "timeStamp": "02/07/2020, 11:39:10"}, "type": "Feature"}, {"geometry": {"coordinates": [8.523555, 47.3710066666667], "type": "Point"}, "properties": {"charge": 99, "id": "bird_26934ae3-6e31-4d93-9a26-098f05f7c8c0", "provider": "bird", "timeStamp": "02/07/2020, 11:39:10"}, "type": "Feature"}, {"geometry": {"coordinates": [8.518465, 47.3862083333333], "type": "Point"}, "properties": {"charge": 82, "id": "bird_1372244f-218b-4b54-904d-af96967d633f", "provider": "bird", "timeStamp": "02/07/2020, 11:39:10"}, "type": "Feature"}, {"geometry": {"coordinates": [8.51669333333333, 47.37574], "type": "Point"}, "properties": {"charge": 93, "id": "bird_35cd8fe9-b435-49ec-89b9-759d724595ff", "provider": "bird", "timeStamp": "02/07/2020, 11:39:10"}, "type": "Feature"}, {"geometry": {"coordinates": [8.51813833333333, 47.3858833333333], "type": "Point"}, "properties": {"charge": 89, "id": "bird_7d35195c-ee5d-416e-8c3b-80d81839cb70", "provider": "bird", "timeStamp": "02/07/2020, 11:39:10"}, "type": "Feature"}, {"geometry": {"coordinates": [8.516695, 47.375785], "type": "Point"}, "properties": {"charge": 52, "id": "bird_06f3214d-a59a-4a84-ba40-d264ffdd4c2e", "provider": "bird", "timeStamp": "02/07/2020, 11:39:10"}, "type": "Feature"}, {"geometry": {"coordinates": [8.51670333333333, 47.375775], "type": "Point"}, "properties": {"charge": 82, "id": "bird_536b8ced-768c-408e-8104-491479e0cca0", "provider": "bird", "timeStamp": "02/07/2020, 11:39:10"}, "type": "Feature"}, {"geometry": {"coordinates": [8.516745, 47.3757283333333], "type": "Point"}, "properties": {"charge": 98, "id": "bird_1e37e33e-5ce6-4dea-960d-a7354c54f4a8", "provider": "bird", "timeStamp": "02/07/2020, 11:39:10"}, "type": "Feature"}, {"geometry": {"coordinates": [8.51676, 47.3757166666667], "type": "Point"}, "properties": {"charge": 93, "id": "bird_15637fb8-8dd6-41a2-8efa-e6605c7c62cb", "provider": "bird", "timeStamp": "02/07/2020, 11:39:10"}, "type": "Feature"}, {"geometry": {"coordinates": [8.51829, 47.3859183333333], "type": "Point"}, "properties": {"charge": 89, "id": "bird_e6b8ce48-5ae6-44b0-b2f3-245d0e36b3f3", "provider": "bird", "timeStamp": "02/07/2020, 11:39:10"}, "type": "Feature"}, {"geometry": {"coordinates": [8.523505, 47.371155], "type": "Point"}, "properties": {"charge": 98, "id": "bird_2ba5016c-6f96-4400-8750-01225a7702ca", "provider": "bird", "timeStamp": "02/07/2020, 11:39:10"}, "type": "Feature"}, {"geometry": {"coordinates": [8.518555, 47.38612], "type": "Point"}, "properties": {"charge": 91, "id": "bird_4600afcc-fe3d-4308-bd00-4275de96d0c6", "provider": "bird", "timeStamp": "02/07/2020, 11:39:10"}, "type": "Feature"}, {"geometry": {"coordinates": [8.522725, 47.3714566666667], "type": "Point"}, "properties": {"charge": 78, "id": "bird_ba746817-a0c8-4772-aa65-0c8d196503f2", "provider": "bird", "timeStamp": "02/07/2020, 11:39:10"}, "type": "Feature"}, {"geometry": {"coordinates": [8.51557, 47.3788333333333], "type": "Point"}, "properties": {"charge": 39, "id": "bird_3415fccd-900d-4407-9ab9-ac16bf6aa21b", "provider": "bird", "timeStamp": "02/07/2020, 11:39:10"}, "type": "Feature"}, {"geometry": {"coordinates": [8.52346166666667, 47.3712466666667], "type": "Point"}, "properties": {"charge": 98, "id": "bird_88d84e33-21c2-4082-9abd-925694d6bf85", "provider": "bird", "timeStamp": "02/07/2020, 11:39:10"}, "type": "Feature"}, {"geometry": {"coordinates": [8.51854166666667, 47.3859983333333], "type": "Point"}, "properties": {"charge": 87, "id": "bird_aa131b9d-da16-45e6-80c4-6c59f2efc565", "provider": "bird", "timeStamp": "02/07/2020, 11:39:10"}, "type": "Feature"}, {"geometry": {"coordinates": [8.54370833333333, 47.3769183333333], "type": "Point"}, "properties": {"charge": 42, "id": "bird_9a2b2f0a-b004-4c78-92a7-390ad61c837a", "provider": "bird", "timeStamp": "02/07/2020, 11:39:10"}, "type": "Feature"}, {"geometry": {"coordinates": [8.524165, 47.3710933333333], "type": "Point"}, "properties": {"charge": 91, "id": "bird_09140fed-9cb0-417f-bc9b-24ea4ac5e10f", "provider": "bird", "timeStamp": "02/07/2020, 11:39:10"}, "type": "Feature"}, {"geometry": {"coordinates": [8.54347666666667, 47.3833116666667], "type": "Point"}, "properties": {"charge": 91, "id": "bird_85307dcd-14c7-4281-8956-faf8a8394a21", "provider": "bird", "timeStamp": "02/07/2020, 11:39:10"}, "type": "Feature"}, {"geometry": {"coordinates": [8.54343166666667, 47.3833433333333], "type": "Point"}, "properties": {"charge": 91, "id": "bird_2dc8fe09-b24f-4957-a839-17f09af60603", "provider": "bird", "timeStamp": "02/07/2020, 11:39:10"}, "type": "Feature"}, {"geometry": {"coordinates": [8.54354833333333, 47.38308], "type": "Point"}, "properties": {"charge": 93, "id": "bird_5463e0d0-46b9-4e0e-acc0-c688dc68bf12", "provider": "bird", "timeStamp": "02/07/2020, 11:39:10"}, "type": "Feature"}, {"geometry": {"coordinates": [8.54351, 47.3830683333333], "type": "Point"}, "properties": {"charge": 37, "id": "bird_e2ec4534-e541-4a85-9c0c-f81c4139cb37", "provider": "bird", "timeStamp": "02/07/2020, 11:39:10"}, "type": "Feature"}, {"geometry": {"coordinates": [8.524285, 47.37117], "type": "Point"}, "properties": {"charge": 84, "id": "bird_af89809f-6363-4e4d-af4c-c844db50a7f4", "provider": "bird", "timeStamp": "02/07/2020, 11:39:10"}, "type": "Feature"}, {"geometry": {"coordinates": [8.54348833333333, 47.383065], "type": "Point"}, "properties": {"charge": 93, "id": "bird_471a8ecb-89c6-4a70-9d47-3c9f01dd03d5", "provider": "bird", "timeStamp": "02/07/2020, 11:39:10"}, "type": "Feature"}, {"geometry": {"coordinates": [8.521715, 47.3877866666667], "type": "Point"}, "properties": {"charge": 39, "id": "bird_8d35aaa5-4fb2-4f1b-990a-e1f9b80ed823", "provider": "bird", "timeStamp": "02/07/2020, 11:39:10"}, "type": "Feature"}, {"geometry": {"coordinates": [8.52431833333333, 47.3712083333333], "type": "Point"}, "properties": {"charge": 76, "id": "bird_eb8955d9-03a5-4c5f-83ca-1e54952976d4", "provider": "bird", "timeStamp": "02/07/2020, 11:39:10"}, "type": "Feature"}, {"geometry": {"coordinates": [8.51598666666667, 47.3786433333333], "type": "Point"}, "properties": {"charge": 44, "id": "bird_11be8c33-c67d-4873-ac6e-51ad1c694d19", "provider": "bird", "timeStamp": "02/07/2020, 11:39:10"}, "type": "Feature"}, {"geometry": {"coordinates": [8.51876, 47.3856466666667], "type": "Point"}, "properties": {"charge": 80, "id": "bird_d1393403-0928-4f91-9247-b5dcea99e64f", "provider": "bird", "timeStamp": "02/07/2020, 11:39:10"}, "type": "Feature"}, {"geometry": {"coordinates": [8.519855, 47.3734933333333], "type": "Point"}, "properties": {"charge": 48, "id": "bird_fa3d9dfa-2fcf-4485-9b43-932f7fef9286", "provider": "bird", "timeStamp": "02/07/2020, 11:39:10"}, "type": "Feature"}, {"geometry": {"coordinates": [8.51835666666667, 47.3852266666667], "type": "Point"}, "properties": {"charge": 91, "id": "bird_97b1406f-8c3d-4b3f-b748-ed9cf8ac41e8", "provider": "bird", "timeStamp": "02/07/2020, 11:39:10"}, "type": "Feature"}, {"geometry": {"coordinates": [8.53701166666667, 47.3718566666667], "type": "Point"}, "properties": {"charge": 66, "id": "bird_85734ce9-9aa0-48ff-9499-9f61b0ca96b1", "provider": "bird", "timeStamp": "02/07/2020, 11:39:10"}, "type": "Feature"}, {"geometry": {"coordinates": [8.53933666666667, 47.373085], "type": "Point"}, "properties": {"charge": 18, "id": "bird_9686463e-7539-4b9f-a068-799c4163e170", "provider": "bird", "timeStamp": "02/07/2020, 11:39:10"}, "type": "Feature"}, {"geometry": {"coordinates": [8.53913666666667, 47.3729666666667], "type": "Point"}, "properties": {"charge": 61, "id": "bird_0ea654f7-a2f2-4bb9-9da8-3aa48fd5d6e0", "provider": "bird", "timeStamp": "02/07/2020, 11:39:10"}, "type": "Feature"}, {"geometry": {"coordinates": [8.53773666666667, 47.3722833333333], "type": "Point"}, "properties": {"charge": 51, "id": "bird_9470e78f-bb44-480d-94d0-58c931235d42", "provider": "bird", "timeStamp": "02/07/2020, 11:39:10"}, "type": "Feature"}, {"geometry": {"coordinates": [8.53765, 47.3723], "type": "Point"}, "properties": {"charge": 67, "id": "bird_ae6b0e38-e219-4ae4-a0ad-2508500a10f2", "provider": "bird", "timeStamp": "02/07/2020, 11:39:10"}, "type": "Feature"}, {"geometry": {"coordinates": [8.52388333333333, 47.3716966666667], "type": "Point"}, "properties": {"charge": 62, "id": "bird_5e1470dd-1abb-4779-bfa9-c7124e036f9f", "provider": "bird", "timeStamp": "02/07/2020, 11:39:10"}, "type": "Feature"}, {"geometry": {"coordinates": [8.53946333333333, 47.3734283333333], "type": "Point"}, "properties": {"charge": 55, "id": "bird_353aa112-2791-4951-a018-fe3dd6c516df", "provider": "bird", "timeStamp": "02/07/2020, 11:39:10"}, "type": "Feature"}, {"geometry": {"coordinates": [8.51665666666667, 47.3800016666667], "type": "Point"}, "properties": {"charge": 44, "id": "bird_03764669-6bb1-4e15-85d3-da5afcb9a136", "provider": "bird", "timeStamp": "02/07/2020, 11:39:10"}, "type": "Feature"}, {"geometry": {"coordinates": [8.529815, 47.371205], "type": "Point"}, "properties": {"charge": 46, "id": "bird_e27a44a8-27dc-4884-a7c9-65cd905bdbb7", "provider": "bird", "timeStamp": "02/07/2020, 11:39:10"}, "type": "Feature"}, {"geometry": {"coordinates": [8.53102833333333, 47.371285], "type": "Point"}, "properties": {"charge": 10, "id": "bird_2f251550-6cd8-40ef-a500-4d3a73f9bac7", "provider": "bird", "timeStamp": "02/07/2020, 11:39:10"}, "type": "Feature"}, {"geometry": {"coordinates": [8.52703333333333, 47.3716583333333], "type": "Point"}, "properties": {"charge": 20, "id": "bird_8eb86e83-5391-45d6-a3a0-0871480efb3f", "provider": "bird", "timeStamp": "02/07/2020, 11:39:10"}, "type": "Feature"}, {"geometry": {"coordinates": [8.53429166666667, 47.3721], "type": "Point"}, "properties": {"charge": 65, "id": "bird_b4aac620-62b7-44f6-9642-f8f17082e33f", "provider": "bird", "timeStamp": "02/07/2020, 11:39:10"}, "type": "Feature"}, {"geometry": {"coordinates": [8.52180833333333, 47.3861116666667], "type": "Point"}, "properties": {"charge": 80, "id": "bird_edde022b-b18c-4439-93cd-b4a0b1e7110f", "provider": "bird", "timeStamp": "02/07/2020, 11:39:10"}, "type": "Feature"}, {"geometry": {"coordinates": [8.52248, 47.386455], "type": "Point"}, "properties": {"charge": 47, "id": "bird_10befb3e-ecb3-4a20-a143-a138769c3877", "provider": "bird", "timeStamp": "02/07/2020, 11:39:10"}, "type": "Feature"}, {"geometry": {"coordinates": [8.526795, 47.3879083333333], "type": "Point"},