{"features": [{"geometry": {"coordinates": [8.540062, 47.374392], "type": "Point"}, "properties": {"address": "Uraniastrasse 7", "electric": 5, "id": "pb_60", "manual": 9, "name": "Demo Station Werdm\u00fchleplatz", "provider": "publibike", "timeStamp": "01/30/2020, 10:38:21", "zip": 8001}, "type": "Feature"}, {"geometry": {"coordinates": [8.5452956, 47.4099615], "type": "Point"}, "properties": {"address": "Querstrasse 8", "electric": 4, "id": "pb_61", "manual": 1, "name": "Marktplatz", "provider": "publibike", "timeStamp": "01/30/2020, 10:38:21", "zip": 8050}, "type": "Feature"}, {"geometry": {"coordinates": [8.5156327, 47.3795837], "type": "Point"}, "properties": {"address": "Bullingerstrasse 5", "electric": 1, "id": "pb_80", "manual": 9, "name": "Bullingerplatz", "provider": "publibike", "timeStamp": "01/30/2020, 10:38:21", "zip": 8004}, "type": "Feature"}, {"geometry": {"coordinates": [8.5104051, 47.3899342], "type": "Point"}, "properties": {"address": "Pfingstweidstrasse 96e", "electric": 5, "id": "pb_81", "manual": 6, "name": "Herdern", "provider": "publibike", "timeStamp": "01/30/2020, 10:38:21", "zip": 8001}, "type": "Feature"}, {"geometry": {"coordinates": [8.535718, 47.359675], "type": "Point"}, "properties": {"address": "Mythenquai 50", "electric": 18, "id": "pb_82", "manual": 6, "name": "Hafen Enge", "provider": "publibike", "timeStamp": "01/30/2020, 10:38:21", "zip": 8002}, "type": "Feature"}, {"geometry": {"coordinates": [8.520370505, 47.358663827], "type": "Point"}, "properties": {"address": "Bubenbergstrasse 1", "electric": 1, "id": "pb_83", "manual": 4, "name": "Comerge", "provider": "publibike", "timeStamp": "01/30/2020, 10:38:21", "zip": 8045}, "type": "Feature"}, {"geometry": {"coordinates": [8.5412505, 47.3789825], "type": "Point"}, "properties": {"address": "Museumstrasse 2", "electric": 3, "id": "pb_84", "manual": 9, "name": "Landesmuseum", "provider": "publibike", "timeStamp": "01/30/2020, 10:38:21", "zip": 8001}, "type": "Feature"}, {"geometry": {"coordinates": [8.5235479, 47.3716661], "type": "Point"}, "properties": {"address": "Birmensdorferstrasse 80", "electric": 1, "id": "pb_85", "manual": 7, "name": "Bahnhof Wiedikon", "provider": "publibike", "timeStamp": "01/30/2020, 10:38:21", "zip": 8003}, "type": "Feature"}, {"geometry": {"coordinates": [8.506822854, 47.40781197], "type": "Point"}, "properties": {"address": "Stefano-Franscini-Platz 5", "electric": 9, "id": "pb_86", "manual": 0, "name": "ETH H\u00f6nggerberg", "provider": "publibike", "timeStamp": "01/30/2020, 10:38:21", "zip": 8093}, "type": "Feature"}, {"geometry": {"coordinates": [8.536101, 47.371083], "type": "Point"}, "properties": {"address": "Pelikanplatz 5", "electric": 4, "id": "pb_87", "manual": 3, "name": "Pelikanplatz", "provider": "publibike", "timeStamp": "01/30/2020, 10:38:21", "zip": 8001}, "type": "Feature"}, {"geometry": {"coordinates": [8.5257822, 47.3651936], "type": "Point"}, "properties": {"address": "H\u00fcrlimannplatz 90", "electric": 35, "id": "pb_88", "manual": 10, "name": "H\u00fcrlimannplatz", "provider": "publibike", "timeStamp": "01/30/2020, 10:38:21", "zip": 8002}, "type": "Feature"}, {"geometry": {"coordinates": [8.5313344, 47.3713591], "type": "Point"}, "properties": {"address": "Selnaustrasse 32", "electric": 10, "id": "pb_89", "manual": 3, "name": "Stauffacherbr\u00fccke", "provider": "publibike", "timeStamp": "01/30/2020, 10:38:21", "zip": 8001}, "type": "Feature"}, {"geometry": {"coordinates": [8.5056978, 47.3917964], "type": "Point"}, "properties": {"address": "Sportweg 25", "electric": 5, "id": "pb_90", "manual": 6, "name": "Sportweg", "provider": "publibike", "timeStamp": "01/30/2020, 10:38:21", "zip": 8005}, "type": "Feature"}, {"geometry": {"coordinates": [8.5181701, 47.3917837], "type": "Point"}, "properties": {"address": "Hardturmstrasse 11", "electric": 2, "id": "pb_91", "manual": 5, "name": "Puls 5", "provider": "publibike", "timeStamp": "01/30/2020, 10:38:21", "zip": 8005}, "type": "Feature"}, {"geometry": {"coordinates": [8.5286468, 47.3820827], "type": "Point"}, "properties": {"address": "R\u00f6ntgenstrasse 6", "electric": 2, "id": "pb_92", "manual": 5, "name": "R\u00f6ntgenstrasse", "provider": "publibike", "timeStamp": "01/30/2020, 10:38:21", "zip": 8005}, "type": "Feature"}, {"geometry": {"coordinates": [8.531935, 47.384918], "type": "Point"}, "properties": {"address": "Kornhausbr\u00fccke 1", "electric": 0, "id": "pb_93", "manual": 8, "name": "Limmatplatz", "provider": "publibike", "timeStamp": "01/30/2020, 10:38:21", "zip": 8005}, "type": "Feature"}, {"geometry": {"coordinates": [8.5354006, 47.3758639], "type": "Point"}, "properties": {"address": "Gessnerallee 15", "electric": 2, "id": "pb_94", "manual": 1, "name": "Gessnerallee", "provider": "publibike", "timeStamp": "01/30/2020, 10:38:21", "zip": 8001}, "type": "Feature"}, {"geometry": {"coordinates": [8.523818, 47.377148], "type": "Point"}, "properties": {"address": "Stauffacherstrasse 127", "electric": 6, "id": "pb_95", "manual": 8, "name": "B\u00e4ckeranlage", "provider": "publibike", "timeStamp": "01/30/2020, 10:38:21", "zip": 8004}, "type": "Feature"}, {"geometry": {"coordinates": [8.531836, 47.378548], "type": "Point"}, "properties": {"address": "Lagerstrasse 44", "electric": 14, "id": "pb_96", "manual": 11, "name": "Gustav-Gull-Platz", "provider": "publibike", "timeStamp": "01/30/2020, 10:38:21", "zip": 8004}, "type": "Feature"}, {"geometry": {"coordinates": [8.5104883, 47.3771535], "type": "Point"}, "properties": {"address": "Zurlindenstrasse 291", "electric": 1, "id": "pb_97", "manual": 4, "name": "Zurlindenstrasse", "provider": "publibike", "timeStamp": "01/30/2020, 10:38:21", "zip": 8003}, "type": "Feature"}, {"geometry": {"coordinates": [8.5333139, 47.3731102], "type": "Point"}, "properties": {"address": "Sihlstrasse 81", "electric": 3, "id": "pb_98", "manual": 2, "name": "Sihlstrasse", "provider": "publibike", "timeStamp": "01/30/2020, 10:38:21", "zip": 8001}, "type": "Feature"}, {"geometry": {"coordinates": [8.520532, 47.374951], "type": "Point"}, "properties": {"address": "Feldstrasse 24", "electric": 0, "id": "pb_99", "manual": 8, "name": "Kalkbreite", "provider": "publibike", "timeStamp": "01/30/2020, 10:38:21", "zip": 8004}, "type": "Feature"}, {"geometry": {"coordinates": [8.539046, 47.368064], "type": "Point"}, "properties": {"address": "Talstrasse 12", "electric": 0, "id": "pb_100", "manual": 4, "name": "Z\u00fcrcher Kantonalbank", "provider": "publibike", "timeStamp": "01/30/2020, 10:38:21", "zip": 8001}, "type": "Feature"}, {"geometry": {"coordinates": [8.5348427, 47.3625938], "type": "Point"}, "properties": {"address": "Breitingerstrasse 5", "electric": 1, "id": "pb_101", "manual": 3, "name": "Rentenanstalt", "provider": "publibike", "timeStamp": "01/30/2020, 10:38:21", "zip": 8002}, "type": "Feature"}, {"geometry": {"coordinates": [8.5166922, 47.3897772], "type": "Point"}, "properties": {"address": "Technoparkstrasse 4", "electric": 8, "id": "pb_102", "manual": 4, "name": "Turbinenplatz", "provider": "publibike", "timeStamp": "01/30/2020, 10:38:21", "zip": 8005}, "type": "Feature"}, {"geometry": {"coordinates": [8.539312, 47.3739964], "type": "Point"}, "properties": {"address": "Oetenbachgasse 14", "electric": 7, "id": "pb_104", "manual": 10, "name": "Rennweg", "provider": "publibike", "timeStamp": "01/30/2020, 10:38:21", "zip": 8001}, "type": "Feature"}, {"geometry": {"coordinates": [8.5360685, 47.3775022], "type": "Point"}, "properties": {"address": "Kasernenstrasse 101", "electric": 11, "id": "pb_105", "manual": 23, "name": "Sihlpost", "provider": "publibike", "timeStamp": "01/30/2020, 10:38:21", "zip": 8004}, "type": "Feature"}, {"geometry": {"coordinates": [8.53545, 47.382798], "type": "Point"}, "properties": {"address": "Ausstellungsstrasse 44", "electric": 10, "id": "pb_106", "manual": 6, "name": "Museum f\u00fcr Gestaltung", "provider": "publibike", "timeStamp": "01/30/2020, 10:38:21", "zip": 8005}, "type": "Feature"}, {"geometry": {"coordinates": [8.5306155, 47.3647902], "type": "Point"}, "properties": {"address": "Gutenbergstrasse 1", "electric": 0, "id": "pb_107", "manual": 0, "name": "Bederbr\u00fccke", "provider": "publibike", "timeStamp": "01/30/2020, 10:38:21", "zip": 8002}, "type": "Feature"}, {"geometry": {"coordinates": [8.518982, 47.386741], "type": "Point"}, "properties": {"address": "Geroldstrasse 4", "electric": 4, "id": "pb_108", "manual": 11, "name": "Bahnhof Hardbr\u00fccke", "provider": "publibike", "timeStamp": "01/30/2020, 10:38:21", "zip": 8005}, "type": "Feature"}, {"geometry": {"coordinates": [8.53001018, 47.37247535], "type": "Point"}, "properties": {"address": "Werdstrasse 21", "electric": 15, "id": "pb_109", "manual": 2, "name": "Tamedia", "provider": "publibike", "timeStamp": "01/30/2020, 10:38:21", "zip": 8004}, "type": "Feature"}, {"geometry": {"coordinates": [8.4860017, 47.396401], "type": "Point"}, "properties": {"address": "Gr\u00fcnauring 37", "electric": 5, "id": "pb_110", "manual": 6, "name": "Gr\u00fcnau", "provider": "publibike", "timeStamp": "01/30/2020, 10:38:21", "zip": 8064}, "type": "Feature"}, {"geometry": {"coordinates": [8.548519, 47.376756], "type": "Point"}, "properties": {"address": "R\u00e4mistrasse 101", "electric": 38, "id": "pb_111", "manual": 1, "name": "ETH Zentrum", "provider": "publibike", "timeStamp": "01/30/2020, 10:38:21", "zip": 8006}, "type": "Feature"}, {"geometry": {"coordinates": [8.520449, 47.388151], "type": "Point"}, "properties": {"address": "Josefstrasse 224", "electric": 3, "id": "pb_112", "manual": 4, "name": "Steinfelsareal", "provider": "publibike", "timeStamp": "01/30/2020, 10:38:21", "zip": 8005}, "type": "Feature"}, {"geometry": {"coordinates": [8.520482, 47.37209], "type": "Point"}, "properties": {"address": "Weststrasse 115", "electric": 5, "id": "pb_124", "manual": 5, "name": "Weststrasse", "provider": "publibike", "timeStamp": "01/30/2020, 10:38:21", "zip": 8003}, "type": "Feature"}, {"geometry": {"coordinates": [8.496727, 47.378521], "type": "Point"}, "properties": {"address": "Albisriederstrasse 200", "electric": 5, "id": "pb_125", "manual": 1, "name": "Utogrund", "provider": "publibike", "timeStamp": "01/30/2020, 10:38:21", "zip": 8047}, "type": "Feature"}, {"geometry": {"coordinates": [8.510418, 47.381356], "type": "Point"}, "properties": {"address": "Bullingerstrasse 73", "electric": 6, "id": "pb_126", "manual": 4, "name": "Hardau", "provider": "publibike", "timeStamp": "01/30/2020, 10:38:21", "zip": 8004}, "type": "Feature"}, {"geometry": {"coordinates": [8.525525, 47.361567], "type": "Point"}, "properties": {"address": "Klopstockstrasse 23", "electric": 1, "id": "pb_127", "manual": 0, "name": "Klopstockwiese", "provider": "publibike", "timeStamp": "01/30/2020, 10:38:21", "zip": 8002}, "type": "Feature"}, {"geometry": {"coordinates": [8.518143, 47.363148], "type": "Point"}, "properties": {"address": "Haldenstrasse 8", "electric": 8, "id": "pb_128", "manual": 5, "name": "Binz", "provider": "publibike", "timeStamp": "01/30/2020, 10:38:21", "zip": 8045}, "type": "Feature"}, {"geometry": {"coordinates": [8.542726, 47.379952], "type": "Point"}, "properties": {"address": "Walchestrasse 11", "electric": 3, "id": "pb_129", "manual": 4, "name": "Stampfenbachplatz", "provider": "publibike", "timeStamp": "01/30/2020, 10:38:21", "zip": 8006}, "type": "Feature"}, {"geometry": {"coordinates": [8.488108, 47.391366], "type": "Point"}, "properties": {"address": "Altstetterplatz 1", "electric": 9, "id": "pb_130", "manual": 6, "name": "Bahnhof Altstetten", "provider": "publibike", "timeStamp": "01/30/2020, 10:38:21", "zip": 8048}, "type": "Feature"}, {"geometry": {"coordinates": [8.554114, 47.365119], "type": "Point"}, "properties": {"address": "Kreuzplatz 2", "electric": 0, "id": "pb_131", "manual": 5, "name": "Kreuzplatz", "provider": "publibike", "timeStamp": "01/30/2020, 10:38:21", "zip": 8032}, "type": "Feature"}, {"geometry": {"coordinates": [8.549852, 47.35594], "type": "Point"}, "properties": {"address": "H\u00f6schgasse 3", "electric": 2, "id": "pb_132", "manual": 9, "name": "Blatterwiese", "provider": "publibike", "timeStamp": "01/30/2020, 10:38:21", "zip": 8008}, "type": "Feature"}, {"geometry": {"coordinates": [8.554501, 47.36162], "type": "Point"}, "properties": {"address": "Feldeggstrasse 80", "electric": 1, "id": "pb_133", "manual": 2, "name": "Villa Bleuler", "provider": "publibike", "timeStamp": "01/30/2020, 10:38:21", "zip": 8008}, "type": "Feature"}, {"geometry": {"coordinates": [8.557088, 47.358557], "type": "Point"}, "properties": {"address": "M\u00fchlebachstrasse 131", "electric": 1, "id": "pb_134", "manual": 2, "name": "M\u00fchlebachstrasse", "provider": "publibike", "timeStamp": "01/30/2020, 10:38:21", "zip": 8008}, "type": "Feature"}, {"geometry": {"coordinates": [8.547639, 47.361266], "type": "Point"}, "properties": {"address": "Utoquai 50", "electric": 10, "id": "pb_135", "manual": 7, "name": "Seebad Utoquai", "provider": "publibike", "timeStamp": "01/30/2020, 10:38:21", "zip": 8008}, "type": "Feature"}, {"geometry": {"coordinates": [8.548045, 47.370869], "type": "Point"}, "properties": {"address": "Heimplatz 1", "electric": 5, "id": "pb_137", "manual": 1, "name": "Kunsthaus", "provider": "publibike", "timeStamp": "01/30/2020, 10:38:21", "zip": 8001}, "type": "Feature"}, {"geometry": {"coordinates": [8.543447, 47.375933], "type": "Point"}, "properties": {"address": "Limmatquai 138", "electric": 6, "id": "pb_138", "manual": 12, "name": "Central", "provider": "publibike", "timeStamp": "01/30/2020, 10:38:21", "zip": 8001}, "type": "Feature"}, {"geometry": {"coordinates": [8.549356, 47.408827], "type": "Point"}, "properties": {"address": "Tramstrasse 35", "electric": 4, "id": "pb_139", "manual": 4, "name": "ewz Tramstrasse", "provider": "publibike", "timeStamp": "01/30/2020, 10:38:21", "zip": 8050}, "type": "Feature"}, {"geometry": {"coordinates": [8.533736, 47.366904], "type": "Point"}, "properties": {"address": "Bleicherweg 33", "electric": 1, "id": "pb_140", "manual": 12, "name": "Bleicherweg", "provider": "publibike", "timeStamp": "01/30/2020, 10:38:21", "zip": 8002}, "type": "Feature"}, {"geometry": {"coordinates": [8.544935, 47.366752], "type": "Point"}, "properties": {"address": "Bellevueplatz 2", "electric": 7, "id": "pb_141", "manual": 20, "name": "Bellevue", "provider": "publibike", "timeStamp": "01/30/2020, 10:38:21", "zip": 8001}, "type": "Feature"}, {"geometry": {"coordinates": [8.5285533, 47.3742296], "type": "Point"}, "properties": {"address": "Stauffacherstrasse 41", "electric": 4, "id": "pb_142", "manual": 0, "name": "Stauffacher", "provider": "publibike", "timeStamp": "01/30/2020, 10:38:21", "zip": 8004}, "type": "Feature"}, {"geometry": {"coordinates": [8.523722, 47.3899], "type": "Point"}, "properties": {"address": "Limmatstrasse 310", "electric": 1, "id": "pb_143", "manual": 5, "name": "Escher-Wyss-Platz", "provider": "publibike", "timeStamp": "01/30/2020, 10:38:21", "zip": 8005}, "type": "Feature"}, {"geometry": {"coordinates": [8.491061, 47.392336], "type": "Point"}, "properties": {"address": "Vulkanplatz 1", "electric": 4, "id": "pb_149", "manual": 5, "name": "Vulkanplatz", "provider": "publibike", "timeStamp": "01/30/2020, 10:38:21", "zip": 8048}, "type": "Feature"}, {"geometry": {"coordinates": [8.52306, 47.359872], "type": "Point"}, "properties": {"address": "Giessh\u00fcbelstrasse 15", "electric": 6, "id": "pb_150", "manual": 5, "name": "Utoplatz", "provider": "publibike", "timeStamp": "01/30/2020, 10:38:21", "zip": 8045}, "type": "Feature"}, {"geometry": {"coordinates": [8.486284, 47.387685], "type": "Point"}, "properties": {"address": "Lindenplatz 1", "electric": 10, "id": "pb_151", "manual": 5, "name": "Lindenplatz", "provider": "publibike", "timeStamp": "01/30/2020, 10:38:21", "zip": 8048}, "type": "Feature"}, {"geometry": {"coordinates": [8.49163, 47.389823], "type": "Point"}, "properties": {"address": "Hohlstrasse 563", "electric": 4, "id": "pb_152", "manual": 8, "name": "Luggweg", "provider": "publibike", "timeStamp": "01/30/2020, 10:38:21", "zip": 8048}, "type": "Feature"}, {"geometry": {"coordinates": [8.52174, 47.365272], "type": "Point"}, "properties": {"address": "Manessestrasse 87", "electric": 1, "id": "pb_153", "manual": 7, "name": "Manesseplatz", "provider": "publibike", "timeStamp": "01/30/2020, 10:38:21", "zip": 8045}, "type": "Feature"}, {"geometry": {"coordinates": [8.52714, 47.372329], "type": "Point"}, "properties": {"address": "Werdstrasse 75", "electric": 4, "id": "pb_154", "manual": 6, "name": "Werd", "provider": "publibike", "timeStamp": "01/30/2020, 10:38:21", "zip": 8004}, "type": "Feature"}, {"geometry": {"coordinates": [8.543042, 47.374711], "type": "Point"}, "properties": {"address": "Limmatquai 100", "electric": 0, "id": "pb_155", "manual": 0, "name": "Rudolf-Brun-Br\u00fccke", "provider": "publibike", "timeStamp": "01/30/2020, 10:38:21", "zip": 8001}, "type": "Feature"}, {"geometry": {"coordinates": [8.490837, 47.386596], "type": "Point"}, "properties": {"address": "Badenerstrasse 627", "electric": 3, "id": "pb_156", "manual": 6, "name": "Luggwegstrasse VBZ", "provider": "publibike", "timeStamp": "01/30/2020, 10:38:21", "zip": 8048}, "type": "Feature"}, {"geometry": {"coordinates": [8.535119, 47.355189], "type": "Point"}, "properties": {"address": "Mythenquai 95", "electric": 0, "id": "pb_157", "manual": 1, "name": "Strandbad Mythenquai", "provider": "publibike", "timeStamp": "01/30/2020, 10:38:21", "zip": 8002}, "type": "Feature"}, {"geometry": {"coordinates": [8.545505, 47.373675], "type": "Point"}, "properties": {"address": "Predigerpatz 21", "electric": 2, "id": "pb_158", "manual": 4, "name": "Predigerplatz", "provider": "publibike", "timeStamp": "01/30/2020, 10:38:21", "zip": 8001}, "type": "Feature"}, {"geometry": {"coordinates": [8.515558, 47.371868], "type": "Point"}, "properties": {"address": "Aemtlerstrasse 23", "electric": 0, "id": "pb_159", "manual": 3, "name": "Zwinglihaus", "provider": "publibike", "timeStamp": "01/30/2020, 10:38:21", "zip": 8003}, "type": "Feature"}, {"geometry": {"coordinates": [8.524629, 47.386072], "type": "Point"}, "properties": {"address": "Josefstrasse 188", "electric": 2, "id": "pb_160", "manual": 1, "name": "Josefwiese", "provider": "publibike", "timeStamp": "01/30/2020, 10:38:21", "zip": 8005}, "type": "Feature"}, {"geometry": {"coordinates": [8.527138, 47.387531], "type": "Point"}, "properties": {"address": "R\u00f6ntgenstrasse 87", "electric": 1, "id": "pb_164", "manual": 2, "name": "Markthalle", "provider": "publibike", "timeStamp": "01/30/2020, 10:38:21", "zip": 8005}, "type": "Feature"}, {"geometry": {"coordinates": [8.552717, 47.359978], "type": "Point"}, "properties": {"address": "Seefeldstrasse 96", "electric": 4, "id": "pb_263", "manual": 11, "name": "Feldeggstrasse", "provider": "publibike", "timeStamp": "01/30/2020, 10:38:21", "zip": 8008}, "type": "Feature"}, {"geometry": {"coordinates": [8.553189, 47.353198], "type": "Point"}, "properties": {"address": "Bellerivestrasse 170", "electric": 5, "id": "pb_264", "manual": 1, "name": "Lake Side", "provider": "publibike", "timeStamp": "01/30/2020, 10:38:21", "zip": 8008}, "type": "Feature"}, {"geometry": {"coordinates": [8.543437, 47.369256], "type": "Point"}, "properties": {"address": "Limmatquai 18", "electric": 0, "id": "pb_265", "manual": 0, "name": "Helmhaus", "provider": "publibike", "timeStamp": "01/30/2020, 10:38:21", "zip": 8032}, "type": "Feature"}, {"geometry": {"coordinates": [8.516676, 47.375819], "type": "Point"}, "properties": {"address": "Badenerstrasse 246", "electric": 0, "id": "pb_266", "manual": 4, "name": "Lochergut", "provider": "publibike", "timeStamp": "01/30/2020, 10:38:21", "zip": 8004}, "type": "Feature"}, {"geometry": {"coordinates": [8.514605, 47.389862], "type": "Point"}, "properties": {"address": "Pfingstweidstrasse 60", "electric": 7, "id": "pb_273", "manual": 3, "name": "Westpark", "provider": "publibike", "timeStamp": "01/30/2020, 10:38:21", "zip": 8005}, "type": "Feature"}, {"geometry": {"coordinates": [8.541239126, 47.375991201], "type": "Point"}, "properties": {"address": "Beatenplatz 1", "electric": 6, "id": "pb_274", "manual": 9, "name": "Beatenplatz", "provider": "publibike", "timeStamp": "01/30/2020, 10:38:21", "zip": 8001}, "type": "Feature"}, {"geometry": {"coordinates": [8.5417135, 47.3942197], "type": "Point"}, "properties": {"address": "Scheuchzerstrasse 181", "electric": 1, "id": "pb_275", "manual": 0, "name": "Pauluskirche", "provider": "publibike", "timeStamp": "01/30/2020, 10:38:21", "zip": 8057}, "type": "Feature"}, {"geometry": {"coordinates": [8.5528182, 47.414558], "type": "Point"}, "properties": {"address": "Hagenholzstrasse 51", "electric": 4, "id": "pb_276", "manual": 9, "name": "Airgate", "provider": "publibike", "timeStamp": "01/30/2020, 10:38:21", "zip": 8050}, "type": "Feature"}, {"geometry": {"coordinates": [8.537816, 47.413514], "type": "Point"}, "properties": {"address": "Birchstrasse 183", "electric": 5, "id": "pb_277", "manual": 4, "name": "Lamprechtweg", "provider": "publibike", "timeStamp": "01/30/2020, 10:38:21", "zip": 8050}, "type": "Feature"}, {"geometry": {"coordinates": [8.545602, 47.417701], "type": "Point"}, "properties": {"address": "Felsenrainstrasse 2", "electric": 2, "id": "pb_278", "manual": 7, "name": "Emil-Oberh\u00e4nsli", "provider": "publibike", "timeStamp": "01/30/2020, 10:38:21", "zip": 8050}, "type": "Feature"}, {"geometry": {"coordinates": [8.533647, 47.39808], "type": "Point"}, "properties": {"address": "Bucheggplatz 2", "electric": 0, "id": "pb_279", "manual": 0, "name": "Bucheggplatz", "provider": "publibike", "timeStamp": "01/30/2020, 10:38:21", "zip": 8057}, "type": "Feature"}, {"geometry": {"coordinates": [8.523549, 47.392347], "type": "Point"}, "properties": {"address": "Wipkingerplatz 4", "electric": 0, "id": "pb_280", "manual": 5, "name": "Wipkingerplatz", "provider": "publibike", "timeStamp": "01/30/2020, 10:38:21", "zip": 8037}, "type": "Feature"}, {"geometry": {"coordinates": [8.548562, 47.36691], "type": "Point"}, "properties": {"address": "Galerie \u00fcber Gleis 2/3", "electric": 14, "id": "pb_285", "manual": 2, "name": "Bahnhof Stadelhofen", "provider": "publibike", "timeStamp": "01/30/2020, 10:38:21", "zip": 8001}, "type": "Feature"}, {"geometry": {"coordinates": [8.493822, 47.3985553], "type": "Point"}, "properties": {"address": "Meierwiesenstrasse 12-4", "electric": 2, "id": "pb_286", "manual": 1, "name": "T\u00fcffenwies", "provider": "publibike", "timeStamp": "01/30/2020, 10:38:21", "zip": 8064}, "type": "Feature"}, {"geometry": {"coordinates": [8.552432, 47.3801757], "type": "Point"}, "properties": {"address": "Hochstrasse 34", "electric": 2, "id": "pb_356", "manual": 1, "name": "Siriuswiese", "provider": "publibike", "timeStamp": "01/30/2020, 10:38:21", "zip": 8044}, "type": "Feature"}, {"geometry": {"coordinates": [8.527298, 47.370141], "type": "Point"}, "properties": {"address": "Hallwylstrasse 71", "electric": 0, "id": "pb_357", "manual": 0, "name": "Hallwylstrasse", "provider": "publibike", "timeStamp": "01/30/2020, 10:38:21", "zip": 8004}, "type": "Feature"}, {"geometry": {"coordinates": [8.5414185, 47.3972455], "type": "Point"}, "properties": {"address": "Schaffhauserstrasse 137", "electric": 2, "id": "pb_358", "manual": 0, "name": "Milchbuck", "provider": "publibike", "timeStamp": "01/30/2020, 10:38:21", "zip": 8057}, "type": "Feature"}, {"geometry": {"coordinates": [8.512381, 47.393409], "type": "Point"}, "properties": {"address": "Hardturmstrasse 161", "electric": 4, "id": "pb_359", "manual": 3, "name": "Fischerweg", "provider": "publibike", "timeStamp": "01/30/2020, 10:38:21", "zip": 8005}, "type": "Feature"}, {"geometry": {"coordinates": [8.5421457, 47.3876979], "type": "Point"}, "properties": {"address": "Turnerstrasse 47", "electric": 1, "id": "pb_360", "manual": 2, "name": "Kirche Unterstrass", "provider": "publibike", "timeStamp": "01/30/2020, 10:38:21", "zip": 8006}, "type": "Feature"}, {"geometry": {"coordinates": [8.522117, 47.394554], "type": "Point"}, "properties": {"address": "Dorfstrasse 40", "electric": 2, "id": "pb_361", "manual": 3, "name": "Dorfstrasse", "provider": "publibike", "timeStamp": "01/30/2020, 10:38:21", "zip": 8037}, "type": "Feature"}, {"geometry": {"coordinates": [8.530437, 47.37271], "type": "Point"}, "properties": {"address": "Werdstrasse 25", "electric": 3, "id": "pb_362", "manual": 6, "name": "Stauffachertor", "provider": "publibike", "timeStamp": "01/30/2020, 10:38:21", "zip": 8004}, "type": "Feature"}, {"geometry": {"coordinates": [8.541712, 47.416155], "type": "Point"}, "properties": {"address": "Eggb\u00fchlstrasse 21", "electric": 4, "id": "pb_363", "manual": 4, "name": "Wahlenpark", "provider": "publibike", "timeStamp": "01/30/2020, 10:38:21", "zip": 8050}, "type": "Feature"}, {"geometry": {"coordinates": [8.5595335, 47.3708387], "type": "Point"}, "properties": {"address": "Dolderstrasse 32", "electric": 4, "id": "pb_364", "manual": 1, "name": "Kinderspital", "provider": "publibike", "timeStamp": "01/30/2020, 10:38:21", "zip": 8032}, "type": "Feature"}, {"geometry": {"coordinates": [8.536433, 47.388689], "type": "Point"}, "properties": {"address": "Kornhausstrasse 30", "electric": 1, "id": "pb_365", "manual": 0, "name": "Kornhausstrasse", "provider": "publibike", "timeStamp": "01/30/2020, 10:38:21", "zip": 8006}, "type": "Feature"}, {"geometry": {"coordinates": [8.55033, 47.407098], "type": "Point"}, "properties": {"address": "Schwamendingenstrasse 41", "electric": 2, "id": "pb_366", "manual": 4, "name": "Dorflinde", "provider": "publibike", "timeStamp": "01/30/2020, 10:38:21", "zip": 8050}, "type": "Feature"}, {"geometry": {"coordinates": [8.560476, 47.368199], "type": "Point"}, "properties": {"address": "R\u00f6merhofplatz 5", "electric": 0, "id": "pb_367", "manual": 0, "name": "R\u00f6merhof", "provider": "publibike", "timeStamp": "01/30/2020, 10:38:21", "zip": 8032}, "type": "Feature"}, {"geometry": {"coordinates": [8.5609218, 47.3619068], "type": "Point"}, "properties": {"address": "Forchstrasse 99", "electric": 0, "id": "pb_368", "manual": 0, "name": "Hegibachplatz", "provider": "publibike", "timeStamp": "01/30/2020, 10:38:21", "zip": 8032}, "type": "Feature"}, {"geometry": {"coordinates": [8.5721264, 47.4039985], "type": "Point"}, "properties": {"address": "Winterthurerstrasse 519", "electric": 5, "id": "pb_370", "manual": 4, "name": "Schwamendingerplatz", "provider": "publibike", "timeStamp": "01/30/2020, 10:38:21", "zip": 8051}, "type": "Feature"}, {"geometry": {"coordinates": [8.520168, 47.378556], "type": "Point"}, "properties": {"address": "Herman-Greulich-Strasse 56", "electric": 1, "id": "pb_384", "manual": 7, "name": "Hermann-Greulich-Weg", "provider": "publibike", "timeStamp": "01/30/2020, 10:38:21", "zip": 8004}, "type": "Feature"}, {"geometry": {"coordinates": [8.547912, 47.384923], "type": "Point"}, "properties": {"address": "Culmannstrasse", "electric": 2, "id": "pb_386", "manual": 1, "name": "Rigiplatz", "provider": "publibike", "timeStamp": "01/30/2020, 10:38:21", "zip": 8006}, "type": "Feature"}, {"geometry": {"coordinates": [8.543768, 47.411057], "type": "Point"}, "properties": {"address": "Hofwiesenstrasse 369", "electric": 5, "id": "pb_387", "manual": 3, "name": "Bahnhof Oerlikon S\u00fcd", "provider": "publibike", "timeStamp": "01/30/2020, 10:38:21", "zip": 8050}, "type": "Feature"}, {"geometry": {"coordinates": [8.544185, 47.412732], "type": "Point"}, "properties": {"address": "Jungholzstrasse 6", "electric": 2, "id": "pb_388", "manual": 2, "name": "Max-Frisch-Platz", "provider": "publibike", "timeStamp": "01/30/2020, 10:38:21", "zip": 8050}, "type": "Feature"}, {"geometry": {"coordinates": [8.558096, 47.413032], "type": "Point"}, "properties": {"address": "Andreasstrasse", "electric": 4, "id": "pb_389", "manual": 10, "name": "Hunziker-Areal", "provider": "publibike", "timeStamp": "01/30/2020, 10:38:21", "zip": 8050}, "type": "Feature"}, {"geometry": {"coordinates": [8.533265, 47.412873], "type": "Point"}, "properties": {"address": "Regina-K\u00e4gi-Strasse 1", "electric": 4, "id": "pb_390", "manual": 4, "name": "Luis-H\u00e4fliger-Park", "provider": "publibike", "timeStamp": "01/30/2020, 10:38:21", "zip": 8050}, "type": "Feature"}, {"geometry": {"coordinates": [8.499265, 47.401852], "type": "Point"}, "properties": {"address": "Limmattalstrasse 177", "electric": 0, "id": "pb_391", "manual": 0, "name": "Meierhofplatz", "provider": "publibike", "timeStamp": "01/30/2020, 10:38:21", "zip": 8049}, "type": "Feature"}, {"geometry": {"coordinates": [8.528356, 47.393255], "type": "Point"}, "properties": {"address": "R\u00f6schibachstrasse 73", "electric": 0, "id": "pb_392", "manual": 0, "name": "R\u00f6schibachplatz", "provider": "publibike", "timeStamp": "01/30/2020, 10:38:21", "zip": 8037}, "type": "Feature"}, {"geometry": {"coordinates": [8.538067, 47.415721], "type": "Point"}, "properties": {"address": "Birchstrasse 191", "electric": 4, "id": "pb_393", "manual": 1, "name": "Oerliker Park", "provider": "publibike", "timeStamp": "01/30/2020, 10:38:21", "zip": 8050}, "type": "Feature"}, {"geometry": {"coordinates": [8.5420304, 47.3669233], "type": "Point"}, "properties": {"address": "Stadthausquai 1", "electric": 1, "id": "pb_395", "manual": 8, "name": "B\u00fcrkliplatz", "provider": "publibike", "timeStamp": "01/30/2020, 10:38:21", "zip": 8001}, "type": "Feature"}, {"geometry": {"coordinates": [8.535767, 47.409881], "type": "Point"}, "properties": {"address": "Regensbergstrasse 195", "electric": 2, "id": "pb_396", "manual": 1, "name": "Holunderhof", "provider": "publibike", "timeStamp": "01/30/2020, 10:38:21", "zip": 8050}, "type": "Feature"}, {"geometry": {"coordinates": [8.5116245, 47.3616199], "type": "Point"}, "properties": {"address": "Grubenstrasse 42", "electric": 1, "id": "pb_431", "manual": 2, "name": "Binz Center", "provider": "publibike", "timeStamp": "01/30/2020, 10:38:21", "zip": 8045}, "type": "Feature"}, {"geometry": {"coordinates": [8.547195, 47.382089], "type": "Point"}, "properties": {"address": "Nelkenstrasse 24", "electric": 2, "id": "pb_430", "manual": 0, "name": "Stapferstube", "provider": "publibike", "timeStamp": "01/30/2020, 10:38:21", "zip": 8006}, "type": "Feature"}, {"geometry": {"coordinates": [8.5787183, 47.4039845], "type": "Point"}, "properties": {"address": "Kronwiesenstrasse 35", "electric": 3, "id": "pb_426", "manual": 3, "name": "Kronwiesen", "provider": "publibike", "timeStamp": "01/30/2020, 10:38:21", "zip": 8051}, "type": "Feature"}, {"geometry": {"coordinates": [8.508131, 47.420757], "type": "Point"}, "properties": {"address": "Riedenhaldenstrasse 20-18", "electric": 11, "id": "pb_425", "manual": 5, "name": "Bahnhof Affoltern", "provider": "publibike", "timeStamp": "01/30/2020, 10:38:21", "zip": 8046}, "type": "Feature"}, {"geometry": {"coordinates": [8.532464, 47.406988], "type": "Point"}, "properties": {"address": "K\u00fcnzlistrasse 41", "electric": 3, "id": "pb_424", "manual": 4, "name": "Birchd\u00f6rfli", "provider": "publibike", "timeStamp": "01/30/2020, 10:38:21", "zip": 8057}, "type": "Feature"}, {"geometry": {"coordinates": [8.5777038, 47.4080095], "type": "Point"}, "properties": {"address": "Luegislandstrasse 412", "electric": 4, "id": "pb_429", "manual": 5, "name": "Luegisland", "provider": "publibike", "timeStamp": "01/30/2020, 10:38:21", "zip": 8051}, "type": "Feature"}, {"geometry": {"coordinates": [8.58841, 47.40158], "type": "Point"}, "properties": {"address": "Hirzenbachstrasse 2-4", "electric": 1, "id": "pb_428", "manual": 3, "name": "Hirzenbachstrasse", "provider": "publibike", "timeStamp": "01/30/2020, 10:38:21", "zip": 8051}, "type": "Feature"}, {"geometry": {"coordinates": [8.5563463, 47.4095467], "type": "Point"}, "properties": {"address": "K\u00fchriedweg", "electric": 2, "id": "pb_445", "manual": 4, "name": "Hallenbad Oerlikon", "provider": "publibike", "timeStamp": "01/30/2020, 10:38:21", "zip": 8050}, "type": "Feature"}, {"geometry": {"coordinates": [8.537971, 47.364871], "type": "Point"}, "properties": {"address": "General-Guisan-Quai 17", "electric": 1, "id": "pb_454", "manual": 3, "name": "General-Guisan-Quai", "provider": "publibike", "timeStamp": "01/30/2020, 10:38:21", "zip": 8002}, "type": "Feature"}, {"geometry": {"coordinates": [8.560587, 47.350578], "type": "Point"}, "properties": {"address": "Bellerivestrasse 245", "electric": 9, "id": "pb_450", "manual": 7, "name": "Bahnhof Tiefenbrunnen", "provider": "publibike", "timeStamp": "01/30/2020, 10:38:21", "zip": 8008}, "type": "Feature"}, {"geometry": {"coordinates": [8.5269416, 47.3563719], "type": "Point"}, "properties": {"address": "Waffenplatzstrasse 89", "electric": 4, "id": "pb_452", "manual": 2, "name": "Rieterplatz", "provider": "publibike", "timeStamp": "01/30/2020, 10:38:21", "zip": 8002}, "type": "Feature"}, {"geometry": {"coordinates": [8.514176, 47.3663708], "type": "Point"}, "properties": {"address": "Talwiesenstrasse 92", "electric": 1, "id": "pb_446", "manual": 2, "name": "Binzallee", "provider": "publibike", "timeStamp": "01/30/2020, 10:38:21", "zip": 8055}, "type": "Feature"}, {"geometry": {"coordinates": [8.5070564, 47.371455], "type": "Point"}, "properties": {"address": "Gutstrasse 87", "electric": 1, "id": "pb_447", "manual": 3, "name": "Gutstrasse", "provider": "publibike", "timeStamp": "01/30/2020, 10:38:21", "zip": 8055}, "type": "Feature"}, {"geometry": {"coordinates": [8.4941268, 47.3836391], "type": "Point"}, "properties": {"address": "Flurstrasse 62", "electric": 0, "id": "pb_453", "manual": 6, "name": "Flurpark", "provider": "publibike", "timeStamp": "01/30/2020, 10:38:21", "zip": 8048}, "type": "Feature"}, {"geometry": {"coordinates": [8.500343, 47.380778], "type": "Point"}, "properties": {"address": "Edelweissstrasse 32", "electric": 4, "id": "pb_448", "manual": 3, "name": "Bl\u00fcemliquartier", "provider": "publibike", "timeStamp": "01/30/2020, 10:38:21", "zip": 8048}, "type": "Feature"}, {"geometry": {"coordinates": [8.528796, 47.383858], "type": "Point"}, "properties": {"address": "Gasometerstrasse 24", "electric": 2, "id": "pb_449", "manual": 13, "name": "Gasometerstrasse", "provider": "publibike", "timeStamp": "01/30/2020, 10:38:21", "zip": 8005}, "type": "Feature"}, {"geometry": {"coordinates": [8.4981964, 47.3859194], "type": "Point"}, "properties": {"address": "Baslerstrasse 57", "electric": 10, "id": "pb_455", "manual": 7, "name": "Letzipark", "provider": "publibike", "timeStamp": "01/30/2020, 10:38:21", "zip": 8048}, "type": "Feature"}, {"geometry": {"coordinates": [8.515252, 47.381915], "type": "Point"}, "properties": {"address": "Sihlfeldstrasse 175", "electric": 1, "id": "pb_451", "manual": 2, "name": "Hardplatz", "provider": "publibike", "timeStamp": "01/30/2020, 10:38:21", "zip": 8004}, "type": "Feature"}, {"geometry": {"coordinates": [8.5064743, 47.4188324], "type": "Point"}, "properties": {"address": "Wehntalerstrasse 541", "electric": 3, "id": "pb_427", "manual": 2, "name": "Zehntenhausplatz", "provider": "publibike", "timeStamp": "01/30/2020, 10:38:21", "zip": 8046}, "type": "Feature"}, {"geometry": {"coordinates": [8.537729, 47.379719], "type": "Point"}, "properties": {"address": "Sihlquai/HB", "electric": 5, "id": "pb_513", "manual": 6, "name": "Sihlquai", "provider": "publibike", "timeStamp": "01/30/2020, 10:38:21", "zip": 8005}, "type": "Feature"}, {"geometry": {"coordinates": [8.596202, 47.397885], "type": "Point"}, "properties": {"address": "Bahnhof Stettbach", "electric": 5, "id": "pb_514", "manual": 0, "name": "Bahnhof Stettbach", "provider": "publibike", "timeStamp": "01/30/2020, 10:38:21", "zip": 8051}, "type": "Feature"}, {"geometry": {"coordinates": [8.5543974, 47.3690153], "type": "Point"}, "properties": {"address": "Kasinostrasse 10", "electric": 6, "id": "pb_515", "manual": 0, "name": "Hottingerplatz", "provider": "publibike", "timeStamp": "01/30/2020, 10:38:21", "zip": 8032}, "type": "Feature"}, {"geometry": {"coordinates": [8.534444, 47.351525], "type": "Point"}, "properties": {"address": "Mobile Station Z\u00fcrich 1", "electric": 0, "id": "pb_282", "manual": 0, "name": "Theaterspektakel", "provider": "publibike", "timeStamp": "01/30/2020, 10:38:21", "zip": 8002}, "type": "Feature"}, {"geometry": {"coordinates": [8.516257, 47.367656], "type": "Point"}, "properties": {"address": "Goldbrunnenstrasse 54", "electric": 4, "id": "pb_538", "manual": 1, "name": "Kirche B\u00fchl", "provider": "publibike", "timeStamp": "01/30/2020, 10:38:21", "zip": 8055}, "type": "Feature"}, {"geometry": {"coordinates": [8.555639, 47.416873], "type": "Point"}, "properties": {"address": "Leutschenbachstrasse 50", "electric": 1, "id": "pb_537", "manual": 4, "name": "Leutschenpark", "provider": "publibike", "timeStamp": "01/30/2020, 10:38:21", "zip": 8050}, "type": "Feature"}, {"geometry": {"coordinates": [8.546464, 47.403822], "type": "Point"}, "properties": {"address": "Berninastrasse 45", "electric": 12, "id": "pb_540", "manual": 2, "name": "Berninaplatz", "provider": "publibike", "timeStamp": "01/30/2020, 10:38:21", "zip": 8057}, "type": "Feature"}, {"geometry": {"coordinates": [8.523134, 47.369004], "type": "Point"}, "properties": {"address": "Erlachstrasse 3", "electric": 0, "id": "pb_385", "manual": 4, "name": "Aegerten", "provider": "publibike", "timeStamp": "01/30/2020, 10:38:21", "zip": 8003}, "type": "Feature"}, {"geometry": {"coordinates": [8.49038, 47.381591], "type": "Point"}, "properties": {"address": "Rautistrasse 60", "electric": 3, "id": "pb_536", "manual": 6, "name": "Freilager", "provider": "publibike", "timeStamp": "01/30/2020, 10:38:21", "zip": 8048}, "type": "Feature"}, {"geometry": {"coordinates": [8.496511, 47.375247], "type": "Point"}, "properties": {"address": "Letzigraben 139", "electric": 2, "id": "pb_444", "manual": 2, "name": "Sackzelg", "provider": "publibike", "timeStamp": "01/30/2020, 10:38:21", "zip": 8047}, "type": "Feature"}, {"geometry": {"coordinates": [8.58131, 47.402801], "type": "Point"}, "properties": {"address": "Altwiesenstrasse 104", "electric": 1, "id": "pb_539", "manual": 5, "name": "Glattwiesen", "provider": "publibike", "timeStamp": "01/30/2020, 10:38:21", "zip": 8051}, "type": "Feature"}, {"geometry": {"coordinates": [8.52689, 47.3767], "type": "Point"}, "properties": {"address": "Molkenstrasse 5", "electric": 1, "id": "pb_560", "manual": 5, "name": "Helvetiaplatz", "provider": "publibike", "timeStamp": "01/30/2020, 10:38:21", "zip": 8004}, "type": "Feature"}, {"geometry": {"coordinates": [8.525602, 47.374241], "type": "Point"}, "properties": {"address": "Badenerstrasse 90", "electric": 0, "id": "pb_559", "manual": 3, "name": "Bezirksgeb\u00e4ude", "provider": "publibike", "timeStamp": "01/30/2020, 10:38:21", "zip": 8004}, "type": "Feature"}, {"geometry": {"coordinates": [8.535082, 47.345248], "type": "Point"}, "properties": {"address": "Bachstrasse 15", "electric": 4, "id": "pb_564", "manual": 5, "name": "GZ Wollishofen", "provider": "publibike", "timeStamp": "01/30/2020, 10:38:21", "zip": 8038}, "type": "Feature"}, {"geometry": {"coordinates": [8.514841, 47.370238], "type": "Point"}, "properties": {"address": "Schrennengasse 37", "electric": 0, "id": "pb_562", "manual": 3, "name": "Goldbrunnenplatz", "provider": "publibike", "timeStamp": "01/30/2020, 10:38:21", "zip": 8003}, "type": "Feature"}, {"geometry": {"coordinates": [8.514138, 47.374206], "type": "Point"}, "properties": {"address": "Idaplatz 4", "electric": 3, "id": "pb_557", "manual": 3, "name": "Idaplatz", "provider": "publibike", "timeStamp": "01/30/2020, 10:38:21", "zip": 8003}, "type": "Feature"}, {"geometry": {"coordinates": [8.518432, 47.369549], "type": "Point"}, "properties": {"address": "Brinerstrasse 2", "electric": 2, "id": "pb_558", "manual": 8, "name": "Schmiede Wiedikon", "provider": "publibike", "timeStamp": "01/30/2020, 10:38:21", "zip": 8003}, "type": "Feature"}, {"geometry": {"coordinates": [8.537546, 47.391289], "type": "Point"}, "properties": {"address": "Rotbuchstrasse 15", "electric": 0, "id": "pb_556", "manual": 0, "name": "Schaffhauserplatz", "provider": "publibike", "timeStamp": "01/30/2020, 10:38:21", "zip": 8006}, "type": "Feature"}, {"geometry": {"coordinates": [8.541541, 47.413733], "type": "Point"}, "properties": {"address": "Therese-Giehse-Strasse 11", "electric": 2, "id": "pb_561", "manual": 2, "name": "Center Eleven", "provider": "publibike", "timeStamp": "01/30/2020, 10:38:21", "zip": 8050}, "type": "Feature"}, {"geometry": {"coordinates": [8.534227, 47.360004], "type": "Point"}, "properties": {"address": "Alfred Escher-Strasse 76", "electric": 14, "id": "pb_563", "manual": 5, "name": "Mythenschloss", "provider": "publibike", "timeStamp": "01/30/2020, 10:38:21", "zip": 8002}, "type": "Feature"}, {"geometry": {"coordinates": [8.50373, 47.396172], "type": "Point"}, "properties": {"address": "Hardeggstrasse 6", "electric": 2, "id": "pb_566", "manual": 4, "name": "Am Wasser", "provider": "publibike", "timeStamp": "01/30/2020, 10:38:21", "zip": 8049}, "type": "Feature"}, {"geometry": {"coordinates": [8.532432, 47.381174], "type": "Point"}, "properties": {"address": "Klingenstrasse 9", "electric": 7, "id": "pb_565", "manual": 3, "name": "Zollstrasse", "provider": "publibike", "timeStamp": "01/30/2020, 10:38:21", "zip": 8005}, "type": "Feature"}, {"geometry": {"coordinates": [8.497982, 47.381447], "type": "Point"}, "properties": {"address": "Dennlerstrasse 23", "electric": 3, "id": "pb_567", "manual": 5, "name": "Dennlerstrasse", "provider": "publibike", "timeStamp": "01/30/2020, 10:38:21", "zip": 8047}, "type": "Feature"}, {"geometry": {"coordinates": [8.528049, 47.347701], "type": "Point"}, "properties": {"address": "Mutschellenstrasse 114", "electric": 1, "id": "pb_568", "manual": 1, "name": "Jugendherberge", "provider": "publibike", "timeStamp": "01/30/2020, 10:38:21", "zip": 8038}, "type": "Feature"}, {"geometry": {"coordinates": [8.539016, 47.405751], "type": "Point"}, "properties": {"address": "Ringstrasse 82", "electric": 5, "id": "pb_569", "manual": 2, "name": "Freibad Allenmoos", "provider": "publibike", "timeStamp": "01/30/2020, 10:38:21", "zip": 8057}, "type": "Feature"}, {"geometry": {"coordinates": [8.534974, 47.402164], "type": "Point"}, "properties": {"address": "Brache Guggach", "electric": 1, "id": "pb_572", "manual": 0, "name": "Radiostudio", "provider": "publibike", "timeStamp": "01/30/2020, 10:38:21", "zip": 8057}, "type": "Feature"}, {"geometry": {"coordinates": [8.547901, 47.375556], "type": "Point"}, "properties": {"address": "Karl-Schmid-Strasse 4", "electric": 4, "id": "pb_571", "manual": 0, "name": "ETH/Zoologisches Museum", "provider": "publibike", "timeStamp": "01/30/2020, 10:38:21", "zip": 8006}, "type": "Feature"}, {"geometry": {"coordinates": [8.54499, 47.373035], "type": "Point"}, "properties": {"charge": 99, "id": "smide_2901", "name": "ZH 267278", "provider": "smide", "range": 49.0, "size": 20, "time": "01/30/2020, 10:39:54"}, "type": "Feature"}, {"geometry": {"coordinates": [8.56026, 47.35052], "type": "Point"}, "properties": {"charge": 100, "id": "smide_2895", "name": "ZH 267279", "provider": "smide", "range": 50.0, "size": 20, "time": "01/30/2020, 10:39:54"}, "type": "Feature"}, {"geometry": {"coordinates": [8.499578, 47.377578], "type": "Point"}, "properties": {"charge": 33, "id": "smide_2880", "name": "ZH267289", "provider": "smide", "range": 16.0, "size": 17, "time": "01/30/2020, 10:39:54"}, "type": "Feature"}, {"geometry": {"coordinates": [8.54016, 47.378893], "type": "Point"}, "properties": {"charge": 57, "id": "smide_2874", "name": "ZH 267288", "provider": "smide", "range": 28.0, "size": 17, "time": "01/30/2020, 10:39:54"}, "type": "Feature"}, {"geometry": {"coordinates": [8.54073, 47.378406], "type": "Point"}, "properties": {"charge": 41, "id": "smide_2871", "name": "ZH 267086", "provider": "smide", "range": 20.0, "size": 20, "time": "01/30/2020, 10:39:54"}, "type": "Feature"}, {"geometry": {"coordinates": [8.549926, 47.380195], "type": "Point"}, "properties": {"charge": 83, "id": "smide_2867", "name": "ZH 267090", "provider": "smide", "range": 41.0, "size": 20, "time": "01/30/2020, 10:39:54"}, "type": "Feature"}, {"geometry": {"coordinates": [8.553621, 47.387251], "type": "Point"}, "properties": {"charge": 62, "id": "smide_2861", "name": "ZH 267096", "provider": "smide", "range": 31.0, "size": 17, "time": "01/30/2020, 10:39:54"}, "type": "Feature"}, {"geometry": {"coordinates": [8.513638, 47.377746], "type": "Point"}, "properties": {"charge": 85, "id": "smide_2859", "name": "ZH 267098", "provider": "smide", "range": 42.0, "size": 17, "time": "01/30/2020, 10:39:54"}, "type": "Feature"}, {"geometry": {"coordinates": [8.541785, 47.37831], "type": "Point"}, "properties": {"charge": 76, "id": "smide_2856", "name": "ZH 267101", "provider": "smide", "range": 38.0, "size": 17, "time": "01/30/2020, 10:39:54"}, "type": "Feature"}, {"geometry": {"coordinates": [8.58192, 47.350476], "type": "Point"}, "properties": {"charge": 91, "id": "smide_2855", "name": "ZH 267102", "provider": "smide", "range": 45.0, "size": 17, "time": "01/30/2020, 10:39:54"}, "type": "Feature"}, {"geometry": {"coordinates": [8.510578, 47.398455], "type": "Point"}, "properties": {"charge": 89, "id": "smide_2854", "name": "ZH 267103", "provider": "smide", "range": 44.0, "size": 17, "time": "01/30/2020, 10:39:54"}, "type": "Feature"}, {"geometry": {"coordinates": [8.545578, 47.368933], "type": "Point"}, "properties": {"charge": 56, "id": "smide_2833", "name": "ZH 267182", "provider": "smide", "range": 28.0, "size": 20, "time": "01/30/2020, 10:39:54"}, "type": "Feature"}, {"geometry": {"coordinates": [8.56997, 47.352453], "type": "Point"}, "properties": {"charge": 71, "id": "smide_2831", "name": "ZH 267180", "provider": "smide", "range": 35.0, "size": 20, "time": "01/30/2020, 10:39:54"}, "type": "Feature"}, {"geometry": {"coordinates": [8.522901, 47.370918], "type": "Point"}, "properties": {"charge": 89, "id": "smide_2829", "name": "ZH 267049", "provider": "smide", "range": 44.0, "size": 20, "time": "01/30/2020, 10:39:54"}, "type": "Feature"}, {"geometry": {"coordinates": [8.506045, 47.418961], "type": "Point"}, "properties": {"charge": 100, "id": "smide_2804", "name": "ZH266903", "provider": "smide", "range": 50.0, "size": 20, "time": "01/30/2020, 10:39:54"}, "type": "Feature"}, {"geometry": {"coordinates": [8.541238, 47.378998], "type": "Point"}, "properties": {"charge": 81, "id": "smide_2798", "name": "ZH266888", "provider": "smide", "range": 40.0, "size": 17, "time": "01/30/2020, 10:39:54"}, "type": "Feature"}, {"geometry": {"coordinates": [8.535463, 47.359428], "type": "Point"}, "properties": {"charge": 85, "id": "smide_2793", "name": "ZH266883", "provider": "smide", "range": 42.0, "size": 17, "time": "01/30/2020, 10:39:54"}, "type": "Feature"}, {"geometry": {"coordinates": [8.527971, 47.358785], "type": "Point"}, "properties": {"charge": 49, "id": "smide_2790", "name": "ZH266880", "provider": "smide", "range": 24.0, "size": 17, "time": "01/30/2020, 10:39:54"}, "type": "Feature"}, {"geometry": {"coordinates": [8.555328, 47.384088], "type": "Point"}, "properties": {"charge": 23, "id": "smide_2781", "name": "ZH 266871", "provider": "smide", "range": 11.0, "size": 17, "time": "01/30/2020, 10:39:54"}, "type": "Feature"}, {"geometry": {"coordinates": [8.542621, 47.41137], "type": "Point"}, "properties": {"charge": 37, "id": "smide_2780", "name": "ST1 X #1", "provider": "smide", "range": 18.0, "size": 17, "time": "01/30/2020, 10:39:54"}, "type": "Feature"}, {"geometry": {"coordinates": [8.514423, 47.363188], "type": "Point"}, "properties": {"charge": 93, "id": "smide_2775", "name": "ZH267283", "provider": "smide", "range": 46.0, "size": 20, "time": "01/30/2020, 10:39:54"}, "type": "Feature"}, {"geometry": {"coordinates": [8.545184, 47.423556], "type": "Point"}, "properties": {"charge": 93, "id": "smide_2773", "name": "ZH266561", "provider": "smide", "range": 46.0, "size": 17, "time": "01/30/2020, 10:39:54"}, "type": "Feature"}, {"geometry": {"coordinates": [8.489583, 47.373924], "type": "Point"}, "properties": {"charge": 13, "id": "smide_2763", "name": "ZH266641", "provider": "smide", "range": 6.0, "size": 17, "time": "01/30/2020, 10:39:54"}, "type": "Feature"}, {"geometry": {"coordinates": [8.560118, 47.382001], "type": "Point"}, "properties": {"charge": 51, "id": "smide_2761", "name": "ZH266642", "provider": "smide", "range": 25.0, "size": 20, "time": "01/30/2020, 10:39:54"}, "type": "Feature"}, {"geometry": {"coordinates": [8.547915, 47.36888], "type": "Point"}, "properties": {"charge": 89, "id": "smide_2758", "name": "ZH266638 M", "provider": "smide", "range": 44.0, "size": 17, "time": "01/30/2020, 10:39:54"}, "type": "Feature"}, {"geometry": {"coordinates": [8.524117, 47.37164], "type": "Point"}, "properties": {"charge": 79, "id": "smide_2752", "name": "BE343856", "provider": "smide", "range": 39.0, "size": 17, "time": "01/30/2020, 10:39:54"}, "type": "Feature"}, {"geometry": {"coordinates": [8.552633, 47.388712], "type": "Point"}, "properties": {"charge": 100, "id": "smide_2751", "name": "BE343857", "provider": "smide", "range": 50.0, "size": 17, "time": "01/30/2020, 10:39:54"}, "type": "Feature"}, {"geometry": {"coordinates": [8.491333, 47.391264], "type": "Point"}, "properties": {"charge": 55, "id": "smide_2749", "name": "BE343867", "provider": "smide", "range": 27.0, "size": 17, "time": "01/30/2020, 10:39:54"}, "type": "Feature"}, {"geometry": {"coordinates": [8.527804, 47.369256], "type": "Point"}, "properties": {"charge": 20, "id": "smide_2748", "name": "BE335758", "provider": "smide", "range": 10.0, "size": 17, "time": "01/30/2020, 10:39:54"}, "type": "Feature"}, {"geometry": {"coordinates": [8.514377, 47.357336], "type": "Point"}, "properties": {"charge": 74, "id": "smide_2746", "name": "BE335817", "provider": "smide", "range": 37.0, "size": 17, "time": "01/30/2020, 10:39:54"}, "type": "Feature"}, {"geometry": {"coordinates": [8.551564, 47.420788], "type": "Point"}, "properties": {"charge": 100, "id": "smide_2747", "name": "BE335820", "provider": "smide", "range": 50.0, "size": 17, "time": "01/30/2020, 10:39:54"}, "type": "Feature"}, {"geometry": {"coordinates": [8.492976, 47.38064], "type": "Point"}, "properties": {"charge": 38, "id": "smide_2745", "name": "BE335818", "provider": "smide", "range": 19.0, "size": 17, "time": "01/30/2020, 10:39:54"}, "type": "Feature"}, {"geometry": {"coordinates": [8.560613, 47.368556], "type": "Point"}, "properties": {"charge": 48, "id": "smide_2742", "name": "BE343866", "provider": "smide", "range": 24.0, "size": 17, "time": "01/30/2020, 10:39:54"}, "type": "Feature"}, {"geometry": {"coordinates": [8.547185, 47.376032], "type": "Point"}, "properties": {"charge": 19, "id": "smide_2740", "name": "BE343875", "provider": "smide", "range": 9.0, "size": 17, "time": "01/30/2020, 10:39:54"}, "type": "Feature"}, {"geometry": {"coordinates": [8.544563, 47.418975], "type": "Point"}, "properties": {"charge": 95, "id": "smide_2738", "name": "BE343865", "provider": "smide", "range": 47.0, "size": 17, "time": "01/30/2020, 10:39:54"}, "type": "Feature"}, {"geometry": {"coordinates": [8.51434, 47.357316], "type": "Point"}, "properties": {"charge": 81, "id": "smide_2737", "name": "BE336149", "provider": "smide", "range": 40.0, "size": 17, "time": "01/30/2020, 10:39:54"}, "type": "Feature"}, {"geometry": {"coordinates": [8.562763, 47.37164], "type": "Point"}, "properties": {"charge": 76, "id": "smide_2734", "name": "BE343876", "provider": "smide", "range": 38.0, "size": 17, "time": "01/30/2020, 10:39:54"}, "type": "Feature"}, {"geometry": {"coordinates": [8.529725, 47.371324], "type": "Point"}, "properties": {"charge": 27, "id": "smide_2733", "name": "BE343873", "provider": "smide", "range": 13.0, "size": 17, "time": "01/30/2020, 10:39:54"}, "type": "Feature"}, {"geometry": {"coordinates": [8.494471, 47.36604], "type": "Point"}, "properties": {"charge": 87, "id": "smide_2732", "name": "BE343870", "provider": "smide", "range": 43.0, "size": 17, "time": "01/30/2020, 10:39:54"}, "type": "Feature"}, {"geometry": {"coordinates": [8.564744, 47.372828], "type": "Point"}, "properties": {"charge": 84, "id": "smide_2729", "name": "BE343878", "provider": "smide", "range": 42.0, "size": 17, "time": "01/30/2020, 10:39:54"}, "type": "Feature"}, {"geometry": {"coordinates": [8.515145, 47.396088], "type": "Point"}, "properties": {"charge": 36, "id": "smide_2725", "name": "ZH261545", "provider": "smide", "range": 18.0, "size": 0, "time": "01/30/2020, 10:39:54"}, "type": "Feature"}, {"geometry": {"coordinates": [8.54642, 47.366916], "type": "Point"}, "properties": {"charge": 76, "id": "smide_2718", "name": "ZH259019", "provider": "smide", "range": 38.0, "size": 20, "time": "01/30/2020, 10:39:54"}, "type": "Feature"}, {"geometry": {"coordinates": [8.518351, 47.3981], "type": "Point"}, "properties": {"charge": 57, "id": "smide_2717", "name": "ZH263287", "provider": "smide", "range": 28.0, "size": 17, "time": "01/30/2020, 10:39:54"}, "type": "Feature"}, {"geometry": {"coordinates": [8.541355, 47.37032], "type": "Point"}, "properties": {"charge": 31, "id": "smide_2716", "name": "ZH254606", "provider": "smide", "range": 15.0, "size": 17, "time": "01/30/2020, 10:39:54"}, "type": "Feature"}, {"geometry": {"coordinates": [8.537441, 47.340596], "type": "Point"}, "properties": {"charge": 88, "id": "smide_2715", "name": "ZH254605", "provider": "smide", "range": 44.0, "size": 17, "time": "01/30/2020, 10:39:54"}, "type": "Feature"}, {"geometry": {"coordinates": [8.546343, 47.3745], "type": "Point"}, "properties": {"charge": 10, "id": "smide_2710", "name": "ZH256460", "provider": "smide", "range": 5.0, "size": 17, "time": "01/30/2020, 10:39:54"}, "type": "Feature"}, {"geometry": {"coordinates": [8.546708, 47.368308], "type": "Point"}, "properties": {"charge": 100, "id": "smide_2712", "name": "ZH256462", "provider": "smide", "range": 50.0, "size": 17, "time": "01/30/2020, 10:39:54"}, "type": "Feature"}, {"geometry": {"coordinates": [8.563678, 47.347951], "type": "Point"}, "properties": {"charge": 74, "id": "smide_2709", "name": "ZH256466", "provider": "smide", "range": 37.0, "size": 20, "time": "01/30/2020, 10:39:54"}, "type": "Feature"}, {"geometry": {"coordinates": [8.549455, 47.422064], "type": "Point"}, "properties": {"charge": 83, "id": "smide_2707", "name": "ZH256467", "provider": "smide", "range": 41.0, "size": 20, "time": "01/30/2020, 10:39:54"}, "type": "Feature"}, {"geometry": {"coordinates": [8.483171, 47.384752], "type": "Point"}, "properties": {"charge": 53, "id": "smide_2708", "name": "ZH256464", "provider": "smide", "range": 26.0, "size": 17, "time": "01/30/2020, 10:39:54"}, "type": "Feature"}, {"geometry": {"coordinates": [8.536863, 47.37976], "type": "Point"}, "properties": {"charge": 79, "id": "smide_2706", "name": "ZH256322", "provider": "smide", "range": 39.0, "size": 20, "time": "01/30/2020, 10:39:54"}, "type": "Feature"}, {"geometry": {"coordinates": [8.537116, 47.41916], "type": "Point"}, "properties": {"charge": 34, "id": "smide_2705", "name": "ZH256471", "provider": "smide", "range": 17.0, "size": 20, "time": "01/30/2020, 10:39:54"}, "type": "Feature"}, {"geometry": {"coordinates": [8.563364, 47.372332], "type": "Point"}, "properties": {"charge": 100, "id": "smide_2701", "name": "ZH256468", "provider": "smide", "range": 50.0, "size": 20, "time": "01/30/2020, 10:39:54"}, "type": "Feature"}, {"geometry": {"coordinates": [8.507193, 47.407028], "type": "Point"}, "properties": {"charge": 95, "id": "smide_2700", "name": "ZH256470", "provider": "smide", "range": 47.0, "size": 20, "time": "01/30/2020, 10:39:54"}, "type": "Feature"}, {"geometry": {"coordinates": [8.568435, 47.367688], "type": "Point"}, "properties": {"charge": 29, "id": "smide_2699", "name": "ZH254611", "provider": "smide", "range": 14.0, "size": 20, "time": "01/30/2020, 10:39:54"}, "type": "Feature"}, {"geometry": {"coordinates": [8.51133, 47.370916], "type": "Point"}, "properties": {"charge": 42, "id": "smide_2696", "name": "ZH254616", "provider": "smide", "range": 21.0, "size": 20, "time": "01/30/2020, 10:39:54"}, "type": "Feature"}, {"geometry": {"coordinates": [8.514135, 47.361976], "type": "Point"}, "properties": {"charge": 88, "id": "smide_2694", "name": "ZH254610", "provider": "smide", "range": 44.0, "size": 20, "time": "01/30/2020, 10:39:54"}, "type": "Feature"}, {"geometry": {"coordinates": [8.510573, 47.398493], "type": "Point"}, "properties": {"charge": 86, "id": "smide_2691", "name": "ZH254622", "provider": "smide", "range": 43.0, "size": 20, "time": "01/30/2020, 10:39:54"}, "type": "Feature"}, {"geometry": {"coordinates": [8.565251, 47.358241], "type": "Point"}, "properties": {"charge": 62, "id": "smide_2690", "name": "ZH254625", "provider": "smide", "range": 31.0, "size": 20, "time": "01/30/2020, 10:39:54"}, "type": "Feature"}, {"geometry": {"coordinates": [8.495307, 47.423708], "type": "Point"}, "properties": {"charge": 85, "id": "smide_2689", "name": "ZH254623", "provider": "smide", "range": 42.0, "size": 20, "time": "01/30/2020, 10:39:54"}, "type": "Feature"}, {"geometry": {"coordinates": [8.537839, 47.411844], "type": "Point"}, "properties": {"charge": 75, "id": "smide_2687", "name": "ZH263529", "provider": "smide", "range": 37.0, "size": 20, "time": "01/30/2020, 10:39:54"}, "type": "Feature"}, {"geometry": {"coordinates": [8.57277, 47.380572], "type": "Point"}, "properties": {"charge": 81, "id": "smide_2684", "name": "ZH254626", "provider": "smide", "range": 40.0, "size": 20, "time": "01/30/2020, 10:39:54"}, "type": "Feature"}, {"geometry": {"coordinates": [8.535776, 47.368433], "type": "Point"}, "properties": {"charge": 62, "id": "smide_2683", "name": "ZH254620", "provider": "smide", "range": 31.0, "size": 20, "time": "01/30/2020, 10:39:54"}, "type": "Feature"}, {"geometry": {"coordinates": [8.587516, 47.403212], "type": "Point"}, "properties": {"charge": 71, "id": "smide_2680", "name": "ZH254619", "provider": "smide", "range": 35.0, "size": 20, "time": "01/30/2020, 10:39:54"}, "type": "Feature"}, {"geometry": {"coordinates": [8.526023, 47.372988], "type": "Point"}, "properties": {"charge": 47, "id": "smide_2671", "name": "ZH258645", "provider": "smide", "range": 23.0, "size": 17, "time": "01/30/2020, 10:39:54"}, "type": "Feature"}, {"geometry": {"coordinates": [8.476645, 47.387428], "type": "Point"}, "properties": {"charge": 72, "id": "smide_2669", "name": "ZH263294", "provider": "smide", "range": 36.0, "size": 17, "time": "01/30/2020, 10:39:54"}, "type": "Feature"}, {"geometry": {"coordinates": [8.502093, 47.368888], "type": "Point"}, "properties": {"charge": 75, "id": "smide_2668", "name": "ZH258640", "provider": "smide", "range": 37.0, "size": 17, "time": "01/30/2020, 10:39:54"}, "type": "Feature"}, {"geometry": {"coordinates": [8.551267, 47.364], "type": "Point"}, "properties": {"charge": 28, "id": "smide_2666", "name": "ZH258653", "provider": "smide", "range": 14.0, "size": 17, "time": "01/30/2020, 10:39:54"}, "type": "Feature"}, {"geometry": {"coordinates": [8.52146, 47.361616], "type": "Point"}, "properties": {"charge": 99, "id": "smide_2665", "name": "ZH258644", "provider": "smide", "range": 49.0, "size": 17, "time": "01/30/2020, 10:39:54"}, "type": "Feature"}, {"geometry": {"coordinates": [8.55116, 47.414916], "type": "Point"}, "properties": {"charge": 60, "id": "smide_2663", "name": "ZH258649", "provider": "smide", "range": 30.0, "size": 17, "time": "01/30/2020, 10:39:54"}, "type": "Feature"}, {"geometry": {"coordinates": [8.544879, 47.368416], "type": "Point"}, "properties": {"charge": 46, "id": "smide_2662", "name": "ZH258643", "provider": "smide", "range": 23.0, "size": 17, "time": "01/30/2020, 10:39:54"}, "type": "Feature"}, {"geometry": {"coordinates": [8.560972, 47.37276], "type": "Point"}, "properties": {"charge": 99, "id": "smide_2648", "name": "ZH257930", "provider": "smide", "range": 49.0, "size": 20, "time": "01/30/2020, 10:39:54"}, "type": "Feature"}, {"geometry": {"coordinates": [8.569455, 47.351835], "type": "Point"}, "properties": {"charge": 65, "id": "smide_2657", "name": "ZH257936", "provider": "smide", "range": 32.0, "size": 17, "time": "01/30/2020, 10:39:54"}, "type": "Feature"}, {"geometry": {"coordinates": [8.541711, 47.378772], "type": "Point"}, "properties": {"charge": 90, "id": "smide_2647", "name": "ZH257932", "provider": "smide", "range": 45.0, "size": 20, "time": "01/30/2020, 10:39:54"}, "type": "Feature"}, {"geometry": {"coordinates": [8.519497, 47.370604], "type": "Point"}, "properties": {"charge": 72, "id": "smide_2645", "name": "ZH257933", "provider": "smide", "range": 36.0, "size": 20, "time": "01/30/2020, 10:39:54"}, "type": "Feature"}, {"geometry": {"coordinates": [8.49873, 47.399263], "type": "Point"}, "properties": {"charge": 87, "id": "smide_3", "name": "ZH253765", "provider": "smide", "range": 43.0, "size": 20, "time": "01/30/2020, 10:39:54"}, "type": "Feature"}, {"geometry": {"coordinates": [8.510898, 47.371675], "type": "Point"}, "properties": {"charge": 30, "id": "smide_105", "name": "ZH253804", "provider": "smide", "range": 15.0, "size": 17, "time": "01/30/2020, 10:39:54"}, "type": "Feature"}, {"geometry": {"coordinates": [8.541849, 47.40762], "type": "Point"}, "properties": {"charge": 17, "id": "smide_186", "name": "ZH253751", "provider": "smide", "range": 8.0, "size": 20, "time": "01/30/2020, 10:39:54"}, "type": "Feature"}, {"geometry": {"coordinates": [8.571106, 47.3526], "type": "Point"}, "properties": {"charge": 93, "id": "smide_173", "name": "ZH258501", "provider": "smide", "range": 46.0, "size": 17, "time": "01/30/2020, 10:39:54"}, "type": "Feature"}, {"geometry": {"coordinates": [8.559284, 47.406036], "type": "Point"}, "properties": {"charge": 73, "id": "smide_77", "name": "ZH261548", "provider": "smide", "range": 36.0, "size": 20, "time": "01/30/2020, 10:39:54"}, "type": "Feature"}, {"geometry": {"coordinates": [8.508335, 47.400536], "type": "Point"}, "properties": {"charge": 27, "id": "smide_200", "name": "ZH253801", "provider": "smide", "range": 13.0, "size": 20, "time": "01/30/2020, 10:39:54"}, "type": "Feature"}, {"geometry": {"coordinates": [8.53875, 47.3377], "type": "Point"}, "properties": {"charge": 87, "id": "smide_197", "name": "ZH253864", "provider": "smide", "range": 43.0, "size": 20, "time": "01/30/2020, 10:39:54"}, "type": "Feature"}, {"geometry": {"coordinates": [8.554526, 47.367784], "type": "Point"}, "properties": {"charge": 55, "id": "smide_199", "name": "ZH253766", "provider": "smide", "range": 27.0, "size": 20, "time": "01/30/2020, 10:39:54"}, "type": "Feature"}, {"geometry": {"coordinates": [8.541725, 47.376796], "type": "Point"}, "properties": {"charge": 72, "id": "smide_8", "name": "ZH253861", "provider": "smide", "range": 36.0, "size": 17, "time": "01/30/2020, 10:39:54"}, "type": "Feature"}, {"geometry": {"coordinates": [8.525645, 47.368876], "type": "Point"}, "properties": {"charge": 100, "id": "smide_45", "name": "ZH253716", "provider": "smide", "range": 50.0, "size": 17, "time": "01/30/2020, 10:39:54"}, "type": "Feature"}, {"geometry": {"coordinates": [8.535555, 47.359412], "type": "Point"}, "properties": {"charge": 79, "id": "smide_188", "name": "ZH261543", "provider": "smide", "range": 39.0, "size": 20, "time": "01/30/2020, 10:39:54"}, "type": "Feature"}, {"geometry": {"coordinates": [8.511117, 47.409164], "type": "Point"}, "properties": {"charge": 23, "id": "smide_143", "name": "ZH253778", "provider": "smide", "range": 11.0, "size": 17, "time": "01/30/2020, 10:39:54"}, "type": "Feature"}, {"geometry": {"coordinates": [8.541223, 47.413151], "type": "Point"}, "properties": {"charge": 28, "id": "smide_180", "name": "ZH253824", "provider": "smide", "range": 14.0, "size": 20, "time": "01/30/2020, 10:39:54"}, "type": "Feature"}, {"geometry": {"coordinates": [8.549109, 47.399048], "type": "Point"}, "properties": {"charge": 95, "id": "smide_20", "name": "ZH253770", "provider": "smide", "range": 47.0, "size": 20, "time": "01/30/2020, 10:39:54"}, "type": "Feature"}, {"geometry": {"coordinates": [8.509375, 47.354956], "type": "Point"}, "properties": {"charge": 80, "id": "smide_50", "name": "ZH253853", "provider": "smide", "range": 40.0, "size": 17, "time": "01/30/2020, 10:39:54"}, "type": "Feature"}, {"geometry": {"coordinates": [8.538588, 47.379251], "type": "Point"}, "properties": {"charge": 27, "id": "smide_10", "name": "ZH253855", "provider": "smide", "range": 13.0, "size": 17, "time": "01/30/2020, 10:39:54"}, "type": "Feature"}, {"geometry": {"coordinates": [8.530958, 47.369504], "type": "Point"}, "properties": {"charge": 95, "id": "smide_179", "name": "ZH253687", "provider": "smide", "range": 47.0, "size": 20, "time": "01/30/2020, 10:39:54"}, "type": "Feature"}, {"geometry": {"coordinates": [8.534189, 47.364984], "type": "Point"}, "properties": {"charge": 56, "id": "smide_165", "name": "ZH253752", "provider": "smide", "range": 28.0, "size": 17, "time": "01/30/2020, 10:39:54"}, "type": "Feature"}, {"geometry": {"coordinates": [8.54538, 47.423576], "type": "Point"}, "properties": {"charge": 45, "id": "smide_119", "name": "ZH253686", "provider": "smide", "range": 22.0, "size": 20, "time": "01/30/2020, 10:39:54"}, "type": "Feature"}, {"geometry": {"coordinates": [8.52372, 47.358544], "type": "Point"}, "properties": {"charge": 85, "id": "smide_76", "name": "ZH253764", "provider": "smide", "range": 42.0, "size": 17, "time": "01/30/2020, 10:39:54"}, "type": "Feature"}, {"geometry": {"coordinates": [8.54146, 47.37202], "type": "Point"}, "properties": {"charge": 76, "id": "smide_129", "name": "ZH261378", "provider": "smide", "range": 38.0, "size": 17, "time": "01/30/2020, 10:39:54"}, "type": "Feature"}, {"geometry": {"coordinates": [8.5194, 47.368786], "type": "Point"}, "properties": {"charge": 92, "id": "smide_49", "name": "ZH253873", "provider": "smide", "range": 46.0, "size": 17, "time": "01/30/2020, 10:39:54"}, "type": "Feature"}, {"geometry": {"coordinates": [8.529874, 47.344288], "type": "Point"}, "properties": {"charge": 26, "id": "smide_37", "name": "ZH261377", "provider": "smide", "range": 13.0, "size": 20, "time": "01/30/2020, 10:39:54"}, "type": "Feature"}, {"geometry": {"coordinates": [8.533231, 47.366995], "type": "Point"}, "properties": {"charge": 95, "id": "smide_191", "name": "ZH253762", "provider": "smide", "range": 47.0, "size": 17, "time": "01/30/2020, 10:39:54"}, "type": "Feature"}, {"geometry": {"coordinates": [8.54777, 47.364953], "type": "Point"}, "properties": {"charge": 61, "id": "smide_202", "name": "ZH253830", "provider": "smide", "range": 30.0, "size": 17, "time": "01/30/2020, 10:39:54"}, "type": "Feature"}, {"geometry": {"coordinates": [8.524132, 47.375608], "type": "Point"}, "properties": {"charge": 85, "id": "smide_56", "name": "ZH261442", "provider": "smide", "range": 42.0, "size": 20, "time": "01/30/2020, 10:39:54"}, "type": "Feature"}, {"geometry": {"coordinates": [8.50948, 47.393641], "type": "Point"}, "properties": {"charge": 99, "id": "smide_47", "name": "ZH253858", "provider": "smide", "range": 49.0, "size": 17, "time": "01/30/2020, 10:39:54"}, "type": "Feature"}, {"geometry": {"coordinates": [8.551505, 47.37998], "type": "Point"}, "properties": {"charge": 52, "id": "smide_150", "name": "ZH253703", "provider": "smide", "range": 26.0, "size": 20, "time": "01/30/2020, 10:39:54"}, "type": "Feature"}, {"geometry": {"coordinates": [8.559446, 47.404104], "type": "Point"}, "properties": {"charge": 20, "id": "smide_66", "name": "ZH253818", "provider": "smide", "range": 10.0, "size": 20, "time": "01/30/2020, 10:39:54"}, "type": "Feature"}, {"geometry": {"coordinates": [8.546508, 47.40777], "type": "Point"}, "properties": {"charge": 22, "id": "smide_17", "name": "ZH253793", "provider": "smide", "range": 11.0, "size": 17, "time": "01/30/2020, 10:39:54"}, "type": "Feature"}, {"geometry": {"coordinates": [8.539813, 47.415243], "type": "Point"}, "properties": {"charge": 92, "id": "smide_145", "name": "ZH253780", "provider": "smide", "range": 46.0, "size": 20, "time": "01/30/2020, 10:39:54"}, "type": "Feature"}, {"geometry": {"coordinates": [8.550297, 47.365924], "type": "Point"}, "properties": {"charge": 56, "id": "smide_114", "name": "ZH253878", "provider": "smide", "range": 28.0, "size": 20, "time": "01/30/2020, 10:39:54"}, "type": "Feature"}, {"geometry": {"coordinates": [8.552511, 47.37482], "type": "Point"}, "properties": {"charge": 32, "id": "smide_203", "name": "ZH261547", "provider": "smide", "range": 16.0, "size": 17, "time": "01/30/2020, 10:39:54"}, "type": "Feature"}, {"geometry": {"coordinates": [8.514829, 47.355484], "type": "Point"}, "properties": {"charge": 51, "id": "smide_21", "name": "ZH253841", "provider": "smide", "range": 25.0, "size": 17, "time": "01/30/2020, 10:39:54"}, "type": "Feature"}, {"geometry": {"coordinates": [8.585792, 47.400476], "type": "Point"}, "properties": {"charge": 17, "id": "smide_164", "name": "ZH253775", "provider": "smide", "range": 8.0, "size": 17, "time": "01/30/2020, 10:39:54"}, "type": "Feature"}, {"geometry": {"coordinates": [8.547873, 47.366496], "type": "Point"}, "properties": {"charge": 47, "id": "smide_189", "name": "ZH253845", "provider": "smide", "range": 23.0, "size": 20, "time": "01/30/2020, 10:39:54"}, "type": "Feature"}, {"geometry": {"coordinates": [8.552523, 47.38184], "type": "Point"}, "properties": {"charge": 36, "id": "smide_81", "name": "ZH253753", "provider": "smide", "range": 18.0, "size": 17, "time": "01/30/2020, 10:39:54"}, "type": "Feature"}, {"geometry": {"coordinates": [8.51476, 47.39254], "type": "Point"}, "properties": {"charge": 41, "id": "smide_148", "name": "ZH253844", "provider": "smide", "range": 20.0, "size": 20, "time": "01/30/2020, 10:39:54"}, "type": "Feature"}, {"geometry": {"coordinates": [8.503471, 47.39672], "type": "Point"}, "properties": {"charge": 81, "id": "smide_171", "name": "ZH253689", "provider": "smide", "range": 40.0, "size": 20, "time": "01/30/2020, 10:39:54"}, "type": "Feature"}, {"geometry": {"coordinates": [8.531864, 47.346948], "type": "Point"}, "properties": {"charge": 93, "id": "smide_93", "name": "ZH253681", "provider": "smide", "range": 46.0, "size": 17, "time": "01/30/2020, 10:39:54"}, "type": "Feature"}, {"geometry": {"coordinates": [8.573354, 47.353004], "type": "Point"}, "properties": {"charge": 88, "id": "smide_67", "name": "ZH253779", "provider": "smide", "range": 44.0, "size": 17, "time": "01/30/2020, 10:39:54"}, "type": "Feature"}, {"geometry": {"coordinates": [8.517103, 47.389632], "type": "Point"}, "properties": {"charge": 15, "id": "smide_133", "name": "ZH253848", "provider": "smide", "range": 7.0, "size": 20, "time": "01/30/2020, 10:39:54"}, "type": "Feature"}, {"geometry": {"coordinates": [8.479876, 47.385568], "type": "Point"}, "properties": {"charge": 68, "id": "smide_118", "name": "ZH253759", "provider": "smide", "range": 34.0, "size": 20, "time": "01/30/2020, 10:39:54"}, "type": "Feature"}, {"geometry": {"coordinates": [8.524381, 47.392684], "type": "Point"}, "properties": {"charge": 70, "id": "smide_142", "name": "ZH258745", "provider": "smide", "range": 35.0, "size": 17, "time": "01/30/2020, 10:39:54"}, "type": "Feature"}, {"geometry": {"coordinates": [8.53946, 47.378958], "type": "Point"}, "properties": {"charge": 80, "id": "smide_166", "name": "ZH253728", "provider": "smide", "range": 40.0, "size": 17, "time": "01/30/2020, 10:39:54"}, "type": "Feature"}, {"geometry": {"coordinates": [8.496828, 47.37834], "type": "Point"}, "properties": {"charge": 91, "id": "smide_126", "name": "ZH268400", "provider": "smide", "range": 45.0, "size": 17, "time": "01/30/2020, 10:39:54"}, "type": "Feature"}, {"geometry": {"coordinates": [8.492008, 47.3719], "type": "Point"}, "properties": {"charge": 97, "id": "smide_44", "name": "ZH253837", "provider": "smide", "range": 48.0, "size": 17, "time": "01/30/2020, 10:39:54"}, "type": "Feature"}, {"geometry": {"coordinates": [8.571974, 47.355176], "type": "Point"}, "properties": {"charge": 100, "id": "smide_154", "name": "ZH253744", "provider": "smide", "range": 50.0, "size": 20, "time": "01/30/2020, 10:39:54"}, "type": "Feature"}, {"geometry": {"coordinates": [8.512793, 47.398932], "type": "Point"}, "properties": {"charge": 35, "id": "smide_92", "name": "ZH253798", "provider": "smide", "range": 17.0, "size": 17, "time": "01/30/2020, 10:39:54"}, "type": "Feature"}, {"geometry": {"coordinates": [8.48703, 47.384198], "type": "Point"}, "properties": {"charge": 87, "id": "smide_167", "name": "ZH253854", "provider": "smide", "range": 43.0, "size": 17, "time": "01/30/2020, 10:39:54"}, "type": "Feature"}, {"geometry": {"coordinates": [8.532196, 47.38414], "type": "Point"}, "properties": {"charge": 99, "id": "smide_65", "name": "ZH253810", "provider": "smide", "range": 49.0, "size": 17, "time": "01/30/2020, 10:39:54"}, "type": "Feature"}, {"geometry": {"coordinates": [8.535619, 47.387012], "type": "Point"}, "properties": {"charge": 60, "id": "smide_111", "name": "ZH253763", "provider": "smide", "range": 30.0, "size": 17, "time": "01/30/2020, 10:39:54"}, "type": "Feature"}, {"geometry": {"coordinates": [8.560398, 47.3821], "type": "Point"}, "properties": {"charge": 43, "id": "smide_40", "name": "ZH253690", "provider": "smide", "range": 21.0, "size": 20, "time": "01/30/2020, 10:39:54"}, "type": "Feature"}, {"geometry": {"coordinates": [8.563936, 47.348156], "type": "Point"}, "properties": {"charge": 42, "id": "smide_1", "name": "ZH253776", "provider": "smide", "range": 21.0, "size": 17, "time": "01/30/2020, 10:39:54"}, "type": "Feature"}, {"geometry": {"coordinates": [8.556588, 47.353136], "type": "Point"}, "properties": {"charge": 100, "id": "smide_28", "name": "ZH253831", "provider": "smide", "range": 50.0, "size": 17, "time": "01/30/2020, 10:39:54"}, "type": "Feature"}, {"geometry": {"coordinates": [8.516753, 47.398376], "type": "Point"}, "properties": {"charge": 100, "id": "smide_14", "name": "ZH253749", "provider": "smide", "range": 50.0, "size": 20, "time": "01/30/2020, 10:39:54"}, "type": "Feature"}, {"geometry": {"coordinates": [8.548339, 47.377916], "type": "Point"}, "properties": {"charge": 49, "id": "smide_130", "name": "ZH253847", "provider": "smide", "range": 24.0, "size": 20, "time": "01/30/2020, 10:39:54"}, "type": "Feature"}, {"geometry": {"coordinates": [8.549763, 47.410644], "type": "Point"}, "properties": {"charge": 74, "id": "smide_24", "name": "ZH253696", "provider": "smide", "range": 37.0, "size": 20, "time": "01/30/2020, 10:39:54"}, "type": "Feature"}, {"geometry": {"coordinates": [8.502021, 47.369256], "type": "Point"}, "properties": {"charge": 100, "id": "smide_83", "name": "ZH253869", "provider": "smide", "range": 50.0, "size": 20, "time": "01/30/2020, 10:39:54"}, "type": "Feature"}, {"geometry": {"coordinates": [8.489057, 47.386384], "type": "Point"}, "properties": {"charge": 73, "id": "smide_193", "name": "ZH253738", "provider": "smide", "range": 36.0, "size": 20, "time": "01/30/2020, 10:39:54"}, "type": "Feature"}, {"geometry": {"coordinates": [8.510048, 47.425585], "type": "Point"}, "properties": {"charge": 100, "id": "smide_158", "name": "ZH253870", "provider": "smide", "range": 50.0, "size": 20, "time": "01/30/2020, 10:39:54"}, "type": "Feature"}, {"geometry": {"coordinates": [8.49427, 47.424252], "type": "Point"}, "properties": {"charge": 22, "id": "smide_100", "name": "ZH253862", "provider": "smide", "range": 11.0, "size": 20, "time": "01/30/2020, 10:39:54"}, "type": "Feature"}, {"geometry": {"coordinates": [8.496621, 47.378405], "type": "Point"}, "properties": {"charge": 50, "id": "smide_134", "name": "ZH253741", "provider": "smide", "range": 25.0, "size": 20, "time": "01/30/2020, 10:39:54"}, "type": "Feature"}, {"geometry": {"coordinates": [8.530316, 47.348038], "type": "Point"}, "properties": {"charge": 60, "id": "smide_141", "name": "ZH253800", "provider": "smide", "range": 30.0, "size": 20, "time": "01/30/2020, 10:39:54"}, "type": "Feature"}, {"geometry": {"coordinates": [8.560126, 47.37037], "type": "Point"}, "properties": {"charge": 73, "id": "smide_149", "name": "ZH253743", "provider": "smide", "range": 36.0, "size": 20, "time": "01/30/2020, 10:39:54"}, "type": "Feature"}, {"geometry": {"coordinates": [8.509427, 47.395272], "type": "Point"}, "properties": {"charge": 16, "id": "smide_16", "name": "ZH253713", "provider": "smide", "range": 8.0, "size": 20, "time": "01/30/2020, 10:39:54"}, "type": "Feature"}, {"geometry": {"coordinates": [8.536868, 47.373152], "type": "Point"}, "properties": {"charge": 78, "id": "smide_161", "name": "ZH253691", "provider": "smide", "range": 39.0, "size": 20, "time": "01/30/2020, 10:39:54"}, "type": "Feature"}, {"geometry": {"coordinates": [8.534606, 47.364476], "type": "Point"}, "properties": {"charge": 89, "id": "smide_183", "name": "ZH253868", "provider": "smide", "range": 44.0, "size": 17, "time": "01/30/2020, 10:39:54"}, "type": "Feature"}, {"geometry": {"coordinates": [8.483377, 47.374648], "type": "Point"}, "properties": {"charge": 100, "id": "smide_42", "name": "ZH253846", "provider": "smide", "range": 50.0, "size": 20, "time": "01/30/2020, 10:39:54"}, "type": "Feature"}, {"geometry": {"coordinates": [8.537098, 47.419132], "type": "Point"}, "properties": {"charge": 100, "id": "smide_4", "name": "ZH253740", "provider": "smide", "range": 50.0, "size": 20, "time": "01/30/2020, 10:39:54"}, "type": "Feature"}, {"geometry": {"coordinates": [8.56149, 47.416048], "type": "Point"}, "properties": {"charge": 79, "id": "smide_160", "name": "ZH253722", "provider": "smide", "range": 39.0, "size": 17, "time": "01/30/2020, 10:39:54"}, "type": "Feature"}, {"geometry": {"coordinates": [8.548336, 47.377875], "type": "Point"}, "properties": {"charge": 46, "id": "smide_137", "name": "ZH258502", "provider": "smide", "range": 23.0, "size": 17, "time": "01/30/2020, 10:39:54"}, "type": "Feature"}, {"geometry": {"coordinates": [8.518095, 47.369948], "type": "Point"}, "properties": {"charge": 24, "id": "smide_178", "name": "ZH253803", "provider": "smide", "range": 12.0, "size": 17, "time": "01/30/2020, 10:39:54"}, "type": "Feature"}, {"geometry": {"coordinates": [8.54844, 47.423048], "type": "Point"}, "properties": {"charge": 74, "id": "smide_55", "name": "ZH253875", "provider": "smide", "range": 37.0, "size": 17, "time": "01/30/2020, 10:39:54"}, "type": "Feature"}, {"geometry": {"coordinates": [8.517118, 47.398436], "type": "Point"}, "properties": {"charge": 59, "id": "smide_96", "name": "ZH256146", "provider": "smide", "range": 29.0, "size": 20, "time": "01/30/2020, 10:39:54"}, "type": "Feature"}, {"geometry": {"coordinates": [8.511683, 47.377668], "type": "Point"}, "properties": {"charge": 93, "id": "smide_58", "name": "ZH259246", "provider": "smide", "range": 46.0, "size": 20, "time": "01/30/2020, 10:39:54"}, "type": "Feature"}, {"geometry": {"coordinates": [8.561808, 47.350484], "type": "Point"}, "properties": {"charge": 98, "id": "smide_54", "name": "ZH253874", "provider": "smide", "range": 49.0, "size": 20, "time": "01/30/2020, 10:39:54"}, "type": "Feature"}, {"geometry": {"coordinates": [8.552395, 47.376348], "type": "Point"}, "properties": {"charge": 51, "id": "smide_175", "name": "ZH253730", "provider": "smide", "range": 25.0, "size": 17, "time": "01/30/2020, 10:39:54"}, "type": "Feature"}, {"geometry": {"coordinates": [8.564554, 47.369384], "type": "Point"}, "properties": {"charge": 98, "id": "smide_163", "name": "ZH256147", "provider": "smide", "range": 49.0, "size": 20, "time": "01/30/2020, 10:39:54"}, "type": "Feature"}, {"geometry": {"coordinates": [8.516145, 47.388888], "type": "Point"}, "properties": {"charge": 90, "id": "smide_112", "name": "ZH263530", "provider": "smide", "range": 45.0, "size": 20, "time": "01/30/2020, 10:39:54"}, "type": "Feature"}, {"geometry": {"coordinates": [8.545103, 47.367612], "type": "Point"}, "properties": {"charge": 69, "id": "smide_122", "name": "ZH253850", "provider": "smide", "range": 34.0, "size": 20, "time": "01/30/2020, 10:39:54"}, "type": "Feature"}, {"geometry": {"coordinates": [8.561551, 47.34993], "type": "Point"}, "properties": {"charge": 42, "id": "smide_38", "name": "ZH253851", "provider": "smide", "range": 21.0, "size": 20, "time": "01/30/2020, 10:39:54"}, "type": "Feature"}, {"geometry": {"coordinates": [8.5144, 47.357388], "type": "Point"}, "properties": {"charge": 53, "id": "smide_6", "name": "ZH253787", "provider": "smide", "range": 26.0, "size": 17, "time": "01/30/2020, 10:39:54"}, "type": "Feature"}, {"geometry": {"coordinates": [8.548735, 47.379924], "type": "Point"}, "properties": {"charge": 60, "id": "smide_18", "name": "ZH253859", "provider": "smide", "range": 30.0, "size": 17, "time": "01/30/2020, 10:39:54"}, "type": "Feature"}, {"geometry": {"coordinates": [8.518696, 47.391128], "type": "Point"}, "properties": {"charge": 12, "id": "smide_12", "name": "ZH253685", "provider": "smide", "range": 6.0, "size": 17, "time": "01/30/2020, 10:39:54"}, "type": "Feature"}, {"geometry": {"coordinates": [8.532022, 47.35262], "type": "Point"}, "properties": {"charge": 24, "id": "smide_192", "name": "ZH253706", "provider": "smide", "range": 12.0, "size": 20, "time": "01/30/2020, 10:39:54"}, "type": "Feature"}, {"geometry": {"coordinates": [8.55988, 47.416088], "type": "Point"}, "properties": {"charge": 99, "id": "smide_39", "name": "ZH253714", "provider": "smide", "range": 49.0, "size": 20, "time": "01/30/2020, 10:39:54"}, "type": "Feature"}, {"geometry": {"coordinates": [8.557531, 47.352058], "type": "Point"}, "properties": {"charge": 100, "id": "smide_5", "name": "ZH261443", "provider": "smide", "range": 50.0, "size": 20, "time": "01/30/2020, 10:39:54"}, "type": "Feature"}, {"geometry": {"coordinates": [8.561771, 47.377471], "type": "Point"}, "properties": {"charge": 20, "id": "smide_85", "name": "ZH253729", "provider": "smide", "range": 10.0, "size": 17, "time": "01/30/2020, 10:39:54"}, "type": "Feature"}, {"geometry": {"coordinates": [8.540795, 47.378532], "type": "Point"}, "properties": {"charge": 81, "id": "smide_48", "name": "ZH253849", "provider": "smide", "range": 40.0, "size": 20, "time": "01/30/2020, 10:39:54"}, "type": "Feature"}, {"geometry": {"coordinates": [8.538495, 47.37936], "type": "Point"}, "properties": {"charge": 26, "id": "smide_46", "name": "ZH253843", "provider": "smide", "range": 13.0, "size": 20, "time": "01/30/2020, 10:39:54"}, "type": "Feature"}, {"geometry": {"coordinates": [8.51237833333333, 47.3902366666667], "type": "Point"}, "properties": {"charge": 39, "id": "bird_bfeaf1c4-f605-4aa2-bee5-3b01dc688e41", "provider": "bird", "timeStamp": "01/30/2020, 10:39:54"}, "type": "Feature"}, {"geometry": {"coordinates": [8.54861833333333, 47.3706316666667], "type": "Point"}, "properties": {"charge": 89, "id": "bird_fca2a1f3-b76c-4ea6-8a4c-fb114ac715b4", "provider": "bird", "timeStamp": "01/30/2020, 10:39:54"}, "type": "Feature"}, {"geometry": {"coordinates": [8.54084166666667, 47.3662216666667], "type": "Point"}, "properties": {"charge": 64, "id": "bird_8debb2d5-a9be-461c-a601-fc13d240eaa7", "provider": "bird", "timeStamp": "01/30/2020, 10:39:54"}, "type": "Feature"}, {"geometry": {"coordinates": [8.532125, 47.3645316666667], "type": "Point"}, "properties": {"charge": 71, "id": "bird_9d0d4605-59ac-440d-b448-19a466103df1", "provider": "bird", "timeStamp": "01/30/2020, 10:39:54"}, "type": "Feature"}, {"geometry": {"coordinates": [8.510545, 47.3721283333333], "type": "Point"}, "properties": {"charge": 72, "id": "bird_71509002-df06-4e48-a5b1-4b57adda0fc4", "provider": "bird", "timeStamp": "01/30/2020, 10:39:54"}, "type": "Feature"}, {"geometry": {"coordinates": [8.531795, 47.365105], "type": "Point"}, "properties": {"charge": 31, "id": "bird_1b60946e-5204-450c-a898-9581bb19439f", "provider": "bird", "timeStamp": "01/30/2020, 10:39:54"}, "type": "Feature"}, {"geometry": {"coordinates": [8.52541666666667, 47.39452], "type": "Point"}, "properties": {"charge": 30, "id": "bird_34226415-f3c1-4e27-b28a-33d350bd433e", "provider": "bird", "timeStamp": "01/30/2020, 10:39:54"}, "type": "Feature"}, {"geometry": {"coordinates": [8.51309166666667, 47.370865], "type": "Point"}, "properties": {"charge": 57, "id": "bird_ce91d98f-c56f-4103-9154-fcb4e17fc84b", "provider": "bird", "timeStamp": "01/30/2020, 10:39:54"}, "type": "Feature"}, {"geometry": {"coordinates": [8.53172666666667, 47.3654933333333], "type": "Point"}, "properties": {"charge": 47, "id": "bird_937a18bc-4b86-42e8-8f96-fa688c3a0505", "provider": "bird", "timeStamp": "01/30/2020, 10:39:54"}, "type": "Feature"}, {"geometry": {"coordinates": [8.53176833333333, 47.365535], "type": "Point"}, "properties": {"charge": 46, "id": "bird_8e634515-b1ca-474f-9e02-bed64b6832ce", "provider": "bird", "timeStamp": "01/30/2020, 10:39:54"}, "type": "Feature"}, {"geometry": {"coordinates": [8.53188333333333, 47.3655783333333], "type": "Point"}, "properties": {"charge": 27, "id": "bird_6c63cbbf-4dfe-4b45-9fbd-abab51b2251f", "provider": "bird", "timeStamp": "01/30/2020, 10:39:54"}, "type": "Feature"}, {"geometry": {"coordinates": [8.51783, 47.3918383333333], "type": "Point"}, "properties": {"charge": 89, "id": "bird_0969a9b0-74da-4ad2-ac72-b020120eb32b", "provider": "bird", "timeStamp": "01/30/2020, 10:39:54"}, "type": "Feature"}, {"geometry": {"coordinates": [8.53225333333333, 47.3657], "type": "Point"}, "properties": {"charge": 34, "id": "bird_919dd6a9-7e40-4d1e-980d-554890686216", "provider": "bird", "timeStamp": "01/30/2020, 10:39:54"}, "type": "Feature"}, {"geometry": {"coordinates": [8.53653166666667, 47.3663183333333], "type": "Point"}, "properties": {"charge": 19, "id": "bird_d059bb1e-3366-4e74-909c-35b51bb507e2", "provider": "bird", "timeStamp": "01/30/2020, 10:39:54"}, "type": "Feature"}, {"geometry": {"coordinates": [8.53649166666667, 47.3663633333333], "type": "Point"}, "properties": {"charge": 73, "id": "bird_88256453-d05c-4333-8651-6a50205b5ba5", "provider": "bird", "timeStamp": "01/30/2020, 10:39:54"}, "type": "Feature"}, {"geometry": {"coordinates": [8.51415166666667, 47.3893966666667], "type": "Point"}, "properties": {"charge": 10, "id": "bird_e02d28de-8d47-4d14-8019-974e0c0d4e56", "provider": "bird", "timeStamp": "01/30/2020, 10:39:54"}, "type": "Feature"}, {"geometry": {"coordinates": [8.509215, 47.3822983333333], "type": "Point"}, "properties": {"charge": 31, "id": "bird_bf749641-f8d8-43be-9d51-f45be4b50b0d", "provider": "bird", "timeStamp": "01/30/2020, 10:39:54"}, "type": "Feature"}, {"geometry": {"coordinates": [8.51433666666667, 47.3893616666667], "type": "Point"}, "properties": {"charge": 70, "id": "bird_afa52b5a-ef7e-425b-98db-19dbe51448c6", "provider": "bird", "timeStamp": "01/30/2020, 10:39:54"}, "type": "Feature"}, {"geometry": {"coordinates": [8.52961, 47.394115], "type": "Point"}, "properties": {"charge": 73, "id": "bird_24a5139b-0c9c-4e79-8ce9-d0ad93cefe6b", "provider": "bird", "timeStamp": "01/30/2020, 10:39:54"}, "type": "Feature"}, {"geometry": {"coordinates": [8.53250666666667, 47.393925], "type": "Point"}, "properties": {"charge": 42, "id": "bird_43500f9b-7ec5-44d9-ba78-e2b9e8677dcf", "provider": "bird", "timeStamp": "01/30/2020, 10:39:54"}, "type": "Feature"}, {"geometry": {"coordinates": [8.51022166666667, 47.375935], "type": "Point"}, "properties": {"charge": 57, "id": "bird_60a3f545-4770-4b14-ab7b-2bbd2e5185ee", "provider": "bird", "timeStamp": "01/30/2020, 10:39:54"}, "type": "Feature"}, {"geometry": {"coordinates": [8.51901, 47.3918083333333], "type": "Point"}, "properties": {"charge": 61, "id": "bird_69b31635-f52a-430b-af5e-87ed42ba54b2", "provider": "bird", "timeStamp": "01/30/2020, 10:39:54"}, "type": "Feature"}, {"geometry": {"coordinates": [8.54087333333333, 47.36818], "type": "Point"}, "properties": {"charge": 10, "id": "bird_aed8a4ef-4275-44e7-8e93-5d20f1239bae", "provider": "bird", "timeStamp": "01/30/2020, 10:39:54"}, "type": "Feature"}, {"geometry": {"coordinates": [8.54087833333333, 47.3681866666667], "type": "Point"}, "properties": {"charge": 64, "id": "bird_83c72349-9aae-4c61-b0a7-902e754456ef", "provider": "bird", "timeStamp": "01/30/2020, 10:39:54"}, "type": "Feature"}, {"geometry": {"coordinates": [8.52943833333333, 47.3938483333333], "type": "Point"}, "properties": {"charge": 89, "id": "bird_7b5dd720-a514-4152-bdba-86934ca836ce", "provider": "bird", "timeStamp": "01/30/2020, 10:39:54"}, "type": "Feature"}, {"geometry": {"coordinates": [8.53737166666667, 47.36708], "type": "Point"}, "properties": {"charge": 43, "id": "bird_8e9a4467-5d39-4d14-a159-af37a6275781", "provider": "bird", "timeStamp": "01/30/2020, 10:39:54"}, "type": "Feature"}, {"geometry": {"coordinates": [8.50974666666667, 47.3784633333333], "type": "Point"}, "properties": {"charge": 78, "id": "bird_3e25f1f3-b576-4e93-a84b-e73b4a2791a0", "provider": "bird", "timeStamp": "01/30/2020, 10:39:54"}, "type": "Feature"}, {"geometry": {"coordinates": [8.52944666666667, 47.393765], "type": "Point"}, "properties": {"charge": 96, "id": "bird_1dba2a90-acbc-4cb5-8949-3f100ef86595", "provider": "bird", "timeStamp": "01/30/2020, 10:39:54"}, "type": "Feature"}, {"geometry": {"coordinates": [8.52941166666667, 47.3937033333333], "type": "Point"}, "properties": {"charge": 93, "id": "bird_8dcd5a08-cd73-4b09-b652-80abe2ee67e1", "provider": "bird", "timeStamp": "01/30/2020, 10:39:54"}, "type": "Feature"}, {"geometry": {"coordinates": [8.52935333333333, 47.3936583333333], "type": "Point"}, "properties": {"charge": 93, "id": "bird_07c4620f-1480-469c-bed7-63ab2828bf4c", "provider": "bird", "timeStamp": "01/30/2020, 10:39:54"}, "type": "Feature"}, {"geometry": {"coordinates": [8.51558666666667, 47.370475], "type": "Point"}, "properties": {"charge": 67, "id": "bird_b03c9824-06c2-43c2-9f93-b3c373df5373", "provider": "bird", "timeStamp": "01/30/2020, 10:39:54"}, "type": "Feature"}, {"geometry": {"coordinates": [8.51333833333333, 47.372425], "type": "Point"}, "properties": {"charge": 64, "id": "bird_76b56fa6-424c-4a98-b816-cc6651af94d8", "provider": "bird", "timeStamp": "01/30/2020, 10:39:54"}, "type": "Feature"}, {"geometry": {"coordinates": [8.51017833333333, 47.3780283333333], "type": "Point"}, "properties": {"charge": 70, "id": "bird_7656c2f7-23ac-4d71-a8f8-e0e0d3749297", "provider": "bird", "timeStamp": "01/30/2020, 10:39:54"}, "type": "Feature"}, {"geometry": {"coordinates": [8.51350833333333, 47.38768], "type": "Point"}, "properties": {"charge": 72, "id": "bird_daf78aca-b701-49b0-b55c-7cd6d94445f5", "provider": "bird", "timeStamp": "01/30/2020, 10:39:54"}, "type": "Feature"}, {"geometry": {"coordinates": [8.52928333333333, 47.3934966666667], "type": "Point"}, "properties": {"charge": 98, "id": "bird_44238b20-f91a-45bf-97c5-3eb9ae1376d9", "provider": "bird", "timeStamp": "01/30/2020, 10:39:54"}, "type": "Feature"}, {"geometry": {"coordinates": [8.51912666666667, 47.368695], "type": "Point"}, "properties": {"charge": 19, "id": "bird_96afc39b-286d-4072-baeb-7dc1c7cabe8c", "provider": "bird", "timeStamp": "01/30/2020, 10:39:54"}, "type": "Feature"}, {"geometry": {"coordinates": [8.52925666666667, 47.3934816666667], "type": "Point"}, "properties": {"charge": 93, "id": "bird_972145d7-4adf-48d1-9d31-52c4536f0aa3", "provider": "bird", "timeStamp": "01/30/2020, 10:39:54"}, "type": "Feature"}, {"geometry": {"coordinates": [8.51912833333333, 47.3687016666667], "type": "Point"}, "properties": {"charge": 16, "id": "bird_22d59842-0698-471d-9faa-48a1227fb387", "provider": "bird", "timeStamp": "01/30/2020, 10:39:54"}, "type": "Feature"}, {"geometry": {"coordinates": [8.51911666666667, 47.3687166666667], "type": "Point"}, "properties": {"charge": 13, "id": "bird_49df8b36-4d13-4cdc-a62c-96a30369e8d2", "provider": "bird", "timeStamp": "01/30/2020, 10:39:54"}, "type": "Feature"}, {"geometry": {"coordinates": [8.51914, 47.3687133333333], "type": "Point"}, "properties": {"charge": 25, "id": "bird_3ee58353-3a48-4737-9542-31c945df83b3", "provider": "bird", "timeStamp": "01/30/2020, 10:39:54"}, "type": "Feature"}, {"geometry": {"coordinates": [8.515175, 47.3889466666667], "type": "Point"}, "properties": {"charge": 91, "id": "bird_1b56c684-0fa1-4cd3-ac58-69d754fb31d2", "provider": "bird", "timeStamp": "01/30/2020, 10:39:54"}, "type": "Feature"}, {"geometry": {"coordinates": [8.51913666666667, 47.3687583333333], "type": "Point"}, "properties": {"charge": 11, "id": "bird_c8614e1f-3570-454f-ac8f-dc9e8c1bc100", "provider": "bird", "timeStamp": "01/30/2020, 10:39:54"}, "type": "Feature"}, {"geometry": {"coordinates": [8.5264, 47.3932083333333], "type": "Point"}, "properties": {"charge": 69, "id": "bird_4faa1086-c7f0-4147-8ac9-5d762141bddb", "provider": "bird", "timeStamp": "01/30/2020, 10:39:54"}, "type": "Feature"}, {"geometry": {"coordinates": [8.510745, 47.3770833333333], "type": "Point"}, "properties": {"charge": 47, "id": "bird_1f0fb49e-1e7c-4d45-9e42-d8aeb04bf580", "provider": "bird", "timeStamp": "01/30/2020, 10:39:54"}, "type": "Feature"}, {"geometry": {"coordinates": [8.52817666666667, 47.366745], "type": "Point"}, "properties": {"charge": 35, "id": "bird_987e7f39-9a41-42c0-a977-c3743f9e8ef4", "provider": "bird", "timeStamp": "01/30/2020, 10:39:54"}, "type": "Feature"}, {"geometry": {"coordinates": [8.51821666666667, 47.3694566666667], "type": "Point"}, "properties": {"charge": 28, "id": "bird_12eea7b5-c2bc-489a-9260-52334ce7f974", "provider": "bird", "timeStamp": "01/30/2020, 10:39:54"}, "type": "Feature"}, {"geometry": {"coordinates": [8.51627666666667, 47.3893083333333], "type": "Point"}, "properties": {"charge": 80, "id": "bird_d57d5312-81d7-43cf-b122-cd85ce62a8df", "provider": "bird", "timeStamp": "01/30/2020, 10:39:54"}, "type": "Feature"}, {"geometry": {"coordinates": [8.51755, 47.3900833333333], "type": "Point"}, "properties": {"charge": 92, "id": "bird_4383fcf4-35eb-47db-990e-abf81960cb8c", "provider": "bird", "timeStamp": "01/30/2020, 10:39:54"}, "type": "Feature"}, {"geometry": {"coordinates": [8.515265, 47.3714833333333], "type": "Point"}, "properties": {"charge": 80, "id": "bird_2b9871fb-2e4c-4638-9a81-52ed73f5f728", "provider": "bird", "timeStamp": "01/30/2020, 10:39:54"}, "type": "Feature"}, {"geometry": {"coordinates": [8.54605, 47.37268], "type": "Point"}, "properties": {"charge": 29, "id": "bird_2ca096f2-d941-4152-95ce-8b771a995515", "provider": "bird", "timeStamp": "01/30/2020, 10:39:54"}, "type": "Feature"}, {"geometry": {"coordinates": [8.51124333333333, 47.376785], "type": "Point"}, "properties": {"charge": 27, "id": "bird_cc4537c5-bbe5-4085-8176-d27d3c791bf6", "provider": "bird", "timeStamp": "01/30/2020, 10:39:54"}, "type": "Feature"}, {"geometry": {"coordinates": [8.51124833333333, 47.3825], "type": "Point"}, "properties": {"charge": 60, "id": "bird_5c8287f5-8198-4f5a-b1bd-29e20f640979", "provider": "bird", "timeStamp": "01/30/2020, 10:39:54"}, "type": "Feature"}, {"geometry": {"coordinates": [8.54311, 47.3707116666667], "type": "Point"}, "properties": {"charge": 69, "id": "bird_9ae5654e-dc54-452b-b892-546e89924631", "provider": "bird", "timeStamp": "01/30/2020, 10:39:54"}, "type": "Feature"}, {"geometry": {"coordinates": [8.54838, 47.3774383333333], "type": "Point"}, "properties": {"charge": 69, "id": "bird_bf4fd5aa-e40f-4fe7-922c-57d34c4104d3", "provider": "bird", "timeStamp": "01/30/2020, 10:39:54"}, "type": "Feature"}, {"geometry": {"coordinates": [8.52842833333333, 47.392655], "type": "Point"}, "properties": {"charge": 38, "id": "bird_c3833c67-b2df-462a-965b-c9dc5f96eef2", "provider": "bird", "timeStamp": "01/30/2020, 10:39:54"}, "type": "Feature"}, {"geometry": {"coordinates": [8.51524833333333, 47.3877983333333], "type": "Point"}, "properties": {"charge": 56, "id": "bird_ff36fe86-75b7-4f85-90db-1e8652654d17", "provider": "bird", "timeStamp": "01/30/2020, 10:39:54"}, "type": "Feature"}, {"geometry": {"coordinates": [8.54052, 47.36953], "type": "Point"}, "properties": {"charge": 13, "id": "bird_5519e1ec-5b51-4a5a-8956-411cb5aa3ae9", "provider": "bird", "timeStamp": "01/30/2020, 10:39:54"}, "type": "Feature"}, {"geometry": {"coordinates": [8.53671166666667, 47.36821], "type": "Point"}, "properties": {"charge": 17, "id": "bird_35900668-9719-4842-b7cb-6532bb981563", "provider": "bird", "timeStamp": "01/30/2020, 10:39:54"}, "type": "Feature"}, {"geometry": {"coordinates": [8.540435, 47.3695533333333], "type": "Point"}, "properties": {"charge": 38, "id": "bird_15957986-4bc6-4bf2-953a-32a85bf4b2a4", "provider": "bird", "timeStamp": "01/30/2020, 10:39:54"}, "type": "Feature"}, {"geometry": {"coordinates": [8.540465, 47.3696016666667], "type": "Point"}, "properties": {"charge": 10, "id": "bird_96bae552-a3a5-4039-b32a-d6609b867d9f", "provider": "bird", "timeStamp": "01/30/2020, 10:39:54"}, "type": "Feature"}, {"geometry": {"coordinates": [8.53165, 47.36747], "type": "Point"}, "properties": {"charge": 27, "id": "bird_d0406750-b783-4ceb-92b3-39ccfa31b0eb", "provider": "bird", "timeStamp": "01/30/2020, 10:39:54"}, "type": "Feature"}, {"geometry": {"coordinates": [8.54041833333333, 47.36959], "type": "Point"}, "properties": {"charge": 17, "id": "bird_5b64243e-bdf3-4ccf-8205-9c4d272ff34f", "provider": "bird", "timeStamp": "01/30/2020, 10:39:54"}, "type": "Feature"}, {"geometry": {"coordinates": [8.52903333333333, 47.3674433333333], "type": "Point"}, "properties": {"charge": 30, "id": "bird_4f633bff-acaf-4f0c-a751-39411510091c", "provider": "bird", "timeStamp": "01/30/2020, 10:39:54"}, "type": "Feature"}, {"geometry": {"coordinates": [8.54045833333333, 47.3696216666667], "type": "Point"}, "properties": {"charge": 11, "id": "bird_88c8fce0-fb9c-4f5d-bf88-2c8f1488cee8", "provider": "bird", "timeStamp": "01/30/2020, 10:39:54"}, "type": "Feature"}, {"geometry": {"coordinates": [8.54043666666667, 47.3696333333333], "type": "Point"}, "properties": {"charge": 44, "id": "bird_6b31a9d8-93dc-4a25-b69d-8e16b7362be7", "provider": "bird", "timeStamp": "01/30/2020, 10:39:54"}, "type": "Feature"}, {"geometry": {"coordinates": [8.54385166666667, 47.3718866666667], "type": "Point"}, "properties": {"charge": 40, "id": "bird_de203de1-431b-422b-9c95-1e6e23876523", "provider": "bird", "timeStamp": "01/30/2020, 10:39:54"}, "type": "Feature"}, {"geometry": {"coordinates": [8.54381833333333, 47.37202], "type": "Point"}, "properties": {"charge": 28, "id": "bird_667b4059-d4a7-4e60-a5c1-9e1157668b90", "provider": "bird", "timeStamp": "01/30/2020, 10:39:54"}, "type": "Feature"}, {"geometry": {"coordinates": [8.539965, 47.3901366666667], "type": "Point"}, "properties": {"charge": 33, "id": "bird_af6b4e7b-df99-4333-bcae-2547588f7246", "provider": "bird", "timeStamp": "01/30/2020, 10:39:54"}, "type": "Feature"}, {"geometry": {"coordinates": [8.535445, 47.3915783333333], "type": "Point"}, "properties": {"charge": 83, "id": "bird_019455d8-bb92-4b84-b4ba-5c75f19ab485", "provider": "bird", "timeStamp": "01/30/2020, 10:39:54"}, "type": "Feature"}, {"geometry": {"coordinates": [8.54295666666667, 47.371795], "type": "Point"}, "properties": {"charge": 33, "id": "bird_e7662f69-564b-413d-983e-ea2c4e1312cf", "provider": "bird", "timeStamp": "01/30/2020, 10:39:54"}, "type": "Feature"}, {"geometry": {"coordinates": [8.54767833333333, 47.3800466666667], "type": "Point"}, "properties": {"charge": 25, "id": "bird_e699c456-dd64-47c8-a871-b0b95b50edb2", "provider": "bird", "timeStamp": "01/30/2020, 10:39:54"}, "type": "Feature"}, {"geometry": {"coordinates": [8.53305166666667, 47.3682483333333], "type": "Point"}, "properties": {"charge": 40, "id": "bird_f57aa683-285c-44f1-94a1-01b9a3599828", "provider": "bird", "timeStamp": "01/30/2020, 10:39:54"}, "type": "Feature"}, {"geometry": {"coordinates": [8.54483666666667, 47.37363], "type": "Point"}, "properties": {"charge": 64, "id": "bird_8a7da376-3381-4ee5-a702-88cb813e331a", "provider": "bird", "timeStamp": "01/30/2020, 10:39:54"}, "type": "Feature"}, {"geometry": {"coordinates": [8.53831833333333, 47.3696483333333], "type": "Point"},