{"features": [{"geometry": {"coordinates": [8.540062, 47.374392], "type": "Point"}, "properties": {"address": "Uraniastrasse 7", "electric": 3, "id": "pb_60", "manual": 3, "name": "Demo Station Werdm\u00fchleplatz", "provider": "publibike", "timeStamp": "03/21/2020, 09:55:28", "zip": 8001}, "type": "Feature"}, {"geometry": {"coordinates": [8.5452956, 47.4099615], "type": "Point"}, "properties": {"address": "Querstrasse 8", "electric": 0, "id": "pb_61", "manual": 1, "name": "Marktplatz", "provider": "publibike", "timeStamp": "03/21/2020, 09:55:28", "zip": 8050}, "type": "Feature"}, {"geometry": {"coordinates": [8.5156327, 47.3795837], "type": "Point"}, "properties": {"address": "Bullingerstrasse 5", "electric": 2, "id": "pb_80", "manual": 10, "name": "Bullingerplatz", "provider": "publibike", "timeStamp": "03/21/2020, 09:55:28", "zip": 8004}, "type": "Feature"}, {"geometry": {"coordinates": [8.5104051, 47.3899342], "type": "Point"}, "properties": {"address": "Pfingstweidstrasse 96e", "electric": 0, "id": "pb_81", "manual": 6, "name": "Herdern", "provider": "publibike", "timeStamp": "03/21/2020, 09:55:28", "zip": 8001}, "type": "Feature"}, {"geometry": {"coordinates": [8.535718, 47.359675], "type": "Point"}, "properties": {"address": "Mythenquai 50", "electric": 7, "id": "pb_82", "manual": 6, "name": "Hafen Enge", "provider": "publibike", "timeStamp": "03/21/2020, 09:55:28", "zip": 8002}, "type": "Feature"}, {"geometry": {"coordinates": [8.520370505, 47.358663827], "type": "Point"}, "properties": {"address": "Bubenbergstrasse 1", "electric": 0, "id": "pb_83", "manual": 0, "name": "Comerge", "provider": "publibike", "timeStamp": "03/21/2020, 09:55:28", "zip": 8045}, "type": "Feature"}, {"geometry": {"coordinates": [8.5412505, 47.3789825], "type": "Point"}, "properties": {"address": "Museumstrasse 2", "electric": 7, "id": "pb_84", "manual": 27, "name": "Landesmuseum", "provider": "publibike", "timeStamp": "03/21/2020, 09:55:28", "zip": 8001}, "type": "Feature"}, {"geometry": {"coordinates": [8.5235479, 47.3716661], "type": "Point"}, "properties": {"address": "Birmensdorferstrasse 80", "electric": 4, "id": "pb_85", "manual": 7, "name": "Bahnhof Wiedikon", "provider": "publibike", "timeStamp": "03/21/2020, 09:55:28", "zip": 8003}, "type": "Feature"}, {"geometry": {"coordinates": [8.506822854, 47.40781197], "type": "Point"}, "properties": {"address": "Stefano-Franscini-Platz 5", "electric": 6, "id": "pb_86", "manual": 0, "name": "ETH H\u00f6nggerberg", "provider": "publibike", "timeStamp": "03/21/2020, 09:55:28", "zip": 8093}, "type": "Feature"}, {"geometry": {"coordinates": [8.536101, 47.371083], "type": "Point"}, "properties": {"address": "Pelikanplatz 5", "electric": 8, "id": "pb_87", "manual": 6, "name": "Pelikanplatz", "provider": "publibike", "timeStamp": "03/21/2020, 09:55:28", "zip": 8001}, "type": "Feature"}, {"geometry": {"coordinates": [8.5257822, 47.3651936], "type": "Point"}, "properties": {"address": "H\u00fcrlimannplatz 90", "electric": 12, "id": "pb_88", "manual": 4, "name": "H\u00fcrlimannplatz", "provider": "publibike", "timeStamp": "03/21/2020, 09:55:28", "zip": 8002}, "type": "Feature"}, {"geometry": {"coordinates": [8.5313344, 47.3713591], "type": "Point"}, "properties": {"address": "Selnaustrasse 32", "electric": 0, "id": "pb_89", "manual": 5, "name": "Stauffacherbr\u00fccke", "provider": "publibike", "timeStamp": "03/21/2020, 09:55:28", "zip": 8001}, "type": "Feature"}, {"geometry": {"coordinates": [8.5056978, 47.3917964], "type": "Point"}, "properties": {"address": "Sportweg 25", "electric": 2, "id": "pb_90", "manual": 4, "name": "Sportweg", "provider": "publibike", "timeStamp": "03/21/2020, 09:55:28", "zip": 8005}, "type": "Feature"}, {"geometry": {"coordinates": [8.5181701, 47.3917837], "type": "Point"}, "properties": {"address": "Hardturmstrasse 11", "electric": 4, "id": "pb_91", "manual": 6, "name": "Puls 5", "provider": "publibike", "timeStamp": "03/21/2020, 09:55:28", "zip": 8005}, "type": "Feature"}, {"geometry": {"coordinates": [8.5286468, 47.3820827], "type": "Point"}, "properties": {"address": "R\u00f6ntgenstrasse 6", "electric": 0, "id": "pb_92", "manual": 1, "name": "R\u00f6ntgenstrasse", "provider": "publibike", "timeStamp": "03/21/2020, 09:55:28", "zip": 8005}, "type": "Feature"}, {"geometry": {"coordinates": [8.531935, 47.384918], "type": "Point"}, "properties": {"address": "Kornhausbr\u00fccke 1", "electric": 4, "id": "pb_93", "manual": 9, "name": "Limmatplatz", "provider": "publibike", "timeStamp": "03/21/2020, 09:55:28", "zip": 8005}, "type": "Feature"}, {"geometry": {"coordinates": [8.5354006, 47.3758639], "type": "Point"}, "properties": {"address": "Gessnerallee 15", "electric": 6, "id": "pb_94", "manual": 4, "name": "Gessnerallee", "provider": "publibike", "timeStamp": "03/21/2020, 09:55:28", "zip": 8001}, "type": "Feature"}, {"geometry": {"coordinates": [8.523818, 47.377148], "type": "Point"}, "properties": {"address": "Stauffacherstrasse 127", "electric": 6, "id": "pb_95", "manual": 0, "name": "B\u00e4ckeranlage", "provider": "publibike", "timeStamp": "03/21/2020, 09:55:28", "zip": 8004}, "type": "Feature"}, {"geometry": {"coordinates": [8.531836, 47.378548], "type": "Point"}, "properties": {"address": "Lagerstrasse 44", "electric": 6, "id": "pb_96", "manual": 12, "name": "Gustav-Gull-Platz", "provider": "publibike", "timeStamp": "03/21/2020, 09:55:28", "zip": 8004}, "type": "Feature"}, {"geometry": {"coordinates": [8.5104883, 47.3771535], "type": "Point"}, "properties": {"address": "Zurlindenstrasse 291", "electric": 6, "id": "pb_97", "manual": 6, "name": "Zurlindenstrasse", "provider": "publibike", "timeStamp": "03/21/2020, 09:55:28", "zip": 8003}, "type": "Feature"}, {"geometry": {"coordinates": [8.5333139, 47.3731102], "type": "Point"}, "properties": {"address": "Sihlstrasse 81", "electric": 0, "id": "pb_98", "manual": 8, "name": "Sihlstrasse", "provider": "publibike", "timeStamp": "03/21/2020, 09:55:28", "zip": 8001}, "type": "Feature"}, {"geometry": {"coordinates": [8.520532, 47.374951], "type": "Point"}, "properties": {"address": "Feldstrasse 24", "electric": 1, "id": "pb_99", "manual": 3, "name": "Kalkbreite", "provider": "publibike", "timeStamp": "03/21/2020, 09:55:28", "zip": 8004}, "type": "Feature"}, {"geometry": {"coordinates": [8.539046, 47.368064], "type": "Point"}, "properties": {"address": "Talstrasse 12", "electric": 0, "id": "pb_100", "manual": 7, "name": "Z\u00fcrcher Kantonalbank", "provider": "publibike", "timeStamp": "03/21/2020, 09:55:28", "zip": 8001}, "type": "Feature"}, {"geometry": {"coordinates": [8.5348427, 47.3625938], "type": "Point"}, "properties": {"address": "Breitingerstrasse 5", "electric": 2, "id": "pb_101", "manual": 7, "name": "Rentenanstalt", "provider": "publibike", "timeStamp": "03/21/2020, 09:55:28", "zip": 8002}, "type": "Feature"}, {"geometry": {"coordinates": [8.5166922, 47.3897772], "type": "Point"}, "properties": {"address": "Technoparkstrasse 4", "electric": 0, "id": "pb_102", "manual": 4, "name": "Turbinenplatz", "provider": "publibike", "timeStamp": "03/21/2020, 09:55:28", "zip": 8005}, "type": "Feature"}, {"geometry": {"coordinates": [8.539312, 47.3739964], "type": "Point"}, "properties": {"address": "Oetenbachgasse 14", "electric": 3, "id": "pb_104", "manual": 4, "name": "Rennweg", "provider": "publibike", "timeStamp": "03/21/2020, 09:55:28", "zip": 8001}, "type": "Feature"}, {"geometry": {"coordinates": [8.5360685, 47.3775022], "type": "Point"}, "properties": {"address": "Kasernenstrasse 101", "electric": 7, "id": "pb_105", "manual": 17, "name": "Sihlpost", "provider": "publibike", "timeStamp": "03/21/2020, 09:55:28", "zip": 8004}, "type": "Feature"}, {"geometry": {"coordinates": [8.53545, 47.382798], "type": "Point"}, "properties": {"address": "Ausstellungsstrasse 44", "electric": 0, "id": "pb_106", "manual": 1, "name": "Museum f\u00fcr Gestaltung", "provider": "publibike", "timeStamp": "03/21/2020, 09:55:28", "zip": 8005}, "type": "Feature"}, {"geometry": {"coordinates": [8.5306155, 47.3647902], "type": "Point"}, "properties": {"address": "Gutenbergstrasse 1", "electric": 4, "id": "pb_107", "manual": 8, "name": "Bederbr\u00fccke", "provider": "publibike", "timeStamp": "03/21/2020, 09:55:28", "zip": 8002}, "type": "Feature"}, {"geometry": {"coordinates": [8.518982, 47.386741], "type": "Point"}, "properties": {"address": "Geroldstrasse 4", "electric": 0, "id": "pb_108", "manual": 14, "name": "Bahnhof Hardbr\u00fccke", "provider": "publibike", "timeStamp": "03/21/2020, 09:55:28", "zip": 8005}, "type": "Feature"}, {"geometry": {"coordinates": [8.53001018, 47.37247535], "type": "Point"}, "properties": {"address": "Werdstrasse 21", "electric": 9, "id": "pb_109", "manual": 3, "name": "Tamedia", "provider": "publibike", "timeStamp": "03/21/2020, 09:55:28", "zip": 8004}, "type": "Feature"}, {"geometry": {"coordinates": [8.4860017, 47.396401], "type": "Point"}, "properties": {"address": "Gr\u00fcnauring 37", "electric": 4, "id": "pb_110", "manual": 4, "name": "Gr\u00fcnau", "provider": "publibike", "timeStamp": "03/21/2020, 09:55:28", "zip": 8064}, "type": "Feature"}, {"geometry": {"coordinates": [8.548519, 47.376756], "type": "Point"}, "properties": {"address": "R\u00e4mistrasse 101", "electric": 8, "id": "pb_111", "manual": 1, "name": "ETH Zentrum", "provider": "publibike", "timeStamp": "03/21/2020, 09:55:28", "zip": 8006}, "type": "Feature"}, {"geometry": {"coordinates": [8.520449, 47.388151], "type": "Point"}, "properties": {"address": "Josefstrasse 224", "electric": 0, "id": "pb_112", "manual": 3, "name": "Steinfelsareal", "provider": "publibike", "timeStamp": "03/21/2020, 09:55:28", "zip": 8005}, "type": "Feature"}, {"geometry": {"coordinates": [8.520482, 47.37209], "type": "Point"}, "properties": {"address": "Weststrasse 115", "electric": 3, "id": "pb_124", "manual": 3, "name": "Weststrasse", "provider": "publibike", "timeStamp": "03/21/2020, 09:55:28", "zip": 8003}, "type": "Feature"}, {"geometry": {"coordinates": [8.496727, 47.378521], "type": "Point"}, "properties": {"address": "Albisriederstrasse 200", "electric": 8, "id": "pb_125", "manual": 4, "name": "Utogrund", "provider": "publibike", "timeStamp": "03/21/2020, 09:55:28", "zip": 8047}, "type": "Feature"}, {"geometry": {"coordinates": [8.510418, 47.381356], "type": "Point"}, "properties": {"address": "Bullingerstrasse 73", "electric": 4, "id": "pb_126", "manual": 8, "name": "Hardau", "provider": "publibike", "timeStamp": "03/21/2020, 09:55:28", "zip": 8004}, "type": "Feature"}, {"geometry": {"coordinates": [8.525525, 47.361567], "type": "Point"}, "properties": {"address": "Klopstockstrasse 23", "electric": 0, "id": "pb_127", "manual": 6, "name": "Klopstockwiese", "provider": "publibike", "timeStamp": "03/21/2020, 09:55:28", "zip": 8002}, "type": "Feature"}, {"geometry": {"coordinates": [8.518143, 47.363148], "type": "Point"}, "properties": {"address": "Haldenstrasse 8", "electric": 4, "id": "pb_128", "manual": 6, "name": "Binz", "provider": "publibike", "timeStamp": "03/21/2020, 09:55:28", "zip": 8045}, "type": "Feature"}, {"geometry": {"coordinates": [8.542726, 47.379952], "type": "Point"}, "properties": {"address": "Walchestrasse 11", "electric": 1, "id": "pb_129", "manual": 6, "name": "Stampfenbachplatz", "provider": "publibike", "timeStamp": "03/21/2020, 09:55:28", "zip": 8006}, "type": "Feature"}, {"geometry": {"coordinates": [8.488108, 47.391366], "type": "Point"}, "properties": {"address": "Altstetterplatz 1", "electric": 9, "id": "pb_130", "manual": 8, "name": "Bahnhof Altstetten", "provider": "publibike", "timeStamp": "03/21/2020, 09:55:28", "zip": 8048}, "type": "Feature"}, {"geometry": {"coordinates": [8.554114, 47.365119], "type": "Point"}, "properties": {"address": "Kreuzplatz 2", "electric": 9, "id": "pb_131", "manual": 2, "name": "Kreuzplatz", "provider": "publibike", "timeStamp": "03/21/2020, 09:55:28", "zip": 8032}, "type": "Feature"}, {"geometry": {"coordinates": [8.549852, 47.35594], "type": "Point"}, "properties": {"address": "H\u00f6schgasse 3", "electric": 3, "id": "pb_132", "manual": 5, "name": "Blatterwiese", "provider": "publibike", "timeStamp": "03/21/2020, 09:55:28", "zip": 8008}, "type": "Feature"}, {"geometry": {"coordinates": [8.554501, 47.36162], "type": "Point"}, "properties": {"address": "Feldeggstrasse 80", "electric": 15, "id": "pb_133", "manual": 3, "name": "Villa Bleuler", "provider": "publibike", "timeStamp": "03/21/2020, 09:55:28", "zip": 8008}, "type": "Feature"}, {"geometry": {"coordinates": [8.557088, 47.358557], "type": "Point"}, "properties": {"address": "M\u00fchlebachstrasse 131", "electric": 2, "id": "pb_134", "manual": 6, "name": "M\u00fchlebachstrasse", "provider": "publibike", "timeStamp": "03/21/2020, 09:55:28", "zip": 8008}, "type": "Feature"}, {"geometry": {"coordinates": [8.547639, 47.361266], "type": "Point"}, "properties": {"address": "Utoquai 50", "electric": 1, "id": "pb_135", "manual": 1, "name": "Seebad Utoquai", "provider": "publibike", "timeStamp": "03/21/2020, 09:55:28", "zip": 8008}, "type": "Feature"}, {"geometry": {"coordinates": [8.548045, 47.370869], "type": "Point"}, "properties": {"address": "Heimplatz 1", "electric": 2, "id": "pb_137", "manual": 1, "name": "Kunsthaus", "provider": "publibike", "timeStamp": "03/21/2020, 09:55:28", "zip": 8001}, "type": "Feature"}, {"geometry": {"coordinates": [8.543447, 47.375933], "type": "Point"}, "properties": {"address": "Limmatquai 138", "electric": 7, "id": "pb_138", "manual": 7, "name": "Central", "provider": "publibike", "timeStamp": "03/21/2020, 09:55:28", "zip": 8001}, "type": "Feature"}, {"geometry": {"coordinates": [8.549356, 47.408827], "type": "Point"}, "properties": {"address": "Tramstrasse 35", "electric": 2, "id": "pb_139", "manual": 1, "name": "ewz Tramstrasse", "provider": "publibike", "timeStamp": "03/21/2020, 09:55:28", "zip": 8050}, "type": "Feature"}, {"geometry": {"coordinates": [8.533736, 47.366904], "type": "Point"}, "properties": {"address": "Bleicherweg 33", "electric": 2, "id": "pb_140", "manual": 10, "name": "Bleicherweg", "provider": "publibike", "timeStamp": "03/21/2020, 09:55:28", "zip": 8002}, "type": "Feature"}, {"geometry": {"coordinates": [8.544935, 47.366752], "type": "Point"}, "properties": {"address": "Bellevueplatz 2", "electric": 36, "id": "pb_141", "manual": 13, "name": "Bellevue", "provider": "publibike", "timeStamp": "03/21/2020, 09:55:28", "zip": 8001}, "type": "Feature"}, {"geometry": {"coordinates": [8.5285533, 47.3742296], "type": "Point"}, "properties": {"address": "Stauffacherstrasse 41", "electric": 3, "id": "pb_142", "manual": 16, "name": "Stauffacher", "provider": "publibike", "timeStamp": "03/21/2020, 09:55:28", "zip": 8004}, "type": "Feature"}, {"geometry": {"coordinates": [8.523722, 47.3899], "type": "Point"}, "properties": {"address": "Limmatstrasse 310", "electric": 2, "id": "pb_143", "manual": 1, "name": "Escher-Wyss-Platz", "provider": "publibike", "timeStamp": "03/21/2020, 09:55:28", "zip": 8005}, "type": "Feature"}, {"geometry": {"coordinates": [8.491061, 47.392336], "type": "Point"}, "properties": {"address": "Vulkanplatz 1", "electric": 1, "id": "pb_149", "manual": 6, "name": "Vulkanplatz", "provider": "publibike", "timeStamp": "03/21/2020, 09:55:28", "zip": 8048}, "type": "Feature"}, {"geometry": {"coordinates": [8.52306, 47.359872], "type": "Point"}, "properties": {"address": "Giessh\u00fcbelstrasse 15", "electric": 0, "id": "pb_150", "manual": 5, "name": "Utoplatz", "provider": "publibike", "timeStamp": "03/21/2020, 09:55:28", "zip": 8045}, "type": "Feature"}, {"geometry": {"coordinates": [8.486284, 47.387685], "type": "Point"}, "properties": {"address": "Lindenplatz 1", "electric": 7, "id": "pb_151", "manual": 9, "name": "Lindenplatz", "provider": "publibike", "timeStamp": "03/21/2020, 09:55:28", "zip": 8048}, "type": "Feature"}, {"geometry": {"coordinates": [8.49163, 47.389823], "type": "Point"}, "properties": {"address": "Hohlstrasse 563", "electric": 5, "id": "pb_152", "manual": 8, "name": "Luggweg", "provider": "publibike", "timeStamp": "03/21/2020, 09:55:28", "zip": 8048}, "type": "Feature"}, {"geometry": {"coordinates": [8.52174, 47.365272], "type": "Point"}, "properties": {"address": "Manessestrasse 87", "electric": 8, "id": "pb_153", "manual": 7, "name": "Manesseplatz", "provider": "publibike", "timeStamp": "03/21/2020, 09:55:28", "zip": 8045}, "type": "Feature"}, {"geometry": {"coordinates": [8.52714, 47.372329], "type": "Point"}, "properties": {"address": "Werdstrasse 75", "electric": 7, "id": "pb_154", "manual": 10, "name": "Werd", "provider": "publibike", "timeStamp": "03/21/2020, 09:55:28", "zip": 8004}, "type": "Feature"}, {"geometry": {"coordinates": [8.543042, 47.374711], "type": "Point"}, "properties": {"address": "Limmatquai 100", "electric": 0, "id": "pb_155", "manual": 0, "name": "Rudolf-Brun-Br\u00fccke", "provider": "publibike", "timeStamp": "03/21/2020, 09:55:28", "zip": 8001}, "type": "Feature"}, {"geometry": {"coordinates": [8.490837, 47.386596], "type": "Point"}, "properties": {"address": "Badenerstrasse 627", "electric": 0, "id": "pb_156", "manual": 12, "name": "Luggwegstrasse VBZ", "provider": "publibike", "timeStamp": "03/21/2020, 09:55:28", "zip": 8048}, "type": "Feature"}, {"geometry": {"coordinates": [8.535119, 47.355189], "type": "Point"}, "properties": {"address": "Mythenquai 95", "electric": 5, "id": "pb_157", "manual": 1, "name": "Strandbad Mythenquai", "provider": "publibike", "timeStamp": "03/21/2020, 09:55:28", "zip": 8002}, "type": "Feature"}, {"geometry": {"coordinates": [8.545505, 47.373675], "type": "Point"}, "properties": {"address": "Predigerpatz 21", "electric": 0, "id": "pb_158", "manual": 1, "name": "Predigerplatz", "provider": "publibike", "timeStamp": "03/21/2020, 09:55:28", "zip": 8001}, "type": "Feature"}, {"geometry": {"coordinates": [8.515558, 47.371868], "type": "Point"}, "properties": {"address": "Aemtlerstrasse 23", "electric": 7, "id": "pb_159", "manual": 4, "name": "Zwinglihaus", "provider": "publibike", "timeStamp": "03/21/2020, 09:55:28", "zip": 8003}, "type": "Feature"}, {"geometry": {"coordinates": [8.524629, 47.386072], "type": "Point"}, "properties": {"address": "Josefstrasse 188", "electric": 3, "id": "pb_160", "manual": 2, "name": "Josefwiese", "provider": "publibike", "timeStamp": "03/21/2020, 09:55:28", "zip": 8005}, "type": "Feature"}, {"geometry": {"coordinates": [8.527138, 47.387531], "type": "Point"}, "properties": {"address": "R\u00f6ntgenstrasse 87", "electric": 2, "id": "pb_164", "manual": 3, "name": "Markthalle", "provider": "publibike", "timeStamp": "03/21/2020, 09:55:28", "zip": 8005}, "type": "Feature"}, {"geometry": {"coordinates": [8.552717, 47.359978], "type": "Point"}, "properties": {"address": "Seefeldstrasse 96", "electric": 0, "id": "pb_263", "manual": 3, "name": "Feldeggstrasse", "provider": "publibike", "timeStamp": "03/21/2020, 09:55:28", "zip": 8008}, "type": "Feature"}, {"geometry": {"coordinates": [8.553189, 47.353198], "type": "Point"}, "properties": {"address": "Bellerivestrasse 170", "electric": 6, "id": "pb_264", "manual": 8, "name": "Lake Side", "provider": "publibike", "timeStamp": "03/21/2020, 09:55:28", "zip": 8008}, "type": "Feature"}, {"geometry": {"coordinates": [8.543437, 47.369256], "type": "Point"}, "properties": {"address": "Limmatquai 18", "electric": 0, "id": "pb_265", "manual": 0, "name": "Helmhaus", "provider": "publibike", "timeStamp": "03/21/2020, 09:55:28", "zip": 8032}, "type": "Feature"}, {"geometry": {"coordinates": [8.516676, 47.375819], "type": "Point"}, "properties": {"address": "Badenerstrasse 246", "electric": 2, "id": "pb_266", "manual": 9, "name": "Lochergut", "provider": "publibike", "timeStamp": "03/21/2020, 09:55:28", "zip": 8004}, "type": "Feature"}, {"geometry": {"coordinates": [8.514605, 47.389862], "type": "Point"}, "properties": {"address": "Pfingstweidstrasse 60", "electric": 1, "id": "pb_273", "manual": 4, "name": "Westpark", "provider": "publibike", "timeStamp": "03/21/2020, 09:55:28", "zip": 8005}, "type": "Feature"}, {"geometry": {"coordinates": [8.541239126, 47.375991201], "type": "Point"}, "properties": {"address": "Beatenplatz 1", "electric": 0, "id": "pb_274", "manual": 13, "name": "Beatenplatz", "provider": "publibike", "timeStamp": "03/21/2020, 09:55:28", "zip": 8001}, "type": "Feature"}, {"geometry": {"coordinates": [8.5417135, 47.3942197], "type": "Point"}, "properties": {"address": "Scheuchzerstrasse 181", "electric": 3, "id": "pb_275", "manual": 1, "name": "Pauluskirche", "provider": "publibike", "timeStamp": "03/21/2020, 09:55:28", "zip": 8057}, "type": "Feature"}, {"geometry": {"coordinates": [8.5528182, 47.414558], "type": "Point"}, "properties": {"address": "Hagenholzstrasse 51", "electric": 0, "id": "pb_276", "manual": 6, "name": "Airgate", "provider": "publibike", "timeStamp": "03/21/2020, 09:55:28", "zip": 8050}, "type": "Feature"}, {"geometry": {"coordinates": [8.537816, 47.413514], "type": "Point"}, "properties": {"address": "Birchstrasse 183", "electric": 0, "id": "pb_277", "manual": 0, "name": "Lamprechtweg", "provider": "publibike", "timeStamp": "03/21/2020, 09:55:28", "zip": 8050}, "type": "Feature"}, {"geometry": {"coordinates": [8.545602, 47.417701], "type": "Point"}, "properties": {"address": "Felsenrainstrasse 2", "electric": 5, "id": "pb_278", "manual": 2, "name": "Emil-Oberh\u00e4nsli", "provider": "publibike", "timeStamp": "03/21/2020, 09:55:28", "zip": 8050}, "type": "Feature"}, {"geometry": {"coordinates": [8.533647, 47.39808], "type": "Point"}, "properties": {"address": "Bucheggplatz 2", "electric": 3, "id": "pb_279", "manual": 10, "name": "Bucheggplatz", "provider": "publibike", "timeStamp": "03/21/2020, 09:55:28", "zip": 8057}, "type": "Feature"}, {"geometry": {"coordinates": [8.523549, 47.392347], "type": "Point"}, "properties": {"address": "Wipkingerplatz 4", "electric": 2, "id": "pb_280", "manual": 5, "name": "Wipkingerplatz", "provider": "publibike", "timeStamp": "03/21/2020, 09:55:28", "zip": 8037}, "type": "Feature"}, {"geometry": {"coordinates": [8.548562, 47.36691], "type": "Point"}, "properties": {"address": "Galerie \u00fcber Gleis 2/3", "electric": 1, "id": "pb_285", "manual": 11, "name": "Bahnhof Stadelhofen", "provider": "publibike", "timeStamp": "03/21/2020, 09:55:28", "zip": 8001}, "type": "Feature"}, {"geometry": {"coordinates": [8.493822, 47.3985553], "type": "Point"}, "properties": {"address": "Meierwiesenstrasse 12-4", "electric": 0, "id": "pb_286", "manual": 2, "name": "T\u00fcffenwies", "provider": "publibike", "timeStamp": "03/21/2020, 09:55:28", "zip": 8064}, "type": "Feature"}, {"geometry": {"coordinates": [8.552432, 47.3801757], "type": "Point"}, "properties": {"address": "Hochstrasse 34", "electric": 8, "id": "pb_356", "manual": 0, "name": "Siriuswiese", "provider": "publibike", "timeStamp": "03/21/2020, 09:55:28", "zip": 8044}, "type": "Feature"}, {"geometry": {"coordinates": [8.527298, 47.370141], "type": "Point"}, "properties": {"address": "Hallwylstrasse 71", "electric": 3, "id": "pb_357", "manual": 3, "name": "Hallwylstrasse", "provider": "publibike", "timeStamp": "03/21/2020, 09:55:28", "zip": 8004}, "type": "Feature"}, {"geometry": {"coordinates": [8.5414185, 47.3972455], "type": "Point"}, "properties": {"address": "Schaffhauserstrasse 137", "electric": 4, "id": "pb_358", "manual": 1, "name": "Milchbuck", "provider": "publibike", "timeStamp": "03/21/2020, 09:55:28", "zip": 8057}, "type": "Feature"}, {"geometry": {"coordinates": [8.512381, 47.393409], "type": "Point"}, "properties": {"address": "Hardturmstrasse 161", "electric": 4, "id": "pb_359", "manual": 1, "name": "Fischerweg", "provider": "publibike", "timeStamp": "03/21/2020, 09:55:28", "zip": 8005}, "type": "Feature"}, {"geometry": {"coordinates": [8.5421457, 47.3876979], "type": "Point"}, "properties": {"address": "Turnerstrasse 47", "electric": 5, "id": "pb_360", "manual": 6, "name": "Kirche Unterstrass", "provider": "publibike", "timeStamp": "03/21/2020, 09:55:28", "zip": 8006}, "type": "Feature"}, {"geometry": {"coordinates": [8.522117, 47.394554], "type": "Point"}, "properties": {"address": "Dorfstrasse 40", "electric": 0, "id": "pb_361", "manual": 3, "name": "Dorfstrasse", "provider": "publibike", "timeStamp": "03/21/2020, 09:55:28", "zip": 8037}, "type": "Feature"}, {"geometry": {"coordinates": [8.530437, 47.37271], "type": "Point"}, "properties": {"address": "Werdstrasse 25", "electric": 3, "id": "pb_362", "manual": 8, "name": "Stauffachertor", "provider": "publibike", "timeStamp": "03/21/2020, 09:55:28", "zip": 8004}, "type": "Feature"}, {"geometry": {"coordinates": [8.541712, 47.416155], "type": "Point"}, "properties": {"address": "Eggb\u00fchlstrasse 21", "electric": 1, "id": "pb_363", "manual": 5, "name": "Wahlenpark", "provider": "publibike", "timeStamp": "03/21/2020, 09:55:28", "zip": 8050}, "type": "Feature"}, {"geometry": {"coordinates": [8.5595335, 47.3708387], "type": "Point"}, "properties": {"address": "Dolderstrasse 32", "electric": 3, "id": "pb_364", "manual": 0, "name": "Kinderspital", "provider": "publibike", "timeStamp": "03/21/2020, 09:55:28", "zip": 8032}, "type": "Feature"}, {"geometry": {"coordinates": [8.536433, 47.388689], "type": "Point"}, "properties": {"address": "Kornhausstrasse 30", "electric": 3, "id": "pb_365", "manual": 1, "name": "Kornhausstrasse", "provider": "publibike", "timeStamp": "03/21/2020, 09:55:28", "zip": 8006}, "type": "Feature"}, {"geometry": {"coordinates": [8.55033, 47.407098], "type": "Point"}, "properties": {"address": "Schwamendingenstrasse 41", "electric": 4, "id": "pb_366", "manual": 2, "name": "Dorflinde", "provider": "publibike", "timeStamp": "03/21/2020, 09:55:28", "zip": 8050}, "type": "Feature"}, {"geometry": {"coordinates": [8.560476, 47.368199], "type": "Point"}, "properties": {"address": "R\u00f6merhofplatz 5", "electric": 3, "id": "pb_367", "manual": 0, "name": "R\u00f6merhof", "provider": "publibike", "timeStamp": "03/21/2020, 09:55:28", "zip": 8032}, "type": "Feature"}, {"geometry": {"coordinates": [8.5609218, 47.3619068], "type": "Point"}, "properties": {"address": "Forchstrasse 99", "electric": 5, "id": "pb_368", "manual": 0, "name": "Hegibachplatz", "provider": "publibike", "timeStamp": "03/21/2020, 09:55:28", "zip": 8032}, "type": "Feature"}, {"geometry": {"coordinates": [8.5721264, 47.4039985], "type": "Point"}, "properties": {"address": "Winterthurerstrasse 519", "electric": 8, "id": "pb_370", "manual": 1, "name": "Schwamendingerplatz", "provider": "publibike", "timeStamp": "03/21/2020, 09:55:28", "zip": 8051}, "type": "Feature"}, {"geometry": {"coordinates": [8.520168, 47.378556], "type": "Point"}, "properties": {"address": "Herman-Greulich-Strasse 56", "electric": 6, "id": "pb_384", "manual": 2, "name": "Hermann-Greulich-Weg", "provider": "publibike", "timeStamp": "03/21/2020, 09:55:28", "zip": 8004}, "type": "Feature"}, {"geometry": {"coordinates": [8.547912, 47.384923], "type": "Point"}, "properties": {"address": "Culmannstrasse", "electric": 4, "id": "pb_386", "manual": 0, "name": "Rigiplatz", "provider": "publibike", "timeStamp": "03/21/2020, 09:55:28", "zip": 8006}, "type": "Feature"}, {"geometry": {"coordinates": [8.543768, 47.411057], "type": "Point"}, "properties": {"address": "Hofwiesenstrasse 369", "electric": 3, "id": "pb_387", "manual": 7, "name": "Bahnhof Oerlikon S\u00fcd", "provider": "publibike", "timeStamp": "03/21/2020, 09:55:28", "zip": 8050}, "type": "Feature"}, {"geometry": {"coordinates": [8.544185, 47.412732], "type": "Point"}, "properties": {"address": "Jungholzstrasse 6", "electric": 1, "id": "pb_388", "manual": 1, "name": "Max-Frisch-Platz", "provider": "publibike", "timeStamp": "03/21/2020, 09:55:28", "zip": 8050}, "type": "Feature"}, {"geometry": {"coordinates": [8.558096, 47.413032], "type": "Point"}, "properties": {"address": "Andreasstrasse", "electric": 8, "id": "pb_389", "manual": 3, "name": "Hunziker-Areal", "provider": "publibike", "timeStamp": "03/21/2020, 09:55:28", "zip": 8050}, "type": "Feature"}, {"geometry": {"coordinates": [8.533265, 47.412873], "type": "Point"}, "properties": {"address": "Regina-K\u00e4gi-Strasse 1", "electric": 9, "id": "pb_390", "manual": 2, "name": "Luis-H\u00e4fliger-Park", "provider": "publibike", "timeStamp": "03/21/2020, 09:55:28", "zip": 8050}, "type": "Feature"}, {"geometry": {"coordinates": [8.499265, 47.401852], "type": "Point"}, "properties": {"address": "Limmattalstrasse 177", "electric": 10, "id": "pb_391", "manual": 1, "name": "Meierhofplatz", "provider": "publibike", "timeStamp": "03/21/2020, 09:55:28", "zip": 8049}, "type": "Feature"}, {"geometry": {"coordinates": [8.528356, 47.393255], "type": "Point"}, "properties": {"address": "R\u00f6schibachstrasse 73", "electric": 17, "id": "pb_392", "manual": 2, "name": "R\u00f6schibachplatz", "provider": "publibike", "timeStamp": "03/21/2020, 09:55:28", "zip": 8037}, "type": "Feature"}, {"geometry": {"coordinates": [8.538067, 47.415721], "type": "Point"}, "properties": {"address": "Birchstrasse 191", "electric": 2, "id": "pb_393", "manual": 0, "name": "Oerliker Park", "provider": "publibike", "timeStamp": "03/21/2020, 09:55:28", "zip": 8050}, "type": "Feature"}, {"geometry": {"coordinates": [8.5420304, 47.3669233], "type": "Point"}, "properties": {"address": "Stadthausquai 1", "electric": 2, "id": "pb_395", "manual": 7, "name": "B\u00fcrkliplatz", "provider": "publibike", "timeStamp": "03/21/2020, 09:55:28", "zip": 8001}, "type": "Feature"}, {"geometry": {"coordinates": [8.535767, 47.409881], "type": "Point"}, "properties": {"address": "Regensbergstrasse 195", "electric": 5, "id": "pb_396", "manual": 3, "name": "Holunderhof", "provider": "publibike", "timeStamp": "03/21/2020, 09:55:28", "zip": 8050}, "type": "Feature"}, {"geometry": {"coordinates": [8.5116245, 47.3616199], "type": "Point"}, "properties": {"address": "Grubenstrasse 42", "electric": 5, "id": "pb_431", "manual": 1, "name": "Binz Center", "provider": "publibike", "timeStamp": "03/21/2020, 09:55:28", "zip": 8045}, "type": "Feature"}, {"geometry": {"coordinates": [8.547195, 47.382089], "type": "Point"}, "properties": {"address": "Nelkenstrasse 24", "electric": 2, "id": "pb_430", "manual": 4, "name": "Stapferstube", "provider": "publibike", "timeStamp": "03/21/2020, 09:55:28", "zip": 8006}, "type": "Feature"}, {"geometry": {"coordinates": [8.5787183, 47.4039845], "type": "Point"}, "properties": {"address": "Kronwiesenstrasse 35", "electric": 0, "id": "pb_426", "manual": 2, "name": "Kronwiesen", "provider": "publibike", "timeStamp": "03/21/2020, 09:55:28", "zip": 8051}, "type": "Feature"}, {"geometry": {"coordinates": [8.508131, 47.420757], "type": "Point"}, "properties": {"address": "Riedenhaldenstrasse 20-18", "electric": 15, "id": "pb_425", "manual": 3, "name": "Bahnhof Affoltern", "provider": "publibike", "timeStamp": "03/21/2020, 09:55:28", "zip": 8046}, "type": "Feature"}, {"geometry": {"coordinates": [8.532464, 47.406988], "type": "Point"}, "properties": {"address": "K\u00fcnzlistrasse 41", "electric": 3, "id": "pb_424", "manual": 1, "name": "Birchd\u00f6rfli", "provider": "publibike", "timeStamp": "03/21/2020, 09:55:28", "zip": 8057}, "type": "Feature"}, {"geometry": {"coordinates": [8.5777038, 47.4080095], "type": "Point"}, "properties": {"address": "Luegislandstrasse 412", "electric": 9, "id": "pb_429", "manual": 6, "name": "Luegisland", "provider": "publibike", "timeStamp": "03/21/2020, 09:55:28", "zip": 8051}, "type": "Feature"}, {"geometry": {"coordinates": [8.58841, 47.40158], "type": "Point"}, "properties": {"address": "Hirzenbachstrasse 2-4", "electric": 13, "id": "pb_428", "manual": 5, "name": "Hirzenbachstrasse", "provider": "publibike", "timeStamp": "03/21/2020, 09:55:28", "zip": 8051}, "type": "Feature"}, {"geometry": {"coordinates": [8.5563463, 47.4095467], "type": "Point"}, "properties": {"address": "K\u00fchriedweg", "electric": 2, "id": "pb_445", "manual": 1, "name": "Hallenbad Oerlikon", "provider": "publibike", "timeStamp": "03/21/2020, 09:55:28", "zip": 8050}, "type": "Feature"}, {"geometry": {"coordinates": [8.537971, 47.364871], "type": "Point"}, "properties": {"address": "General-Guisan-Quai 17", "electric": 0, "id": "pb_454", "manual": 0, "name": "General-Guisan-Quai", "provider": "publibike", "timeStamp": "03/21/2020, 09:55:28", "zip": 8002}, "type": "Feature"}, {"geometry": {"coordinates": [8.560587, 47.350578], "type": "Point"}, "properties": {"address": "Bellerivestrasse 245", "electric": 10, "id": "pb_450", "manual": 9, "name": "Bahnhof Tiefenbrunnen", "provider": "publibike", "timeStamp": "03/21/2020, 09:55:28", "zip": 8008}, "type": "Feature"}, {"geometry": {"coordinates": [8.5269416, 47.3563719], "type": "Point"}, "properties": {"address": "Waffenplatzstrasse 89", "electric": 2, "id": "pb_452", "manual": 0, "name": "Rieterplatz", "provider": "publibike", "timeStamp": "03/21/2020, 09:55:28", "zip": 8002}, "type": "Feature"}, {"geometry": {"coordinates": [8.514176, 47.3663708], "type": "Point"}, "properties": {"address": "Talwiesenstrasse 92", "electric": 8, "id": "pb_446", "manual": 2, "name": "Binzallee", "provider": "publibike", "timeStamp": "03/21/2020, 09:55:28", "zip": 8055}, "type": "Feature"}, {"geometry": {"coordinates": [8.5070564, 47.371455], "type": "Point"}, "properties": {"address": "Gutstrasse 87", "electric": 11, "id": "pb_447", "manual": 5, "name": "Gutstrasse", "provider": "publibike", "timeStamp": "03/21/2020, 09:55:28", "zip": 8055}, "type": "Feature"}, {"geometry": {"coordinates": [8.4941268, 47.3836391], "type": "Point"}, "properties": {"address": "Flurstrasse 62", "electric": 0, "id": "pb_453", "manual": 8, "name": "Flurpark", "provider": "publibike", "timeStamp": "03/21/2020, 09:55:28", "zip": 8048}, "type": "Feature"}, {"geometry": {"coordinates": [8.500343, 47.380778], "type": "Point"}, "properties": {"address": "Edelweissstrasse 32", "electric": 1, "id": "pb_448", "manual": 6, "name": "Bl\u00fcemliquartier", "provider": "publibike", "timeStamp": "03/21/2020, 09:55:28", "zip": 8048}, "type": "Feature"}, {"geometry": {"coordinates": [8.528796, 47.383858], "type": "Point"}, "properties": {"address": "Gasometerstrasse 24", "electric": 2, "id": "pb_449", "manual": 6, "name": "Gasometerstrasse", "provider": "publibike", "timeStamp": "03/21/2020, 09:55:28", "zip": 8005}, "type": "Feature"}, {"geometry": {"coordinates": [8.4981964, 47.3859194], "type": "Point"}, "properties": {"address": "Baslerstrasse 57", "electric": 4, "id": "pb_455", "manual": 4, "name": "Letzipark", "provider": "publibike", "timeStamp": "03/21/2020, 09:55:28", "zip": 8048}, "type": "Feature"}, {"geometry": {"coordinates": [8.515252, 47.381915], "type": "Point"}, "properties": {"address": "Sihlfeldstrasse 175", "electric": 0, "id": "pb_451", "manual": 4, "name": "Hardplatz", "provider": "publibike", "timeStamp": "03/21/2020, 09:55:28", "zip": 8004}, "type": "Feature"}, {"geometry": {"coordinates": [8.5064743, 47.4188324], "type": "Point"}, "properties": {"address": "Wehntalerstrasse 541", "electric": 5, "id": "pb_427", "manual": 3, "name": "Zehntenhausplatz", "provider": "publibike", "timeStamp": "03/21/2020, 09:55:28", "zip": 8046}, "type": "Feature"}, {"geometry": {"coordinates": [8.537729, 47.379719], "type": "Point"}, "properties": {"address": "Sihlquai/HB", "electric": 7, "id": "pb_513", "manual": 23, "name": "Sihlquai", "provider": "publibike", "timeStamp": "03/21/2020, 09:55:28", "zip": 8005}, "type": "Feature"}, {"geometry": {"coordinates": [8.596202, 47.397885], "type": "Point"}, "properties": {"address": "Bahnhof Stettbach", "electric": 4, "id": "pb_514", "manual": 2, "name": "Bahnhof Stettbach", "provider": "publibike", "timeStamp": "03/21/2020, 09:55:28", "zip": 8051}, "type": "Feature"}, {"geometry": {"coordinates": [8.5543974, 47.3690153], "type": "Point"}, "properties": {"address": "Kasinostrasse 10", "electric": 5, "id": "pb_515", "manual": 1, "name": "Hottingerplatz", "provider": "publibike", "timeStamp": "03/21/2020, 09:55:28", "zip": 8032}, "type": "Feature"}, {"geometry": {"coordinates": [8.534444, 47.351525], "type": "Point"}, "properties": {"address": "Mobile Station Z\u00fcrich 1", "electric": 0, "id": "pb_282", "manual": 0, "name": "Theaterspektakel", "provider": "publibike", "timeStamp": "03/21/2020, 09:55:28", "zip": 8002}, "type": "Feature"}, {"geometry": {"coordinates": [8.516257, 47.367656], "type": "Point"}, "properties": {"address": "Goldbrunnenstrasse 54", "electric": 3, "id": "pb_538", "manual": 2, "name": "Kirche B\u00fchl", "provider": "publibike", "timeStamp": "03/21/2020, 09:55:28", "zip": 8055}, "type": "Feature"}, {"geometry": {"coordinates": [8.555639, 47.416873], "type": "Point"}, "properties": {"address": "Leutschenbachstrasse 50", "electric": 2, "id": "pb_537", "manual": 7, "name": "Leutschenpark", "provider": "publibike", "timeStamp": "03/21/2020, 09:55:28", "zip": 8050}, "type": "Feature"}, {"geometry": {"coordinates": [8.546464, 47.403822], "type": "Point"}, "properties": {"address": "Berninastrasse 45", "electric": 6, "id": "pb_540", "manual": 1, "name": "Berninaplatz", "provider": "publibike", "timeStamp": "03/21/2020, 09:55:28", "zip": 8057}, "type": "Feature"}, {"geometry": {"coordinates": [8.523134, 47.369004], "type": "Point"}, "properties": {"address": "Erlachstrasse 3", "electric": 7, "id": "pb_385", "manual": 5, "name": "Aegerten", "provider": "publibike", "timeStamp": "03/21/2020, 09:55:28", "zip": 8003}, "type": "Feature"}, {"geometry": {"coordinates": [8.49038, 47.381591], "type": "Point"}, "properties": {"address": "Rautistrasse 60", "electric": 6, "id": "pb_536", "manual": 6, "name": "Freilager", "provider": "publibike", "timeStamp": "03/21/2020, 09:55:28", "zip": 8048}, "type": "Feature"}, {"geometry": {"coordinates": [8.496511, 47.375247], "type": "Point"}, "properties": {"address": "Letzigraben 139", "electric": 6, "id": "pb_444", "manual": 3, "name": "Sackzelg", "provider": "publibike", "timeStamp": "03/21/2020, 09:55:28", "zip": 8047}, "type": "Feature"}, {"geometry": {"coordinates": [8.58131, 47.402801], "type": "Point"}, "properties": {"address": "Altwiesenstrasse 104", "electric": 3, "id": "pb_539", "manual": 0, "name": "Glattwiesen", "provider": "publibike", "timeStamp": "03/21/2020, 09:55:28", "zip": 8051}, "type": "Feature"}, {"geometry": {"coordinates": [8.52689, 47.3767], "type": "Point"}, "properties": {"address": "Molkenstrasse 5", "electric": 6, "id": "pb_560", "manual": 7, "name": "Helvetiaplatz", "provider": "publibike", "timeStamp": "03/21/2020, 09:55:28", "zip": 8004}, "type": "Feature"}, {"geometry": {"coordinates": [8.525602, 47.374241], "type": "Point"}, "properties": {"address": "Badenerstrasse 90", "electric": 0, "id": "pb_559", "manual": 1, "name": "Bezirksgeb\u00e4ude", "provider": "publibike", "timeStamp": "03/21/2020, 09:55:28", "zip": 8004}, "type": "Feature"}, {"geometry": {"coordinates": [8.535082, 47.345248], "type": "Point"}, "properties": {"address": "Bachstrasse 15", "electric": 1, "id": "pb_564", "manual": 11, "name": "GZ Wollishofen", "provider": "publibike", "timeStamp": "03/21/2020, 09:55:28", "zip": 8038}, "type": "Feature"}, {"geometry": {"coordinates": [8.514841, 47.370238], "type": "Point"}, "properties": {"address": "Schrennengasse 37", "electric": 4, "id": "pb_562", "manual": 3, "name": "Goldbrunnenplatz", "provider": "publibike", "timeStamp": "03/21/2020, 09:55:28", "zip": 8003}, "type": "Feature"}, {"geometry": {"coordinates": [8.514138, 47.374206], "type": "Point"}, "properties": {"address": "Idaplatz 4", "electric": 1, "id": "pb_557", "manual": 1, "name": "Idaplatz", "provider": "publibike", "timeStamp": "03/21/2020, 09:55:28", "zip": 8003}, "type": "Feature"}, {"geometry": {"coordinates": [8.518432, 47.369549], "type": "Point"}, "properties": {"address": "Brinerstrasse 2", "electric": 3, "id": "pb_558", "manual": 0, "name": "Schmiede Wiedikon", "provider": "publibike", "timeStamp": "03/21/2020, 09:55:28", "zip": 8003}, "type": "Feature"}, {"geometry": {"coordinates": [8.537546, 47.391289], "type": "Point"}, "properties": {"address": "Rotbuchstrasse 15", "electric": 9, "id": "pb_556", "manual": 1, "name": "Schaffhauserplatz", "provider": "publibike", "timeStamp": "03/21/2020, 09:55:28", "zip": 8006}, "type": "Feature"}, {"geometry": {"coordinates": [8.541541, 47.413733], "type": "Point"}, "properties": {"address": "Therese-Giehse-Strasse 11", "electric": 1, "id": "pb_561", "manual": 0, "name": "Center Eleven", "provider": "publibike", "timeStamp": "03/21/2020, 09:55:28", "zip": 8050}, "type": "Feature"}, {"geometry": {"coordinates": [8.534227, 47.360004], "type": "Point"}, "properties": {"address": "Alfred Escher-Strasse 76", "electric": 3, "id": "pb_563", "manual": 6, "name": "Mythenschloss", "provider": "publibike", "timeStamp": "03/21/2020, 09:55:28", "zip": 8002}, "type": "Feature"}, {"geometry": {"coordinates": [8.50373, 47.396172], "type": "Point"}, "properties": {"address": "Hardeggstrasse 6", "electric": 3, "id": "pb_566", "manual": 2, "name": "Am Wasser", "provider": "publibike", "timeStamp": "03/21/2020, 09:55:28", "zip": 8049}, "type": "Feature"}, {"geometry": {"coordinates": [8.532432, 47.381174], "type": "Point"}, "properties": {"address": "Klingenstrasse 9", "electric": 1, "id": "pb_565", "manual": 10, "name": "Zollstrasse", "provider": "publibike", "timeStamp": "03/21/2020, 09:55:28", "zip": 8005}, "type": "Feature"}, {"geometry": {"coordinates": [8.497982, 47.381447], "type": "Point"}, "properties": {"address": "Dennlerstrasse 23", "electric": 4, "id": "pb_567", "manual": 12, "name": "Dennlerstrasse", "provider": "publibike", "timeStamp": "03/21/2020, 09:55:28", "zip": 8047}, "type": "Feature"}, {"geometry": {"coordinates": [8.528049, 47.347701], "type": "Point"}, "properties": {"address": "Mutschellenstrasse 114", "electric": 4, "id": "pb_568", "manual": 1, "name": "Jugendherberge", "provider": "publibike", "timeStamp": "03/21/2020, 09:55:28", "zip": 8038}, "type": "Feature"}, {"geometry": {"coordinates": [8.539016, 47.405751], "type": "Point"}, "properties": {"address": "Ringstrasse 82", "electric": 4, "id": "pb_569", "manual": 1, "name": "Freibad Allenmoos", "provider": "publibike", "timeStamp": "03/21/2020, 09:55:28", "zip": 8057}, "type": "Feature"}, {"geometry": {"coordinates": [8.534974, 47.402164], "type": "Point"}, "properties": {"address": "Brache Guggach", "electric": 4, "id": "pb_572", "manual": 3, "name": "Radiostudio", "provider": "publibike", "timeStamp": "03/21/2020, 09:55:28", "zip": 8057}, "type": "Feature"}, {"geometry": {"coordinates": [8.547901, 47.375556], "type": "Point"}, "properties": {"address": "Karl-Schmid-Strasse 4", "electric": 9, "id": "pb_571", "manual": 0, "name": "ETH/Zoologisches Museum", "provider": "publibike", "timeStamp": "03/21/2020, 09:55:28", "zip": 8006}, "type": "Feature"}, {"geometry": {"coordinates": [8.485766, 47.387772], "type": "Point"}, "properties": {"charge": 46, "id": "smide_67", "name": "ZH253779", "provider": "smide", "range": 23.0, "size": 17, "time": "03/21/2020, 15:16:33"}, "type": "Feature"}, {"geometry": {"coordinates": [8.501981, 47.368751], "type": "Point"}, "properties": {"charge": 95, "id": "smide_2895", "name": "ZH 267279", "provider": "smide", "range": 47.0, "size": 20, "time": "03/21/2020, 15:16:33"}, "type": "Feature"}, {"geometry": {"coordinates": [8.545941, 47.4119], "type": "Point"}, "properties": {"charge": 37, "id": "smide_2880", "name": "ZH267289", "provider": "smide", "range": 18.0, "size": 17, "time": "03/21/2020, 15:16:33"}, "type": "Feature"}, {"geometry": {"coordinates": [8.56462, 47.369096], "type": "Point"}, "properties": {"charge": 41, "id": "smide_2871", "name": "ZH 267086", "provider": "smide", "range": 20.0, "size": 20, "time": "03/21/2020, 15:16:33"}, "type": "Feature"}, {"geometry": {"coordinates": [8.521665, 47.357198], "type": "Point"}, "properties": {"charge": 76, "id": "smide_2868", "name": "ZH 267089", "provider": "smide", "range": 38.0, "size": 20, "time": "03/21/2020, 15:16:33"}, "type": "Feature"}, {"geometry": {"coordinates": [8.54651, 47.416508], "type": "Point"}, "properties": {"charge": 85, "id": "smide_2856", "name": "ZH 267101", "provider": "smide", "range": 42.0, "size": 17, "time": "03/21/2020, 15:16:33"}, "type": "Feature"}, {"geometry": {"coordinates": [8.556925, 47.415921], "type": "Point"}, "properties": {"charge": 85, "id": "smide_2855", "name": "ZH 267102", "provider": "smide", "range": 42.0, "size": 17, "time": "03/21/2020, 15:16:33"}, "type": "Feature"}, {"geometry": {"coordinates": [8.557071, 47.37691], "type": "Point"}, "properties": {"charge": 99, "id": "smide_2854", "name": "ZH 267103", "provider": "smide", "range": 49.0, "size": 17, "time": "03/21/2020, 15:16:33"}, "type": "Feature"}, {"geometry": {"coordinates": [8.518151, 47.398548], "type": "Point"}, "properties": {"charge": 99, "id": "smide_2819", "name": "ZH266943", "provider": "smide", "range": 49.0, "size": 20, "time": "03/21/2020, 15:16:33"}, "type": "Feature"}, {"geometry": {"coordinates": [8.540413, 47.376943], "type": "Point"}, "properties": {"charge": 85, "id": "smide_2804", "name": "ZH266903", "provider": "smide", "range": 42.0, "size": 20, "time": "03/21/2020, 15:16:33"}, "type": "Feature"}, {"geometry": {"coordinates": [8.528831, 47.378635], "type": "Point"}, "properties": {"charge": 90, "id": "smide_2785", "name": "ZH266875", "provider": "smide", "range": 45.0, "size": 17, "time": "03/21/2020, 15:16:33"}, "type": "Feature"}, {"geometry": {"coordinates": [8.532098, 47.399908], "type": "Point"}, "properties": {"charge": 12, "id": "smide_2773", "name": "ZH266561", "provider": "smide", "range": 6.0, "size": 17, "time": "03/21/2020, 15:16:33"}, "type": "Feature"}, {"geometry": {"coordinates": [8.54049, 47.39382], "type": "Point"}, "properties": {"charge": 17, "id": "smide_2771", "name": "ZH266559", "provider": "smide", "range": 8.0, "size": 17, "time": "03/21/2020, 15:16:33"}, "type": "Feature"}, {"geometry": {"coordinates": [8.574079, 47.352076], "type": "Point"}, "properties": {"charge": 29, "id": "smide_2763", "name": "ZH266641", "provider": "smide", "range": 14.0, "size": 17, "time": "03/21/2020, 15:16:33"}, "type": "Feature"}, {"geometry": {"coordinates": [8.519314, 47.368948], "type": "Point"}, "properties": {"charge": 100, "id": "smide_2758", "name": "ZH266638 M", "provider": "smide", "range": 50.0, "size": 17, "time": "03/21/2020, 15:16:33"}, "type": "Feature"}, {"geometry": {"coordinates": [8.544928, 47.414543], "type": "Point"}, "properties": {"charge": 46, "id": "smide_2752", "name": "BE343856", "provider": "smide", "range": 23.0, "size": 17, "time": "03/21/2020, 15:16:33"}, "type": "Feature"}, {"geometry": {"coordinates": [8.529925, 47.333512], "type": "Point"}, "properties": {"charge": 59, "id": "smide_2751", "name": "BE343857", "provider": "smide", "range": 29.0, "size": 17, "time": "03/21/2020, 15:16:33"}, "type": "Feature"}, {"geometry": {"coordinates": [8.533104, 47.366332], "type": "Point"}, "properties": {"charge": 37, "id": "smide_2749", "name": "BE343867", "provider": "smide", "range": 18.0, "size": 17, "time": "03/21/2020, 15:16:33"}, "type": "Feature"}, {"geometry": {"coordinates": [8.523255, 47.375888], "type": "Point"}, "properties": {"charge": 83, "id": "smide_2748", "name": "BE335758", "provider": "smide", "range": 41.0, "size": 17, "time": "03/21/2020, 15:16:33"}, "type": "Feature"}, {"geometry": {"coordinates": [8.482917, 47.388464], "type": "Point"}, "properties": {"charge": 93, "id": "smide_2746", "name": "BE335817", "provider": "smide", "range": 46.0, "size": 17, "time": "03/21/2020, 15:16:33"}, "type": "Feature"}, {"geometry": {"coordinates": [8.517348, 47.358541], "type": "Point"}, "properties": {"charge": 92, "id": "smide_2747", "name": "BE335820", "provider": "smide", "range": 46.0, "size": 17, "time": "03/21/2020, 15:16:33"}, "type": "Feature"}, {"geometry": {"coordinates": [8.496843, 47.378468], "type": "Point"}, "properties": {"charge": 49, "id": "smide_2743", "name": "BE343864", "provider": "smide", "range": 24.0, "size": 17, "time": "03/21/2020, 15:16:33"}, "type": "Feature"}, {"geometry": {"coordinates": [8.567333, 47.378564], "type": "Point"}, "properties": {"charge": 73, "id": "smide_2742", "name": "BE343866", "provider": "smide", "range": 36.0, "size": 17, "time": "03/21/2020, 15:16:33"}, "type": "Feature"}, {"geometry": {"coordinates": [8.531351, 47.364853], "type": "Point"}, "properties": {"charge": 94, "id": "smide_2738", "name": "BE343865", "provider": "smide", "range": 47.0, "size": 17, "time": "03/21/2020, 15:16:33"}, "type": "Feature"}, {"geometry": {"coordinates": [8.509501, 47.41356], "type": "Point"}, "properties": {"charge": 69, "id": "smide_2737", "name": "BE336149", "provider": "smide", "range": 34.0, "size": 17, "time": "03/21/2020, 15:16:33"}, "type": "Feature"}, {"geometry": {"coordinates": [8.514215, 47.382576], "type": "Point"}, "properties": {"charge": 69, "id": "smide_2734", "name": "BE343876", "provider": "smide", "range": 34.0, "size": 17, "time": "03/21/2020, 15:16:33"}, "type": "Feature"}, {"geometry": {"coordinates": [8.525503, 47.37856], "type": "Point"}, "properties": {"charge": 49, "id": "smide_2733", "name": "BE343873", "provider": "smide", "range": 24.0, "size": 17, "time": "03/21/2020, 15:16:33"}, "type": "Feature"}, {"geometry": {"coordinates": [8.560019, 47.417736], "type": "Point"}, "properties": {"charge": 38, "id": "smide_2732", "name": "BE343870", "provider": "smide", "range": 19.0, "size": 17, "time": "03/21/2020, 15:16:33"}, "type": "Feature"}, {"geometry": {"coordinates": [8.525982, 47.365048], "type": "Point"}, "properties": {"charge": 99, "id": "smide_2729", "name": "BE343878", "provider": "smide", "range": 49.0, "size": 17, "time": "03/21/2020, 15:16:33"}, "type": "Feature"}, {"geometry": {"coordinates": [8.582358, 47.351896], "type": "Point"}, "properties": {"charge": 29, "id": "smide_2725", "name": "ZH261545", "provider": "smide", "range": 14.0, "size": 0, "time": "03/21/2020, 15:16:33"}, "type": "Feature"}, {"geometry": {"coordinates": [8.562996, 47.382548], "type": "Point"}, "properties": {"charge": 22, "id": "smide_2718", "name": "ZH259019", "provider": "smide", "range": 11.0, "size": 20, "time": "03/21/2020, 15:16:33"}, "type": "Feature"}, {"geometry": {"coordinates": [8.574328, 47.352224], "type": "Point"}, "properties": {"charge": 79, "id": "smide_2717", "name": "ZH263287", "provider": "smide", "range": 39.0, "size": 17, "time": "03/21/2020, 15:16:33"}, "type": "Feature"}, {"geometry": {"coordinates": [8.514514, 47.35754], "type": "Point"}, "properties": {"charge": 42, "id": "smide_2715", "name": "ZH254605", "provider": "smide", "range": 21.0, "size": 17, "time": "03/21/2020, 15:16:33"}, "type": "Feature"}, {"geometry": {"coordinates": [8.557262, 47.38318], "type": "Point"}, "properties": {"charge": 16, "id": "smide_2714", "name": "ZH256461", "provider": "smide", "range": 8.0, "size": 17, "time": "03/21/2020, 15:16:33"}, "type": "Feature"}, {"geometry": {"coordinates": [8.537395, 47.33957], "type": "Point"}, "properties": {"charge": 95, "id": "smide_2709", "name": "ZH256466", "provider": "smide", "range": 47.0, "size": 20, "time": "03/21/2020, 15:16:33"}, "type": "Feature"}, {"geometry": {"coordinates": [8.524168, 47.398112], "type": "Point"}, "properties": {"charge": 94, "id": "smide_2707", "name": "ZH256467", "provider": "smide", "range": 47.0, "size": 20, "time": "03/21/2020, 15:16:33"}, "type": "Feature"}, {"geometry": {"coordinates": [8.527556, 47.3944], "type": "Point"}, "properties": {"charge": 62, "id": "smide_2706", "name": "ZH256322", "provider": "smide", "range": 31.0, "size": 20, "time": "03/21/2020, 15:16:33"}, "type": "Feature"}, {"geometry": {"coordinates": [8.5409, 47.424888], "type": "Point"}, "properties": {"charge": 76, "id": "smide_2701", "name": "ZH256468", "provider": "smide", "range": 38.0, "size": 20, "time": "03/21/2020, 15:16:33"}, "type": "Feature"}, {"geometry": {"coordinates": [8.582989, 47.351764], "type": "Point"}, "properties": {"charge": 48, "id": "smide_2700", "name": "ZH256470", "provider": "smide", "range": 24.0, "size": 20, "time": "03/21/2020, 15:16:33"}, "type": "Feature"}, {"geometry": {"coordinates": [8.51956, 47.388776], "type": "Point"}, "properties": {"charge": 59, "id": "smide_2697", "name": "ZH254629", "provider": "smide", "range": 29.0, "size": 20, "time": "03/21/2020, 15:16:33"}, "type": "Feature"}, {"geometry": {"coordinates": [8.550208, 47.378004], "type": "Point"}, "properties": {"charge": 69, "id": "smide_2694", "name": "ZH254610", "provider": "smide", "range": 34.0, "size": 20, "time": "03/21/2020, 15:16:33"}, "type": "Feature"}, {"geometry": {"coordinates": [8.508453, 47.420958], "type": "Point"}, "properties": {"charge": 32, "id": "smide_2690", "name": "ZH254625", "provider": "smide", "range": 16.0, "size": 20, "time": "03/21/2020, 15:16:33"}, "type": "Feature"}, {"geometry": {"coordinates": [8.510972, 47.390064], "type": "Point"}, "properties": {"charge": 100, "id": "smide_2689", "name": "ZH254623", "provider": "smide", "range": 50.0, "size": 20, "time": "03/21/2020, 15:16:33"}, "type": "Feature"}, {"geometry": {"coordinates": [8.484217, 47.391512], "type": "Point"}, "properties": {"charge": 77, "id": "smide_2687", "name": "ZH263529", "provider": "smide", "range": 38.0, "size": 20, "time": "03/21/2020, 15:16:33"}, "type": "Feature"}, {"geometry": {"coordinates": [8.523812, 47.373128], "type": "Point"}, "properties": {"charge": 76, "id": "smide_2684", "name": "ZH254626", "provider": "smide", "range": 38.0, "size": 20, "time": "03/21/2020, 15:16:33"}, "type": "Feature"}, {"geometry": {"coordinates": [8.502062, 47.368852], "type": "Point"}, "properties": {"charge": 100, "id": "smide_2679", "name": "ZH258489", "provider": "smide", "range": 50.0, "size": 17, "time": "03/21/2020, 15:16:33"}, "type": "Feature"}, {"geometry": {"coordinates": [8.507772, 47.391032], "type": "Point"}, "properties": {"charge": 95, "id": "smide_2674", "name": "ZH258654", "provider": "smide", "range": 47.0, "size": 17, "time": "03/21/2020, 15:16:33"}, "type": "Feature"}, {"geometry": {"coordinates": [8.532829, 47.453632], "type": "Point"}, "properties": {"charge": 86, "id": "smide_2666", "name": "ZH258653", "provider": "smide", "range": 43.0, "size": 17, "time": "03/21/2020, 15:16:33"}, "type": "Feature"}, {"geometry": {"coordinates": [8.52636, 47.338956], "type": "Point"}, "properties": {"charge": 57, "id": "smide_2664", "name": "ZH258652", "provider": "smide", "range": 28.0, "size": 17, "time": "03/21/2020, 15:16:33"}, "type": "Feature"}, {"geometry": {"coordinates": [8.573583, 47.348976], "type": "Point"}, "properties": {"charge": 58, "id": "smide_2663", "name": "ZH258649", "provider": "smide", "range": 28.0, "size": 17, "time": "03/21/2020, 15:16:33"}, "type": "Feature"}, {"geometry": {"coordinates": [8.546419, 47.384732], "type": "Point"}, "properties": {"charge": 53, "id": "smide_2662", "name": "ZH258643", "provider": "smide", "range": 26.0, "size": 17, "time": "03/21/2020, 15:16:33"}, "type": "Feature"}, {"geometry": {"coordinates": [8.54373, 47.411204], "type": "Point"}, "properties": {"charge": 13, "id": "smide_2660", "name": "ZH258647", "provider": "smide", "range": 6.0, "size": 17, "time": "03/21/2020, 15:16:33"}, "type": "Feature"}, {"geometry": {"coordinates": [8.514275, 47.357203], "type": "Point"}, "properties": {"charge": 65, "id": "smide_2657", "name": "ZH257936", "provider": "smide", "range": 32.0, "size": 17, "time": "03/21/2020, 15:16:33"}, "type": "Feature"}, {"geometry": {"coordinates": [8.524974, 47.366332], "type": "Point"}, "properties": {"charge": 90, "id": "smide_2645", "name": "ZH257933", "provider": "smide", "range": 45.0, "size": 20, "time": "03/21/2020, 15:16:33"}, "type": "Feature"}, {"geometry": {"coordinates": [8.530238, 47.390286], "type": "Point"}, "properties": {"charge": 78, "id": "smide_3", "name": "ZH253765", "provider": "smide", "range": 39.0, "size": 20, "time": "03/21/2020, 15:16:33"}, "type": "Feature"}, {"geometry": {"coordinates": [8.576521, 47.351146], "type": "Point"}, "properties": {"charge": 85, "id": "smide_105", "name": "ZH253804", "provider": "smide", "range": 42.0, "size": 17, "time": "03/21/2020, 15:16:33"}, "type": "Feature"}, {"geometry": {"coordinates": [8.531473, 47.364346], "type": "Point"}, "properties": {"charge": 66, "id": "smide_77", "name": "ZH261548", "provider": "smide", "range": 33.0, "size": 20, "time": "03/21/2020, 15:16:33"}, "type": "Feature"}, {"geometry": {"coordinates": [8.563315, 47.369385], "type": "Point"}, "properties": {"charge": 94, "id": "smide_201", "name": "ZH253698", "provider": "smide", "range": 47.0, "size": 17, "time": "03/21/2020, 15:16:33"}, "type": "Feature"}, {"geometry": {"coordinates": [8.532301, 47.37924], "type": "Point"}, "properties": {"charge": 52, "id": "smide_71", "name": "ZH253742", "provider": "smide", "range": 26.0, "size": 20, "time": "03/21/2020, 15:16:33"}, "type": "Feature"}, {"geometry": {"coordinates": [8.532487, 47.384836], "type": "Point"}, "properties": {"charge": 75, "id": "smide_101", "name": "ZH253814", "provider": "smide", "range": 37.0, "size": 17, "time": "03/21/2020, 15:16:33"}, "type": "Feature"}, {"geometry": {"coordinates": [8.556453, 47.364048], "type": "Point"}, "properties": {"charge": 56, "id": "smide_9", "name": "ZH253796", "provider": "smide", "range": 28.0, "size": 17, "time": "03/21/2020, 15:16:33"}, "type": "Feature"}, {"geometry": {"coordinates": [8.51167, 47.398751], "type": "Point"}, "properties": {"charge": 76, "id": "smide_180", "name": "ZH253824", "provider": "smide", "range": 38.0, "size": 20, "time": "03/21/2020, 15:16:33"}, "type": "Feature"}, {"geometry": {"coordinates": [8.538721, 47.388536], "type": "Point"}, "properties": {"charge": 79, "id": "smide_50", "name": "ZH253853", "provider": "smide", "range": 39.0, "size": 17, "time": "03/21/2020, 15:16:33"}, "type": "Feature"}, {"geometry": {"coordinates": [8.503246, 47.373908], "type": "Point"}, "properties": {"charge": 85, "id": "smide_10", "name": "ZH253855", "provider": "smide", "range": 42.0, "size": 17, "time": "03/21/2020, 15:16:33"}, "type": "Feature"}, {"geometry": {"coordinates": [8.514476, 47.357328], "type": "Point"}, "properties": {"charge": 24, "id": "smide_79", "name": "ZH253711", "provider": "smide", "range": 12.0, "size": 20, "time": "03/21/2020, 15:16:33"}, "type": "Feature"}, {"geometry": {"coordinates": [8.548472, 47.377916], "type": "Point"}, "properties": {"charge": 63, "id": "smide_84", "name": "ZH253733", "provider": "smide", "range": 31.0, "size": 17, "time": "03/21/2020, 15:16:33"}, "type": "Feature"}, {"geometry": {"coordinates": [8.526517, 47.366916], "type": "Point"}, "properties": {"charge": 93, "id": "smide_35", "name": "ZH253755", "provider": "smide", "range": 46.0, "size": 20, "time": "03/21/2020, 15:16:33"}, "type": "Feature"}, {"geometry": {"coordinates": [8.57583, 47.349931], "type": "Point"}, "properties": {"charge": 66, "id": "smide_49", "name": "ZH253873", "provider": "smide", "range": 33.0, "size": 17, "time": "03/21/2020, 15:16:33"}, "type": "Feature"}, {"geometry": {"coordinates": [8.570114, 47.352356], "type": "Point"}, "properties": {"charge": 100, "id": "smide_94", "name": "ZH253754", "provider": "smide", "range": 50.0, "size": 17, "time": "03/21/2020, 15:16:33"}, "type": "Feature"}, {"geometry": {"coordinates": [8.521471, 47.362636], "type": "Point"}, "properties": {"charge": 30, "id": "smide_202", "name": "ZH253830", "provider": "smide", "range": 15.0, "size": 17, "time": "03/21/2020, 15:16:33"}, "type": "Feature"}, {"geometry": {"coordinates": [8.524384, 47.379256], "type": "Point"}, "properties": {"charge": 51, "id": "smide_56", "name": "ZH261442", "provider": "smide", "range": 25.0, "size": 20, "time": "03/21/2020, 15:16:33"}, "type": "Feature"}, {"geometry": {"coordinates": [8.56723, 47.359628], "type": "Point"}, "properties": {"charge": 100, "id": "smide_47", "name": "ZH253858", "provider": "smide", "range": 50.0, "size": 17, "time": "03/21/2020, 15:16:33"}, "type": "Feature"}, {"geometry": {"coordinates": [8.521152, 47.375204], "type": "Point"}, "properties": {"charge": 100, "id": "smide_150", "name": "ZH253703", "provider": "smide", "range": 50.0, "size": 20, "time": "03/21/2020, 15:16:33"}, "type": "Feature"}, {"geometry": {"coordinates": [8.532185, 47.41295], "type": "Point"}, "properties": {"charge": 57, "id": "smide_97", "name": "ZH253799", "provider": "smide", "range": 28.0, "size": 20, "time": "03/21/2020, 15:16:33"}, "type": "Feature"}, {"geometry": {"coordinates": [8.531381, 47.39118], "type": "Point"}, "properties": {"charge": 53, "id": "smide_66", "name": "ZH253818", "provider": "smide", "range": 26.0, "size": 20, "time": "03/21/2020, 15:16:33"}, "type": "Feature"}, {"geometry": {"coordinates": [8.572825, 47.348848], "type": "Point"}, "properties": {"charge": 84, "id": "smide_17", "name": "ZH253793", "provider": "smide", "range": 42.0, "size": 17, "time": "03/21/2020, 15:16:33"}, "type": "Feature"}, {"geometry": {"coordinates": [8.569455, 47.372988], "type": "Point"}, "properties": {"charge": 100, "id": "smide_127", "name": "ZH253808", "provider": "smide", "range": 50.0, "size": 20, "time": "03/21/2020, 15:16:33"}, "type": "Feature"}, {"geometry": {"coordinates": [8.495313, 47.36829], "type": "Point"}, "properties": {"charge": 37, "id": "smide_145", "name": "ZH253780", "provider": "smide", "range": 18.0, "size": 20, "time": "03/21/2020, 15:16:33"}, "type": "Feature"}, {"geometry": {"coordinates": [8.498791, 47.425512], "type": "Point"}, "properties": {"charge": 51, "id": "smide_114", "name": "ZH253878", "provider": "smide", "range": 25.0, "size": 20, "time": "03/21/2020, 15:16:33"}, "type": "Feature"}, {"geometry": {"coordinates": [8.574183, 47.35836], "type": "Point"}, "properties": {"charge": 99, "id": "smide_21", "name": "ZH253841", "provider": "smide", "range": 49.0, "size": 17, "time": "03/21/2020, 15:16:33"}, "type": "Feature"}, {"geometry": {"coordinates": [8.525675, 47.365192], "type": "Point"}, "properties": {"charge": 66, "id": "smide_164", "name": "ZH253775", "provider": "smide", "range": 33.0, "size": 17, "time": "03/21/2020, 15:16:33"}, "type": "Feature"}, {"geometry": {"coordinates": [8.557459, 47.4035], "type": "Point"}, "properties": {"charge": 30, "id": "smide_93", "name": "ZH253681", "provider": "smide", "range": 15.0, "size": 17, "time": "03/21/2020, 15:16:33"}, "type": "Feature"}, {"geometry": {"coordinates": [8.553741, 47.358421], "type": "Point"}, "properties": {"charge": 100, "id": "smide_118", "name": "ZH253759", "provider": "smide", "range": 50.0, "size": 20, "time": "03/21/2020, 15:16:33"}, "type": "Feature"}, {"geometry": {"coordinates": [8.503604, 47.365708], "type": "Point"}, "properties": {"charge": 45, "id": "smide_126", "name": "ZH268400", "provider": "smide", "range": 22.0, "size": 17, "time": "03/21/2020, 15:16:33"}, "type": "Feature"}, {"geometry": {"coordinates": [8.484608, 47.393778], "type": "Point"}, "properties": {"charge": 24, "id": "smide_44", "name": "ZH253837", "provider": "smide", "range": 12.0, "size": 17, "time": "03/21/2020, 15:16:33"}, "type": "Feature"}, {"geometry": {"coordinates": [8.525901, 47.365116], "type": "Point"}, "properties": {"charge": 81, "id": "smide_92", "name": "ZH253798", "provider": "smide", "range": 40.0, "size": 17, "time": "03/21/2020, 15:16:33"}, "type": "Feature"}, {"geometry": {"coordinates": [8.544407, 47.383848], "type": "Point"}, "properties": {"charge": 84, "id": "smide_1", "name": "ZH253776", "provider": "smide", "range": 42.0, "size": 17, "time": "03/21/2020, 15:16:33"}, "type": "Feature"}, {"geometry": {"coordinates": [8.533192, 47.417148], "type": "Point"}, "properties": {"charge": 56, "id": "smide_28", "name": "ZH253831", "provider": "smide", "range": 28.0, "size": 17, "time": "03/21/2020, 15:16:33"}, "type": "Feature"}, {"geometry": {"coordinates": [8.547256, 47.387195], "type": "Point"}, "properties": {"charge": 87, "id": "smide_14", "name": "ZH253749", "provider": "smide", "range": 43.0, "size": 20, "time": "03/21/2020, 15:16:33"}, "type": "Feature"}, {"geometry": {"coordinates": [8.564046, 47.366396], "type": "Point"}, "properties": {"charge": 100, "id": "smide_130", "name": "ZH253847", "provider": "smide", "range": 50.0, "size": 20, "time": "03/21/2020, 15:16:33"}, "type": "Feature"}, {"geometry": {"coordinates": [8.49119, 47.376473], "type": "Point"}, "properties": {"charge": 100, "id": "smide_24", "name": "ZH253696", "provider": "smide", "range": 50.0, "size": 20, "time": "03/21/2020, 15:16:33"}, "type": "Feature"}, {"geometry": {"coordinates": [8.574986, 47.344276], "type": "Point"}, "properties": {"charge": 59, "id": "smide_136", "name": "ZH253682", "provider": "smide", "range": 29.0, "size": 17, "time": "03/21/2020, 15:16:33"}, "type": "Feature"}, {"geometry": {"coordinates": [8.523448, 47.386365], "type": "Point"}, "properties": {"charge": 94, "id": "smide_73", "name": "ZH261379", "provider": "smide", "range": 47.0, "size": 20, "time": "03/21/2020, 15:16:33"}, "type": "Feature"}, {"geometry": {"coordinates": [8.538068, 47.40127], "type": "Point"}, "properties": {"charge": 77, "id": "smide_158", "name": "ZH253870", "provider": "smide", "range": 38.0, "size": 20, "time": "03/21/2020, 15:16:33"}, "type": "Feature"}, {"geometry": {"coordinates": [8.483706, 47.397428], "type": "Point"}, "properties": {"charge": 70, "id": "smide_100", "name": "ZH253862", "provider": "smide", "range": 35.0, "size": 20, "time": "03/21/2020, 15:16:33"}, "type": "Feature"}, {"geometry": {"coordinates": [8.526921, 47.393123], "type": "Point"}, "properties": {"charge": 53, "id": "smide_141", "name": "ZH253800", "provider": "smide", "range": 26.0, "size": 20, "time": "03/21/2020, 15:16:33"}, "type": "Feature"}, {"geometry": {"coordinates": [8.476181, 47.386896], "type": "Point"}, "properties": {"charge": 100, "id": "smide_149", "name": "ZH253743", "provider": "smide", "range": 50.0, "size": 20, "time": "03/21/2020, 15:16:33"}, "type": "Feature"}, {"geometry": {"coordinates": [8.498169, 47.403128], "type": "Point"}, "properties": {"charge": 53, "id": "smide_16", "name": "ZH253713", "provider": "smide", "range": 26.0, "size": 20, "time": "03/21/2020, 15:16:33"}, "type": "Feature"}, {"geometry": {"coordinates": [8.506708, 47.393645], "type": "Point"}, "properties": {"charge": 70, "id": "smide_33", "name": "ZH253782", "provider": "smide", "range": 35.0, "size": 20, "time": "03/21/2020, 15:16:33"}, "type": "Feature"}, {"geometry": {"coordinates": [8.567352, 47.378564], "type": "Point"}, "properties": {"charge": 86, "id": "smide_161", "name": "ZH253691", "provider": "smide", "range": 43.0, "size": 20, "time": "03/21/2020, 15:16:33"}, "type": "Feature"}, {"geometry": {"coordinates": [8.501963, 47.368738], "type": "Point"}, "properties": {"charge": 97, "id": "smide_183", "name": "ZH253868", "provider": "smide", "range": 48.0, "size": 17, "time": "03/21/2020, 15:16:33"}, "type": "Feature"}, {"geometry": {"coordinates": [8.538445, 47.391504], "type": "Point"}, "properties": {"charge": 75, "id": "smide_42", "name": "ZH253846", "provider": "smide", "range": 37.0, "size": 20, "time": "03/21/2020, 15:16:33"}, "type": "Feature"}, {"geometry": {"coordinates": [8.562093, 47.410568], "type": "Point"}, "properties": {"charge": 17, "id": "smide_160", "name": "ZH253722", "provider": "smide", "range": 8.0, "size": 17, "time": "03/21/2020, 15:16:33"}, "type": "Feature"}, {"geometry": {"coordinates": [8.540156, 47.389241], "type": "Point"}, "properties": {"charge": 13, "id": "smide_137", "name": "ZH258502", "provider": "smide", "range": 6.0, "size": 17, "time": "03/21/2020, 15:16:33"}, "type": "Feature"}, {"geometry": {"coordinates": [8.535355, 47.363423], "type": "Point"}, "properties": {"charge": 100, "id": "smide_55", "name": "ZH253875", "provider": "smide", "range": 50.0, "size": 17, "time": "03/21/2020, 15:16:33"}, "type": "Feature"}, {"geometry": {"coordinates": [8.563305, 47.367712], "type": "Point"}, "properties": {"charge": 97, "id": "smide_96", "name": "ZH256146", "provider": "smide", "range": 48.0, "size": 20, "time": "03/21/2020, 15:16:33"}, "type": "Feature"}, {"geometry": {"coordinates": [8.546727, 47.392088], "type": "Point"}, "properties": {"charge": 67, "id": "smide_58", "name": "ZH259246", "provider": "smide", "range": 33.0, "size": 20, "time": "03/21/2020, 15:16:33"}, "type": "Feature"}, {"geometry": {"coordinates": [8.536725, 47.343024], "type": "Point"}, "properties": {"charge": 100, "id": "smide_54", "name": "ZH253874", "provider": "smide", "range": 50.0, "size": 20, "time": "03/21/2020, 15:16:33"}, "type": "Feature"}, {"geometry": {"coordinates": [8.505541, 47.396123], "type": "Point"}, "properties": {"charge": 100, "id": "smide_162", "name": "ZH253760", "provider": "smide", "range": 50.0, "size": 17, "time": "03/21/2020, 15:16:33"}, "type": "Feature"}, {"geometry": {"coordinates": [8.569353, 47.373152], "type": "Point"}, "properties": {"charge": 79, "id": "smide_95", "name": "ZH253773", "provider": "smide", "range": 39.0, "size": 17, "time": "03/21/2020, 15:16:33"}, "type": "Feature"}, {"geometry": {"coordinates": [8.481834, 47.393912], "type": "Point"}, "properties": {"charge": 59, "id": "smide_112", "name": "ZH263530", "provider": "smide", "range": 29.0, "size": 20, "time": "03/21/2020, 15:16:33"}, "type": "Feature"}, {"geometry": {"coordinates": [8.498163, 47.403112], "type": "Point"}, "properties": {"charge": 29, "id": "smide_122", "name": "ZH253850", "provider": "smide", "range": 14.0, "size": 20, "time": "03/21/2020, 15:16:33"}, "type": "Feature"}, {"geometry": {"coordinates": [8.561565, 47.369466], "type": "Point"}, "properties": {"charge": 100, "id": "smide_38", "name": "ZH253851", "provider": "smide", "range": 50.0, "size": 20, "time": "03/21/2020, 15:16:33"}, "type": "Feature"}, {"geometry": {"coordinates": [8.564001, 47.366452], "type": "Point"}, "properties": {"charge": 49, "id": "smide_6", "name": "ZH253787", "provider": "smide", "range": 24.0, "size": 17, "time": "03/21/2020, 15:16:33"}, "type": "Feature"}, {"geometry": {"coordinates": [8.49964, 47.359778], "type": "Point"}, "properties": {"charge": 80, "id": "smide_18", "name": "ZH253859", "provider": "smide", "range": 40.0, "size": 17, "time": "03/21/2020, 15:16:33"}, "type": "Feature"}, {"geometry": {"coordinates": [8.520838, 47.385412], "type": "Point"}, "properties": {"charge": 81, "id": "smide_192", "name": "ZH253706", "provider": "smide", "range": 40.0, "size": 20, "time": "03/21/2020, 15:16:33"}, "type": "Feature"}, {"geometry": {"coordinates": [8.532038, 47.407905], "type": "Point"}, "properties": {"charge": 73, "id": "smide_39", "name": "ZH253714", "provider": "smide", "range": 36.0, "size": 20, "time": "03/21/2020, 15:16:33"}, "type": "Feature"}, {"geometry": {"coordinates": [8.506481, 47.352263], "type": "Point"}, "properties": {"charge": 95, "id": "smide_85", "name": "ZH253729", "provider": "smide", "range": 47.0, "size": 17, "time": "03/21/2020, 15:16:33"}, "type": "Feature"}, {"geometry": {"coordinates": [8.56031, 47.38201], "type": "Point"}, "properties": {"charge": 98, "id": "smide_132", "name": "ZH253857", "provider": "smide", "range": 49.0, "size": 17, "time": "03/21/2020, 15:16:33"}, "type": "Feature"}, {"geometry": {"coordinates": [8.518532, 47.365488], "type": "Point"}, "properties": {"charge": 91, "id": "smide_46", "name": "ZH253843", "provider": "smide", "range": 45.0, "size": 20, "time": "03/21/2020, 15:16:33"}, "type": "Feature"}, {"geometry": {"coordinates": [8.51751666666667, 47.3863533333333], "type": "Point"}, "properties": {"charge": 78, "id": "bird_facde6ea-b241-467c-92c4-c8f90387c17e", "provider": "bird", "timeStamp": "03/21/2020, 12:52:54"}, "type": "Feature"}, {"geometry": {"coordinates": [8.51763166666667, 47.38644], "type": "Point"}, "properties": {"charge": 74, "id": "bird_39a917fd-08f4-4f01-8e14-400e333cddeb", "provider": "bird", "timeStamp": "03/21/2020, 12:52:54"}, "type": "Feature"}, {"geometry": {"coordinates": [8.51750833333333, 47.386315], "type": "Point"}, "properties": {"charge": 73, "id": "bird_708a42c6-5052-4e8c-9b9f-e5cf291f7e98", "provider": "bird", "timeStamp": "03/21/2020, 12:52:54"}, "type": "Feature"}, {"geometry": {"coordinates": [8.51516, 47.37685], "type": "Point"}, "properties": {"charge": 30, "id": "bird_6a0d1596-315f-4bec-b501-2e28785de9cd", "provider": "bird", "timeStamp": "03/21/2020, 12:52:54"}, "type": "Feature"}, {"geometry": {"coordinates": [8.519425, 47.3876616666667], "type": "Point"}, "properties": {"charge": 39, "id": "bird_f08f4ff8-ad2d-45ae-91e9-f6bc259cbad5", "provider": "bird", "timeStamp": "03/21/2020, 12:52:54"}, "type": "Feature"}, {"geometry": {"coordinates": [8.54396, 47.37555], "type": "Point"}, "properties": {"charge": 10, "id": "bird_b41557c4-3e20-4129-9093-19e43628096d", "provider": "bird", "timeStamp": "03/21/2020, 12:52:54"}, "type": "Feature"}, {"geometry": {"coordinates": [8.52038, 47.3881566666667], "type": "Point"}, "properties": {"charge": 91, "id": "bird_6209bdbf-2563-450d-a3ef-16a9017d4a95", "provider": "bird", "timeStamp": "03/21/2020, 12:52:54"}, "type": "Feature"}, {"geometry": {"coordinates": [8.520415, 47.388165], "type": "Point"}, "properties": {"charge": 64, "id": "bird_749f96a9-0026-43f6-bda3-131eb62e0996", "provider": "bird", "timeStamp": "03/21/2020, 12:52:54"}, "type": "Feature"}, {"geometry": {"coordinates": [8.52185833333333, 47.3888283333333], "type": "Point"}, "properties": {"charge": 73, "id": "bird_34225a2d-07a7-403a-b23b-36de576fadee", "provider": "bird", "timeStamp": "03/21/2020, 12:52:54"}, "type": "Feature"}, {"geometry": {"coordinates": [8.51549166666667, 47.3766366666667], "type": "Point"}, "properties": {"charge": 40, "id": "bird_892e9ca8-a642-4eee-a96c-d8a30df0d76f", "provider": "bird", "timeStamp": "03/21/2020, 12:52:54"}, "type": "Feature"}, {"geometry": {"coordinates": [8.51811666666667, 47.386525], "type": "Point"}, "properties": {"charge": 94, "id": "bird_10789234-a1a0-4f95-814a-08f7f76bd2d2", "provider": "bird", "timeStamp": "03/21/2020, 12:52:54"}, "type": "Feature"}, {"geometry": {"coordinates": [8.517265, 47.38564], "type": "Point"}, "properties": {"charge": 25, "id": "bird_e0f4f86f-ed2d-462d-a3e5-30eb017c81e0", "provider": "bird", "timeStamp": "03/21/2020, 12:52:54"}, "type": "Feature"}, {"geometry": {"coordinates": [8.51655833333333, 47.3848266666667], "type": "Point"}, "properties": {"charge": 33, "id": "bird_f533d17e-7a33-452e-8040-38294348c358", "provider": "bird", "timeStamp": "03/21/2020, 12:52:54"}, "type": "Feature"}, {"geometry": {"coordinates": [8.517655, 47.3859866666667], "type": "Point"}, "properties": {"charge": 96, "id": "bird_3989a325-1240-4bb2-946f-9ec72c77e3b9", "provider": "bird", "timeStamp": "03/21/2020, 12:52:54"}, "type": "Feature"}, {"geometry": {"coordinates": [8.517755, 47.3860733333333], "type": "Point"}, "properties": {"charge": 97, "id": "bird_fa561a24-d4a5-4bb8-bc18-1abec3180026", "provider": "bird", "timeStamp": "03/21/2020, 12:52:54"}, "type": "Feature"}, {"geometry": {"coordinates": [8.51495, 47.37875], "type": "Point"}, "properties": {"charge": 37, "id": "bird_6baddbf9-ecd1-465c-b741-c44479fe7031", "provider": "bird", "timeStamp": "03/21/2020, 12:52:54"}, "type": "Feature"}, {"geometry": {"coordinates": [8.52216166666667, 47.3887866666667], "type": "Point"}, "properties": {"charge": 47, "id": "bird_70b02c2c-515d-4698-a98b-1b78f1c9ed42", "provider": "bird", "timeStamp": "03/21/2020, 12:52:54"}, "type": "Feature"}, {"geometry": {"coordinates": [8.51520666666667, 47.3821866666667], "type": "Point"}, "properties": {"charge": 46, "id": "bird_da2d0af6-9a37-4b3e-9bba-d1c400ec1508", "provider": "bird", "timeStamp": "03/21/2020, 12:52:54"}, "type": "Feature"}, {"geometry": {"coordinates": [8.51778833333333, 47.386055], "type": "Point"}, "properties": {"charge": 45, "id": "bird_e0c9646c-4d40-495b-a120-5fb21ff9778f", "provider": "bird", "timeStamp": "03/21/2020, 12:52:54"}, "type": "Feature"}, {"geometry": {"coordinates": [8.518105, 47.38633], "type": "Point"}, "properties": {"charge": 96, "id": "bird_e9314f26-1230-4c09-bb09-a42d5683b9cc", "provider": "bird", "timeStamp": "03/21/2020, 12:52:54"}, "type": "Feature"}, {"geometry": {"coordinates": [8.51523666666667, 47.3822016666667], "type": "Point"}, "properties": {"charge": 28, "id": "bird_7c8aa28e-5468-4dd9-ab32-a8add64ed13a", "provider": "bird", "timeStamp": "03/21/2020, 12:52:54"}, "type": "Feature"}, {"geometry": {"coordinates": [8.516465, 47.3754766666667], "type": "Point"}, "properties": {"charge": 90, "id": "bird_3373047d-13f7-4c46-9873-ff1acf130b8b", "provider": "bird", "timeStamp": "03/21/2020, 12:52:54"}, "type": "Feature"}, {"geometry": {"coordinates": [8.51644666666667, 47.3755266666667], "type": "Point"}, "properties": {"charge": 89, "id": "bird_06e5a91d-34d5-4407-bee4-b7c108acea38", "provider": "bird", "timeStamp": "03/21/2020, 12:52:54"}, "type": "Feature"}, {"geometry": {"coordinates": [8.51527666666667, 47.382195], "type": "Point"}, "properties": {"charge": 18, "id": "bird_609a3a7d-0fd5-46a5-88e5-02d2fc25160d", "provider": "bird", "timeStamp": "03/21/2020, 12:52:54"}, "type": "Feature"}, {"geometry": {"coordinates": [8.51528166666667, 47.382195], "type": "Point"}, "properties": {"charge": 26, "id": "bird_e2a23ac3-58e1-4780-afb1-c46b5af51ccd", "provider": "bird", "timeStamp": "03/21/2020, 12:52:54"}, "type": "Feature"}, {"geometry": {"coordinates": [8.51779166666667, 47.3859716666667], "type": "Point"}, "properties": {"charge": 91, "id": "bird_375b4e55-d79f-434f-ab49-843724f28afc", "provider": "bird", "timeStamp": "03/21/2020, 12:52:54"}, "type": "Feature"}, {"geometry": {"coordinates": [8.51771333333333, 47.3858866666667], "type": "Point"}, "properties": {"charge": 70, "id": "bird_223c37b8-5105-4d64-bd11-5693ad712045", "provider": "bird", "timeStamp": "03/21/2020, 12:52:54"}, "type": "Feature"}, {"geometry": {"coordinates": [8.51819166666667, 47.3863183333333], "type": "Point"}, "properties": {"charge": 94, "id": "bird_3f0faf1b-841e-4a77-8c1c-bbc37a90cb40", "provider": "bird", "timeStamp": "03/21/2020, 12:52:54"}, "type": "Feature"}, {"geometry": {"coordinates": [8.54339166666667, 47.3753666666667], "type": "Point"}, "properties": {"charge": 69, "id": "bird_32d1c086-86f5-4b44-9738-3bca9b1c8ad1", "provider": "bird", "timeStamp": "03/21/2020, 12:52:54"}, "type": "Feature"}, {"geometry": {"coordinates": [8.51532, 47.3821716666667], "type": "Point"}, "properties": {"charge": 64, "id": "bird_61c59cf1-3845-4d05-8f49-6e78c304a6d4", "provider": "bird", "timeStamp": "03/21/2020, 12:52:54"}, "type": "Feature"}, {"geometry": {"coordinates": [8.51533166666667, 47.38219], "type": "Point"}, "properties": {"charge": 55, "id": "bird_e15f5dee-cc4d-4694-b96a-ebf2a82a6378", "provider": "bird", "timeStamp": "03/21/2020, 12:52:54"}, "type": "Feature"}, {"geometry": {"coordinates": [8.51804833333333, 47.3861583333333], "type": "Point"}, "properties": {"charge": 78, "id": "bird_9c72f976-0afc-46ec-81aa-250e3e041eeb", "provider": "bird", "timeStamp": "03/21/2020, 12:52:54"}, "type": "Feature"}, {"geometry": {"coordinates": [8.51529833333333, 47.38205], "type": "Point"}, "properties": {"charge": 65, "id": "bird_1279ef6e-1aae-4b93-9d85-d96a420833e1", "provider": "bird", "timeStamp": "03/21/2020, 12:52:54"}, "type": "Feature"}, {"geometry": {"coordinates": [8.52317666666667, 47.3709716666667], "type": "Point"}, "properties": {"charge": 89, "id": "bird_97ba49f7-79e6-48ff-a19d-d88f5dcd38f8", "provider": "bird", "timeStamp": "03/21/2020, 12:52:54"}, "type": "Feature"}, {"geometry": {"coordinates": [8.535015, 47.3704483333333], "type": "Point"}, "properties": {"charge": 78, "id": "bird_81e0641e-b48f-45fb-8131-0c7a8edb4d12", "provider": "bird", "timeStamp": "03/21/2020, 12:52:54"}, "type": "Feature"}, {"geometry": {"coordinates": [8.51538333333333, 47.3821266666667], "type": "Point"}, "properties": {"charge": 64, "id": "bird_c80b879e-e65e-40fa-977d-340b0ebdd8d3", "provider": "bird", "timeStamp": "03/21/2020, 12:52:54"}, "type": "Feature"}, {"geometry": {"coordinates": [8.52317833333333, 47.3710066666667], "type": "Point"}, "properties": {"charge": 80, "id": "bird_47ab0339-8777-4e9c-bb2d-e82a6f039806", "provider": "bird", "timeStamp": "03/21/2020, 12:52:54"}, "type": "Feature"}, {"geometry": {"coordinates": [8.51664833333333, 47.3755033333333], "type": "Point"}, "properties": {"charge": 84, "id": "bird_c8a9e2eb-82ad-4e44-bd9e-ec36f9d3dab6", "provider": "bird", "timeStamp": "03/21/2020, 12:52:54"}, "type": "Feature"}, {"geometry": {"coordinates": [8.52319166666667, 47.3710166666667], "type": "Point"}, "properties": {"charge": 82, "id": "bird_3bd066c8-9201-4873-a2a6-61bfdeecebc5", "provider": "bird", "timeStamp": "03/21/2020, 12:52:54"}, "type": "Feature"}, {"geometry": {"coordinates": [8.54401333333333, 47.3765683333333], "type": "Point"}, "properties": {"charge": 12, "id": "bird_77fff3a6-4a67-4f41-bbf5-9a629bc4df0e", "provider": "bird", "timeStamp": "03/21/2020, 12:52:54"}, "type": "Feature"}, {"geometry": {"coordinates": [8.518155, 47.3861083333333], "type": "Point"}, "properties": {"charge": 73, "id": "bird_658d3ff3-dd04-4418-a716-d7c9353d6231", "provider": "bird", "timeStamp": "03/21/2020, 12:52:54"}, "type": "Feature"}, {"geometry": {"coordinates": [8.51670666666667, 47.3755266666667], "type": "Point"}, "properties": {"charge": 85, "id": "bird_2a69fe18-ee82-4668-8deb-7c1dc5d1e952", "provider": "bird", "timeStamp": "03/21/2020, 12:52:54"}, "type": "Feature"}, {"geometry": {"coordinates": [8.54385166666667, 47.3764116666667], "type": "Point"}, "properties": {"charge": 69, "id": "bird_1ef07dae-8c61-406a-b75f-254b547bec67", "provider": "bird", "timeStamp": "03/21/2020, 12:52:54"}, "type": "Feature"}, {"geometry": {"coordinates": [8.52721333333333, 47.3701433333333], "type": "Point"}, "properties": {"charge": 27, "id": "bird_27ac4c53-5200-49cb-8368-2924a1f55389", "provider": "bird", "timeStamp": "03/21/2020, 12:52:54"}, "type": "Feature"}, {"geometry": {"coordinates": [8.51671666666667, 47.37556], "type": "Point"}, "properties": {"charge": 80, "id": "bird_b611389d-96e5-49b8-aa75-a01f83e2feb9", "provider": "bird", "timeStamp": "03/21/2020, 12:52:54"}, "type": "Feature"}, {"geometry": {"coordinates": [8.5172, 47.3850483333333], "type": "Point"}, "properties": {"charge": 40, "id": "bird_dfd00fd2-df34-420a-a941-d89271ab9f22", "provider": "bird", "timeStamp": "03/21/2020, 12:52:54"}, "type": "Feature"}, {"geometry": {"coordinates": [8.51826333333333, 47.3861166666667], "type": "Point"}, "properties": {"charge": 91, "id": "bird_a125b9ea-8c9d-4f69-9e64-cfa589da474b", "provider": "bird", "timeStamp": "03/21/2020, 12:52:54"}, "type": "Feature"}, {"geometry": {"coordinates": [8.52320166666667, 47.3710933333333], "type": "Point"}, "properties": {"charge": 80, "id": "bird_419ea93d-e9ae-408f-b8f4-be0d21da8345", "provider": "bird", "timeStamp": "03/21/2020, 12:52:54"}, "type": "Feature"}, {"geometry": {"coordinates": [8.51848, 47.3862983333333], "type": "Point"}, "properties": {"charge": 73, "id": "bird_02b643a4-9aca-442d-ae02-34a4ea6d02bd", "provider": "bird", "timeStamp": "03/21/2020, 12:52:54"}, "type": "Feature"}, {"geometry": {"coordinates": [8.51846333333333, 47.3862566666667], "type": "Point"}, "properties": {"charge": 96, "id": "bird_d407be2e-709b-4a01-b043-e9cff4a1e892", "provider": "bird", "timeStamp": "03/21/2020, 12:52:54"}, "type": "Feature"}, {"geometry": {"coordinates": [8.52321666666667, 47.3711083333333], "type": "Point"}, "properties": {"charge": 35, "id": "bird_9f0a11da-45a2-4d16-8c90-17766071f924", "provider": "bird", "timeStamp": "03/21/2020, 12:52:54"}, "type": "Feature"}, {"geometry": {"coordinates": [8.51680166666667, 47.3755183333333], "type": "Point"}, "properties": {"charge": 89, "id": "bird_d5883979-944c-4bf2-8315-b600f9a8065a", "provider": "bird", "timeStamp": "03/21/2020, 12:52:54"}, "type": "Feature"}, {"geometry": {"coordinates": [8.51772, 47.3855283333333], "type": "Point"}, "properties": {"charge": 72, "id": "bird_3c23e93d-10bd-4542-bb41-d256c8f9aa3d", "provider": "bird", "timeStamp": "03/21/2020, 12:52:54"}, "type": "Feature"}, {"geometry": {"coordinates": [8.51769166666667, 47.38546], "type": "Point"}, "properties": {"charge": 80, "id": "bird_ebf02e2e-6c0b-484a-ba15-6c0492c00002", "provider": "bird", "timeStamp": "03/21/2020, 12:52:54"}, "type": "Feature"}, {"geometry": {"coordinates": [8.51672666666667, 47.375705], "type": "Point"}, "properties": {"charge": 82, "id": "bird_bfb5fadf-28a8-4a3f-ae53-6e55b04c4a9d", "provider": "bird", "timeStamp": "03/21/2020, 12:52:54"}, "type": "Feature"}, {"geometry": {"coordinates": [8.51669666666667, 47.3757483333333], "type": "Point"}, "properties": {"charge": 91, "id": "bird_5020e4af-565b-4459-9e24-e8c8f64d0144", "provider": "bird", "timeStamp": "03/21/2020, 12:52:54"}, "type": "Feature"}, {"geometry": {"coordinates": [8.51669666666667, 47.3758016666667], "type": "Point"}, "properties": {"charge": 72, "id": "bird_242feca0-001d-4697-9638-5b0f4300d2ec", "provider": "bird", "timeStamp": "03/21/2020, 12:52:54"}, "type": "Feature"}, {"geometry": {"coordinates": [8.516845, 47.37563], "type": "Point"}, "properties": {"charge": 80, "id": "bird_f827e480-a9f5-4c90-8812-2d73f831aa14", "provider": "bird", "timeStamp": "03/21/2020, 12:52:54"}, "type": "Feature"}, {"geometry": {"coordinates": [8.523185, 47.3712266666667], "type": "Point"}, "properties": {"charge": 88, "id": "bird_f9f73818-4fef-4d87-8985-9dc8a755c802", "provider": "bird", "timeStamp": "03/21/2020, 12:52:54"}, "type": "Feature"}, {"geometry": {"coordinates": [8.51844166666667, 47.38607], "type": "Point"}, "properties": {"charge": 76, "id": "bird_b841df7f-f112-442c-a15d-ddf11e36e8c2", "provider": "bird", "timeStamp": "03/21/2020, 12:52:54"}, "type": "Feature"}, {"geometry": {"coordinates": [8.51544166666667, 47.379165], "type": "Point"}, "properties": {"charge": 20, "id": "bird_2224a3ef-96c5-4c70-8ba8-53ae2c2beaba", "provider": "bird", "timeStamp": "03/21/2020, 12:52:54"}, "type": "Feature"}, {"geometry": {"coordinates": [8.51573333333333, 47.3779366666667], "type": "Point"}, "properties": {"charge": 44, "id": "bird_0a2ec41b-a95d-4c9b-bab4-71b62c259cd5", "provider": "bird", "timeStamp": "03/21/2020, 12:52:54"}, "type": "Feature"}, {"geometry": {"coordinates": [8.53457166666667, 47.37062], "type": "Point"}, "properties": {"charge": 37, "id": "bird_1bf6219d-7f2e-4806-9854-f87832e83907", "provider": "bird", "timeStamp": "03/21/2020, 12:52:54"}, "type": "Feature"}, {"geometry": {"coordinates": [8.516945, 47.375625], "type": "Point"}, "properties": {"charge": 91, "id": "bird_5c4ed485-b4c1-4db1-a948-242ab9782c29", "provider": "bird", "timeStamp": "03/21/2020, 12:52:54"}, "type": "Feature"}, {"geometry": {"coordinates": [8.518295, 47.3858716666667], "type": "Point"}, "properties": {"charge": 97, "id": "bird_a782aa5a-911d-468b-98f1-febc0f8f2475", "provider": "bird", "timeStamp": "03/21/2020, 12:52:54"}, "type": "Feature"}, {"geometry": {"coordinates": [8.53509166666667, 47.3707616666667], "type": "Point"}, "properties": {"charge": 70, "id": "bird_ec794be3-4891-496d-b151-9275578e213c", "provider": "bird", "timeStamp": "03/21/2020, 12:52:54"}, "type": "Feature"}, {"geometry": {"coordinates": [8.52344666666667, 47.3711966666667], "type": "Point"}, "properties": {"charge": 91, "id": "bird_a01e7a19-375e-4646-afde-c00f85a2341c", "provider": "bird", "timeStamp": "03/21/2020, 12:52:54"}, "type": "Feature"}, {"geometry": {"coordinates": [8.518665, 47.386185], "type": "Point"}, "properties": {"charge": 92, "id": "bird_f8823fcd-d997-47f9-aa11-8b52b4f81227", "provider": "bird", "timeStamp": "03/21/2020, 12:52:54"}, "type": "Feature"}, {"geometry": {"coordinates": [8.54396833333333, 47.377285], "type": "Point"}, "properties": {"charge": 46, "id": "bird_9fc605cb-ec1f-42db-ac02-85f91a972619", "provider": "bird", "timeStamp": "03/21/2020, 12:52:54"}, "type": "Feature"}, {"geometry": {"coordinates": [8.518345, 47.3858716666667], "type": "Point"}, "properties": {"charge": 76, "id": "bird_abb369d2-71f8-406a-a15f-0849e1048782", "provider": "bird", "timeStamp": "03/21/2020, 12:52:54"}, "type": "Feature"}, {"geometry": {"coordinates": [8.52318, 47.3713233333333], "type": "Point"}, "properties": {"charge": 91, "id": "bird_5c238393-14a4-4875-8444-308c03cb141a", "provider": "bird", "timeStamp": "03/21/2020, 12:52:54"}, "type": "Feature"}, {"geometry": {"coordinates": [8.52351833333333, 47.3712116666667], "type": "Point"}, "properties": {"charge": 87, "id": "bird_630198e1-c354-45ed-adde-dfa723a46d28", "provider": "bird", "timeStamp": "03/21/2020, 12:52:54"}, "type": "Feature"}, {"geometry": {"coordinates": [8.52355833333333, 47.3712116666667], "type": "Point"}, "properties": {"charge": 89, "id": "bird_29f55a93-6781-4fe3-b447-ce13d93331d3", "provider": "bird", "timeStamp": "03/21/2020, 12:52:54"}, "type": "Feature"}, {"geometry": {"coordinates": [8.52357833333333, 47.371235], "type": "Point"}, "properties": {"charge": 91, "id": "bird_44e49828-b881-4ca5-a21b-8f55d75508c3", "provider": "bird", "timeStamp": "03/21/2020, 12:52:54"}, "type": "Feature"}, {"geometry": {"coordinates": [8.51662333333333, 47.37635], "type": "Point"}, "properties": {"charge": 42, "id": "bird_7407749e-7004-40b9-b8c2-8fa4372b5378", "provider": "bird", "timeStamp": "03/21/2020, 12:52:54"}, "type": "Feature"}, {"geometry": {"coordinates": [8.53616833333333, 47.371215], "type": "Point"}, "properties": {"charge": 94, "id": "bird_456ef58f-4192-4cc6-8bec-ae338faee136", "provider": "bird", "timeStamp": "03/21/2020, 12:52:54"}, "type": "Feature"}, {"geometry": {"coordinates": [8.53618666666667, 47.3712733333333], "type": "Point"}, "properties": {"charge": 98, "id": "bird_44f243c9-87c0-4dba-93b1-eb7ecc886158", "provider": "bird", "timeStamp": "03/21/2020, 12:52:54"}, "type": "Feature"}, {"geometry": {"coordinates": [8.51749, 47.3754966666667], "type": "Point"}, "properties": {"charge": 22, "id": "bird_ecce5f57-75ac-403c-a7e7-7271e5d05dce", "provider": "bird", "timeStamp": "03/21/2020, 12:52:54"}, "type": "Feature"}, {"geometry": {"coordinates": [8.51585, 47.3798216666667], "type": "Point"}, "properties": {"charge": 27, "id": "bird_bddfa0a0-baec-4d60-b8b7-3848b7481f17", "provider": "bird", "timeStamp": "03/21/2020, 12:52:54"}, "type": "Feature"}, {"geometry": {"coordinates": [8.51586, 47.37978], "type": "Point"}, "properties": {"charge": 43, "id": "bird_1b200f69-027b-4274-86cc-7cab1f15eb24", "provider": "bird", "timeStamp": "03/21/2020, 12:52:54"}, "type": "Feature"}, {"geometry": {"coordinates": [8.51602, 47.3811533333333], "type": "Point"}, "properties": {"charge": 44, "id": "bird_e1578667-7e70-4cc0-a00e-0741d9f33358", "provider": "bird", "timeStamp": "03/21/2020, 12:52:54"}, "type": "Feature"}, {"geometry": {"coordinates": [8.52037666666667, 47.3731033333333], "type": "Point"}, "properties": {"charge": 26, "id": "bird_e45c5dee-51fa-41cd-9a15-943fc3b01f15", "provider": "bird", "timeStamp": "03/21/2020, 12:52:54"}, "type": "Feature"}, {"geometry": {"coordinates": [8.53772166666667, 47.3721383333333], "type": "Point"}, "properties": {"charge": 40, "id": "bird_0e8e53a7-f2b3-4293-b344-16257cb154d2", "provider": "bird", "timeStamp": "03/21/2020, 12:52:54"}, "type": "Feature"}, {"geometry": {"coordinates": [8.54322666666667, 47.3770483333333], "type": "Point"}, "properties": {"charge": 53, "id": "bird_5fefb705-b127-4a8c-8dd5-5b1c6e2cdfd3", "provider": "bird", "timeStamp": "03/21/2020, 12:52:54"}, "type": "Feature"}, {"geometry": {"coordinates": [8.53786833333333, 47.3722683333333], "type": "Point"}, "properties": {"charge": 60, "id": "bird_3d0ff65e-c0bc-4ee0-963d-f0c68b41642f", "provider": "bird", "timeStamp": "03/21/2020, 12:52:54"}, "type": "Feature"}, {"geometry": {"coordinates": [8.53773, 47.3722533333333], "type": "Point"}, "properties": {"charge": 47, "id": "bird_37631798-5808-4f86-b5be-910f1a2d7fa3", "provider": "bird", "timeStamp": "03/21/2020, 12:52:54"}, "type": "Feature"}, {"geometry": {"coordinates": [8.51624666666667, 47.379715], "type": "Point"}, "properties": {"charge": 48, "id": "bird_42c63b6c-6e97-4fe1-a364-0c8c3dfe9ede", "provider": "bird", "timeStamp": "03/21/2020, 12:52:54"}, "type": "Feature"}, {"geometry": {"coordinates": [8.52385333333333, 47.3716666666667], "type": "Point"}, "properties": {"charge": 27, "id": "bird_f96094d8-092c-4f6e-8ac5-db558a0e384d", "provider": "bird", "timeStamp": "03/21/2020, 12:52:54"}, "type": "Feature"}, {"geometry": {"coordinates": [8.537095, 47.37202], "type": "Point"}, "properties": {"charge": 72, "id": "bird_66342629-ceb7-40b1-a157-8f1d18111926", "provider": "bird", "timeStamp": "03/21/2020, 12:52:54"}, "type": "Feature"}, {"geometry": {"coordinates": [8.52003, 47.3863983333333], "type": "Point"}, "properties": {"charge": 39, "id": "bird_679151ea-102b-47b8-9a98-59f3c7d862c3", "provider": "bird", "timeStamp": "03/21/2020, 12:52:54"}, "type": "Feature"}, {"geometry": {"coordinates": [8.52000666666667, 47.3863716666667], "type": "Point"}, "properties": {"charge": 72, "id": "bird_45f18b2b-061f-4e09-9d65-9c003a8a114f", "provider": "bird", "timeStamp": "03/21/2020, 12:52:54"}, "type": "Feature"}, {"geometry": {"coordinates": [8.53754833333333, 47.3722716666667], "type": "Point"}, "properties": {"charge": 66, "id": "bird_c02543e3-e3a9-4a5d-808f-145bca775122", "provider": "bird", "timeStamp": "03/21/2020, 12:52:54"}, "type": "Feature"}, {"geometry": {"coordinates": [8.51725333333333, 47.37685], "type": "Point"}, "properties": {"charge": 39, "id": "bird_f2a519f9-e255-49c7-92f4-c9f0dadad142", "provider": "bird", "timeStamp": "03/21/2020, 12:52:54"}, "type": "Feature"}, {"geometry": {"coordinates": [8.52049333333333, 47.3864933333333], "type": "Point"}, "properties": {"charge": 73, "id": "bird_1c3c6ddc-46f5-4c2b-a698-0a9c08420065", "provider": "bird", "timeStamp": "03/21/2020, 12:52:54"}, "type": "Feature"}, {"geometry": {"coordinates": [8.53448166666667, 47.3885833333333], "type": "Point"}, "properties": {"charge": 57, "id": "bird_40c6c313-1527-493f-9fab-11b7c546a86d", "provider": "bird", "timeStamp": "03/21/2020, 12:52:54"}, "type": "Feature"}, {"geometry": {"coordinates": [8.53030333333333, 47.3889316666667], "type": "Point"}, "properties": {"charge": 38, "id": "bird_1d5fa85f-c62f-4af9-bcf0-8e592dedee8a", "provider": "bird", "timeStamp": "03/21/2020, 12:52:54"}, "type": "Feature"}, {"geometry": {"coordinates": [8.54279, 47.3778416666667], "type": "Point"}, "properties": {"charge": 40, "id": "bird_5f17c032-b98d-44d1-a471-5b432549134a", "provider": "bird", "timeStamp": "03/21/2020, 12:52:54"}, "type": "Feature"}, {"geometry": {"coordinates": [8.529985, 47.3711883333333], "type": "Point"}, "properties": {"charge": 22, "id": "bird_2d5bf3c2-cfc0-4592-9c8a-44a29f011125", "provider": "bird", "timeStamp": "03/21/2020, 12:52:54"}, "type": "Feature"}, {"geometry": {"coordinates": [8.517245, 47.381375], "type": "Point"}, "properties": {"charge": 18, "id": "bird_5fcc14fc-a5ca-424d-8830-1f91a3df46cc", "provider": "bird", "timeStamp": "03/21/2020, 12:52:54"}, "type": "Feature"}, {"geometry": {"coordinates": [8.52307166666667, 47.3727183333333], "type": "Point"}, "properties": {"charge": 12, "id": "bird_d4954cb5-ad46-4e1f-8db0-3f85bd376c0b", "provider": "bird", "timeStamp": "03/21/2020, 12:52:54"}, "type": "Feature"}, {"geometry": {"coordinates": [8.51737833333333, 47.3786166666667], "type": "Point"}, "properties": {"charge": 47, "id": "bird_f3623848-c66f-4c38-ae88-e1976257a666", "provider": "bird", "timeStamp": "03/21/2020, 12:52:54"}, "type": "Feature"}, {"geometry": {"coordinates": [8.54131333333333, 47.3759733333333], "type": "Point"}, "properties": {"charge": 39, "id": "bird_d1cf3b8c-e66e-4894-8b76-203ad58293f0", "provider": "bird", "timeStamp": "03/21/2020, 12:52:54"}, "type": "Feature"}, {"geometry": {"coordinates": [8.54176666666667, 47.376835], "type": "Point"}, "properties": {"charge": 38, "id": "bird_0c4583d1-3a9a-4aa4-b250-be2a756890f8", "provider": "bird", "timeStamp": "03/21/2020, 12:52:54"}, "type": "Feature"}, {"geometry": {"coordinates": [8.51799, 47.3774416666667], "type": "Point"}, "properties": {"charge": 54, "id": "bird_9773de60-ac5b-4e1f-b8fe-697e13befff7", "provider": "bird", "timeStamp": "03/21/2020, 12:52:54"}, "type": "Feature"}, {"geometry": {"coordinates": [8.541555, 47.3767316666667], "type": "Point"}, "properties": {"charge": 60, "id": "bird_5575ad45-e7bb-46b5-b184-8fb13223687d", "provider": "bird", "timeStamp": "03/21/2020, 12:52:54"}, "type": "Feature"}, {"geometry": {"coordinates": [8.51759166666667, 47.38073], "type": "Point"}, "properties": {"charge": 21, "id": "bird_bbefa06f-1c6a-4222-a024-37c1d6235dc3", "provider": "bird", "timeStamp": "03/21/2020, 12:52:54"}, "type": "Feature"}, {"geometry": {"coordinates": [8.52764666666667, 47.371735], "type": "Point"}, "properties": {"charge": 34, "id": "bird_cfa48c24-104b-4f46-a6af-cfdef3a4a73a", "provider": "bird", "timeStamp": "03/21/2020, 12:52:54"}, "type": "Feature"}, {"geometry": {"coordinates": [8.54154, 47.3830833333333], "type": "Point"}, "properties": {"charge": 26, "id": "bird_4785d279-d60b-4c02-a291-4dadf1265526", "provider": "bird", "timeStamp": "03/21/2020, 12:52:54"}, "type": "Feature"}, {"geometry": {"coordinates": [8.52768666666667, 47.3717583333333], "type": "Point"}, "properties": {"charge": 56, "id": "bird_6627b3e1-04d4-4287-9ff5-689cee9f415e", "provider": "bird", "timeStamp": "03/21/2020, 12:52:54"}, "type": "Feature"}, {"geometry": {"coordinates": [8.52157666666667, 47.3739166666667], "type": "Point"}, "properties": {"charge": 55, "id": "bird_0b36d440-bdc1-4487-a98e-dbb99cbcc876", "provider": "bird", "timeStamp": "03/21/2020, 12:52:54"}, "type": "Feature"}, {"geometry": {"coordinates": [8.53455333333333, 47.3877183333333], "type": "Point"}, "properties": {"charge": 69, "id": "bird_fa2866eb-848f-4f05-8185-69deaaddde62", "provider": "bird", "timeStamp": "03/21/2020, 12:52:54"}, "type": "Feature"}, {"geometry": {"coordinates": [8.54208666666667, 47.3812633333333], "type": "Point"}, "properties": {"charge": 42, "id": "bird_06473727-d125-4ca2-8833-37476f89e5d6", "provider": "bird", "timeStamp": "03/21/2020, 12:52:54"}, "type": "Feature"}, {"geometry": {"coordinates": [8.52682833333333, 47.37202], "type": "Point"}, "properties": {"charge": 17, "id": "bird_7fff8d43-1b3a-4bf3-89d1-d654beae22c4", "provider": "bird", "timeStamp": "03/21/2020, 12:52:54"}, "type": "Feature"}, {"geometry": {"coordinates": [8.526755, 47.3879583333333], "type": "Point"}, "properties": {"charge": 35, "id": "bird_50edae0f-530b-4250-8eef-408cafeb7bb5", "provider": "bird", "timeStamp": "03/21/2020, 12:52:54"}, "type": "Feature"}, {"geometry": {"coordinates": [8.53677333333333, 47.3731533333333], "type": "Point"}, "properties": {"charge": 57, "id": "bird_2667db58-67af-4092-bcb9-1ce5220710ee", "provider": "bird", "timeStamp": "03/21/2020, 12:52:54"}, "type": "Feature"}, {"geometry": {"coordinates": [8.53676333333333, 47.37315], "type": "Point"}, "properties": {"charge": 46, "id": "bird_30ceaeae-b1c8-4d01-898e-8648cbf2dd2f", "provider": "bird", "timeStamp": "03/21/2020, 12:52:54"}, "type": "Feature"}, {"geometry": {"coordinates": [8.52911833333333, 47.371785], "type": "Point"}, "properties": {"charge": 24, "id": "bird_381eeb4d-e710-4e14-9bd4-84511772d2d7", "provider": "bird", "timeStamp": "03/21/2020, 12:52:54"}, "type": "Feature"}, {"geometry": {"coordinates": [8.53662833333333, 47.3731266666667], "type": "Point"}, "properties": {"charge": 73, "id": "bird_8b7f5d56-6cae-402e-a7d3-8fc6614723b1", "provider": "bird", "timeStamp": "03/21/2020, 12:52:54"}, "type": "Feature"}, {"geometry": {"coordinates": [8.540715, 47.3766133333333], "type": "Point"}, "properties": {"charge": 73, "id": "bird_39267306-5547-42a5-84ec-c7f60bebbd0e", "provider": "bird", "timeStamp": "03/21/2020, 12:52:54"}, "type": "Feature"}, {"geometry": {"coordinates": [8.53452833333333, 47.3726116666667], "type": "Point"},