{"features": [{"geometry": {"coordinates": [8.540062, 47.374392], "type": "Point"}, "properties": {"address": "Uraniastrasse 7", "electric": 7, "id": "pb_60", "manual": 8, "name": "Demo Station Werdm\u00fchleplatz", "provider": "publibike", "timeStamp": "02/06/2020, 23:18:35", "zip": 8001}, "type": "Feature"}, {"geometry": {"coordinates": [8.5452956, 47.4099615], "type": "Point"}, "properties": {"address": "Querstrasse 8", "electric": 0, "id": "pb_61", "manual": 2, "name": "Marktplatz", "provider": "publibike", "timeStamp": "02/06/2020, 23:18:35", "zip": 8050}, "type": "Feature"}, {"geometry": {"coordinates": [8.5156327, 47.3795837], "type": "Point"}, "properties": {"address": "Bullingerstrasse 5", "electric": 7, "id": "pb_80", "manual": 6, "name": "Bullingerplatz", "provider": "publibike", "timeStamp": "02/06/2020, 23:18:35", "zip": 8004}, "type": "Feature"}, {"geometry": {"coordinates": [8.5104051, 47.3899342], "type": "Point"}, "properties": {"address": "Pfingstweidstrasse 96e", "electric": 4, "id": "pb_81", "manual": 2, "name": "Herdern", "provider": "publibike", "timeStamp": "02/06/2020, 23:18:35", "zip": 8001}, "type": "Feature"}, {"geometry": {"coordinates": [8.535718, 47.359675], "type": "Point"}, "properties": {"address": "Mythenquai 50", "electric": 0, "id": "pb_82", "manual": 0, "name": "Hafen Enge", "provider": "publibike", "timeStamp": "02/06/2020, 23:18:35", "zip": 8002}, "type": "Feature"}, {"geometry": {"coordinates": [8.520370505, 47.358663827], "type": "Point"}, "properties": {"address": "Bubenbergstrasse 1", "electric": 5, "id": "pb_83", "manual": 3, "name": "Comerge", "provider": "publibike", "timeStamp": "02/06/2020, 23:18:35", "zip": 8045}, "type": "Feature"}, {"geometry": {"coordinates": [8.5412505, 47.3789825], "type": "Point"}, "properties": {"address": "Museumstrasse 2", "electric": 0, "id": "pb_84", "manual": 11, "name": "Landesmuseum", "provider": "publibike", "timeStamp": "02/06/2020, 23:18:35", "zip": 8001}, "type": "Feature"}, {"geometry": {"coordinates": [8.5235479, 47.3716661], "type": "Point"}, "properties": {"address": "Birmensdorferstrasse 80", "electric": 1, "id": "pb_85", "manual": 8, "name": "Bahnhof Wiedikon", "provider": "publibike", "timeStamp": "02/06/2020, 23:18:35", "zip": 8003}, "type": "Feature"}, {"geometry": {"coordinates": [8.506822854, 47.40781197], "type": "Point"}, "properties": {"address": "Stefano-Franscini-Platz 5", "electric": 1, "id": "pb_86", "manual": 0, "name": "ETH H\u00f6nggerberg", "provider": "publibike", "timeStamp": "02/06/2020, 23:18:35", "zip": 8093}, "type": "Feature"}, {"geometry": {"coordinates": [8.536101, 47.371083], "type": "Point"}, "properties": {"address": "Pelikanplatz 5", "electric": 2, "id": "pb_87", "manual": 12, "name": "Pelikanplatz", "provider": "publibike", "timeStamp": "02/06/2020, 23:18:35", "zip": 8001}, "type": "Feature"}, {"geometry": {"coordinates": [8.5257822, 47.3651936], "type": "Point"}, "properties": {"address": "H\u00fcrlimannplatz 90", "electric": 0, "id": "pb_88", "manual": 0, "name": "H\u00fcrlimannplatz", "provider": "publibike", "timeStamp": "02/06/2020, 23:18:35", "zip": 8002}, "type": "Feature"}, {"geometry": {"coordinates": [8.5313344, 47.3713591], "type": "Point"}, "properties": {"address": "Selnaustrasse 32", "electric": 1, "id": "pb_89", "manual": 7, "name": "Stauffacherbr\u00fccke", "provider": "publibike", "timeStamp": "02/06/2020, 23:18:35", "zip": 8001}, "type": "Feature"}, {"geometry": {"coordinates": [8.5056978, 47.3917964], "type": "Point"}, "properties": {"address": "Sportweg 25", "electric": 1, "id": "pb_90", "manual": 8, "name": "Sportweg", "provider": "publibike", "timeStamp": "02/06/2020, 23:18:35", "zip": 8005}, "type": "Feature"}, {"geometry": {"coordinates": [8.5181701, 47.3917837], "type": "Point"}, "properties": {"address": "Hardturmstrasse 11", "electric": 0, "id": "pb_91", "manual": 0, "name": "Puls 5", "provider": "publibike", "timeStamp": "02/06/2020, 23:18:35", "zip": 8005}, "type": "Feature"}, {"geometry": {"coordinates": [8.5286468, 47.3820827], "type": "Point"}, "properties": {"address": "R\u00f6ntgenstrasse 6", "electric": 4, "id": "pb_92", "manual": 1, "name": "R\u00f6ntgenstrasse", "provider": "publibike", "timeStamp": "02/06/2020, 23:18:35", "zip": 8005}, "type": "Feature"}, {"geometry": {"coordinates": [8.531935, 47.384918], "type": "Point"}, "properties": {"address": "Kornhausbr\u00fccke 1", "electric": 0, "id": "pb_93", "manual": 0, "name": "Limmatplatz", "provider": "publibike", "timeStamp": "02/06/2020, 23:18:35", "zip": 8005}, "type": "Feature"}, {"geometry": {"coordinates": [8.5354006, 47.3758639], "type": "Point"}, "properties": {"address": "Gessnerallee 15", "electric": 0, "id": "pb_94", "manual": 0, "name": "Gessnerallee", "provider": "publibike", "timeStamp": "02/06/2020, 23:18:35", "zip": 8001}, "type": "Feature"}, {"geometry": {"coordinates": [8.523818, 47.377148], "type": "Point"}, "properties": {"address": "Stauffacherstrasse 127", "electric": 3, "id": "pb_95", "manual": 7, "name": "B\u00e4ckeranlage", "provider": "publibike", "timeStamp": "02/06/2020, 23:18:35", "zip": 8004}, "type": "Feature"}, {"geometry": {"coordinates": [8.531836, 47.378548], "type": "Point"}, "properties": {"address": "Lagerstrasse 44", "electric": 0, "id": "pb_96", "manual": 1, "name": "Gustav-Gull-Platz", "provider": "publibike", "timeStamp": "02/06/2020, 23:18:35", "zip": 8004}, "type": "Feature"}, {"geometry": {"coordinates": [8.5104883, 47.3771535], "type": "Point"}, "properties": {"address": "Zurlindenstrasse 291", "electric": 4, "id": "pb_97", "manual": 7, "name": "Zurlindenstrasse", "provider": "publibike", "timeStamp": "02/06/2020, 23:18:35", "zip": 8003}, "type": "Feature"}, {"geometry": {"coordinates": [8.5333139, 47.3731102], "type": "Point"}, "properties": {"address": "Sihlstrasse 81", "electric": 1, "id": "pb_98", "manual": 2, "name": "Sihlstrasse", "provider": "publibike", "timeStamp": "02/06/2020, 23:18:35", "zip": 8001}, "type": "Feature"}, {"geometry": {"coordinates": [8.520532, 47.374951], "type": "Point"}, "properties": {"address": "Feldstrasse 24", "electric": 1, "id": "pb_99", "manual": 7, "name": "Kalkbreite", "provider": "publibike", "timeStamp": "02/06/2020, 23:18:35", "zip": 8004}, "type": "Feature"}, {"geometry": {"coordinates": [8.539046, 47.368064], "type": "Point"}, "properties": {"address": "Talstrasse 12", "electric": 6, "id": "pb_100", "manual": 3, "name": "Z\u00fcrcher Kantonalbank", "provider": "publibike", "timeStamp": "02/06/2020, 23:18:35", "zip": 8001}, "type": "Feature"}, {"geometry": {"coordinates": [8.5348427, 47.3625938], "type": "Point"}, "properties": {"address": "Breitingerstrasse 5", "electric": 1, "id": "pb_101", "manual": 2, "name": "Rentenanstalt", "provider": "publibike", "timeStamp": "02/06/2020, 23:18:35", "zip": 8002}, "type": "Feature"}, {"geometry": {"coordinates": [8.5166922, 47.3897772], "type": "Point"}, "properties": {"address": "Technoparkstrasse 4", "electric": 0, "id": "pb_102", "manual": 1, "name": "Turbinenplatz", "provider": "publibike", "timeStamp": "02/06/2020, 23:18:35", "zip": 8005}, "type": "Feature"}, {"geometry": {"coordinates": [8.539312, 47.3739964], "type": "Point"}, "properties": {"address": "Oetenbachgasse 14", "electric": 4, "id": "pb_104", "manual": 2, "name": "Rennweg", "provider": "publibike", "timeStamp": "02/06/2020, 23:18:35", "zip": 8001}, "type": "Feature"}, {"geometry": {"coordinates": [8.5360685, 47.3775022], "type": "Point"}, "properties": {"address": "Kasernenstrasse 101", "electric": 24, "id": "pb_105", "manual": 27, "name": "Sihlpost", "provider": "publibike", "timeStamp": "02/06/2020, 23:18:35", "zip": 8004}, "type": "Feature"}, {"geometry": {"coordinates": [8.53545, 47.382798], "type": "Point"}, "properties": {"address": "Ausstellungsstrasse 44", "electric": 6, "id": "pb_106", "manual": 5, "name": "Museum f\u00fcr Gestaltung", "provider": "publibike", "timeStamp": "02/06/2020, 23:18:35", "zip": 8005}, "type": "Feature"}, {"geometry": {"coordinates": [8.5306155, 47.3647902], "type": "Point"}, "properties": {"address": "Gutenbergstrasse 1", "electric": 7, "id": "pb_107", "manual": 3, "name": "Bederbr\u00fccke", "provider": "publibike", "timeStamp": "02/06/2020, 23:18:35", "zip": 8002}, "type": "Feature"}, {"geometry": {"coordinates": [8.518982, 47.386741], "type": "Point"}, "properties": {"address": "Geroldstrasse 4", "electric": 1, "id": "pb_108", "manual": 12, "name": "Bahnhof Hardbr\u00fccke", "provider": "publibike", "timeStamp": "02/06/2020, 23:18:35", "zip": 8005}, "type": "Feature"}, {"geometry": {"coordinates": [8.53001018, 47.37247535], "type": "Point"}, "properties": {"address": "Werdstrasse 21", "electric": 0, "id": "pb_109", "manual": 2, "name": "Tamedia", "provider": "publibike", "timeStamp": "02/06/2020, 23:18:35", "zip": 8004}, "type": "Feature"}, {"geometry": {"coordinates": [8.4860017, 47.396401], "type": "Point"}, "properties": {"address": "Gr\u00fcnauring 37", "electric": 4, "id": "pb_110", "manual": 5, "name": "Gr\u00fcnau", "provider": "publibike", "timeStamp": "02/06/2020, 23:18:35", "zip": 8064}, "type": "Feature"}, {"geometry": {"coordinates": [8.548519, 47.376756], "type": "Point"}, "properties": {"address": "R\u00e4mistrasse 101", "electric": 1, "id": "pb_111", "manual": 0, "name": "ETH Zentrum", "provider": "publibike", "timeStamp": "02/06/2020, 23:18:35", "zip": 8006}, "type": "Feature"}, {"geometry": {"coordinates": [8.520449, 47.388151], "type": "Point"}, "properties": {"address": "Josefstrasse 224", "electric": 0, "id": "pb_112", "manual": 0, "name": "Steinfelsareal", "provider": "publibike", "timeStamp": "02/06/2020, 23:18:35", "zip": 8005}, "type": "Feature"}, {"geometry": {"coordinates": [8.520482, 47.37209], "type": "Point"}, "properties": {"address": "Weststrasse 115", "electric": 0, "id": "pb_124", "manual": 0, "name": "Weststrasse", "provider": "publibike", "timeStamp": "02/06/2020, 23:18:35", "zip": 8003}, "type": "Feature"}, {"geometry": {"coordinates": [8.496727, 47.378521], "type": "Point"}, "properties": {"address": "Albisriederstrasse 200", "electric": 1, "id": "pb_125", "manual": 2, "name": "Utogrund", "provider": "publibike", "timeStamp": "02/06/2020, 23:18:35", "zip": 8047}, "type": "Feature"}, {"geometry": {"coordinates": [8.510418, 47.381356], "type": "Point"}, "properties": {"address": "Bullingerstrasse 73", "electric": 3, "id": "pb_126", "manual": 9, "name": "Hardau", "provider": "publibike", "timeStamp": "02/06/2020, 23:18:35", "zip": 8004}, "type": "Feature"}, {"geometry": {"coordinates": [8.525525, 47.361567], "type": "Point"}, "properties": {"address": "Klopstockstrasse 23", "electric": 2, "id": "pb_127", "manual": 3, "name": "Klopstockwiese", "provider": "publibike", "timeStamp": "02/06/2020, 23:18:35", "zip": 8002}, "type": "Feature"}, {"geometry": {"coordinates": [8.518143, 47.363148], "type": "Point"}, "properties": {"address": "Haldenstrasse 8", "electric": 4, "id": "pb_128", "manual": 7, "name": "Binz", "provider": "publibike", "timeStamp": "02/06/2020, 23:18:35", "zip": 8045}, "type": "Feature"}, {"geometry": {"coordinates": [8.542726, 47.379952], "type": "Point"}, "properties": {"address": "Walchestrasse 11", "electric": 2, "id": "pb_129", "manual": 3, "name": "Stampfenbachplatz", "provider": "publibike", "timeStamp": "02/06/2020, 23:18:35", "zip": 8006}, "type": "Feature"}, {"geometry": {"coordinates": [8.488108, 47.391366], "type": "Point"}, "properties": {"address": "Altstetterplatz 1", "electric": 0, "id": "pb_130", "manual": 3, "name": "Bahnhof Altstetten", "provider": "publibike", "timeStamp": "02/06/2020, 23:18:35", "zip": 8048}, "type": "Feature"}, {"geometry": {"coordinates": [8.554114, 47.365119], "type": "Point"}, "properties": {"address": "Kreuzplatz 2", "electric": 8, "id": "pb_131", "manual": 5, "name": "Kreuzplatz", "provider": "publibike", "timeStamp": "02/06/2020, 23:18:35", "zip": 8032}, "type": "Feature"}, {"geometry": {"coordinates": [8.549852, 47.35594], "type": "Point"}, "properties": {"address": "H\u00f6schgasse 3", "electric": 6, "id": "pb_132", "manual": 9, "name": "Blatterwiese", "provider": "publibike", "timeStamp": "02/06/2020, 23:18:35", "zip": 8008}, "type": "Feature"}, {"geometry": {"coordinates": [8.554501, 47.36162], "type": "Point"}, "properties": {"address": "Feldeggstrasse 80", "electric": 2, "id": "pb_133", "manual": 5, "name": "Villa Bleuler", "provider": "publibike", "timeStamp": "02/06/2020, 23:18:35", "zip": 8008}, "type": "Feature"}, {"geometry": {"coordinates": [8.557088, 47.358557], "type": "Point"}, "properties": {"address": "M\u00fchlebachstrasse 131", "electric": 3, "id": "pb_134", "manual": 2, "name": "M\u00fchlebachstrasse", "provider": "publibike", "timeStamp": "02/06/2020, 23:18:35", "zip": 8008}, "type": "Feature"}, {"geometry": {"coordinates": [8.547639, 47.361266], "type": "Point"}, "properties": {"address": "Utoquai 50", "electric": 6, "id": "pb_135", "manual": 9, "name": "Seebad Utoquai", "provider": "publibike", "timeStamp": "02/06/2020, 23:18:35", "zip": 8008}, "type": "Feature"}, {"geometry": {"coordinates": [8.548045, 47.370869], "type": "Point"}, "properties": {"address": "Heimplatz 1", "electric": 10, "id": "pb_137", "manual": 3, "name": "Kunsthaus", "provider": "publibike", "timeStamp": "02/06/2020, 23:18:35", "zip": 8001}, "type": "Feature"}, {"geometry": {"coordinates": [8.543447, 47.375933], "type": "Point"}, "properties": {"address": "Limmatquai 138", "electric": 5, "id": "pb_138", "manual": 1, "name": "Central", "provider": "publibike", "timeStamp": "02/06/2020, 23:18:35", "zip": 8001}, "type": "Feature"}, {"geometry": {"coordinates": [8.549356, 47.408827], "type": "Point"}, "properties": {"address": "Tramstrasse 35", "electric": 5, "id": "pb_139", "manual": 3, "name": "ewz Tramstrasse", "provider": "publibike", "timeStamp": "02/06/2020, 23:18:35", "zip": 8050}, "type": "Feature"}, {"geometry": {"coordinates": [8.533736, 47.366904], "type": "Point"}, "properties": {"address": "Bleicherweg 33", "electric": 0, "id": "pb_140", "manual": 3, "name": "Bleicherweg", "provider": "publibike", "timeStamp": "02/06/2020, 23:18:35", "zip": 8002}, "type": "Feature"}, {"geometry": {"coordinates": [8.544935, 47.366752], "type": "Point"}, "properties": {"address": "Bellevueplatz 2", "electric": 38, "id": "pb_141", "manual": 21, "name": "Bellevue", "provider": "publibike", "timeStamp": "02/06/2020, 23:18:35", "zip": 8001}, "type": "Feature"}, {"geometry": {"coordinates": [8.5285533, 47.3742296], "type": "Point"}, "properties": {"address": "Stauffacherstrasse 41", "electric": 3, "id": "pb_142", "manual": 1, "name": "Stauffacher", "provider": "publibike", "timeStamp": "02/06/2020, 23:18:35", "zip": 8004}, "type": "Feature"}, {"geometry": {"coordinates": [8.523722, 47.3899], "type": "Point"}, "properties": {"address": "Limmatstrasse 310", "electric": 4, "id": "pb_143", "manual": 1, "name": "Escher-Wyss-Platz", "provider": "publibike", "timeStamp": "02/06/2020, 23:18:35", "zip": 8005}, "type": "Feature"}, {"geometry": {"coordinates": [8.491061, 47.392336], "type": "Point"}, "properties": {"address": "Vulkanplatz 1", "electric": 1, "id": "pb_149", "manual": 6, "name": "Vulkanplatz", "provider": "publibike", "timeStamp": "02/06/2020, 23:18:35", "zip": 8048}, "type": "Feature"}, {"geometry": {"coordinates": [8.52306, 47.359872], "type": "Point"}, "properties": {"address": "Giessh\u00fcbelstrasse 15", "electric": 8, "id": "pb_150", "manual": 6, "name": "Utoplatz", "provider": "publibike", "timeStamp": "02/06/2020, 23:18:35", "zip": 8045}, "type": "Feature"}, {"geometry": {"coordinates": [8.486284, 47.387685], "type": "Point"}, "properties": {"address": "Lindenplatz 1", "electric": 10, "id": "pb_151", "manual": 13, "name": "Lindenplatz", "provider": "publibike", "timeStamp": "02/06/2020, 23:18:35", "zip": 8048}, "type": "Feature"}, {"geometry": {"coordinates": [8.49163, 47.389823], "type": "Point"}, "properties": {"address": "Hohlstrasse 563", "electric": 2, "id": "pb_152", "manual": 5, "name": "Luggweg", "provider": "publibike", "timeStamp": "02/06/2020, 23:18:35", "zip": 8048}, "type": "Feature"}, {"geometry": {"coordinates": [8.52174, 47.365272], "type": "Point"}, "properties": {"address": "Manessestrasse 87", "electric": 4, "id": "pb_153", "manual": 1, "name": "Manesseplatz", "provider": "publibike", "timeStamp": "02/06/2020, 23:18:35", "zip": 8045}, "type": "Feature"}, {"geometry": {"coordinates": [8.52714, 47.372329], "type": "Point"}, "properties": {"address": "Werdstrasse 75", "electric": 1, "id": "pb_154", "manual": 1, "name": "Werd", "provider": "publibike", "timeStamp": "02/06/2020, 23:18:35", "zip": 8004}, "type": "Feature"}, {"geometry": {"coordinates": [8.543042, 47.374711], "type": "Point"}, "properties": {"address": "Limmatquai 100", "electric": 0, "id": "pb_155", "manual": 0, "name": "Rudolf-Brun-Br\u00fccke", "provider": "publibike", "timeStamp": "02/06/2020, 23:18:35", "zip": 8001}, "type": "Feature"}, {"geometry": {"coordinates": [8.490837, 47.386596], "type": "Point"}, "properties": {"address": "Badenerstrasse 627", "electric": 6, "id": "pb_156", "manual": 8, "name": "Luggwegstrasse VBZ", "provider": "publibike", "timeStamp": "02/06/2020, 23:18:35", "zip": 8048}, "type": "Feature"}, {"geometry": {"coordinates": [8.535119, 47.355189], "type": "Point"}, "properties": {"address": "Mythenquai 95", "electric": 0, "id": "pb_157", "manual": 5, "name": "Strandbad Mythenquai", "provider": "publibike", "timeStamp": "02/06/2020, 23:18:35", "zip": 8002}, "type": "Feature"}, {"geometry": {"coordinates": [8.545505, 47.373675], "type": "Point"}, "properties": {"address": "Predigerpatz 21", "electric": 1, "id": "pb_158", "manual": 4, "name": "Predigerplatz", "provider": "publibike", "timeStamp": "02/06/2020, 23:18:35", "zip": 8001}, "type": "Feature"}, {"geometry": {"coordinates": [8.515558, 47.371868], "type": "Point"}, "properties": {"address": "Aemtlerstrasse 23", "electric": 5, "id": "pb_159", "manual": 4, "name": "Zwinglihaus", "provider": "publibike", "timeStamp": "02/06/2020, 23:18:35", "zip": 8003}, "type": "Feature"}, {"geometry": {"coordinates": [8.524629, 47.386072], "type": "Point"}, "properties": {"address": "Josefstrasse 188", "electric": 2, "id": "pb_160", "manual": 3, "name": "Josefwiese", "provider": "publibike", "timeStamp": "02/06/2020, 23:18:35", "zip": 8005}, "type": "Feature"}, {"geometry": {"coordinates": [8.527138, 47.387531], "type": "Point"}, "properties": {"address": "R\u00f6ntgenstrasse 87", "electric": 1, "id": "pb_164", "manual": 18, "name": "Markthalle", "provider": "publibike", "timeStamp": "02/06/2020, 23:18:35", "zip": 8005}, "type": "Feature"}, {"geometry": {"coordinates": [8.552717, 47.359978], "type": "Point"}, "properties": {"address": "Seefeldstrasse 96", "electric": 0, "id": "pb_263", "manual": 8, "name": "Feldeggstrasse", "provider": "publibike", "timeStamp": "02/06/2020, 23:18:35", "zip": 8008}, "type": "Feature"}, {"geometry": {"coordinates": [8.553189, 47.353198], "type": "Point"}, "properties": {"address": "Bellerivestrasse 170", "electric": 7, "id": "pb_264", "manual": 1, "name": "Lake Side", "provider": "publibike", "timeStamp": "02/06/2020, 23:18:35", "zip": 8008}, "type": "Feature"}, {"geometry": {"coordinates": [8.543437, 47.369256], "type": "Point"}, "properties": {"address": "Limmatquai 18", "electric": 0, "id": "pb_265", "manual": 0, "name": "Helmhaus", "provider": "publibike", "timeStamp": "02/06/2020, 23:18:35", "zip": 8032}, "type": "Feature"}, {"geometry": {"coordinates": [8.516676, 47.375819], "type": "Point"}, "properties": {"address": "Badenerstrasse 246", "electric": 7, "id": "pb_266", "manual": 0, "name": "Lochergut", "provider": "publibike", "timeStamp": "02/06/2020, 23:18:35", "zip": 8004}, "type": "Feature"}, {"geometry": {"coordinates": [8.514605, 47.389862], "type": "Point"}, "properties": {"address": "Pfingstweidstrasse 60", "electric": 0, "id": "pb_273", "manual": 3, "name": "Westpark", "provider": "publibike", "timeStamp": "02/06/2020, 23:18:35", "zip": 8005}, "type": "Feature"}, {"geometry": {"coordinates": [8.541239126, 47.375991201], "type": "Point"}, "properties": {"address": "Beatenplatz 1", "electric": 1, "id": "pb_274", "manual": 10, "name": "Beatenplatz", "provider": "publibike", "timeStamp": "02/06/2020, 23:18:35", "zip": 8001}, "type": "Feature"}, {"geometry": {"coordinates": [8.5417135, 47.3942197], "type": "Point"}, "properties": {"address": "Scheuchzerstrasse 181", "electric": 4, "id": "pb_275", "manual": 0, "name": "Pauluskirche", "provider": "publibike", "timeStamp": "02/06/2020, 23:18:35", "zip": 8057}, "type": "Feature"}, {"geometry": {"coordinates": [8.5528182, 47.414558], "type": "Point"}, "properties": {"address": "Hagenholzstrasse 51", "electric": 2, "id": "pb_276", "manual": 7, "name": "Airgate", "provider": "publibike", "timeStamp": "02/06/2020, 23:18:35", "zip": 8050}, "type": "Feature"}, {"geometry": {"coordinates": [8.537816, 47.413514], "type": "Point"}, "properties": {"address": "Birchstrasse 183", "electric": 4, "id": "pb_277", "manual": 2, "name": "Lamprechtweg", "provider": "publibike", "timeStamp": "02/06/2020, 23:18:35", "zip": 8050}, "type": "Feature"}, {"geometry": {"coordinates": [8.545602, 47.417701], "type": "Point"}, "properties": {"address": "Felsenrainstrasse 2", "electric": 6, "id": "pb_278", "manual": 4, "name": "Emil-Oberh\u00e4nsli", "provider": "publibike", "timeStamp": "02/06/2020, 23:18:35", "zip": 8050}, "type": "Feature"}, {"geometry": {"coordinates": [8.533647, 47.39808], "type": "Point"}, "properties": {"address": "Bucheggplatz 2", "electric": 2, "id": "pb_279", "manual": 5, "name": "Bucheggplatz", "provider": "publibike", "timeStamp": "02/06/2020, 23:18:35", "zip": 8057}, "type": "Feature"}, {"geometry": {"coordinates": [8.523549, 47.392347], "type": "Point"}, "properties": {"address": "Wipkingerplatz 4", "electric": 3, "id": "pb_280", "manual": 10, "name": "Wipkingerplatz", "provider": "publibike", "timeStamp": "02/06/2020, 23:18:35", "zip": 8037}, "type": "Feature"}, {"geometry": {"coordinates": [8.548562, 47.36691], "type": "Point"}, "properties": {"address": "Galerie \u00fcber Gleis 2/3", "electric": 12, "id": "pb_285", "manual": 5, "name": "Bahnhof Stadelhofen", "provider": "publibike", "timeStamp": "02/06/2020, 23:18:35", "zip": 8001}, "type": "Feature"}, {"geometry": {"coordinates": [8.493822, 47.3985553], "type": "Point"}, "properties": {"address": "Meierwiesenstrasse 12-4", "electric": 4, "id": "pb_286", "manual": 2, "name": "T\u00fcffenwies", "provider": "publibike", "timeStamp": "02/06/2020, 23:18:35", "zip": 8064}, "type": "Feature"}, {"geometry": {"coordinates": [8.552432, 47.3801757], "type": "Point"}, "properties": {"address": "Hochstrasse 34", "electric": 3, "id": "pb_356", "manual": 0, "name": "Siriuswiese", "provider": "publibike", "timeStamp": "02/06/2020, 23:18:35", "zip": 8044}, "type": "Feature"}, {"geometry": {"coordinates": [8.527298, 47.370141], "type": "Point"}, "properties": {"address": "Hallwylstrasse 71", "electric": 2, "id": "pb_357", "manual": 1, "name": "Hallwylstrasse", "provider": "publibike", "timeStamp": "02/06/2020, 23:18:35", "zip": 8004}, "type": "Feature"}, {"geometry": {"coordinates": [8.5414185, 47.3972455], "type": "Point"}, "properties": {"address": "Schaffhauserstrasse 137", "electric": 2, "id": "pb_358", "manual": 0, "name": "Milchbuck", "provider": "publibike", "timeStamp": "02/06/2020, 23:18:35", "zip": 8057}, "type": "Feature"}, {"geometry": {"coordinates": [8.512381, 47.393409], "type": "Point"}, "properties": {"address": "Hardturmstrasse 161", "electric": 4, "id": "pb_359", "manual": 1, "name": "Fischerweg", "provider": "publibike", "timeStamp": "02/06/2020, 23:18:35", "zip": 8005}, "type": "Feature"}, {"geometry": {"coordinates": [8.5421457, 47.3876979], "type": "Point"}, "properties": {"address": "Turnerstrasse 47", "electric": 2, "id": "pb_360", "manual": 4, "name": "Kirche Unterstrass", "provider": "publibike", "timeStamp": "02/06/2020, 23:18:35", "zip": 8006}, "type": "Feature"}, {"geometry": {"coordinates": [8.522117, 47.394554], "type": "Point"}, "properties": {"address": "Dorfstrasse 40", "electric": 12, "id": "pb_361", "manual": 1, "name": "Dorfstrasse", "provider": "publibike", "timeStamp": "02/06/2020, 23:18:35", "zip": 8037}, "type": "Feature"}, {"geometry": {"coordinates": [8.530437, 47.37271], "type": "Point"}, "properties": {"address": "Werdstrasse 25", "electric": 0, "id": "pb_362", "manual": 4, "name": "Stauffachertor", "provider": "publibike", "timeStamp": "02/06/2020, 23:18:35", "zip": 8004}, "type": "Feature"}, {"geometry": {"coordinates": [8.541712, 47.416155], "type": "Point"}, "properties": {"address": "Eggb\u00fchlstrasse 21", "electric": 7, "id": "pb_363", "manual": 1, "name": "Wahlenpark", "provider": "publibike", "timeStamp": "02/06/2020, 23:18:35", "zip": 8050}, "type": "Feature"}, {"geometry": {"coordinates": [8.5595335, 47.3708387], "type": "Point"}, "properties": {"address": "Dolderstrasse 32", "electric": 4, "id": "pb_364", "manual": 0, "name": "Kinderspital", "provider": "publibike", "timeStamp": "02/06/2020, 23:18:35", "zip": 8032}, "type": "Feature"}, {"geometry": {"coordinates": [8.536433, 47.388689], "type": "Point"}, "properties": {"address": "Kornhausstrasse 30", "electric": 1, "id": "pb_365", "manual": 3, "name": "Kornhausstrasse", "provider": "publibike", "timeStamp": "02/06/2020, 23:18:35", "zip": 8006}, "type": "Feature"}, {"geometry": {"coordinates": [8.55033, 47.407098], "type": "Point"}, "properties": {"address": "Schwamendingenstrasse 41", "electric": 6, "id": "pb_366", "manual": 9, "name": "Dorflinde", "provider": "publibike", "timeStamp": "02/06/2020, 23:18:35", "zip": 8050}, "type": "Feature"}, {"geometry": {"coordinates": [8.560476, 47.368199], "type": "Point"}, "properties": {"address": "R\u00f6merhofplatz 5", "electric": 8, "id": "pb_367", "manual": 1, "name": "R\u00f6merhof", "provider": "publibike", "timeStamp": "02/06/2020, 23:18:35", "zip": 8032}, "type": "Feature"}, {"geometry": {"coordinates": [8.5609218, 47.3619068], "type": "Point"}, "properties": {"address": "Forchstrasse 99", "electric": 17, "id": "pb_368", "manual": 1, "name": "Hegibachplatz", "provider": "publibike", "timeStamp": "02/06/2020, 23:18:35", "zip": 8032}, "type": "Feature"}, {"geometry": {"coordinates": [8.5721264, 47.4039985], "type": "Point"}, "properties": {"address": "Winterthurerstrasse 519", "electric": 9, "id": "pb_370", "manual": 3, "name": "Schwamendingerplatz", "provider": "publibike", "timeStamp": "02/06/2020, 23:18:35", "zip": 8051}, "type": "Feature"}, {"geometry": {"coordinates": [8.520168, 47.378556], "type": "Point"}, "properties": {"address": "Herman-Greulich-Strasse 56", "electric": 9, "id": "pb_384", "manual": 8, "name": "Hermann-Greulich-Weg", "provider": "publibike", "timeStamp": "02/06/2020, 23:18:35", "zip": 8004}, "type": "Feature"}, {"geometry": {"coordinates": [8.547912, 47.384923], "type": "Point"}, "properties": {"address": "Culmannstrasse", "electric": 1, "id": "pb_386", "manual": 2, "name": "Rigiplatz", "provider": "publibike", "timeStamp": "02/06/2020, 23:18:35", "zip": 8006}, "type": "Feature"}, {"geometry": {"coordinates": [8.543768, 47.411057], "type": "Point"}, "properties": {"address": "Hofwiesenstrasse 369", "electric": 1, "id": "pb_387", "manual": 0, "name": "Bahnhof Oerlikon S\u00fcd", "provider": "publibike", "timeStamp": "02/06/2020, 23:18:35", "zip": 8050}, "type": "Feature"}, {"geometry": {"coordinates": [8.544185, 47.412732], "type": "Point"}, "properties": {"address": "Jungholzstrasse 6", "electric": 1, "id": "pb_388", "manual": 0, "name": "Max-Frisch-Platz", "provider": "publibike", "timeStamp": "02/06/2020, 23:18:35", "zip": 8050}, "type": "Feature"}, {"geometry": {"coordinates": [8.558096, 47.413032], "type": "Point"}, "properties": {"address": "Andreasstrasse", "electric": 6, "id": "pb_389", "manual": 11, "name": "Hunziker-Areal", "provider": "publibike", "timeStamp": "02/06/2020, 23:18:35", "zip": 8050}, "type": "Feature"}, {"geometry": {"coordinates": [8.533265, 47.412873], "type": "Point"}, "properties": {"address": "Regina-K\u00e4gi-Strasse 1", "electric": 6, "id": "pb_390", "manual": 4, "name": "Luis-H\u00e4fliger-Park", "provider": "publibike", "timeStamp": "02/06/2020, 23:18:35", "zip": 8050}, "type": "Feature"}, {"geometry": {"coordinates": [8.499265, 47.401852], "type": "Point"}, "properties": {"address": "Limmattalstrasse 177", "electric": 4, "id": "pb_391", "manual": 0, "name": "Meierhofplatz", "provider": "publibike", "timeStamp": "02/06/2020, 23:18:35", "zip": 8049}, "type": "Feature"}, {"geometry": {"coordinates": [8.528356, 47.393255], "type": "Point"}, "properties": {"address": "R\u00f6schibachstrasse 73", "electric": 13, "id": "pb_392", "manual": 9, "name": "R\u00f6schibachplatz", "provider": "publibike", "timeStamp": "02/06/2020, 23:18:35", "zip": 8037}, "type": "Feature"}, {"geometry": {"coordinates": [8.538067, 47.415721], "type": "Point"}, "properties": {"address": "Birchstrasse 191", "electric": 6, "id": "pb_393", "manual": 1, "name": "Oerliker Park", "provider": "publibike", "timeStamp": "02/06/2020, 23:18:35", "zip": 8050}, "type": "Feature"}, {"geometry": {"coordinates": [8.5420304, 47.3669233], "type": "Point"}, "properties": {"address": "Stadthausquai 1", "electric": 3, "id": "pb_395", "manual": 8, "name": "B\u00fcrkliplatz", "provider": "publibike", "timeStamp": "02/06/2020, 23:18:35", "zip": 8001}, "type": "Feature"}, {"geometry": {"coordinates": [8.535767, 47.409881], "type": "Point"}, "properties": {"address": "Regensbergstrasse 195", "electric": 3, "id": "pb_396", "manual": 3, "name": "Holunderhof", "provider": "publibike", "timeStamp": "02/06/2020, 23:18:35", "zip": 8050}, "type": "Feature"}, {"geometry": {"coordinates": [8.5116245, 47.3616199], "type": "Point"}, "properties": {"address": "Grubenstrasse 42", "electric": 0, "id": "pb_431", "manual": 0, "name": "Binz Center", "provider": "publibike", "timeStamp": "02/06/2020, 23:18:35", "zip": 8045}, "type": "Feature"}, {"geometry": {"coordinates": [8.547195, 47.382089], "type": "Point"}, "properties": {"address": "Nelkenstrasse 24", "electric": 2, "id": "pb_430", "manual": 0, "name": "Stapferstube", "provider": "publibike", "timeStamp": "02/06/2020, 23:18:35", "zip": 8006}, "type": "Feature"}, {"geometry": {"coordinates": [8.5787183, 47.4039845], "type": "Point"}, "properties": {"address": "Kronwiesenstrasse 35", "electric": 1, "id": "pb_426", "manual": 4, "name": "Kronwiesen", "provider": "publibike", "timeStamp": "02/06/2020, 23:18:35", "zip": 8051}, "type": "Feature"}, {"geometry": {"coordinates": [8.508131, 47.420757], "type": "Point"}, "properties": {"address": "Riedenhaldenstrasse 20-18", "electric": 14, "id": "pb_425", "manual": 2, "name": "Bahnhof Affoltern", "provider": "publibike", "timeStamp": "02/06/2020, 23:18:35", "zip": 8046}, "type": "Feature"}, {"geometry": {"coordinates": [8.532464, 47.406988], "type": "Point"}, "properties": {"address": "K\u00fcnzlistrasse 41", "electric": 3, "id": "pb_424", "manual": 1, "name": "Birchd\u00f6rfli", "provider": "publibike", "timeStamp": "02/06/2020, 23:18:35", "zip": 8057}, "type": "Feature"}, {"geometry": {"coordinates": [8.5777038, 47.4080095], "type": "Point"}, "properties": {"address": "Luegislandstrasse 412", "electric": 9, "id": "pb_429", "manual": 4, "name": "Luegisland", "provider": "publibike", "timeStamp": "02/06/2020, 23:18:35", "zip": 8051}, "type": "Feature"}, {"geometry": {"coordinates": [8.58841, 47.40158], "type": "Point"}, "properties": {"address": "Hirzenbachstrasse 2-4", "electric": 6, "id": "pb_428", "manual": 2, "name": "Hirzenbachstrasse", "provider": "publibike", "timeStamp": "02/06/2020, 23:18:35", "zip": 8051}, "type": "Feature"}, {"geometry": {"coordinates": [8.5563463, 47.4095467], "type": "Point"}, "properties": {"address": "K\u00fchriedweg", "electric": 4, "id": "pb_445", "manual": 4, "name": "Hallenbad Oerlikon", "provider": "publibike", "timeStamp": "02/06/2020, 23:18:35", "zip": 8050}, "type": "Feature"}, {"geometry": {"coordinates": [8.537971, 47.364871], "type": "Point"}, "properties": {"address": "General-Guisan-Quai 17", "electric": 3, "id": "pb_454", "manual": 2, "name": "General-Guisan-Quai", "provider": "publibike", "timeStamp": "02/06/2020, 23:18:35", "zip": 8002}, "type": "Feature"}, {"geometry": {"coordinates": [8.560587, 47.350578], "type": "Point"}, "properties": {"address": "Bellerivestrasse 245", "electric": 9, "id": "pb_450", "manual": 5, "name": "Bahnhof Tiefenbrunnen", "provider": "publibike", "timeStamp": "02/06/2020, 23:18:35", "zip": 8008}, "type": "Feature"}, {"geometry": {"coordinates": [8.5269416, 47.3563719], "type": "Point"}, "properties": {"address": "Waffenplatzstrasse 89", "electric": 8, "id": "pb_452", "manual": 7, "name": "Rieterplatz", "provider": "publibike", "timeStamp": "02/06/2020, 23:18:35", "zip": 8002}, "type": "Feature"}, {"geometry": {"coordinates": [8.514176, 47.3663708], "type": "Point"}, "properties": {"address": "Talwiesenstrasse 92", "electric": 7, "id": "pb_446", "manual": 4, "name": "Binzallee", "provider": "publibike", "timeStamp": "02/06/2020, 23:18:35", "zip": 8055}, "type": "Feature"}, {"geometry": {"coordinates": [8.5070564, 47.371455], "type": "Point"}, "properties": {"address": "Gutstrasse 87", "electric": 6, "id": "pb_447", "manual": 2, "name": "Gutstrasse", "provider": "publibike", "timeStamp": "02/06/2020, 23:18:35", "zip": 8055}, "type": "Feature"}, {"geometry": {"coordinates": [8.4941268, 47.3836391], "type": "Point"}, "properties": {"address": "Flurstrasse 62", "electric": 2, "id": "pb_453", "manual": 3, "name": "Flurpark", "provider": "publibike", "timeStamp": "02/06/2020, 23:18:35", "zip": 8048}, "type": "Feature"}, {"geometry": {"coordinates": [8.500343, 47.380778], "type": "Point"}, "properties": {"address": "Edelweissstrasse 32", "electric": 7, "id": "pb_448", "manual": 2, "name": "Bl\u00fcemliquartier", "provider": "publibike", "timeStamp": "02/06/2020, 23:18:35", "zip": 8048}, "type": "Feature"}, {"geometry": {"coordinates": [8.528796, 47.383858], "type": "Point"}, "properties": {"address": "Gasometerstrasse 24", "electric": 5, "id": "pb_449", "manual": 7, "name": "Gasometerstrasse", "provider": "publibike", "timeStamp": "02/06/2020, 23:18:35", "zip": 8005}, "type": "Feature"}, {"geometry": {"coordinates": [8.4981964, 47.3859194], "type": "Point"}, "properties": {"address": "Baslerstrasse 57", "electric": 8, "id": "pb_455", "manual": 6, "name": "Letzipark", "provider": "publibike", "timeStamp": "02/06/2020, 23:18:35", "zip": 8048}, "type": "Feature"}, {"geometry": {"coordinates": [8.515252, 47.381915], "type": "Point"}, "properties": {"address": "Sihlfeldstrasse 175", "electric": 4, "id": "pb_451", "manual": 3, "name": "Hardplatz", "provider": "publibike", "timeStamp": "02/06/2020, 23:18:35", "zip": 8004}, "type": "Feature"}, {"geometry": {"coordinates": [8.5064743, 47.4188324], "type": "Point"}, "properties": {"address": "Wehntalerstrasse 541", "electric": 7, "id": "pb_427", "manual": 5, "name": "Zehntenhausplatz", "provider": "publibike", "timeStamp": "02/06/2020, 23:18:35", "zip": 8046}, "type": "Feature"}, {"geometry": {"coordinates": [8.537729, 47.379719], "type": "Point"}, "properties": {"address": "Sihlquai/HB", "electric": 6, "id": "pb_513", "manual": 7, "name": "Sihlquai", "provider": "publibike", "timeStamp": "02/06/2020, 23:18:35", "zip": 8005}, "type": "Feature"}, {"geometry": {"coordinates": [8.596202, 47.397885], "type": "Point"}, "properties": {"address": "Bahnhof Stettbach", "electric": 2, "id": "pb_514", "manual": 0, "name": "Bahnhof Stettbach", "provider": "publibike", "timeStamp": "02/06/2020, 23:18:35", "zip": 8051}, "type": "Feature"}, {"geometry": {"coordinates": [8.5543974, 47.3690153], "type": "Point"}, "properties": {"address": "Kasinostrasse 10", "electric": 13, "id": "pb_515", "manual": 3, "name": "Hottingerplatz", "provider": "publibike", "timeStamp": "02/06/2020, 23:18:35", "zip": 8032}, "type": "Feature"}, {"geometry": {"coordinates": [8.534444, 47.351525], "type": "Point"}, "properties": {"address": "Mobile Station Z\u00fcrich 1", "electric": 0, "id": "pb_282", "manual": 0, "name": "Theaterspektakel", "provider": "publibike", "timeStamp": "02/06/2020, 23:18:35", "zip": 8002}, "type": "Feature"}, {"geometry": {"coordinates": [8.516257, 47.367656], "type": "Point"}, "properties": {"address": "Goldbrunnenstrasse 54", "electric": 2, "id": "pb_538", "manual": 0, "name": "Kirche B\u00fchl", "provider": "publibike", "timeStamp": "02/06/2020, 23:18:35", "zip": 8055}, "type": "Feature"}, {"geometry": {"coordinates": [8.555639, 47.416873], "type": "Point"}, "properties": {"address": "Leutschenbachstrasse 50", "electric": 1, "id": "pb_537", "manual": 4, "name": "Leutschenpark", "provider": "publibike", "timeStamp": "02/06/2020, 23:18:35", "zip": 8050}, "type": "Feature"}, {"geometry": {"coordinates": [8.546464, 47.403822], "type": "Point"}, "properties": {"address": "Berninastrasse 45", "electric": 6, "id": "pb_540", "manual": 1, "name": "Berninaplatz", "provider": "publibike", "timeStamp": "02/06/2020, 23:18:35", "zip": 8057}, "type": "Feature"}, {"geometry": {"coordinates": [8.523134, 47.369004], "type": "Point"}, "properties": {"address": "Erlachstrasse 3", "electric": 0, "id": "pb_385", "manual": 3, "name": "Aegerten", "provider": "publibike", "timeStamp": "02/06/2020, 23:18:35", "zip": 8003}, "type": "Feature"}, {"geometry": {"coordinates": [8.49038, 47.381591], "type": "Point"}, "properties": {"address": "Rautistrasse 60", "electric": 7, "id": "pb_536", "manual": 7, "name": "Freilager", "provider": "publibike", "timeStamp": "02/06/2020, 23:18:35", "zip": 8048}, "type": "Feature"}, {"geometry": {"coordinates": [8.496511, 47.375247], "type": "Point"}, "properties": {"address": "Letzigraben 139", "electric": 5, "id": "pb_444", "manual": 0, "name": "Sackzelg", "provider": "publibike", "timeStamp": "02/06/2020, 23:18:35", "zip": 8047}, "type": "Feature"}, {"geometry": {"coordinates": [8.58131, 47.402801], "type": "Point"}, "properties": {"address": "Altwiesenstrasse 104", "electric": 0, "id": "pb_539", "manual": 4, "name": "Glattwiesen", "provider": "publibike", "timeStamp": "02/06/2020, 23:18:35", "zip": 8051}, "type": "Feature"}, {"geometry": {"coordinates": [8.52689, 47.3767], "type": "Point"}, "properties": {"address": "Molkenstrasse 5", "electric": 1, "id": "pb_560", "manual": 14, "name": "Helvetiaplatz", "provider": "publibike", "timeStamp": "02/06/2020, 23:18:35", "zip": 8004}, "type": "Feature"}, {"geometry": {"coordinates": [8.525602, 47.374241], "type": "Point"}, "properties": {"address": "Badenerstrasse 90", "electric": 0, "id": "pb_559", "manual": 3, "name": "Bezirksgeb\u00e4ude", "provider": "publibike", "timeStamp": "02/06/2020, 23:18:35", "zip": 8004}, "type": "Feature"}, {"geometry": {"coordinates": [8.535082, 47.345248], "type": "Point"}, "properties": {"address": "Bachstrasse 15", "electric": 8, "id": "pb_564", "manual": 2, "name": "GZ Wollishofen", "provider": "publibike", "timeStamp": "02/06/2020, 23:18:35", "zip": 8038}, "type": "Feature"}, {"geometry": {"coordinates": [8.514841, 47.370238], "type": "Point"}, "properties": {"address": "Schrennengasse 37", "electric": 3, "id": "pb_562", "manual": 1, "name": "Goldbrunnenplatz", "provider": "publibike", "timeStamp": "02/06/2020, 23:18:35", "zip": 8003}, "type": "Feature"}, {"geometry": {"coordinates": [8.514138, 47.374206], "type": "Point"}, "properties": {"address": "Idaplatz 4", "electric": 2, "id": "pb_557", "manual": 3, "name": "Idaplatz", "provider": "publibike", "timeStamp": "02/06/2020, 23:18:35", "zip": 8003}, "type": "Feature"}, {"geometry": {"coordinates": [8.518432, 47.369549], "type": "Point"}, "properties": {"address": "Brinerstrasse 2", "electric": 7, "id": "pb_558", "manual": 15, "name": "Schmiede Wiedikon", "provider": "publibike", "timeStamp": "02/06/2020, 23:18:35", "zip": 8003}, "type": "Feature"}, {"geometry": {"coordinates": [8.537546, 47.391289], "type": "Point"}, "properties": {"address": "Rotbuchstrasse 15", "electric": 1, "id": "pb_556", "manual": 0, "name": "Schaffhauserplatz", "provider": "publibike", "timeStamp": "02/06/2020, 23:18:35", "zip": 8006}, "type": "Feature"}, {"geometry": {"coordinates": [8.541541, 47.413733], "type": "Point"}, "properties": {"address": "Therese-Giehse-Strasse 11", "electric": 6, "id": "pb_561", "manual": 0, "name": "Center Eleven", "provider": "publibike", "timeStamp": "02/06/2020, 23:18:35", "zip": 8050}, "type": "Feature"}, {"geometry": {"coordinates": [8.534227, 47.360004], "type": "Point"}, "properties": {"address": "Alfred Escher-Strasse 76", "electric": 0, "id": "pb_563", "manual": 0, "name": "Mythenschloss", "provider": "publibike", "timeStamp": "02/06/2020, 23:18:35", "zip": 8002}, "type": "Feature"}, {"geometry": {"coordinates": [8.50373, 47.396172], "type": "Point"}, "properties": {"address": "Hardeggstrasse 6", "electric": 4, "id": "pb_566", "manual": 4, "name": "Am Wasser", "provider": "publibike", "timeStamp": "02/06/2020, 23:18:35", "zip": 8049}, "type": "Feature"}, {"geometry": {"coordinates": [8.532432, 47.381174], "type": "Point"}, "properties": {"address": "Klingenstrasse 9", "electric": 2, "id": "pb_565", "manual": 6, "name": "Zollstrasse", "provider": "publibike", "timeStamp": "02/06/2020, 23:18:35", "zip": 8005}, "type": "Feature"}, {"geometry": {"coordinates": [8.497982, 47.381447], "type": "Point"}, "properties": {"address": "Dennlerstrasse 23", "electric": 14, "id": "pb_567", "manual": 7, "name": "Dennlerstrasse", "provider": "publibike", "timeStamp": "02/06/2020, 23:18:35", "zip": 8047}, "type": "Feature"}, {"geometry": {"coordinates": [8.528049, 47.347701], "type": "Point"}, "properties": {"address": "Mutschellenstrasse 114", "electric": 7, "id": "pb_568", "manual": 6, "name": "Jugendherberge", "provider": "publibike", "timeStamp": "02/06/2020, 23:18:35", "zip": 8038}, "type": "Feature"}, {"geometry": {"coordinates": [8.539016, 47.405751], "type": "Point"}, "properties": {"address": "Ringstrasse 82", "electric": 2, "id": "pb_569", "manual": 3, "name": "Freibad Allenmoos", "provider": "publibike", "timeStamp": "02/06/2020, 23:18:35", "zip": 8057}, "type": "Feature"}, {"geometry": {"coordinates": [8.534974, 47.402164], "type": "Point"}, "properties": {"address": "Brache Guggach", "electric": 3, "id": "pb_572", "manual": 5, "name": "Radiostudio", "provider": "publibike", "timeStamp": "02/06/2020, 23:18:35", "zip": 8057}, "type": "Feature"}, {"geometry": {"coordinates": [8.547901, 47.375556], "type": "Point"}, "properties": {"address": "Karl-Schmid-Strasse 4", "electric": 0, "id": "pb_571", "manual": 0, "name": "ETH/Zoologisches Museum", "provider": "publibike", "timeStamp": "02/06/2020, 23:18:35", "zip": 8006}, "type": "Feature"}, {"geometry": {"coordinates": [8.562401, 47.38312], "type": "Point"}, "properties": {"charge": 29, "id": "smide_2901", "name": "ZH 267278", "provider": "smide", "range": 14.0, "size": 20, "time": "02/06/2020, 23:18:11"}, "type": "Feature"}, {"geometry": {"coordinates": [8.491075, 47.376356], "type": "Point"}, "properties": {"charge": 61, "id": "smide_2895", "name": "ZH 267279", "provider": "smide", "range": 30.0, "size": 20, "time": "02/06/2020, 23:18:11"}, "type": "Feature"}, {"geometry": {"coordinates": [8.554111, 47.401951], "type": "Point"}, "properties": {"charge": 34, "id": "smide_2880", "name": "ZH267289", "provider": "smide", "range": 17.0, "size": 17, "time": "02/06/2020, 23:18:11"}, "type": "Feature"}, {"geometry": {"coordinates": [8.533521, 47.392173], "type": "Point"}, "properties": {"charge": 71, "id": "smide_2874", "name": "ZH 267288", "provider": "smide", "range": 35.0, "size": 17, "time": "02/06/2020, 23:18:11"}, "type": "Feature"}, {"geometry": {"coordinates": [8.53421, 47.377096], "type": "Point"}, "properties": {"charge": 67, "id": "smide_2871", "name": "ZH 267086", "provider": "smide", "range": 33.0, "size": 20, "time": "02/06/2020, 23:18:11"}, "type": "Feature"}, {"geometry": {"coordinates": [8.514183, 47.428895], "type": "Point"}, "properties": {"charge": 55, "id": "smide_2867", "name": "ZH 267090", "provider": "smide", "range": 27.0, "size": 20, "time": "02/06/2020, 23:18:11"}, "type": "Feature"}, {"geometry": {"coordinates": [8.54744, 47.382113], "type": "Point"}, "properties": {"charge": 100, "id": "smide_2861", "name": "ZH 267096", "provider": "smide", "range": 50.0, "size": 17, "time": "02/06/2020, 23:18:11"}, "type": "Feature"}, {"geometry": {"coordinates": [8.533735, 47.376113], "type": "Point"}, "properties": {"charge": 16, "id": "smide_2859", "name": "ZH 267098", "provider": "smide", "range": 8.0, "size": 17, "time": "02/06/2020, 23:18:11"}, "type": "Feature"}, {"geometry": {"coordinates": [8.524395, 47.397896], "type": "Point"}, "properties": {"charge": 85, "id": "smide_2855", "name": "ZH 267102", "provider": "smide", "range": 42.0, "size": 17, "time": "02/06/2020, 23:18:11"}, "type": "Feature"}, {"geometry": {"coordinates": [8.537185, 47.379743], "type": "Point"}, "properties": {"charge": 85, "id": "smide_2854", "name": "ZH 267103", "provider": "smide", "range": 42.0, "size": 17, "time": "02/06/2020, 23:18:11"}, "type": "Feature"}, {"geometry": {"coordinates": [8.529248, 47.352051], "type": "Point"}, "properties": {"charge": 62, "id": "smide_2833", "name": "ZH 267182", "provider": "smide", "range": 31.0, "size": 20, "time": "02/06/2020, 23:18:11"}, "type": "Feature"}, {"geometry": {"coordinates": [8.502033, 47.370283], "type": "Point"}, "properties": {"charge": 64, "id": "smide_2831", "name": "ZH 267180", "provider": "smide", "range": 32.0, "size": 20, "time": "02/06/2020, 23:18:11"}, "type": "Feature"}, {"geometry": {"coordinates": [8.564006, 47.416008], "type": "Point"}, "properties": {"charge": 97, "id": "smide_2804", "name": "ZH266903", "provider": "smide", "range": 48.0, "size": 20, "time": "02/06/2020, 23:18:11"}, "type": "Feature"}, {"geometry": {"coordinates": [8.519765, 47.33991], "type": "Point"}, "properties": {"charge": 64, "id": "smide_2793", "name": "ZH266883", "provider": "smide", "range": 32.0, "size": 17, "time": "02/06/2020, 23:18:11"}, "type": "Feature"}, {"geometry": {"coordinates": [8.532381, 47.397281], "type": "Point"}, "properties": {"charge": 59, "id": "smide_2790", "name": "ZH266880", "provider": "smide", "range": 29.0, "size": 17, "time": "02/06/2020, 23:18:11"}, "type": "Feature"}, {"geometry": {"coordinates": [8.54427, 47.38204], "type": "Point"}, "properties": {"charge": 64, "id": "smide_2785", "name": "ZH266875", "provider": "smide", "range": 32.0, "size": 17, "time": "02/06/2020, 23:18:11"}, "type": "Feature"}, {"geometry": {"coordinates": [8.510881, 47.366823], "type": "Point"}, "properties": {"charge": 100, "id": "smide_2780", "name": "ST1 X #1", "provider": "smide", "range": 50.0, "size": 17, "time": "02/06/2020, 23:18:11"}, "type": "Feature"}, {"geometry": {"coordinates": [8.495007, 47.382156], "type": "Point"}, "properties": {"charge": 84, "id": "smide_2773", "name": "ZH266561", "provider": "smide", "range": 42.0, "size": 17, "time": "02/06/2020, 23:18:11"}, "type": "Feature"}, {"geometry": {"coordinates": [8.546562, 47.397796], "type": "Point"}, "properties": {"charge": 80, "id": "smide_2763", "name": "ZH266641", "provider": "smide", "range": 40.0, "size": 17, "time": "02/06/2020, 23:18:11"}, "type": "Feature"}, {"geometry": {"coordinates": [8.55579, 47.384368], "type": "Point"}, "properties": {"charge": 69, "id": "smide_2761", "name": "ZH266642", "provider": "smide", "range": 34.0, "size": 20, "time": "02/06/2020, 23:18:11"}, "type": "Feature"}, {"geometry": {"coordinates": [8.508523, 47.415352], "type": "Point"}, "properties": {"charge": 48, "id": "smide_2751", "name": "BE343857", "provider": "smide", "range": 24.0, "size": 17, "time": "02/06/2020, 23:18:11"}, "type": "Feature"}, {"geometry": {"coordinates": [8.521336, 47.364848], "type": "Point"}, "properties": {"charge": 64, "id": "smide_2749", "name": "BE343867", "provider": "smide", "range": 32.0, "size": 17, "time": "02/06/2020, 23:18:11"}, "type": "Feature"}, {"geometry": {"coordinates": [8.475447, 47.385464], "type": "Point"}, "properties": {"charge": 59, "id": "smide_2748", "name": "BE335758", "provider": "smide", "range": 29.0, "size": 17, "time": "02/06/2020, 23:18:11"}, "type": "Feature"}, {"geometry": {"coordinates": [8.56249, 47.382932], "type": "Point"}, "properties": {"charge": 100, "id": "smide_2746", "name": "BE335817", "provider": "smide", "range": 50.0, "size": 17, "time": "02/06/2020, 23:18:11"}, "type": "Feature"}, {"geometry": {"coordinates": [8.518053, 47.367612], "type": "Point"}, "properties": {"charge": 71, "id": "smide_2745", "name": "BE335818", "provider": "smide", "range": 35.0, "size": 17, "time": "02/06/2020, 23:18:11"}, "type": "Feature"}, {"geometry": {"coordinates": [8.488622, 47.380624], "type": "Point"}, "properties": {"charge": 48, "id": "smide_2743", "name": "BE343864", "provider": "smide", "range": 24.0, "size": 17, "time": "02/06/2020, 23:18:11"}, "type": "Feature"}, {"geometry": {"coordinates": [8.519512, 47.337208], "type": "Point"}, "properties": {"charge": 89, "id": "smide_2742", "name": "BE343866", "provider": "smide", "range": 44.0, "size": 17, "time": "02/06/2020, 23:18:11"}, "type": "Feature"}, {"geometry": {"coordinates": [8.496661, 47.423872], "type": "Point"}, "properties": {"charge": 100, "id": "smide_2741", "name": "BE343874", "provider": "smide", "range": 50.0, "size": 17, "time": "02/06/2020, 23:18:11"}, "type": "Feature"}, {"geometry": {"coordinates": [8.521849, 47.35796], "type": "Point"}, "properties": {"charge": 62, "id": "smide_2740", "name": "BE343875", "provider": "smide", "range": 31.0, "size": 17, "time": "02/06/2020, 23:18:11"}, "type": "Feature"}, {"geometry": {"coordinates": [8.568285, 47.367832], "type": "Point"}, "properties": {"charge": 41, "id": "smide_2737", "name": "BE336149", "provider": "smide", "range": 20.0, "size": 17, "time": "02/06/2020, 23:18:11"}, "type": "Feature"}, {"geometry": {"coordinates": [8.530723, 47.378296], "type": "Point"}, "properties": {"charge": 23, "id": "smide_2736", "name": "BE346639", "provider": "smide", "range": 11.0, "size": 17, "time": "02/06/2020, 23:18:11"}, "type": "Feature"}, {"geometry": {"coordinates": [8.555773, 47.384244], "type": "Point"}, "properties": {"charge": 37, "id": "smide_2734", "name": "BE343876", "provider": "smide", "range": 18.0, "size": 17, "time": "02/06/2020, 23:18:11"}, "type": "Feature"}, {"geometry": {"coordinates": [8.535872, 47.356264], "type": "Point"}, "properties": {"charge": 89, "id": "smide_2729", "name": "BE343878", "provider": "smide", "range": 44.0, "size": 17, "time": "02/06/2020, 23:18:11"}, "type": "Feature"}, {"geometry": {"coordinates": [8.510526, 47.398628], "type": "Point"}, "properties": {"charge": 45, "id": "smide_2725", "name": "ZH261545", "provider": "smide", "range": 22.0, "size": 0, "time": "02/06/2020, 23:18:11"}, "type": "Feature"}, {"geometry": {"coordinates": [8.551953, 47.389176], "type": "Point"}, "properties": {"charge": 70, "id": "smide_2717", "name": "ZH263287", "provider": "smide", "range": 35.0, "size": 17, "time": "02/06/2020, 23:18:11"}, "type": "Feature"}, {"geometry": {"coordinates": [8.533543, 47.390765], "type": "Point"}, "properties": {"charge": 46, "id": "smide_2716", "name": "ZH254606", "provider": "smide", "range": 23.0, "size": 17, "time": "02/06/2020, 23:18:11"}, "type": "Feature"}, {"geometry": {"coordinates": [8.526764, 47.368832], "type": "Point"}, "properties": {"charge": 27, "id": "smide_2715", "name": "ZH254605", "provider": "smide", "range": 13.0, "size": 17, "time": "02/06/2020, 23:18:11"}, "type": "Feature"}, {"geometry": {"coordinates": [8.540269, 47.41498], "type": "Point"}, "properties": {"charge": 97, "id": "smide_2710", "name": "ZH256460", "provider": "smide", "range": 48.0, "size": 17, "time": "02/06/2020, 23:18:11"}, "type": "Feature"}, {"geometry": {"coordinates": [8.553568, 47.397604], "type": "Point"}, "properties": {"charge": 41, "id": "smide_2712", "name": "ZH256462", "provider": "smide", "range": 20.0, "size": 17, "time": "02/06/2020, 23:18:11"}, "type": "Feature"}, {"geometry": {"coordinates": [8.56469, 47.3728], "type": "Point"}, "properties": {"charge": 65, "id": "smide_2711", "name": "ZH256463", "provider": "smide", "range": 32.0, "size": 17, "time": "02/06/2020, 23:18:11"}, "type": "Feature"}, {"geometry": {"coordinates": [8.564248, 47.34791], "type": "Point"}, "properties": {"charge": 97, "id": "smide_2709", "name": "ZH256466", "provider": "smide", "range": 48.0, "size": 20, "time": "02/06/2020, 23:18:11"}, "type": "Feature"}, {"geometry": {"coordinates": [8.563898, 47.409612], "type": "Point"}, "properties": {"charge": 34, "id": "smide_2707", "name": "ZH256467", "provider": "smide", "range": 17.0, "size": 20, "time": "02/06/2020, 23:18:11"}, "type": "Feature"}, {"geometry": {"coordinates": [8.527575, 47.358564], "type": "Point"}, "properties": {"charge": 45, "id": "smide_2708", "name": "ZH256464", "provider": "smide", "range": 22.0, "size": 17, "time": "02/06/2020, 23:18:11"}, "type": "Feature"}, {"geometry": {"coordinates": [8.552211, 47.378252], "type": "Point"}, "properties": {"charge": 24, "id": "smide_2701", "name": "ZH256468", "provider": "smide", "range": 12.0, "size": 20, "time": "02/06/2020, 23:18:11"}, "type": "Feature"}, {"geometry": {"coordinates": [8.553575, 47.387312], "type": "Point"}, "properties": {"charge": 83, "id": "smide_2699", "name": "ZH254611", "provider": "smide", "range": 41.0, "size": 20, "time": "02/06/2020, 23:18:11"}, "type": "Feature"}, {"geometry": {"coordinates": [8.537419, 47.38688], "type": "Point"}, "properties": {"charge": 42, "id": "smide_2697", "name": "ZH254629", "provider": "smide", "range": 21.0, "size": 20, "time": "02/06/2020, 23:18:11"}, "type": "Feature"}, {"geometry": {"coordinates": [8.556667, 47.419952], "type": "Point"}, "properties": {"charge": 100, "id": "smide_2696", "name": "ZH254616", "provider": "smide", "range": 50.0, "size": 20, "time": "02/06/2020, 23:18:11"}, "type": "Feature"}, {"geometry": {"coordinates": [8.519945, 47.369912], "type": "Point"}, "properties": {"charge": 62, "id": "smide_2694", "name": "ZH254610", "provider": "smide", "range": 31.0, "size": 20, "time": "02/06/2020, 23:18:11"}, "type": "Feature"}, {"geometry": {"coordinates": [8.558605, 47.40382], "type": "Point"}, "properties": {"charge": 93, "id": "smide_2691", "name": "ZH254622", "provider": "smide", "range": 46.0, "size": 20, "time": "02/06/2020, 23:18:11"}, "type": "Feature"}, {"geometry": {"coordinates": [8.52782, 47.358785], "type": "Point"}, "properties": {"charge": 44, "id": "smide_2690", "name": "ZH254625", "provider": "smide", "range": 22.0, "size": 20, "time": "02/06/2020, 23:18:11"}, "type": "Feature"}, {"geometry": {"coordinates": [8.555618, 47.384408], "type": "Point"}, "properties": {"charge": 100, "id": "smide_2689", "name": "ZH254623", "provider": "smide", "range": 50.0, "size": 20, "time": "02/06/2020, 23:18:11"}, "type": "Feature"}, {"geometry": {"coordinates": [8.525519, 47.390032], "type": "Point"}, "properties": {"charge": 47, "id": "smide_2687", "name": "ZH263529", "provider": "smide", "range": 23.0, "size": 20, "time": "02/06/2020, 23:18:11"}, "type": "Feature"}, {"geometry": {"coordinates": [8.523912, 47.364884], "type": "Point"}, "properties": {"charge": 92, "id": "smide_2684", "name": "ZH254626", "provider": "smide", "range": 46.0, "size": 20, "time": "02/06/2020, 23:18:11"}, "type": "Feature"}, {"geometry": {"coordinates": [8.499622, 47.387104], "type": "Point"}, "properties": {"charge": 52, "id": "smide_2680", "name": "ZH254619", "provider": "smide", "range": 26.0, "size": 20, "time": "02/06/2020, 23:18:11"}, "type": "Feature"}, {"geometry": {"coordinates": [8.495031, 47.398508], "type": "Point"}, "properties": {"charge": 65, "id": "smide_2677", "name": "ZH258487", "provider": "smide", "range": 32.0, "size": 17, "time": "02/06/2020, 23:18:11"}, "type": "Feature"}, {"geometry": {"coordinates": [8.552402, 47.380172], "type": "Point"}, "properties": {"charge": 17, "id": "smide_2674", "name": "ZH258654", "provider": "smide", "range": 8.0, "size": 17, "time": "02/06/2020, 23:18:11"}, "type": "Feature"}, {"geometry": {"coordinates": [8.492346, 47.369092], "type": "Point"}, "properties": {"charge": 73, "id": "smide_2671", "name": "ZH258645", "provider": "smide", "range": 36.0, "size": 17, "time": "02/06/2020, 23:18:11"}, "type": "Feature"}, {"geometry": {"coordinates": [8.537317, 47.407124], "type": "Point"}, "properties": {"charge": 83, "id": "smide_2669", "name": "ZH263294", "provider": "smide", "range": 41.0, "size": 17, "time": "02/06/2020, 23:18:11"}, "type": "Feature"}, {"geometry": {"coordinates": [8.53549, 47.337784], "type": "Point"}, "properties": {"charge": 75, "id": "smide_2666", "name": "ZH258653", "provider": "smide", "range": 37.0, "size": 17, "time": "02/06/2020, 23:18:11"}, "type": "Feature"}, {"geometry": {"coordinates": [8.578842, 47.353616], "type": "Point"}, "properties": {"charge": 63, "id": "smide_2665", "name": "ZH258644", "provider": "smide", "range": 31.0, "size": 17, "time": "02/06/2020, 23:18:11"}, "type": "Feature"}, {"geometry": {"coordinates": [8.544062, 47.391932], "type": "Point"}, "properties": {"charge": 99, "id": "smide_2663", "name": "ZH258649", "provider": "smide", "range": 49.0, "size": 17, "time": "02/06/2020, 23:18:11"}, "type": "Feature"}, {"geometry": {"coordinates": [8.572748, 47.380548], "type": "Point"}, "properties": {"charge": 79, "id": "smide_2662", "name": "ZH258643", "provider": "smide", "range": 39.0, "size": 17, "time": "02/06/2020, 23:18:11"}, "type": "Feature"}, {"geometry": {"coordinates": [8.532844, 47.336856], "type": "Point"}, "properties": {"charge": 89, "id": "smide_2660", "name": "ZH258647", "provider": "smide", "range": 44.0, "size": 17, "time": "02/06/2020, 23:18:11"}, "type": "Feature"}, {"geometry": {"coordinates": [8.486266, 47.388304], "type": "Point"}, "properties": {"charge": 15, "id": "smide_2648", "name": "ZH257930", "provider": "smide", "range": 7.0, "size": 20, "time": "02/06/2020, 23:18:11"}, "type": "Feature"}, {"geometry": {"coordinates": [8.54208, 47.38758], "type": "Point"}, "properties": {"charge": 45, "id": "smide_2647", "name": "ZH257932", "provider": "smide", "range": 22.0, "size": 20, "time": "02/06/2020, 23:18:11"}, "type": "Feature"}, {"geometry": {"coordinates": [8.551887, 47.38926], "type": "Point"}, "properties": {"charge": 27, "id": "smide_2645", "name": "ZH257933", "provider": "smide", "range": 13.0, "size": 20, "time": "02/06/2020, 23:18:11"}, "type": "Feature"}, {"geometry": {"coordinates": [8.525916, 47.408458], "type": "Point"}, "properties": {"charge": 44, "id": "smide_105", "name": "ZH253804", "provider": "smide", "range": 22.0, "size": 17, "time": "02/06/2020, 23:18:11"}, "type": "Feature"}, {"geometry": {"coordinates": [8.542113, 47.407572], "type": "Point"}, "properties": {"charge": 84, "id": "smide_186", "name": "ZH253751", "provider": "smide", "range": 42.0, "size": 20, "time": "02/06/2020, 23:18:11"}, "type": "Feature"}, {"geometry": {"coordinates": [8.527906, 47.380248], "type": "Point"}, "properties": {"charge": 44, "id": "smide_173", "name": "ZH258501", "provider": "smide", "range": 22.0, "size": 17, "time": "02/06/2020, 23:18:11"}, "type": "Feature"}, {"geometry": {"coordinates": [8.559287, 47.405912], "type": "Point"}, "properties": {"charge": 73, "id": "smide_77", "name": "ZH261548", "provider": "smide", "range": 36.0, "size": 20, "time": "02/06/2020, 23:18:11"}, "type": "Feature"}, {"geometry": {"coordinates": [8.562994, 47.382568], "type": "Point"}, "properties": {"charge": 66, "id": "smide_200", "name": "ZH253801", "provider": "smide", "range": 33.0, "size": 20, "time": "02/06/2020, 23:18:11"}, "type": "Feature"}, {"geometry": {"coordinates": [8.478261, 47.392685], "type": "Point"}, "properties": {"charge": 45, "id": "smide_197", "name": "ZH253864", "provider": "smide", "range": 22.0, "size": 20, "time": "02/06/2020, 23:18:11"}, "type": "Feature"}, {"geometry": {"coordinates": [8.50209, 47.368888], "type": "Point"}, "properties": {"charge": 37, "id": "smide_199", "name": "ZH253766", "provider": "smide", "range": 18.0, "size": 20, "time": "02/06/2020, 23:18:11"}, "type": "Feature"}, {"geometry": {"coordinates": [8.536907, 47.390052], "type": "Point"}, "properties": {"charge": 83, "id": "smide_8", "name": "ZH253861", "provider": "smide", "range": 41.0, "size": 17, "time": "02/06/2020, 23:18:11"}, "type": "Feature"}, {"geometry": {"coordinates": [8.555671, 47.355531], "type": "Point"}, "properties": {"charge": 100, "id": "smide_45", "name": "ZH253716", "provider": "smide", "range": 50.0, "size": 17, "time": "02/06/2020, 23:18:11"}, "type": "Feature"}, {"geometry": {"coordinates": [8.559216, 47.3601], "type": "Point"}, "properties": {"charge": 87, "id": "smide_71", "name": "ZH253742", "provider": "smide", "range": 43.0, "size": 20, "time": "02/06/2020, 23:18:11"}, "type": "Feature"}, {"geometry": {"coordinates": [8.532678, 47.390568], "type": "Point"}, "properties": {"charge": 100, "id": "smide_101", "name": "ZH253814", "provider": "smide", "range": 50.0, "size": 17, "time": "02/06/2020, 23:18:11"}, "type": "Feature"}, {"geometry": {"coordinates": [8.541366, 47.378944], "type": "Point"}, "properties": {"charge": 12, "id": "smide_9", "name": "ZH253796", "provider": "smide", "range": 6.0, "size": 17, "time": "02/06/2020, 23:18:11"}, "type": "Feature"}, {"geometry": {"coordinates": [8.509413, 47.395252], "type": "Point"}, "properties": {"charge": 89, "id": "smide_143", "name": "ZH253778", "provider": "smide", "range": 44.0, "size": 17, "time": "02/06/2020, 23:18:11"}, "type": "Feature"}, {"geometry": {"coordinates": [8.519023, 47.337278], "type": "Point"}, "properties": {"charge": 32, "id": "smide_180", "name": "ZH253824", "provider": "smide", "range": 16.0, "size": 20, "time": "02/06/2020, 23:18:11"}, "type": "Feature"}, {"geometry": {"coordinates": [8.502389, 47.42432], "type": "Point"}, "properties": {"charge": 85, "id": "smide_20", "name": "ZH253770", "provider": "smide", "range": 42.0, "size": 20, "time": "02/06/2020, 23:18:11"}, "type": "Feature"}, {"geometry": {"coordinates": [8.391746, 47.4153], "type": "Point"}, "properties": {"charge": 42, "id": "smide_50", "name": "ZH253853", "provider": "smide", "range": 21.0, "size": 17, "time": "02/06/2020, 23:18:11"}, "type": "Feature"}, {"geometry": {"coordinates": [8.568413, 47.381991], "type": "Point"}, "properties": {"charge": 100, "id": "smide_30", "name": "ZH253813", "provider": "smide", "range": 50.0, "size": 20, "time": "02/06/2020, 23:18:11"}, "type": "Feature"}, {"geometry": {"coordinates": [8.55765, 47.412416], "type": "Point"}, "properties": {"charge": 80, "id": "smide_10", "name": "ZH253855", "provider": "smide", "range": 40.0, "size": 17, "time": "02/06/2020, 23:18:11"}, "type": "Feature"}, {"geometry": {"coordinates": [8.540411, 47.388792], "type": "Point"}, "properties": {"charge": 61, "id": "smide_84", "name": "ZH253733", "provider": "smide", "range": 30.0, "size": 17, "time": "02/06/2020, 23:18:11"}, "type": "Feature"}, {"geometry": {"coordinates": [8.531442, 47.373184], "type": "Point"}, "properties": {"charge": 41, "id": "smide_165", "name": "ZH253752", "provider": "smide", "range": 20.0, "size": 17, "time": "02/06/2020, 23:18:11"}, "type": "Feature"}, {"geometry": {"coordinates": [8.511448, 47.369472], "type": "Point"}, "properties": {"charge": 73, "id": "smide_35", "name": "ZH253755", "provider": "smide", "range": 36.0, "size": 20, "time": "02/06/2020, 23:18:11"}, "type": "Feature"}, {"geometry": {"coordinates": [8.482972, 47.388268], "type": "Point"}, "properties": {"charge": 83, "id": "smide_119", "name": "ZH253686", "provider": "smide", "range": 41.0, "size": 20, "time": "02/06/2020, 23:18:11"}, "type": "Feature"}, {"geometry": {"coordinates": [8.536206, 47.338008], "type": "Point"}, "properties": {"charge": 63, "id": "smide_76", "name": "ZH253764", "provider": "smide", "range": 31.0, "size": 17, "time": "02/06/2020, 23:18:11"}, "type": "Feature"}, {"geometry": {"coordinates": [8.540874, 47.382264], "type": "Point"}, "properties": {"charge": 100, "id": "smide_129", "name": "ZH261378", "provider": "smide", "range": 50.0, "size": 17, "time": "02/06/2020, 23:18:11"}, "type": "Feature"}, {"geometry": {"coordinates": [8.48787, 47.367853], "type": "Point"}, "properties": {"charge": 49, "id": "smide_49", "name": "ZH253873", "provider": "smide", "range": 24.0, "size": 17, "time": "02/06/2020, 23:18:11"}, "type": "Feature"}, {"geometry": {"coordinates": [8.538252, 47.367668], "type": "Point"}, "properties": {"charge": 100, "id": "smide_37", "name": "ZH261377", "provider": "smide", "range": 50.0, "size": 20, "time": "02/06/2020, 23:18:11"}, "type": "Feature"}, {"geometry": {"coordinates": [8.516436, 47.396988], "type": "Point"}, "properties": {"charge": 73, "id": "smide_191", "name": "ZH253762", "provider": "smide", "range": 36.0, "size": 17, "time": "02/06/2020, 23:18:11"}, "type": "Feature"}, {"geometry": {"coordinates": [8.51054, 47.398201], "type": "Point"}, "properties": {"charge": 74, "id": "smide_202", "name": "ZH253830", "provider": "smide", "range": 37.0, "size": 17, "time": "02/06/2020, 23:18:11"}, "type": "Feature"}, {"geometry": {"coordinates": [8.528229, 47.38606], "type": "Point"}, "properties": {"charge": 81, "id": "smide_56", "name": "ZH261442", "provider": "smide", "range": 40.0, "size": 20, "time": "02/06/2020, 23:18:11"}, "type": "Feature"}, {"geometry": {"coordinates": [8.541511, 47.38253], "type": "Point"}, "properties": {"charge": 19, "id": "smide_47", "name": "ZH253858", "provider": "smide", "range": 9.0, "size": 17, "time": "02/06/2020, 23:18:11"}, "type": "Feature"}, {"geometry": {"coordinates": [8.562615, 47.371464], "type": "Point"}, "properties": {"charge": 58, "id": "smide_23", "name": "ZH253704", "provider": "smide", "range": 28.0, "size": 17, "time": "02/06/2020, 23:18:11"}, "type": "Feature"}, {"geometry": {"coordinates": [8.558493, 47.403844], "type": "Point"}, "properties": {"charge": 90, "id": "smide_66", "name": "ZH253818", "provider": "smide", "range": 45.0, "size": 20, "time": "02/06/2020, 23:18:11"}, "type": "Feature"}, {"geometry": {"coordinates": [8.526488, 47.373868], "type": "Point"}, "properties": {"charge": 26, "id": "smide_17", "name": "ZH253793", "provider": "smide", "range": 13.0, "size": 17, "time": "02/06/2020, 23:18:11"}, "type": "Feature"}, {"geometry": {"coordinates": [8.54746, 47.382052], "type": "Point"}, "properties": {"charge": 76, "id": "smide_114", "name": "ZH253878", "provider": "smide", "range": 38.0, "size": 20, "time": "02/06/2020, 23:18:11"}, "type": "Feature"}, {"geometry": {"coordinates": [8.533161, 47.417124], "type": "Point"}, "properties": {"charge": 85, "id": "smide_203", "name": "ZH261547", "provider": "smide", "range": 42.0, "size": 17, "time": "02/06/2020, 23:18:11"}, "type": "Feature"}, {"geometry": {"coordinates": [8.519881, 47.337136], "type": "Point"}, "properties": {"charge": 97, "id": "smide_21", "name": "ZH253841", "provider": "smide", "range": 48.0, "size": 17, "time": "02/06/2020, 23:18:11"}, "type": "Feature"}, {"geometry": {"coordinates": [8.519077, 47.397084], "type": "Point"}, "properties": {"charge": 53, "id": "smide_164", "name": "ZH253775", "provider": "smide", "range": 26.0, "size": 17, "time": "02/06/2020, 23:18:11"}, "type": "Feature"}, {"geometry": {"coordinates": [8.534394, 47.416784], "type": "Point"}, "properties": {"charge": 74, "id": "smide_189", "name": "ZH253845", "provider": "smide", "range": 37.0, "size": 20, "time": "02/06/2020, 23:18:11"}, "type": "Feature"}, {"geometry": {"coordinates": [8.484638, 47.393828], "type": "Point"}, "properties": {"charge": 80, "id": "smide_81", "name": "ZH253753", "provider": "smide", "range": 40.0, "size": 17, "time": "02/06/2020, 23:18:11"}, "type": "Feature"}, {"geometry": {"coordinates": [8.528834, 47.395052], "type": "Point"}, "properties": {"charge": 98, "id": "smide_171", "name": "ZH253689", "provider": "smide", "range": 49.0, "size": 20, "time": "02/06/2020, 23:18:11"}, "type": "Feature"}, {"geometry": {"coordinates": [8.486982, 47.375652], "type": "Point"}, "properties": {"charge": 37, "id": "smide_93", "name": "ZH253681", "provider": "smide", "range": 18.0, "size": 17, "time": "02/06/2020, 23:18:11"}, "type": "Feature"}, {"geometry": {"coordinates": [8.553274, 47.36972], "type": "Point"}, "properties": {"charge": 71, "id": "smide_67", "name": "ZH253779", "provider": "smide", "range": 35.0, "size": 17, "time": "02/06/2020, 23:18:11"}, "type": "Feature"}, {"geometry": {"coordinates": [8.51404, 47.366324], "type": "Point"}, "properties": {"charge": 73, "id": "smide_133", "name": "ZH253848", "provider": "smide", "range": 36.0, "size": 20, "time": "02/06/2020, 23:18:11"}, "type": "Feature"}, {"geometry": {"coordinates": [8.482566, 47.385698], "type": "Point"}, "properties": {"charge": 76, "id": "smide_118", "name": "ZH253759", "provider": "smide", "range": 38.0, "size": 20, "time": "02/06/2020, 23:18:11"}, "type": "Feature"}, {"geometry": {"coordinates": [8.532067, 47.399188], "type": "Point"}, "properties": {"charge": 95, "id": "smide_142", "name": "ZH258745", "provider": "smide", "range": 47.0, "size": 17, "time": "02/06/2020, 23:18:11"}, "type": "Feature"}, {"geometry": {"coordinates": [8.544403, 47.386366], "type": "Point"}, "properties": {"charge": 59, "id": "smide_166", "name": "ZH253728", "provider": "smide", "range": 29.0, "size": 17, "time": "02/06/2020, 23:18:11"}, "type": "Feature"}, {"geometry": {"coordinates": [8.495, 47.37536], "type": "Point"}, "properties": {"charge": 65, "id": "smide_126", "name": "ZH268400", "provider": "smide", "range": 32.0, "size": 17, "time": "02/06/2020, 23:18:11"}, "type": "Feature"}, {"geometry": {"coordinates": [8.530625, 47.344525], "type": "Point"}, "properties": {"charge": 100, "id": "smide_44", "name": "ZH253837", "provider": "smide", "range": 50.0, "size": 17, "time": "02/06/2020, 23:18:11"}, "type": "Feature"}, {"geometry": {"coordinates": [8.546706, 47.407775], "type": "Point"}, "properties": {"charge": 63, "id": "smide_98", "name": "ZH256321", "provider": "smide", "range": 31.0, "size": 17, "time": "02/06/2020, 23:18:11"}, "type": "Feature"}, {"geometry": {"coordinates": [8.542045, 47.424596], "type": "Point"}, "properties": {"charge": 75, "id": "smide_154", "name": "ZH253744", "provider": "smide", "range": 37.0, "size": 20, "time": "02/06/2020, 23:18:11"}, "type": "Feature"}, {"geometry": {"coordinates": [8.517559, 47.367392], "type": "Point"}, "properties": {"charge": 99, "id": "smide_7", "name": "ZH256289", "provider": "smide", "range": 49.0, "size": 20, "time": "02/06/2020, 23:18:11"}, "type": "Feature"}, {"geometry": {"coordinates": [8.477619, 47.389872], "type": "Point"}, "properties": {"charge": 84, "id": "smide_92", "name": "ZH253798", "provider": "smide", "range": 42.0, "size": 17, "time": "02/06/2020, 23:18:11"}, "type": "Feature"}, {"geometry": {"coordinates": [8.514496, 47.364696], "type": "Point"}, "properties": {"charge": 87, "id": "smide_65", "name": "ZH253810", "provider": "smide", "range": 43.0, "size": 17, "time": "02/06/2020, 23:18:11"}, "type": "Feature"}, {"geometry": {"coordinates": [8.520318, 47.39636], "type": "Point"}, "properties": {"charge": 98, "id": "smide_111", "name": "ZH253763", "provider": "smide", "range": 49.0, "size": 17, "time": "02/06/2020, 23:18:11"}, "type": "Feature"}, {"geometry": {"coordinates": [8.536983, 47.390196], "type": "Point"}, "properties": {"charge": 79, "id": "smide_40", "name": "ZH253690", "provider": "smide", "range": 39.0, "size": 20, "time": "02/06/2020, 23:18:11"}, "type": "Feature"}, {"geometry": {"coordinates": [8.51999, 47.340213], "type": "Point"}, "properties": {"charge": 100, "id": "smide_14", "name": "ZH253749", "provider": "smide", "range": 50.0, "size": 20, "time": "02/06/2020, 23:18:11"}, "type": "Feature"}, {"geometry": {"coordinates": [8.515516, 47.392664], "type": "Point"}, "properties": {"charge": 26, "id": "smide_107", "name": "ZH253819", "provider": "smide", "range": 13.0, "size": 17, "time": "02/06/2020, 23:18:11"}, "type": "Feature"}, {"geometry": {"coordinates": [8.540614, 47.37286], "type": "Point"}, "properties": {"charge": 55, "id": "smide_136", "name": "ZH253682", "provider": "smide", "range": 27.0, "size": 17, "time": "02/06/2020, 23:18:11"}, "type": "Feature"}, {"geometry": {"coordinates": [8.537343, 47.386868], "type": "Point"}, "properties": {"charge": 13, "id": "smide_83", "name": "ZH253869", "provider": "smide", "range": 6.0, "size": 20, "time": "02/06/2020, 23:18:11"}, "type": "Feature"}, {"geometry": {"coordinates": [8.534015, 47.344288], "type": "Point"}, "properties": {"charge": 71, "id": "smide_193", "name": "ZH253738", "provider": "smide", "range": 35.0, "size": 20, "time": "02/06/2020, 23:18:11"}, "type": "Feature"}, {"geometry": {"coordinates": [8.533901, 47.405573], "type": "Point"}, "properties": {"charge": 56, "id": "smide_134", "name": "ZH253741", "provider": "smide", "range": 28.0, "size": 20, "time": "02/06/2020, 23:18:11"}, "type": "Feature"}, {"geometry": {"coordinates": [8.553735, 47.381828], "type": "Point"}, "properties": {"charge": 22, "id": "smide_141", "name": "ZH253800", "provider": "smide", "range": 11.0, "size": 20, "time": "02/06/2020, 23:18:11"}, "type": "Feature"}, {"geometry": {"coordinates": [8.572932, 47.351536], "type": "Point"}, "properties": {"charge": 75, "id": "smide_16", "name": "ZH253713", "provider": "smide", "range": 37.0, "size": 20, "time": "02/06/2020, 23:18:11"}, "type": "Feature"}, {"geometry": {"coordinates": [8.514503, 47.376352], "type": "Point"}, "properties": {"charge": 83, "id": "smide_74", "name": "ZH253693", "provider": "smide", "range": 41.0, "size": 20, "time": "02/06/2020, 23:18:11"}, "type": "Feature"}, {"geometry": {"coordinates": [8.562973, 47.356358], "type": "Point"}, "properties": {"charge": 100, "id": "smide_33", "name": "ZH253782", "provider": "smide", "range": 50.0, "size": 20, "time": "02/06/2020, 23:18:11"}, "type": "Feature"}, {"geometry": {"coordinates": [8.550687, 47.39258], "type": "Point"}, "properties": {"charge": 100, "id": "smide_161", "name": "ZH253691", "provider": "smide", "range": 50.0, "size": 20, "time": "02/06/2020, 23:18:11"}, "type": "Feature"}, {"geometry": {"coordinates": [8.51053, 47.39319], "type": "Point"}, "properties": {"charge": 100, "id": "smide_183", "name": "ZH253868", "provider": "smide", "range": 50.0, "size": 17, "time": "02/06/2020, 23:18:11"}, "type": "Feature"}, {"geometry": {"coordinates": [8.568395, 47.36764], "type": "Point"}, "properties": {"charge": 97, "id": "smide_42", "name": "ZH253846", "provider": "smide", "range": 48.0, "size": 20, "time": "02/06/2020, 23:18:11"}, "type": "Feature"}, {"geometry": {"coordinates": [8.54517, 47.423476], "type": "Point"}, "properties": {"charge": 70, "id": "smide_4", "name": "ZH253740", "provider": "smide", "range": 35.0, "size": 20, "time": "02/06/2020, 23:18:11"}, "type": "Feature"}, {"geometry": {"coordinates": [8.479362, 47.38452], "type": "Point"}, "properties": {"charge": 92, "id": "smide_160", "name": "ZH253722", "provider": "smide", "range": 46.0, "size": 17, "time": "02/06/2020, 23:18:11"}, "type": "Feature"}, {"geometry": {"coordinates": [8.57532, 47.349098], "type": "Point"}, "properties": {"charge": 79, "id": "smide_137", "name": "ZH258502", "provider": "smide", "range": 39.0, "size": 17, "time": "02/06/2020, 23:18:11"}, "type": "Feature"}, {"geometry": {"coordinates": [8.564818, 47.349528], "type": "Point"}, "properties": {"charge": 85, "id": "smide_178", "name": "ZH253803", "provider": "smide", "range": 42.0, "size": 17, "time": "02/06/2020, 23:18:11"}, "type": "Feature"}, {"geometry": {"coordinates": [8.517541, 47.367546], "type": "Point"}, "properties": {"charge": 77, "id": "smide_55", "name": "ZH253875", "provider": "smide", "range": 38.0, "size": 17, "time": "02/06/2020, 23:18:11"}, "type": "Feature"}, {"geometry": {"coordinates": [8.540517, 47.393856], "type": "Point"}, "properties": {"charge": 35, "id": "smide_96", "name": "ZH256146", "provider": "smide", "range": 17.0, "size": 20, "time": "02/06/2020, 23:18:11"}, "type": "Feature"}, {"geometry": {"coordinates": [8.489557, 47.373888], "type": "Point"}, "properties": {"charge": 33, "id": "smide_58", "name": "ZH259246", "provider": "smide", "range": 16.0, "size": 20, "time": "02/06/2020, 23:18:11"}, "type": "Feature"}, {"geometry": {"coordinates": [8.477841, 47.391148], "type": "Point"}, "properties": {"charge": 10, "id": "smide_54", "name": "ZH253874", "provider": "smide", "range": 5.0, "size": 20, "time": "02/06/2020, 23:18:11"}, "type": "Feature"}, {"geometry": {"coordinates": [8.516232, 47.385532], "type": "Point"}, "properties": {"charge": 94, "id": "smide_175", "name": "ZH253730", "provider": "smide", "range": 47.0, "size": 17, "time": "02/06/2020, 23:18:11"}, "type": "Feature"}, {"geometry": {"coordinates": [8.543721, 47.372572], "type": "Point"}, "properties": {"charge": 58, "id": "smide_95", "name": "ZH253773", "provider": "smide", "range": 28.0, "size": 17, "time": "02/06/2020, 23:18:11"}, "type": "Feature"}, {"geometry": {"coordinates": [8.542746, 47.3815], "type": "Point"}, "properties": {"charge": 87, "id": "smide_163", "name": "ZH256147", "provider": "smide", "range": 43.0, "size": 20, "time": "02/06/2020, 23:18:11"}, "type": "Feature"}, {"geometry": {"coordinates": [8.551053, 47.414451], "type": "Point"}, "properties": {"charge": 52, "id": "smide_38", "name": "ZH253851", "provider": "smide", "range": 26.0, "size": 20, "time": "02/06/2020, 23:18:11"}, "type": "Feature"}, {"geometry": {"coordinates": [8.55778, 47.404384], "type": "Point"}, "properties": {"charge": 77, "id": "smide_6", "name": "ZH253787", "provider": "smide", "range": 38.0, "size": 17, "time": "02/06/2020, 23:18:11"}, "type": "Feature"}, {"geometry": {"coordinates": [8.556838, 47.403792], "type": "Point"}, "properties": {"charge": 59, "id": "smide_18", "name": "ZH253859", "provider": "smide", "range": 29.0, "size": 17, "time": "02/06/2020, 23:18:11"}, "type": "Feature"}, {"geometry": {"coordinates": [8.515024, 47.414556], "type": "Point"}, "properties": {"charge": 100, "id": "smide_12", "name": "ZH253685", "provider": "smide", "range": 50.0, "size": 17, "time": "02/06/2020, 23:18:11"}, "type": "Feature"}, {"geometry": {"coordinates": [8.54332, 47.375336], "type": "Point"}, "properties": {"charge": 81, "id": "smide_192", "name": "ZH253706", "provider": "smide", "range": 40.0, "size": 20, "time": "02/06/2020, 23:18:11"}, "type": "Feature"}, {"geometry": {"coordinates": [8.537179, 47.379556], "type": "Point"}, "properties": {"charge": 74, "id": "smide_39", "name": "ZH253714", "provider": "smide", "range": 37.0, "size": 20, "time": "02/06/2020, 23:18:11"}, "type": "Feature"}, {"geometry": {"coordinates": [8.513961, 47.36517], "type": "Point"}, "properties": {"charge": 71, "id": "smide_5", "name": "ZH261443", "provider": "smide", "range": 35.0, "size": 20, "time": "02/06/2020, 23:18:11"}, "type": "Feature"}, {"geometry": {"coordinates": [8.495048, 47.398264], "type": "Point"}, "properties": {"charge": 100, "id": "smide_29", "name": "ZH253723", "provider": "smide", "range": 50.0, "size": 17, "time": "02/06/2020, 23:18:11"}, "type": "Feature"}, {"geometry": {"coordinates": [8.582206, 47.351856], "type": "Point"}, "properties": {"charge": 98, "id": "smide_46", "name": "ZH253843", "provider": "smide", "range": 49.0, "size": 20, "time": "02/06/2020, 23:18:11"}, "type": "Feature"}, {"geometry": {"coordinates": [8.51398166666667, 47.3805766666667], "type": "Point"}, "properties": {"charge": 48, "id": "bird_9886a21b-9780-490b-ba3d-9c9267c24431", "provider": "bird", "timeStamp": "02/06/2020, 23:18:11"}, "type": "Feature"}, {"geometry": {"coordinates": [8.51992833333333, 47.3884233333333], "type": "Point"}, "properties": {"charge": 99, "id": "bird_2bdd95f5-1733-4913-8b9d-207cb5eaf6f7", "provider": "bird", "timeStamp": "02/06/2020, 23:18:11"}, "type": "Feature"}, {"geometry": {"coordinates": [8.51980666666667, 47.3883516666667], "type": "Point"}, "properties": {"charge": 99, "id": "bird_d43341d3-9c87-4f48-b6a5-75d0b63fceec", "provider": "bird", "timeStamp": "02/06/2020, 23:18:11"}, "type": "Feature"}, {"geometry": {"coordinates": [8.51525833333333, 47.3758933333333], "type": "Point"}, "properties": {"charge": 31, "id": "bird_1f39ee85-69d1-4ff3-82aa-60b9de22eb6b", "provider": "bird", "timeStamp": "02/06/2020, 23:18:11"}, "type": "Feature"}, {"geometry": {"coordinates": [8.54134166666667, 47.3724483333333], "type": "Point"}, "properties": {"charge": 74, "id": "bird_9e75f4c7-6954-46bd-97a4-6ece45351cb6", "provider": "bird", "timeStamp": "02/06/2020, 23:18:11"}, "type": "Feature"}, {"geometry": {"coordinates": [8.51953333333333, 47.3880883333333], "type": "Point"}, "properties": {"charge": 67, "id": "bird_bc697e1c-9172-4618-986c-6894f934c37d", "provider": "bird", "timeStamp": "02/06/2020, 23:18:11"}, "type": "Feature"}, {"geometry": {"coordinates": [8.51881333333333, 47.3723716666667], "type": "Point"}, "properties": {"charge": 35, "id": "bird_e25d36fd-c771-4244-bc71-25471a0faa22", "provider": "bird", "timeStamp": "02/06/2020, 23:18:11"}, "type": "Feature"}, {"geometry": {"coordinates": [8.52305333333333, 47.3704383333333], "type": "Point"}, "properties": {"charge": 13, "id": "bird_81e453d2-e134-4d27-a3c1-5d6b9a7c4ee4", "provider": "bird", "timeStamp": "02/06/2020, 23:18:11"}, "type": "Feature"}, {"geometry": {"coordinates": [8.538215, 47.3709183333333], "type": "Point"}, "properties": {"charge": 10, "id": "bird_c8f93a64-8426-407b-aeb8-6575d07d12f1", "provider": "bird", "timeStamp": "02/06/2020, 23:18:11"}, "type": "Feature"}, {"geometry": {"coordinates": [8.51694833333333, 47.3859333333333], "type": "Point"}, "properties": {"charge": 47, "id": "bird_e53c4dbe-dd60-4165-9ee7-81ceb62f43b3", "provider": "bird", "timeStamp": "02/06/2020, 23:18:11"}, "type": "Feature"}, {"geometry": {"coordinates": [8.543045, 47.374245], "type": "Point"}, "properties": {"charge": 75, "id": "bird_048353f6-52d0-4165-9528-9fc61e5a7de8", "provider": "bird", "timeStamp": "02/06/2020, 23:18:11"}, "type": "Feature"}, {"geometry": {"coordinates": [8.52523833333333, 47.3699866666667], "type": "Point"}, "properties": {"charge": 35, "id": "bird_abb31544-4d9d-427e-b455-ab26e08c2db4", "provider": "bird", "timeStamp": "02/06/2020, 23:18:11"}, "type": "Feature"}, {"geometry": {"coordinates": [8.51766, 47.3862983333333], "type": "Point"}, "properties": {"charge": 60, "id": "bird_041d712c-0756-409f-a43b-e883a48c0d80", "provider": "bird", "timeStamp": "02/06/2020, 23:18:11"}, "type": "Feature"}, {"geometry": {"coordinates": [8.52050333333333, 47.3882516666667], "type": "Point"}, "properties": {"charge": 98, "id": "bird_5d40ca93-13d6-41f3-a84f-ba57fb59df9a", "provider": "bird", "timeStamp": "02/06/2020, 23:18:11"}, "type": "Feature"}, {"geometry": {"coordinates": [8.53944833333333, 47.388275], "type": "Point"}, "properties": {"charge": 69, "id": "bird_1c9c676d-754d-48cf-a974-f8d6d01e3933", "provider": "bird", "timeStamp": "02/06/2020, 23:18:11"}, "type": "Feature"}, {"geometry": {"coordinates": [8.520425, 47.3882066666667], "type": "Point"}, "properties": {"charge": 98, "id": "bird_0656f367-aeb4-4f53-a904-b2c7337ef307", "provider": "bird", "timeStamp": "02/06/2020, 23:18:11"}, "type": "Feature"}, {"geometry": {"coordinates": [8.51766, 47.386105], "type": "Point"}, "properties": {"charge": 98, "id": "bird_ef6cb0a7-466d-4ec8-9726-d1b1df540637", "provider": "bird", "timeStamp": "02/06/2020, 23:18:11"}, "type": "Feature"}, {"geometry": {"coordinates": [8.51514166666667, 47.37759], "type": "Point"}, "properties": {"charge": 57, "id": "bird_875b9fcd-a59e-4d6f-82da-ba1afe0a0877", "provider": "bird", "timeStamp": "02/06/2020, 23:18:11"}, "type": "Feature"}, {"geometry": {"coordinates": [8.51792, 47.3862883333333], "type": "Point"}, "properties": {"charge": 97, "id": "bird_2c85496d-0f8d-43b2-9aad-00c53d8bfb67", "provider": "bird", "timeStamp": "02/06/2020, 23:18:11"}, "type": "Feature"}, {"geometry": {"coordinates": [8.53433333333333, 47.3898883333333], "type": "Point"}, "properties": {"charge": 73, "id": "bird_3d781b9e-5c99-4024-b9e5-9b17ec1f0248", "provider": "bird", "timeStamp": "02/06/2020, 23:18:11"}, "type": "Feature"}, {"geometry": {"coordinates": [8.51761833333333, 47.3859866666667], "type": "Point"}, "properties": {"charge": 98, "id": "bird_145c4a4d-4ad6-4b90-948b-dea1a4ea1ce6", "provider": "bird", "timeStamp": "02/06/2020, 23:18:11"}, "type": "Feature"}, {"geometry": {"coordinates": [8.51756666666667, 47.385875], "type": "Point"}, "properties": {"charge": 98, "id": "bird_388fc789-952b-4d79-990c-210fa836f632", "provider": "bird", "timeStamp": "02/06/2020, 23:18:11"}, "type": "Feature"}, {"geometry": {"coordinates": [8.53951833333333, 47.372025], "type": "Point"}, "properties": {"charge": 75, "id": "bird_afc59af8-aac2-414b-a328-51686094888e", "provider": "bird", "timeStamp": "02/06/2020, 23:18:11"}, "type": "Feature"}, {"geometry": {"coordinates": [8.54341, 47.3753166666667], "type": "Point"}, "properties": {"charge": 79, "id": "bird_bfc52eba-d6a7-457f-b7fd-74592d609d2f", "provider": "bird", "timeStamp": "02/06/2020, 23:18:11"}, "type": "Feature"}, {"geometry": {"coordinates": [8.51803333333333, 47.3861883333333], "type": "Point"}, "properties": {"charge": 96, "id": "bird_aa131b9d-da16-45e6-80c4-6c59f2efc565", "provider": "bird", "timeStamp": "02/06/2020, 23:18:11"}, "type": "Feature"}, {"geometry": {"coordinates": [8.517955, 47.3860783333333], "type": "Point"}, "properties": {"charge": 36, "id": "bird_3dd108ca-78a1-46be-91a7-a4ecf3011fb2", "provider": "bird", "timeStamp": "02/06/2020, 23:18:11"}, "type": "Feature"}, {"geometry": {"coordinates": [8.54344833333333, 47.3754733333333], "type": "Point"}, "properties": {"charge": 65, "id": "bird_e5ac4ad5-adb0-42e2-b3bc-96cca65cbaf1", "provider": "bird", "timeStamp": "02/06/2020, 23:18:11"}, "type": "Feature"}, {"geometry": {"coordinates": [8.517925, 47.38602], "type": "Point"}, "properties": {"charge": 75, "id": "bird_ab3a9b74-4b39-4a83-aec9-2480c19d5ab1", "provider": "bird", "timeStamp": "02/06/2020, 23:18:11"}, "type": "Feature"}, {"geometry": {"coordinates": [8.51930833333333, 47.3870733333333], "type": "Point"}, "properties": {"charge": 56, "id": "bird_758a9975-b2bc-4ab3-b74d-03bdf039c163", "provider": "bird", "timeStamp": "02/06/2020, 23:18:11"}, "type": "Feature"}, {"geometry": {"coordinates": [8.52774666666667, 47.3700183333333], "type": "Point"}, "properties": {"charge": 65, "id": "bird_2575f248-1e93-409b-9b77-ac9523ea5d05", "provider": "bird", "timeStamp": "02/06/2020, 23:18:11"}, "type": "Feature"}, {"geometry": {"coordinates": [8.51640666666667, 47.3759233333333], "type": "Point"}, "properties": {"charge": 69, "id": "bird_683114e8-4352-4971-9b47-b7dac5e3fee1", "provider": "bird", "timeStamp": "02/06/2020, 23:18:11"}, "type": "Feature"}, {"geometry": {"coordinates": [8.517735, 47.38565], "type": "Point"}, "properties": {"charge": 42, "id": "bird_92db7c74-9724-4e13-aab8-5ca304134174", "provider": "bird", "timeStamp": "02/06/2020, 23:18:11"}, "type": "Feature"}, {"geometry": {"coordinates": [8.53517, 47.3705933333333], "type": "Point"}, "properties": {"charge": 87, "id": "bird_cbfc6496-ef18-467f-a30d-3c636a6bd79d", "provider": "bird", "timeStamp": "02/06/2020, 23:18:11"}, "type": "Feature"}, {"geometry": {"coordinates": [8.52353, 47.370995], "type": "Point"}, "properties": {"charge": 93, "id": "bird_bd7ce0dc-2135-4178-9af3-455acedbf083", "provider": "bird", "timeStamp": "02/06/2020, 23:18:11"}, "type": "Feature"}, {"geometry": {"coordinates": [8.51842166666667, 47.38623], "type": "Point"}, "properties": {"charge": 94, "id": "bird_a0012910-54d2-41d5-85c8-f5f259080c57", "provider": "bird", "timeStamp": "02/06/2020, 23:18:11"}, "type": "Feature"}, {"geometry": {"coordinates": [8.51786833333333, 47.3857233333333], "type": "Point"}, "properties": {"charge": 98, "id": "bird_97b1406f-8c3d-4b3f-b748-ed9cf8ac41e8", "provider": "bird", "timeStamp": "02/06/2020, 23:18:11"}, "type": "Feature"}, {"geometry": {"coordinates": [8.52316166666666, 47.371125], "type": "Point"}, "properties": {"charge": 92, "id": "bird_ed495f74-adf0-47c3-9527-933f4d8e299d", "provider": "bird", "timeStamp": "02/06/2020, 23:18:11"}, "type": "Feature"}, {"geometry": {"coordinates": [8.52320166666667, 47.3711166666667], "type": "Point"}, "properties": {"charge": 91, "id": "bird_0f43ed75-c364-4524-b764-fa37134ef3db", "provider": "bird", "timeStamp": "02/06/2020, 23:18:11"}, "type": "Feature"}, {"geometry": {"coordinates": [8.51773333333333, 47.3855783333333], "type": "Point"}, "properties": {"charge": 93, "id": "bird_de3d2442-2033-48c6-b8eb-5fd138ef28b4", "provider": "bird", "timeStamp": "02/06/2020, 23:18:11"}, "type": "Feature"}, {"geometry": {"coordinates": [8.52604666666667, 47.3704033333333], "type": "Point"}, "properties": {"charge": 47, "id": "bird_4bf07f0d-97ac-4626-a587-7fa06526844e", "provider": "bird", "timeStamp": "02/06/2020, 23:18:11"}, "type": "Feature"}, {"geometry": {"coordinates": [8.517975, 47.3857383333333], "type": "Point"}, "properties": {"charge": 78, "id": "bird_31c894bf-f0ff-434a-bf5a-cfaa588b84b0", "provider": "bird", "timeStamp": "02/06/2020, 23:18:11"}, "type": "Feature"}, {"geometry": {"coordinates": [8.51771833333333, 47.385475], "type": "Point"}, "properties": {"charge": 98, "id": "bird_e590f611-8ee6-45d0-a021-c794f214f385", "provider": "bird", "timeStamp": "02/06/2020, 23:18:11"}, "type": "Feature"}, {"geometry": {"coordinates": [8.52226333333333, 47.3884433333333], "type": "Point"}, "properties": {"charge": 91, "id": "bird_704e4e47-514a-4371-af7a-a122e07a9fb0", "provider": "bird", "timeStamp": "02/06/2020, 23:18:11"}, "type": "Feature"}, {"geometry": {"coordinates": [8.54448666666667, 47.3815616666667], "type": "Point"}, "properties": {"charge": 60, "id": "bird_c8e54e0d-56c1-4923-a754-fac85597cd12", "provider": "bird", "timeStamp": "02/06/2020, 23:18:11"}, "type": "Feature"}, {"geometry": {"coordinates": [8.51811666666667, 47.3858183333333], "type": "Point"}, "properties": {"charge": 96, "id": "bird_d1393403-0928-4f91-9247-b5dcea99e64f", "provider": "bird", "timeStamp": "02/06/2020, 23:18:11"}, "type": "Feature"}, {"geometry": {"coordinates": [8.51835833333333, 47.3860283333333], "type": "Point"}, "properties": {"charge": 98, "id": "bird_e6b8ce48-5ae6-44b0-b2f3-245d0e36b3f3", "provider": "bird", "timeStamp": "02/06/2020, 23:18:11"}, "type": "Feature"}, {"geometry": {"coordinates": [8.51830833333333, 47.3859633333333], "type": "Point"}, "properties": {"charge": 98, "id": "bird_7d35195c-ee5d-416e-8c3b-80d81839cb70", "provider": "bird", "timeStamp": "02/06/2020, 23:18:11"}, "type": "Feature"}, {"geometry": {"coordinates": [8.51850833333333, 47.386135], "type": "Point"}, "properties": {"charge": 98, "id": "bird_4600afcc-fe3d-4308-bd00-4275de96d0c6", "provider": "bird", "timeStamp": "02/06/2020, 23:18:11"}, "type": "Feature"}, {"geometry": {"coordinates": [8.51853166666667, 47.3861466666667], "type": "Point"}, "properties": {"charge": 93, "id": "bird_1372244f-218b-4b54-904d-af96967d633f", "provider": "bird", "timeStamp": "02/06/2020, 23:18:11"}, "type": "Feature"}, {"geometry": {"coordinates": [8.51828833333333, 47.3859216666667], "type": "Point"}, "properties": {"charge": 96, "id": "bird_edb18813-37c0-4a80-bfcd-fd4b913f401e", "provider": "bird", "timeStamp": "02/06/2020, 23:18:11"}, "type": "Feature"}, {"geometry": {"coordinates": [8.51834333333333, 47.385945], "type": "Point"}, "properties": {"charge": 36, "id": "bird_02d0ef9a-4ef8-418f-91d4-42a6fa40dc44", "provider": "bird", "timeStamp": "02/06/2020, 23:18:11"}, "type": "Feature"}, {"geometry": {"coordinates": [8.51835, 47.3859366666667], "type": "Point"}, "properties": {"charge": 99, "id": "bird_50e2e11c-36d5-4e9c-a46a-0642372fcea9", "provider": "bird", "timeStamp": "02/06/2020, 23:18:11"}, "type": "Feature"}, {"geometry": {"coordinates": [8.52250333333333, 47.3884616666667], "type": "Point"}, "properties": {"charge": 61, "id": "bird_fcea8dbc-e968-4463-95d7-2a6480069e5b", "provider": "bird", "timeStamp": "02/06/2020, 23:18:11"}, "type": "Feature"}, {"geometry": {"coordinates": [8.523545, 47.3711733333333], "type": "Point"}, "properties": {"charge": 93, "id": "bird_48e93300-8559-4f8e-8c77-0f0fa437d088", "provider": "bird", "timeStamp": "02/06/2020, 23:18:11"}, "type": "Feature"}, {"geometry": {"coordinates": [8.541825, 47.3742866666667], "type": "Point"}, "properties": {"charge": 74, "id": "bird_b8e13ff8-a8ea-4a89-bbff-0f4a363eaf10", "provider": "bird", "timeStamp": "02/06/2020, 23:18:11"}, "type": "Feature"}, {"geometry": {"coordinates": [8.54359833333333, 47.3831283333333], "type": "Point"}, "properties": {"charge": 100, "id": "bird_5463e0d0-46b9-4e0e-acc0-c688dc68bf12", "provider": "bird", "timeStamp": "02/06/2020, 23:18:11"}, "type": "Feature"}, {"geometry": {"coordinates": [8.54347333333333, 47.38335], "type": "Point"}, "properties": {"charge": 100, "id": "bird_85307dcd-14c7-4281-8956-faf8a8394a21", "provider": "bird", "timeStamp": "02/06/2020, 23:18:11"}, "type": "Feature"}, {"geometry": {"coordinates": [8.52411833333333, 47.3711433333333], "type": "Point"}, "properties": {"charge": 93, "id": "bird_af89809f-6363-4e4d-af4c-c844db50a7f4", "provider": "bird", "timeStamp": "02/06/2020, 23:18:11"}, "type": "Feature"}, {"geometry": {"coordinates": [8.54337666666667, 47.376515], "type": "Point"}, "properties": {"charge": 76, "id": "bird_c10cddad-aff0-4dca-8985-74ffbb17c104", "provider": "bird", "timeStamp": "02/06/2020, 23:18:11"}, "type": "Feature"}, {"geometry": {"coordinates": [8.54345333333333, 47.3833383333333], "type": "Point"}, "properties": {"charge": 100, "id": "bird_2dc8fe09-b24f-4957-a839-17f09af60603", "provider": "bird", "timeStamp": "02/06/2020, 23:18:11"}, "type": "Feature"}, {"geometry": {"coordinates": [8.54352666666667, 47.3831483333333], "type": "Point"}, "properties": {"charge": 100, "id": "bird_471a8ecb-89c6-4a70-9d47-3c9f01dd03d5", "provider": "bird", "timeStamp": "02/06/2020, 23:18:11"}, "type": "Feature"}, {"geometry": {"coordinates": [8.52190666666667, 47.3879083333333], "type": "Point"}, "properties": {"charge": 46, "id": "bird_8d35aaa5-4fb2-4f1b-990a-e1f9b80ed823", "provider": "bird", "timeStamp": "02/06/2020, 23:18:11"}, "type": "Feature"}, {"geometry": {"coordinates": [8.524325, 47.371265], "type": "Point"}, "properties": {"charge": 85, "id": "bird_eb8955d9-03a5-4c5f-83ca-1e54952976d4", "provider": "bird", "timeStamp": "02/06/2020, 23:18:11"}, "type": "Feature"}, {"geometry": {"coordinates": [8.5237, 47.3716166666667], "type": "Point"}, "properties": {"charge": 64, "id": "bird_5e1470dd-1abb-4779-bfa9-c7124e036f9f", "provider": "bird", "timeStamp": "02/06/2020, 23:18:11"}, "type": "Feature"}, {"geometry": {"coordinates": [8.53901333333333, 47.3729316666667], "type": "Point"}, "properties": {"charge": 70, "id": "bird_0ea654f7-a2f2-4bb9-9da8-3aa48fd5d6e0", "provider": "bird", "timeStamp": "02/06/2020, 23:18:11"}, "type": "Feature"}, {"geometry": {"coordinates": [8.5392, 47.373565], "type": "Point"}, "properties": {"charge": 66, "id": "bird_353aa112-2791-4951-a018-fe3dd6c516df", "provider": "bird", "timeStamp": "02/06/2020, 23:18:11"}, "type": "Feature"}, {"geometry": {"coordinates": [8.531485, 47.371265], "type": "Point"}, "properties": {"charge": 15, "id": "bird_4f12fbf5-475e-44ff-a3c4-528a1a78b45d", "provider": "bird", "timeStamp": "02/06/2020, 23:18:11"}, "type": "Feature"}, {"geometry": {"coordinates": [8.54215833333333, 47.3771583333333], "type": "Point"}, "properties": {"charge": 57, "id": "bird_ff157ac5-455b-4601-acdc-9addcf9fa3c2", "provider": "bird", "timeStamp": "02/06/2020, 23:18:11"}, "type": "Feature"}, {"geometry": {"coordinates": [8.54177833333333, 47.382115], "type": "Point"}, "properties": {"charge": 37, "id": "bird_309502c9-1f33-4b4b-88fd-87741f20fffa", "provider": "bird", "timeStamp": "02/06/2020, 23:18:11"}, "type": "Feature"}, {"geometry": {"coordinates": [8.52683333333333, 47.3878783333333], "type": "Point"}, "properties": {"charge": 96, "id": "bird_d18c52e0-89a2-491f-b596-e4a197fd43a6", "provider": "bird", "timeStamp": "02/06/2020, 23:18:11"}, "type": "Feature"}, {"geometry": {"coordinates": [8.52261166666667, 47.3863633333333], "type": "Point"}, "properties": {"charge": 61, "id": "bird_10befb3e-ecb3-4a20-a143-a138769c3877", "provider": "bird", "timeStamp": "02/06/2020, 23:18:11"}, "type": "Feature"}, {"geometry": {"coordinates": [8.53492, 47.3726266666667], "type": "Point"}, "properties": {"charge": 46, "id": "bird_01a0d5a8-bd14-46c8-b6cb-ba8e17f0220f", "provider": "bird", "timeStamp": "02/06/2020, 23:18:11"}, "type": "Feature"}, {"geometry": {"coordinates": [8.53631833333333, 47.3731583333333], "type": "Point"}, "properties": {"charge": 66, "id": "bird_4f509a8b-1577-438c-8b69-9636c0d88829", "provider": "bird", "timeStamp": "02/06/2020, 23:18:11"}, "type": "Feature"}, {"geometry": {"coordinates": [8.51947, 47.3762583333333], "type": "Point"}, "properties": {"charge": 62, "id": "bird_4cfe7176-1294-444d-9cbc-91bd9e8c34c2", "provider": "bird", "timeStamp": "02/06/2020, 23:18:11"}, "type": "Feature"}, {"geometry": {"coordinates": [8.51818833333333, 47.3800283333333], "type": "Point"}, "properties": {"charge": 74, "id": "bird_58104cde-14cd-4f9a-963f-5519f566c0e0", "provider": "bird", "timeStamp": "02/06/2020, 23:18:11"}, "type": "Feature"}, {"geometry": {"coordinates": [8.534505, 47.3726383333333], "type": "Point"}, "properties": {"charge": 55, "id": "bird_120e2033-b4d4-4950-86be-1aa67b095feb", "provider": "bird", "timeStamp": "02/06/2020, 23:18:11"}, "type": "Feature"}, {"geometry": {"coordinates": [8.540365, 47.3762516666667], "type": "Point"}, "properties": {"charge": 58, "id": "bird_1f66e1e8-a39c-469f-8342-8e6fa52a5c75", "provider": "bird", "timeStamp": "02/06/2020, 23:18:11"}, "type": "Feature"}, {"geometry": {"coordinates": [8.54049, 47.3768466666667], "type": "Point"}, "properties": {"charge": 99, "id": "bird_f6d280f5-7c5c-4cce-9b37-1326b4d53d4e", "provider": "bird", "timeStamp": "02/06/2020, 23:18:11"}, "type": "Feature"}, {"geometry": {"coordinates": [8.52927333333333, 47.3877533333333], "type": "Point"}, "properties": {"charge": 73, "id": "bird_2516dc1d-7746-46db-9d55-153317c15ad8", "provider": "bird", "timeStamp": "02/06/2020, 23:18:11"}, "type": "Feature"}, {"geometry": {"coordinates": [8.52241666666667, 47.3741766666667], "type": "Point"}, "properties": {"charge": 61, "id": "bird_947fe50b-af86-4871-a179-c50f66c8157e", "provider": "bird", "timeStamp": "02/06/2020, 23:18:11"}, "type": "Feature"}, {"geometry": {"coordinates": [8.54046, 47.3768416666667], "type": "Point"}, "properties": {"charge": 96, "id": "bird_c980ca85-0cc7-4837-96fc-6509994fd59c", "provider": "bird", "timeStamp": "02/06/2020, 23:18:11"}, "type": "Feature"}, {"geometry": {"coordinates": [8.54043666666667, 47.376835], "type": "Point"}, "properties": {"charge": 97, "id": "bird_0a0fc8a3-8986-4aaf-a6b2-a9da0d15945c", "provider": "bird", "timeStamp": "02/06/2020, 23:18:11"}, "type": "Feature"}, {"geometry": {"coordinates": [8.51865333333333, 47.3809583333333], "type": "Point"}, "properties": {"charge": 62, "id": "bird_2e431d16-2290-4885-a428-165aafd4098f", "provider": "bird", "timeStamp": "02/06/2020, 23:18:11"}, "type": "Feature"}, {"geometry": {"coordinates": [8.540425, 47.37685], "type": "Point"}, "properties": {"charge": 99, "id": "bird_4b7f4788-8710-462f-ab16-0ca2320fd5c3", "provider": "bird", "timeStamp": "02/06/2020, 23:18:11"}, "type": "Feature"}, {"geometry": {"coordinates": [8.54038666666667, 47.376815], "type": "Point"}, "properties": {"charge": 99, "id": "bird_3c33343c-c9f6-471a-82ad-3a00bf7d6299", "provider": "bird", "timeStamp": "02/06/2020, 23:18:11"}, "type": "Feature"}, {"geometry": {"coordinates": [8.54042833333333, 47.3769], "type": "Point"},