{"features": [{"geometry": {"coordinates": [8.540062, 47.374392], "type": "Point"}, "properties": {"address": "Uraniastrasse 7", "electric": 7, "id": "pb_60", "manual": 7, "name": "Demo Station Werdm\u00fchleplatz", "provider": "publibike", "timeStamp": "01/29/2020, 09:38:22", "zip": 8001}, "type": "Feature"}, {"geometry": {"coordinates": [8.5452956, 47.4099615], "type": "Point"}, "properties": {"address": "Querstrasse 8", "electric": 1, "id": "pb_61", "manual": 1, "name": "Marktplatz", "provider": "publibike", "timeStamp": "01/29/2020, 09:38:22", "zip": 8050}, "type": "Feature"}, {"geometry": {"coordinates": [8.5156327, 47.3795837], "type": "Point"}, "properties": {"address": "Bullingerstrasse 5", "electric": 2, "id": "pb_80", "manual": 7, "name": "Bullingerplatz", "provider": "publibike", "timeStamp": "01/29/2020, 09:38:22", "zip": 8004}, "type": "Feature"}, {"geometry": {"coordinates": [8.5104051, 47.3899342], "type": "Point"}, "properties": {"address": "Pfingstweidstrasse 96e", "electric": 1, "id": "pb_81", "manual": 3, "name": "Herdern", "provider": "publibike", "timeStamp": "01/29/2020, 09:38:22", "zip": 8001}, "type": "Feature"}, {"geometry": {"coordinates": [8.535718, 47.359675], "type": "Point"}, "properties": {"address": "Mythenquai 50", "electric": 9, "id": "pb_82", "manual": 4, "name": "Hafen Enge", "provider": "publibike", "timeStamp": "01/29/2020, 09:38:22", "zip": 8002}, "type": "Feature"}, {"geometry": {"coordinates": [8.520370505, 47.358663827], "type": "Point"}, "properties": {"address": "Bubenbergstrasse 1", "electric": 6, "id": "pb_83", "manual": 1, "name": "Comerge", "provider": "publibike", "timeStamp": "01/29/2020, 09:38:22", "zip": 8045}, "type": "Feature"}, {"geometry": {"coordinates": [8.5412505, 47.3789825], "type": "Point"}, "properties": {"address": "Museumstrasse 2", "electric": 4, "id": "pb_84", "manual": 9, "name": "Landesmuseum", "provider": "publibike", "timeStamp": "01/29/2020, 09:38:22", "zip": 8001}, "type": "Feature"}, {"geometry": {"coordinates": [8.5235479, 47.3716661], "type": "Point"}, "properties": {"address": "Birmensdorferstrasse 80", "electric": 2, "id": "pb_85", "manual": 4, "name": "Bahnhof Wiedikon", "provider": "publibike", "timeStamp": "01/29/2020, 09:38:22", "zip": 8003}, "type": "Feature"}, {"geometry": {"coordinates": [8.506822854, 47.40781197], "type": "Point"}, "properties": {"address": "Stefano-Franscini-Platz 5", "electric": 15, "id": "pb_86", "manual": 0, "name": "ETH H\u00f6nggerberg", "provider": "publibike", "timeStamp": "01/29/2020, 09:38:22", "zip": 8093}, "type": "Feature"}, {"geometry": {"coordinates": [8.536101, 47.371083], "type": "Point"}, "properties": {"address": "Pelikanplatz 5", "electric": 4, "id": "pb_87", "manual": 1, "name": "Pelikanplatz", "provider": "publibike", "timeStamp": "01/29/2020, 09:38:22", "zip": 8001}, "type": "Feature"}, {"geometry": {"coordinates": [8.5257822, 47.3651936], "type": "Point"}, "properties": {"address": "H\u00fcrlimannplatz 90", "electric": 14, "id": "pb_88", "manual": 4, "name": "H\u00fcrlimannplatz", "provider": "publibike", "timeStamp": "01/29/2020, 09:38:22", "zip": 8002}, "type": "Feature"}, {"geometry": {"coordinates": [8.5313344, 47.3713591], "type": "Point"}, "properties": {"address": "Selnaustrasse 32", "electric": 4, "id": "pb_89", "manual": 5, "name": "Stauffacherbr\u00fccke", "provider": "publibike", "timeStamp": "01/29/2020, 09:38:22", "zip": 8001}, "type": "Feature"}, {"geometry": {"coordinates": [8.5056978, 47.3917964], "type": "Point"}, "properties": {"address": "Sportweg 25", "electric": 4, "id": "pb_90", "manual": 3, "name": "Sportweg", "provider": "publibike", "timeStamp": "01/29/2020, 09:38:22", "zip": 8005}, "type": "Feature"}, {"geometry": {"coordinates": [8.5181701, 47.3917837], "type": "Point"}, "properties": {"address": "Hardturmstrasse 11", "electric": 1, "id": "pb_91", "manual": 6, "name": "Puls 5", "provider": "publibike", "timeStamp": "01/29/2020, 09:38:22", "zip": 8005}, "type": "Feature"}, {"geometry": {"coordinates": [8.5286468, 47.3820827], "type": "Point"}, "properties": {"address": "R\u00f6ntgenstrasse 6", "electric": 5, "id": "pb_92", "manual": 4, "name": "R\u00f6ntgenstrasse", "provider": "publibike", "timeStamp": "01/29/2020, 09:38:22", "zip": 8005}, "type": "Feature"}, {"geometry": {"coordinates": [8.531935, 47.384918], "type": "Point"}, "properties": {"address": "Kornhausbr\u00fccke 1", "electric": 1, "id": "pb_93", "manual": 5, "name": "Limmatplatz", "provider": "publibike", "timeStamp": "01/29/2020, 09:38:22", "zip": 8005}, "type": "Feature"}, {"geometry": {"coordinates": [8.5354006, 47.3758639], "type": "Point"}, "properties": {"address": "Gessnerallee 15", "electric": 0, "id": "pb_94", "manual": 3, "name": "Gessnerallee", "provider": "publibike", "timeStamp": "01/29/2020, 09:38:22", "zip": 8001}, "type": "Feature"}, {"geometry": {"coordinates": [8.523818, 47.377148], "type": "Point"}, "properties": {"address": "Stauffacherstrasse 127", "electric": 6, "id": "pb_95", "manual": 5, "name": "B\u00e4ckeranlage", "provider": "publibike", "timeStamp": "01/29/2020, 09:38:22", "zip": 8004}, "type": "Feature"}, {"geometry": {"coordinates": [8.531836, 47.378548], "type": "Point"}, "properties": {"address": "Lagerstrasse 44", "electric": 3, "id": "pb_96", "manual": 6, "name": "Gustav-Gull-Platz", "provider": "publibike", "timeStamp": "01/29/2020, 09:38:22", "zip": 8004}, "type": "Feature"}, {"geometry": {"coordinates": [8.5104883, 47.3771535], "type": "Point"}, "properties": {"address": "Zurlindenstrasse 291", "electric": 2, "id": "pb_97", "manual": 5, "name": "Zurlindenstrasse", "provider": "publibike", "timeStamp": "01/29/2020, 09:38:22", "zip": 8003}, "type": "Feature"}, {"geometry": {"coordinates": [8.5333139, 47.3731102], "type": "Point"}, "properties": {"address": "Sihlstrasse 81", "electric": 2, "id": "pb_98", "manual": 3, "name": "Sihlstrasse", "provider": "publibike", "timeStamp": "01/29/2020, 09:38:22", "zip": 8001}, "type": "Feature"}, {"geometry": {"coordinates": [8.520532, 47.374951], "type": "Point"}, "properties": {"address": "Feldstrasse 24", "electric": 2, "id": "pb_99", "manual": 6, "name": "Kalkbreite", "provider": "publibike", "timeStamp": "01/29/2020, 09:38:22", "zip": 8004}, "type": "Feature"}, {"geometry": {"coordinates": [8.539046, 47.368064], "type": "Point"}, "properties": {"address": "Talstrasse 12", "electric": 3, "id": "pb_100", "manual": 1, "name": "Z\u00fcrcher Kantonalbank", "provider": "publibike", "timeStamp": "01/29/2020, 09:38:22", "zip": 8001}, "type": "Feature"}, {"geometry": {"coordinates": [8.5348427, 47.3625938], "type": "Point"}, "properties": {"address": "Breitingerstrasse 5", "electric": 1, "id": "pb_101", "manual": 6, "name": "Rentenanstalt", "provider": "publibike", "timeStamp": "01/29/2020, 09:38:22", "zip": 8002}, "type": "Feature"}, {"geometry": {"coordinates": [8.5166922, 47.3897772], "type": "Point"}, "properties": {"address": "Technoparkstrasse 4", "electric": 4, "id": "pb_102", "manual": 5, "name": "Turbinenplatz", "provider": "publibike", "timeStamp": "01/29/2020, 09:38:22", "zip": 8005}, "type": "Feature"}, {"geometry": {"coordinates": [8.539312, 47.3739964], "type": "Point"}, "properties": {"address": "Oetenbachgasse 14", "electric": 7, "id": "pb_104", "manual": 9, "name": "Rennweg", "provider": "publibike", "timeStamp": "01/29/2020, 09:38:22", "zip": 8001}, "type": "Feature"}, {"geometry": {"coordinates": [8.5360685, 47.3775022], "type": "Point"}, "properties": {"address": "Kasernenstrasse 101", "electric": 5, "id": "pb_105", "manual": 17, "name": "Sihlpost", "provider": "publibike", "timeStamp": "01/29/2020, 09:38:22", "zip": 8004}, "type": "Feature"}, {"geometry": {"coordinates": [8.53545, 47.382798], "type": "Point"}, "properties": {"address": "Ausstellungsstrasse 44", "electric": 8, "id": "pb_106", "manual": 8, "name": "Museum f\u00fcr Gestaltung", "provider": "publibike", "timeStamp": "01/29/2020, 09:38:22", "zip": 8005}, "type": "Feature"}, {"geometry": {"coordinates": [8.5306155, 47.3647902], "type": "Point"}, "properties": {"address": "Gutenbergstrasse 1", "electric": 4, "id": "pb_107", "manual": 1, "name": "Bederbr\u00fccke", "provider": "publibike", "timeStamp": "01/29/2020, 09:38:22", "zip": 8002}, "type": "Feature"}, {"geometry": {"coordinates": [8.518982, 47.386741], "type": "Point"}, "properties": {"address": "Geroldstrasse 4", "electric": 6, "id": "pb_108", "manual": 7, "name": "Bahnhof Hardbr\u00fccke", "provider": "publibike", "timeStamp": "01/29/2020, 09:38:22", "zip": 8005}, "type": "Feature"}, {"geometry": {"coordinates": [8.53001018, 47.37247535], "type": "Point"}, "properties": {"address": "Werdstrasse 21", "electric": 8, "id": "pb_109", "manual": 3, "name": "Tamedia", "provider": "publibike", "timeStamp": "01/29/2020, 09:38:22", "zip": 8004}, "type": "Feature"}, {"geometry": {"coordinates": [8.4860017, 47.396401], "type": "Point"}, "properties": {"address": "Gr\u00fcnauring 37", "electric": 5, "id": "pb_110", "manual": 6, "name": "Gr\u00fcnau", "provider": "publibike", "timeStamp": "01/29/2020, 09:38:22", "zip": 8064}, "type": "Feature"}, {"geometry": {"coordinates": [8.548519, 47.376756], "type": "Point"}, "properties": {"address": "R\u00e4mistrasse 101", "electric": 22, "id": "pb_111", "manual": 2, "name": "ETH Zentrum", "provider": "publibike", "timeStamp": "01/29/2020, 09:38:22", "zip": 8006}, "type": "Feature"}, {"geometry": {"coordinates": [8.520449, 47.388151], "type": "Point"}, "properties": {"address": "Josefstrasse 224", "electric": 0, "id": "pb_112", "manual": 5, "name": "Steinfelsareal", "provider": "publibike", "timeStamp": "01/29/2020, 09:38:22", "zip": 8005}, "type": "Feature"}, {"geometry": {"coordinates": [8.520482, 47.37209], "type": "Point"}, "properties": {"address": "Weststrasse 115", "electric": 9, "id": "pb_124", "manual": 7, "name": "Weststrasse", "provider": "publibike", "timeStamp": "01/29/2020, 09:38:22", "zip": 8003}, "type": "Feature"}, {"geometry": {"coordinates": [8.496727, 47.378521], "type": "Point"}, "properties": {"address": "Albisriederstrasse 200", "electric": 6, "id": "pb_125", "manual": 0, "name": "Utogrund", "provider": "publibike", "timeStamp": "01/29/2020, 09:38:22", "zip": 8047}, "type": "Feature"}, {"geometry": {"coordinates": [8.510418, 47.381356], "type": "Point"}, "properties": {"address": "Bullingerstrasse 73", "electric": 8, "id": "pb_126", "manual": 2, "name": "Hardau", "provider": "publibike", "timeStamp": "01/29/2020, 09:38:22", "zip": 8004}, "type": "Feature"}, {"geometry": {"coordinates": [8.525525, 47.361567], "type": "Point"}, "properties": {"address": "Klopstockstrasse 23", "electric": 4, "id": "pb_127", "manual": 0, "name": "Klopstockwiese", "provider": "publibike", "timeStamp": "01/29/2020, 09:38:22", "zip": 8002}, "type": "Feature"}, {"geometry": {"coordinates": [8.518143, 47.363148], "type": "Point"}, "properties": {"address": "Haldenstrasse 8", "electric": 9, "id": "pb_128", "manual": 6, "name": "Binz", "provider": "publibike", "timeStamp": "01/29/2020, 09:38:22", "zip": 8045}, "type": "Feature"}, {"geometry": {"coordinates": [8.542726, 47.379952], "type": "Point"}, "properties": {"address": "Walchestrasse 11", "electric": 2, "id": "pb_129", "manual": 0, "name": "Stampfenbachplatz", "provider": "publibike", "timeStamp": "01/29/2020, 09:38:22", "zip": 8006}, "type": "Feature"}, {"geometry": {"coordinates": [8.488108, 47.391366], "type": "Point"}, "properties": {"address": "Altstetterplatz 1", "electric": 12, "id": "pb_130", "manual": 8, "name": "Bahnhof Altstetten", "provider": "publibike", "timeStamp": "01/29/2020, 09:38:22", "zip": 8048}, "type": "Feature"}, {"geometry": {"coordinates": [8.554114, 47.365119], "type": "Point"}, "properties": {"address": "Kreuzplatz 2", "electric": 6, "id": "pb_131", "manual": 4, "name": "Kreuzplatz", "provider": "publibike", "timeStamp": "01/29/2020, 09:38:22", "zip": 8032}, "type": "Feature"}, {"geometry": {"coordinates": [8.549852, 47.35594], "type": "Point"}, "properties": {"address": "H\u00f6schgasse 3", "electric": 2, "id": "pb_132", "manual": 8, "name": "Blatterwiese", "provider": "publibike", "timeStamp": "01/29/2020, 09:38:22", "zip": 8008}, "type": "Feature"}, {"geometry": {"coordinates": [8.554501, 47.36162], "type": "Point"}, "properties": {"address": "Feldeggstrasse 80", "electric": 1, "id": "pb_133", "manual": 2, "name": "Villa Bleuler", "provider": "publibike", "timeStamp": "01/29/2020, 09:38:22", "zip": 8008}, "type": "Feature"}, {"geometry": {"coordinates": [8.557088, 47.358557], "type": "Point"}, "properties": {"address": "M\u00fchlebachstrasse 131", "electric": 1, "id": "pb_134", "manual": 2, "name": "M\u00fchlebachstrasse", "provider": "publibike", "timeStamp": "01/29/2020, 09:38:22", "zip": 8008}, "type": "Feature"}, {"geometry": {"coordinates": [8.547639, 47.361266], "type": "Point"}, "properties": {"address": "Utoquai 50", "electric": 3, "id": "pb_135", "manual": 7, "name": "Seebad Utoquai", "provider": "publibike", "timeStamp": "01/29/2020, 09:38:22", "zip": 8008}, "type": "Feature"}, {"geometry": {"coordinates": [8.548045, 47.370869], "type": "Point"}, "properties": {"address": "Heimplatz 1", "electric": 3, "id": "pb_137", "manual": 2, "name": "Kunsthaus", "provider": "publibike", "timeStamp": "01/29/2020, 09:38:22", "zip": 8001}, "type": "Feature"}, {"geometry": {"coordinates": [8.543447, 47.375933], "type": "Point"}, "properties": {"address": "Limmatquai 138", "electric": 1, "id": "pb_138", "manual": 9, "name": "Central", "provider": "publibike", "timeStamp": "01/29/2020, 09:38:22", "zip": 8001}, "type": "Feature"}, {"geometry": {"coordinates": [8.549356, 47.408827], "type": "Point"}, "properties": {"address": "Tramstrasse 35", "electric": 1, "id": "pb_139", "manual": 3, "name": "ewz Tramstrasse", "provider": "publibike", "timeStamp": "01/29/2020, 09:38:22", "zip": 8050}, "type": "Feature"}, {"geometry": {"coordinates": [8.533736, 47.366904], "type": "Point"}, "properties": {"address": "Bleicherweg 33", "electric": 2, "id": "pb_140", "manual": 6, "name": "Bleicherweg", "provider": "publibike", "timeStamp": "01/29/2020, 09:38:22", "zip": 8002}, "type": "Feature"}, {"geometry": {"coordinates": [8.544935, 47.366752], "type": "Point"}, "properties": {"address": "Bellevueplatz 2", "electric": 22, "id": "pb_141", "manual": 19, "name": "Bellevue", "provider": "publibike", "timeStamp": "01/29/2020, 09:38:22", "zip": 8001}, "type": "Feature"}, {"geometry": {"coordinates": [8.5285533, 47.3742296], "type": "Point"}, "properties": {"address": "Stauffacherstrasse 41", "electric": 0, "id": "pb_142", "manual": 1, "name": "Stauffacher", "provider": "publibike", "timeStamp": "01/29/2020, 09:38:22", "zip": 8004}, "type": "Feature"}, {"geometry": {"coordinates": [8.523722, 47.3899], "type": "Point"}, "properties": {"address": "Limmatstrasse 310", "electric": 1, "id": "pb_143", "manual": 5, "name": "Escher-Wyss-Platz", "provider": "publibike", "timeStamp": "01/29/2020, 09:38:22", "zip": 8005}, "type": "Feature"}, {"geometry": {"coordinates": [8.491061, 47.392336], "type": "Point"}, "properties": {"address": "Vulkanplatz 1", "electric": 3, "id": "pb_149", "manual": 10, "name": "Vulkanplatz", "provider": "publibike", "timeStamp": "01/29/2020, 09:38:22", "zip": 8048}, "type": "Feature"}, {"geometry": {"coordinates": [8.52306, 47.359872], "type": "Point"}, "properties": {"address": "Giessh\u00fcbelstrasse 15", "electric": 11, "id": "pb_150", "manual": 12, "name": "Utoplatz", "provider": "publibike", "timeStamp": "01/29/2020, 09:38:22", "zip": 8045}, "type": "Feature"}, {"geometry": {"coordinates": [8.486284, 47.387685], "type": "Point"}, "properties": {"address": "Lindenplatz 1", "electric": 12, "id": "pb_151", "manual": 8, "name": "Lindenplatz", "provider": "publibike", "timeStamp": "01/29/2020, 09:38:22", "zip": 8048}, "type": "Feature"}, {"geometry": {"coordinates": [8.49163, 47.389823], "type": "Point"}, "properties": {"address": "Hohlstrasse 563", "electric": 4, "id": "pb_152", "manual": 10, "name": "Luggweg", "provider": "publibike", "timeStamp": "01/29/2020, 09:38:22", "zip": 8048}, "type": "Feature"}, {"geometry": {"coordinates": [8.52174, 47.365272], "type": "Point"}, "properties": {"address": "Manessestrasse 87", "electric": 0, "id": "pb_153", "manual": 8, "name": "Manesseplatz", "provider": "publibike", "timeStamp": "01/29/2020, 09:38:22", "zip": 8045}, "type": "Feature"}, {"geometry": {"coordinates": [8.52714, 47.372329], "type": "Point"}, "properties": {"address": "Werdstrasse 75", "electric": 3, "id": "pb_154", "manual": 4, "name": "Werd", "provider": "publibike", "timeStamp": "01/29/2020, 09:38:22", "zip": 8004}, "type": "Feature"}, {"geometry": {"coordinates": [8.543042, 47.374711], "type": "Point"}, "properties": {"address": "Limmatquai 100", "electric": 0, "id": "pb_155", "manual": 0, "name": "Rudolf-Brun-Br\u00fccke", "provider": "publibike", "timeStamp": "01/29/2020, 09:38:22", "zip": 8001}, "type": "Feature"}, {"geometry": {"coordinates": [8.490837, 47.386596], "type": "Point"}, "properties": {"address": "Badenerstrasse 627", "electric": 3, "id": "pb_156", "manual": 6, "name": "Luggwegstrasse VBZ", "provider": "publibike", "timeStamp": "01/29/2020, 09:38:22", "zip": 8048}, "type": "Feature"}, {"geometry": {"coordinates": [8.535119, 47.355189], "type": "Point"}, "properties": {"address": "Mythenquai 95", "electric": 0, "id": "pb_157", "manual": 4, "name": "Strandbad Mythenquai", "provider": "publibike", "timeStamp": "01/29/2020, 09:38:22", "zip": 8002}, "type": "Feature"}, {"geometry": {"coordinates": [8.545505, 47.373675], "type": "Point"}, "properties": {"address": "Predigerpatz 21", "electric": 5, "id": "pb_158", "manual": 8, "name": "Predigerplatz", "provider": "publibike", "timeStamp": "01/29/2020, 09:38:22", "zip": 8001}, "type": "Feature"}, {"geometry": {"coordinates": [8.515558, 47.371868], "type": "Point"}, "properties": {"address": "Aemtlerstrasse 23", "electric": 2, "id": "pb_159", "manual": 3, "name": "Zwinglihaus", "provider": "publibike", "timeStamp": "01/29/2020, 09:38:22", "zip": 8003}, "type": "Feature"}, {"geometry": {"coordinates": [8.524629, 47.386072], "type": "Point"}, "properties": {"address": "Josefstrasse 188", "electric": 1, "id": "pb_160", "manual": 1, "name": "Josefwiese", "provider": "publibike", "timeStamp": "01/29/2020, 09:38:22", "zip": 8005}, "type": "Feature"}, {"geometry": {"coordinates": [8.527138, 47.387531], "type": "Point"}, "properties": {"address": "R\u00f6ntgenstrasse 87", "electric": 2, "id": "pb_164", "manual": 4, "name": "Markthalle", "provider": "publibike", "timeStamp": "01/29/2020, 09:38:22", "zip": 8005}, "type": "Feature"}, {"geometry": {"coordinates": [8.552717, 47.359978], "type": "Point"}, "properties": {"address": "Seefeldstrasse 96", "electric": 3, "id": "pb_263", "manual": 13, "name": "Feldeggstrasse", "provider": "publibike", "timeStamp": "01/29/2020, 09:38:22", "zip": 8008}, "type": "Feature"}, {"geometry": {"coordinates": [8.553189, 47.353198], "type": "Point"}, "properties": {"address": "Bellerivestrasse 170", "electric": 4, "id": "pb_264", "manual": 2, "name": "Lake Side", "provider": "publibike", "timeStamp": "01/29/2020, 09:38:22", "zip": 8008}, "type": "Feature"}, {"geometry": {"coordinates": [8.543437, 47.369256], "type": "Point"}, "properties": {"address": "Limmatquai 18", "electric": 0, "id": "pb_265", "manual": 0, "name": "Helmhaus", "provider": "publibike", "timeStamp": "01/29/2020, 09:38:22", "zip": 8032}, "type": "Feature"}, {"geometry": {"coordinates": [8.516676, 47.375819], "type": "Point"}, "properties": {"address": "Badenerstrasse 246", "electric": 4, "id": "pb_266", "manual": 7, "name": "Lochergut", "provider": "publibike", "timeStamp": "01/29/2020, 09:38:22", "zip": 8004}, "type": "Feature"}, {"geometry": {"coordinates": [8.514605, 47.389862], "type": "Point"}, "properties": {"address": "Pfingstweidstrasse 60", "electric": 7, "id": "pb_273", "manual": 2, "name": "Westpark", "provider": "publibike", "timeStamp": "01/29/2020, 09:38:22", "zip": 8005}, "type": "Feature"}, {"geometry": {"coordinates": [8.541239126, 47.375991201], "type": "Point"}, "properties": {"address": "Beatenplatz 1", "electric": 9, "id": "pb_274", "manual": 11, "name": "Beatenplatz", "provider": "publibike", "timeStamp": "01/29/2020, 09:38:22", "zip": 8001}, "type": "Feature"}, {"geometry": {"coordinates": [8.5417135, 47.3942197], "type": "Point"}, "properties": {"address": "Scheuchzerstrasse 181", "electric": 4, "id": "pb_275", "manual": 0, "name": "Pauluskirche", "provider": "publibike", "timeStamp": "01/29/2020, 09:38:22", "zip": 8057}, "type": "Feature"}, {"geometry": {"coordinates": [8.5528182, 47.414558], "type": "Point"}, "properties": {"address": "Hagenholzstrasse 51", "electric": 0, "id": "pb_276", "manual": 9, "name": "Airgate", "provider": "publibike", "timeStamp": "01/29/2020, 09:38:22", "zip": 8050}, "type": "Feature"}, {"geometry": {"coordinates": [8.537816, 47.413514], "type": "Point"}, "properties": {"address": "Birchstrasse 183", "electric": 4, "id": "pb_277", "manual": 3, "name": "Lamprechtweg", "provider": "publibike", "timeStamp": "01/29/2020, 09:38:22", "zip": 8050}, "type": "Feature"}, {"geometry": {"coordinates": [8.545602, 47.417701], "type": "Point"}, "properties": {"address": "Felsenrainstrasse 2", "electric": 3, "id": "pb_278", "manual": 7, "name": "Emil-Oberh\u00e4nsli", "provider": "publibike", "timeStamp": "01/29/2020, 09:38:22", "zip": 8050}, "type": "Feature"}, {"geometry": {"coordinates": [8.533647, 47.39808], "type": "Point"}, "properties": {"address": "Bucheggplatz 2", "electric": 2, "id": "pb_279", "manual": 6, "name": "Bucheggplatz", "provider": "publibike", "timeStamp": "01/29/2020, 09:38:22", "zip": 8057}, "type": "Feature"}, {"geometry": {"coordinates": [8.523549, 47.392347], "type": "Point"}, "properties": {"address": "Wipkingerplatz 4", "electric": 1, "id": "pb_280", "manual": 9, "name": "Wipkingerplatz", "provider": "publibike", "timeStamp": "01/29/2020, 09:38:22", "zip": 8037}, "type": "Feature"}, {"geometry": {"coordinates": [8.548562, 47.36691], "type": "Point"}, "properties": {"address": "Galerie \u00fcber Gleis 2/3", "electric": 16, "id": "pb_285", "manual": 3, "name": "Bahnhof Stadelhofen", "provider": "publibike", "timeStamp": "01/29/2020, 09:38:22", "zip": 8001}, "type": "Feature"}, {"geometry": {"coordinates": [8.493822, 47.3985553], "type": "Point"}, "properties": {"address": "Meierwiesenstrasse 12-4", "electric": 1, "id": "pb_286", "manual": 1, "name": "T\u00fcffenwies", "provider": "publibike", "timeStamp": "01/29/2020, 09:38:22", "zip": 8064}, "type": "Feature"}, {"geometry": {"coordinates": [8.552432, 47.3801757], "type": "Point"}, "properties": {"address": "Hochstrasse 34", "electric": 1, "id": "pb_356", "manual": 4, "name": "Siriuswiese", "provider": "publibike", "timeStamp": "01/29/2020, 09:38:22", "zip": 8044}, "type": "Feature"}, {"geometry": {"coordinates": [8.527298, 47.370141], "type": "Point"}, "properties": {"address": "Hallwylstrasse 71", "electric": 1, "id": "pb_357", "manual": 0, "name": "Hallwylstrasse", "provider": "publibike", "timeStamp": "01/29/2020, 09:38:22", "zip": 8004}, "type": "Feature"}, {"geometry": {"coordinates": [8.5414185, 47.3972455], "type": "Point"}, "properties": {"address": "Schaffhauserstrasse 137", "electric": 5, "id": "pb_358", "manual": 1, "name": "Milchbuck", "provider": "publibike", "timeStamp": "01/29/2020, 09:38:22", "zip": 8057}, "type": "Feature"}, {"geometry": {"coordinates": [8.512381, 47.393409], "type": "Point"}, "properties": {"address": "Hardturmstrasse 161", "electric": 5, "id": "pb_359", "manual": 5, "name": "Fischerweg", "provider": "publibike", "timeStamp": "01/29/2020, 09:38:22", "zip": 8005}, "type": "Feature"}, {"geometry": {"coordinates": [8.5421457, 47.3876979], "type": "Point"}, "properties": {"address": "Turnerstrasse 47", "electric": 1, "id": "pb_360", "manual": 6, "name": "Kirche Unterstrass", "provider": "publibike", "timeStamp": "01/29/2020, 09:38:22", "zip": 8006}, "type": "Feature"}, {"geometry": {"coordinates": [8.522117, 47.394554], "type": "Point"}, "properties": {"address": "Dorfstrasse 40", "electric": 3, "id": "pb_361", "manual": 2, "name": "Dorfstrasse", "provider": "publibike", "timeStamp": "01/29/2020, 09:38:22", "zip": 8037}, "type": "Feature"}, {"geometry": {"coordinates": [8.530437, 47.37271], "type": "Point"}, "properties": {"address": "Werdstrasse 25", "electric": 3, "id": "pb_362", "manual": 5, "name": "Stauffachertor", "provider": "publibike", "timeStamp": "01/29/2020, 09:38:22", "zip": 8004}, "type": "Feature"}, {"geometry": {"coordinates": [8.541712, 47.416155], "type": "Point"}, "properties": {"address": "Eggb\u00fchlstrasse 21", "electric": 4, "id": "pb_363", "manual": 4, "name": "Wahlenpark", "provider": "publibike", "timeStamp": "01/29/2020, 09:38:22", "zip": 8050}, "type": "Feature"}, {"geometry": {"coordinates": [8.5595335, 47.3708387], "type": "Point"}, "properties": {"address": "Dolderstrasse 32", "electric": 3, "id": "pb_364", "manual": 1, "name": "Kinderspital", "provider": "publibike", "timeStamp": "01/29/2020, 09:38:22", "zip": 8032}, "type": "Feature"}, {"geometry": {"coordinates": [8.536433, 47.388689], "type": "Point"}, "properties": {"address": "Kornhausstrasse 30", "electric": 0, "id": "pb_365", "manual": 0, "name": "Kornhausstrasse", "provider": "publibike", "timeStamp": "01/29/2020, 09:38:22", "zip": 8006}, "type": "Feature"}, {"geometry": {"coordinates": [8.55033, 47.407098], "type": "Point"}, "properties": {"address": "Schwamendingenstrasse 41", "electric": 2, "id": "pb_366", "manual": 4, "name": "Dorflinde", "provider": "publibike", "timeStamp": "01/29/2020, 09:38:22", "zip": 8050}, "type": "Feature"}, {"geometry": {"coordinates": [8.560476, 47.368199], "type": "Point"}, "properties": {"address": "R\u00f6merhofplatz 5", "electric": 0, "id": "pb_367", "manual": 0, "name": "R\u00f6merhof", "provider": "publibike", "timeStamp": "01/29/2020, 09:38:22", "zip": 8032}, "type": "Feature"}, {"geometry": {"coordinates": [8.5609218, 47.3619068], "type": "Point"}, "properties": {"address": "Forchstrasse 99", "electric": 0, "id": "pb_368", "manual": 0, "name": "Hegibachplatz", "provider": "publibike", "timeStamp": "01/29/2020, 09:38:22", "zip": 8032}, "type": "Feature"}, {"geometry": {"coordinates": [8.5721264, 47.4039985], "type": "Point"}, "properties": {"address": "Winterthurerstrasse 519", "electric": 7, "id": "pb_370", "manual": 5, "name": "Schwamendingerplatz", "provider": "publibike", "timeStamp": "01/29/2020, 09:38:22", "zip": 8051}, "type": "Feature"}, {"geometry": {"coordinates": [8.520168, 47.378556], "type": "Point"}, "properties": {"address": "Herman-Greulich-Strasse 56", "electric": 4, "id": "pb_384", "manual": 4, "name": "Hermann-Greulich-Weg", "provider": "publibike", "timeStamp": "01/29/2020, 09:38:22", "zip": 8004}, "type": "Feature"}, {"geometry": {"coordinates": [8.547912, 47.384923], "type": "Point"}, "properties": {"address": "Culmannstrasse", "electric": 1, "id": "pb_386", "manual": 3, "name": "Rigiplatz", "provider": "publibike", "timeStamp": "01/29/2020, 09:38:22", "zip": 8006}, "type": "Feature"}, {"geometry": {"coordinates": [8.543768, 47.411057], "type": "Point"}, "properties": {"address": "Hofwiesenstrasse 369", "electric": 7, "id": "pb_387", "manual": 3, "name": "Bahnhof Oerlikon S\u00fcd", "provider": "publibike", "timeStamp": "01/29/2020, 09:38:22", "zip": 8050}, "type": "Feature"}, {"geometry": {"coordinates": [8.544185, 47.412732], "type": "Point"}, "properties": {"address": "Jungholzstrasse 6", "electric": 3, "id": "pb_388", "manual": 0, "name": "Max-Frisch-Platz", "provider": "publibike", "timeStamp": "01/29/2020, 09:38:22", "zip": 8050}, "type": "Feature"}, {"geometry": {"coordinates": [8.558096, 47.413032], "type": "Point"}, "properties": {"address": "Andreasstrasse", "electric": 0, "id": "pb_389", "manual": 10, "name": "Hunziker-Areal", "provider": "publibike", "timeStamp": "01/29/2020, 09:38:22", "zip": 8050}, "type": "Feature"}, {"geometry": {"coordinates": [8.533265, 47.412873], "type": "Point"}, "properties": {"address": "Regina-K\u00e4gi-Strasse 1", "electric": 5, "id": "pb_390", "manual": 4, "name": "Luis-H\u00e4fliger-Park", "provider": "publibike", "timeStamp": "01/29/2020, 09:38:22", "zip": 8050}, "type": "Feature"}, {"geometry": {"coordinates": [8.499265, 47.401852], "type": "Point"}, "properties": {"address": "Limmattalstrasse 177", "electric": 4, "id": "pb_391", "manual": 0, "name": "Meierhofplatz", "provider": "publibike", "timeStamp": "01/29/2020, 09:38:22", "zip": 8049}, "type": "Feature"}, {"geometry": {"coordinates": [8.528356, 47.393255], "type": "Point"}, "properties": {"address": "R\u00f6schibachstrasse 73", "electric": 1, "id": "pb_392", "manual": 1, "name": "R\u00f6schibachplatz", "provider": "publibike", "timeStamp": "01/29/2020, 09:38:22", "zip": 8037}, "type": "Feature"}, {"geometry": {"coordinates": [8.538067, 47.415721], "type": "Point"}, "properties": {"address": "Birchstrasse 191", "electric": 4, "id": "pb_393", "manual": 2, "name": "Oerliker Park", "provider": "publibike", "timeStamp": "01/29/2020, 09:38:22", "zip": 8050}, "type": "Feature"}, {"geometry": {"coordinates": [8.5420304, 47.3669233], "type": "Point"}, "properties": {"address": "Stadthausquai 1", "electric": 1, "id": "pb_395", "manual": 9, "name": "B\u00fcrkliplatz", "provider": "publibike", "timeStamp": "01/29/2020, 09:38:22", "zip": 8001}, "type": "Feature"}, {"geometry": {"coordinates": [8.535767, 47.409881], "type": "Point"}, "properties": {"address": "Regensbergstrasse 195", "electric": 3, "id": "pb_396", "manual": 1, "name": "Holunderhof", "provider": "publibike", "timeStamp": "01/29/2020, 09:38:22", "zip": 8050}, "type": "Feature"}, {"geometry": {"coordinates": [8.5116245, 47.3616199], "type": "Point"}, "properties": {"address": "Grubenstrasse 42", "electric": 2, "id": "pb_431", "manual": 1, "name": "Binz Center", "provider": "publibike", "timeStamp": "01/29/2020, 09:38:22", "zip": 8045}, "type": "Feature"}, {"geometry": {"coordinates": [8.547195, 47.382089], "type": "Point"}, "properties": {"address": "Nelkenstrasse 24", "electric": 3, "id": "pb_430", "manual": 0, "name": "Stapferstube", "provider": "publibike", "timeStamp": "01/29/2020, 09:38:22", "zip": 8006}, "type": "Feature"}, {"geometry": {"coordinates": [8.5787183, 47.4039845], "type": "Point"}, "properties": {"address": "Kronwiesenstrasse 35", "electric": 2, "id": "pb_426", "manual": 3, "name": "Kronwiesen", "provider": "publibike", "timeStamp": "01/29/2020, 09:38:22", "zip": 8051}, "type": "Feature"}, {"geometry": {"coordinates": [8.508131, 47.420757], "type": "Point"}, "properties": {"address": "Riedenhaldenstrasse 20-18", "electric": 9, "id": "pb_425", "manual": 4, "name": "Bahnhof Affoltern", "provider": "publibike", "timeStamp": "01/29/2020, 09:38:22", "zip": 8046}, "type": "Feature"}, {"geometry": {"coordinates": [8.532464, 47.406988], "type": "Point"}, "properties": {"address": "K\u00fcnzlistrasse 41", "electric": 2, "id": "pb_424", "manual": 4, "name": "Birchd\u00f6rfli", "provider": "publibike", "timeStamp": "01/29/2020, 09:38:22", "zip": 8057}, "type": "Feature"}, {"geometry": {"coordinates": [8.5777038, 47.4080095], "type": "Point"}, "properties": {"address": "Luegislandstrasse 412", "electric": 3, "id": "pb_429", "manual": 5, "name": "Luegisland", "provider": "publibike", "timeStamp": "01/29/2020, 09:38:22", "zip": 8051}, "type": "Feature"}, {"geometry": {"coordinates": [8.58841, 47.40158], "type": "Point"}, "properties": {"address": "Hirzenbachstrasse 2-4", "electric": 3, "id": "pb_428", "manual": 2, "name": "Hirzenbachstrasse", "provider": "publibike", "timeStamp": "01/29/2020, 09:38:22", "zip": 8051}, "type": "Feature"}, {"geometry": {"coordinates": [8.5563463, 47.4095467], "type": "Point"}, "properties": {"address": "K\u00fchriedweg", "electric": 3, "id": "pb_445", "manual": 4, "name": "Hallenbad Oerlikon", "provider": "publibike", "timeStamp": "01/29/2020, 09:38:22", "zip": 8050}, "type": "Feature"}, {"geometry": {"coordinates": [8.537971, 47.364871], "type": "Point"}, "properties": {"address": "General-Guisan-Quai 17", "electric": 0, "id": "pb_454", "manual": 4, "name": "General-Guisan-Quai", "provider": "publibike", "timeStamp": "01/29/2020, 09:38:22", "zip": 8002}, "type": "Feature"}, {"geometry": {"coordinates": [8.560587, 47.350578], "type": "Point"}, "properties": {"address": "Bellerivestrasse 245", "electric": 8, "id": "pb_450", "manual": 8, "name": "Bahnhof Tiefenbrunnen", "provider": "publibike", "timeStamp": "01/29/2020, 09:38:22", "zip": 8008}, "type": "Feature"}, {"geometry": {"coordinates": [8.5269416, 47.3563719], "type": "Point"}, "properties": {"address": "Waffenplatzstrasse 89", "electric": 4, "id": "pb_452", "manual": 4, "name": "Rieterplatz", "provider": "publibike", "timeStamp": "01/29/2020, 09:38:22", "zip": 8002}, "type": "Feature"}, {"geometry": {"coordinates": [8.514176, 47.3663708], "type": "Point"}, "properties": {"address": "Talwiesenstrasse 92", "electric": 5, "id": "pb_446", "manual": 0, "name": "Binzallee", "provider": "publibike", "timeStamp": "01/29/2020, 09:38:22", "zip": 8055}, "type": "Feature"}, {"geometry": {"coordinates": [8.5070564, 47.371455], "type": "Point"}, "properties": {"address": "Gutstrasse 87", "electric": 9, "id": "pb_447", "manual": 6, "name": "Gutstrasse", "provider": "publibike", "timeStamp": "01/29/2020, 09:38:22", "zip": 8055}, "type": "Feature"}, {"geometry": {"coordinates": [8.4941268, 47.3836391], "type": "Point"}, "properties": {"address": "Flurstrasse 62", "electric": 1, "id": "pb_453", "manual": 3, "name": "Flurpark", "provider": "publibike", "timeStamp": "01/29/2020, 09:38:22", "zip": 8048}, "type": "Feature"}, {"geometry": {"coordinates": [8.500343, 47.380778], "type": "Point"}, "properties": {"address": "Edelweissstrasse 32", "electric": 2, "id": "pb_448", "manual": 3, "name": "Bl\u00fcemliquartier", "provider": "publibike", "timeStamp": "01/29/2020, 09:38:22", "zip": 8048}, "type": "Feature"}, {"geometry": {"coordinates": [8.528796, 47.383858], "type": "Point"}, "properties": {"address": "Gasometerstrasse 24", "electric": 1, "id": "pb_449", "manual": 9, "name": "Gasometerstrasse", "provider": "publibike", "timeStamp": "01/29/2020, 09:38:22", "zip": 8005}, "type": "Feature"}, {"geometry": {"coordinates": [8.4981964, 47.3859194], "type": "Point"}, "properties": {"address": "Baslerstrasse 57", "electric": 9, "id": "pb_455", "manual": 7, "name": "Letzipark", "provider": "publibike", "timeStamp": "01/29/2020, 09:38:22", "zip": 8048}, "type": "Feature"}, {"geometry": {"coordinates": [8.515252, 47.381915], "type": "Point"}, "properties": {"address": "Sihlfeldstrasse 175", "electric": 3, "id": "pb_451", "manual": 3, "name": "Hardplatz", "provider": "publibike", "timeStamp": "01/29/2020, 09:38:22", "zip": 8004}, "type": "Feature"}, {"geometry": {"coordinates": [8.5064743, 47.4188324], "type": "Point"}, "properties": {"address": "Wehntalerstrasse 541", "electric": 6, "id": "pb_427", "manual": 3, "name": "Zehntenhausplatz", "provider": "publibike", "timeStamp": "01/29/2020, 09:38:22", "zip": 8046}, "type": "Feature"}, {"geometry": {"coordinates": [8.537729, 47.379719], "type": "Point"}, "properties": {"address": "Sihlquai/HB", "electric": 7, "id": "pb_513", "manual": 4, "name": "Sihlquai", "provider": "publibike", "timeStamp": "01/29/2020, 09:38:22", "zip": 8005}, "type": "Feature"}, {"geometry": {"coordinates": [8.596202, 47.397885], "type": "Point"}, "properties": {"address": "Bahnhof Stettbach", "electric": 3, "id": "pb_514", "manual": 4, "name": "Bahnhof Stettbach", "provider": "publibike", "timeStamp": "01/29/2020, 09:38:22", "zip": 8051}, "type": "Feature"}, {"geometry": {"coordinates": [8.5543974, 47.3690153], "type": "Point"}, "properties": {"address": "Kasinostrasse 10", "electric": 2, "id": "pb_515", "manual": 1, "name": "Hottingerplatz", "provider": "publibike", "timeStamp": "01/29/2020, 09:38:22", "zip": 8032}, "type": "Feature"}, {"geometry": {"coordinates": [8.534444, 47.351525], "type": "Point"}, "properties": {"address": "Mobile Station Z\u00fcrich 1", "electric": 0, "id": "pb_282", "manual": 0, "name": "Theaterspektakel", "provider": "publibike", "timeStamp": "01/29/2020, 09:38:22", "zip": 8002}, "type": "Feature"}, {"geometry": {"coordinates": [8.516257, 47.367656], "type": "Point"}, "properties": {"address": "Goldbrunnenstrasse 54", "electric": 5, "id": "pb_538", "manual": 1, "name": "Kirche B\u00fchl", "provider": "publibike", "timeStamp": "01/29/2020, 09:38:22", "zip": 8055}, "type": "Feature"}, {"geometry": {"coordinates": [8.555639, 47.416873], "type": "Point"}, "properties": {"address": "Leutschenbachstrasse 50", "electric": 1, "id": "pb_537", "manual": 4, "name": "Leutschenpark", "provider": "publibike", "timeStamp": "01/29/2020, 09:38:22", "zip": 8050}, "type": "Feature"}, {"geometry": {"coordinates": [8.546464, 47.403822], "type": "Point"}, "properties": {"address": "Berninastrasse 45", "electric": 11, "id": "pb_540", "manual": 2, "name": "Berninaplatz", "provider": "publibike", "timeStamp": "01/29/2020, 09:38:22", "zip": 8057}, "type": "Feature"}, {"geometry": {"coordinates": [8.523134, 47.369004], "type": "Point"}, "properties": {"address": "Erlachstrasse 3", "electric": 0, "id": "pb_385", "manual": 0, "name": "Aegerten", "provider": "publibike", "timeStamp": "01/29/2020, 09:38:22", "zip": 8003}, "type": "Feature"}, {"geometry": {"coordinates": [8.49038, 47.381591], "type": "Point"}, "properties": {"address": "Rautistrasse 60", "electric": 6, "id": "pb_536", "manual": 6, "name": "Freilager", "provider": "publibike", "timeStamp": "01/29/2020, 09:38:22", "zip": 8048}, "type": "Feature"}, {"geometry": {"coordinates": [8.496511, 47.375247], "type": "Point"}, "properties": {"address": "Letzigraben 139", "electric": 1, "id": "pb_444", "manual": 2, "name": "Sackzelg", "provider": "publibike", "timeStamp": "01/29/2020, 09:38:22", "zip": 8047}, "type": "Feature"}, {"geometry": {"coordinates": [8.58131, 47.402801], "type": "Point"}, "properties": {"address": "Altwiesenstrasse 104", "electric": 1, "id": "pb_539", "manual": 5, "name": "Glattwiesen", "provider": "publibike", "timeStamp": "01/29/2020, 09:38:22", "zip": 8051}, "type": "Feature"}, {"geometry": {"coordinates": [8.52689, 47.3767], "type": "Point"}, "properties": {"address": "Molkenstrasse 5", "electric": 2, "id": "pb_560", "manual": 5, "name": "Helvetiaplatz", "provider": "publibike", "timeStamp": "01/29/2020, 09:38:22", "zip": 8004}, "type": "Feature"}, {"geometry": {"coordinates": [8.525602, 47.374241], "type": "Point"}, "properties": {"address": "Badenerstrasse 90", "electric": 3, "id": "pb_559", "manual": 3, "name": "Bezirksgeb\u00e4ude", "provider": "publibike", "timeStamp": "01/29/2020, 09:38:22", "zip": 8004}, "type": "Feature"}, {"geometry": {"coordinates": [8.535082, 47.345248], "type": "Point"}, "properties": {"address": "Bachstrasse 15", "electric": 5, "id": "pb_564", "manual": 3, "name": "GZ Wollishofen", "provider": "publibike", "timeStamp": "01/29/2020, 09:38:22", "zip": 8038}, "type": "Feature"}, {"geometry": {"coordinates": [8.514841, 47.370238], "type": "Point"}, "properties": {"address": "Schrennengasse 37", "electric": 0, "id": "pb_562", "manual": 2, "name": "Goldbrunnenplatz", "provider": "publibike", "timeStamp": "01/29/2020, 09:38:22", "zip": 8003}, "type": "Feature"}, {"geometry": {"coordinates": [8.514138, 47.374206], "type": "Point"}, "properties": {"address": "Idaplatz 4", "electric": 3, "id": "pb_557", "manual": 3, "name": "Idaplatz", "provider": "publibike", "timeStamp": "01/29/2020, 09:38:22", "zip": 8003}, "type": "Feature"}, {"geometry": {"coordinates": [8.518432, 47.369549], "type": "Point"}, "properties": {"address": "Brinerstrasse 2", "electric": 1, "id": "pb_558", "manual": 9, "name": "Schmiede Wiedikon", "provider": "publibike", "timeStamp": "01/29/2020, 09:38:22", "zip": 8003}, "type": "Feature"}, {"geometry": {"coordinates": [8.537546, 47.391289], "type": "Point"}, "properties": {"address": "Rotbuchstrasse 15", "electric": 3, "id": "pb_556", "manual": 1, "name": "Schaffhauserplatz", "provider": "publibike", "timeStamp": "01/29/2020, 09:38:22", "zip": 8006}, "type": "Feature"}, {"geometry": {"coordinates": [8.541541, 47.413733], "type": "Point"}, "properties": {"address": "Therese-Giehse-Strasse 11", "electric": 3, "id": "pb_561", "manual": 2, "name": "Center Eleven", "provider": "publibike", "timeStamp": "01/29/2020, 09:38:22", "zip": 8050}, "type": "Feature"}, {"geometry": {"coordinates": [8.534227, 47.360004], "type": "Point"}, "properties": {"address": "Alfred Escher-Strasse 76", "electric": 8, "id": "pb_563", "manual": 4, "name": "Mythenschloss", "provider": "publibike", "timeStamp": "01/29/2020, 09:38:22", "zip": 8002}, "type": "Feature"}, {"geometry": {"coordinates": [8.50373, 47.396172], "type": "Point"}, "properties": {"address": "Hardeggstrasse 6", "electric": 0, "id": "pb_566", "manual": 0, "name": "Am Wasser", "provider": "publibike", "timeStamp": "01/29/2020, 09:38:22", "zip": 8049}, "type": "Feature"}, {"geometry": {"coordinates": [8.532432, 47.381174], "type": "Point"}, "properties": {"address": "Klingenstrasse 9", "electric": 5, "id": "pb_565", "manual": 4, "name": "Zollstrasse", "provider": "publibike", "timeStamp": "01/29/2020, 09:38:22", "zip": 8005}, "type": "Feature"}, {"geometry": {"coordinates": [8.497982, 47.381447], "type": "Point"}, "properties": {"address": "Dennlerstrasse 23", "electric": 2, "id": "pb_567", "manual": 5, "name": "Dennlerstrasse", "provider": "publibike", "timeStamp": "01/29/2020, 09:38:22", "zip": 8047}, "type": "Feature"}, {"geometry": {"coordinates": [8.528049, 47.347701], "type": "Point"}, "properties": {"address": "Mutschellenstrasse 114", "electric": 5, "id": "pb_568", "manual": 3, "name": "Jugendherberge", "provider": "publibike", "timeStamp": "01/29/2020, 09:38:22", "zip": 8038}, "type": "Feature"}, {"geometry": {"coordinates": [8.539016, 47.405751], "type": "Point"}, "properties": {"address": "Ringstrasse 82", "electric": 7, "id": "pb_569", "manual": 2, "name": "Freibad Allenmoos", "provider": "publibike", "timeStamp": "01/29/2020, 09:38:22", "zip": 8057}, "type": "Feature"}, {"geometry": {"coordinates": [8.534974, 47.402164], "type": "Point"}, "properties": {"address": "Brache Guggach", "electric": 1, "id": "pb_572", "manual": 1, "name": "Radiostudio", "provider": "publibike", "timeStamp": "01/29/2020, 09:38:22", "zip": 8057}, "type": "Feature"}, {"geometry": {"coordinates": [8.547901, 47.375556], "type": "Point"}, "properties": {"address": "Karl-Schmid-Strasse 4", "electric": 2, "id": "pb_571", "manual": 0, "name": "ETH/Zoologisches Museum", "provider": "publibike", "timeStamp": "01/29/2020, 09:38:22", "zip": 8006}, "type": "Feature"}, {"geometry": {"coordinates": [8.551893, 47.388966], "type": "Point"}, "properties": {"charge": 23, "id": "smide_2901", "name": "ZH 267278", "provider": "smide", "range": 11.0, "size": 20, "time": "01/29/2020, 09:39:56"}, "type": "Feature"}, {"geometry": {"coordinates": [8.56096, 47.350335], "type": "Point"}, "properties": {"charge": 18, "id": "smide_2895", "name": "ZH 267279", "provider": "smide", "range": 9.0, "size": 20, "time": "01/29/2020, 09:39:56"}, "type": "Feature"}, {"geometry": {"coordinates": [8.518131, 47.388375], "type": "Point"}, "properties": {"charge": 49, "id": "smide_2880", "name": "ZH267289", "provider": "smide", "range": 24.0, "size": 17, "time": "01/29/2020, 09:39:56"}, "type": "Feature"}, {"geometry": {"coordinates": [8.560296, 47.351645], "type": "Point"}, "properties": {"charge": 74, "id": "smide_2874", "name": "ZH 267288", "provider": "smide", "range": 37.0, "size": 17, "time": "01/29/2020, 09:39:56"}, "type": "Feature"}, {"geometry": {"coordinates": [8.494945, 47.398345], "type": "Point"}, "properties": {"charge": 69, "id": "smide_2871", "name": "ZH 267086", "provider": "smide", "range": 34.0, "size": 20, "time": "01/29/2020, 09:39:56"}, "type": "Feature"}, {"geometry": {"coordinates": [8.557445, 47.419073], "type": "Point"}, "properties": {"charge": 74, "id": "smide_2867", "name": "ZH 267090", "provider": "smide", "range": 37.0, "size": 20, "time": "01/29/2020, 09:39:56"}, "type": "Feature"}, {"geometry": {"coordinates": [8.553508, 47.387278], "type": "Point"}, "properties": {"charge": 76, "id": "smide_2861", "name": "ZH 267096", "provider": "smide", "range": 38.0, "size": 17, "time": "01/29/2020, 09:39:56"}, "type": "Feature"}, {"geometry": {"coordinates": [8.48364, 47.397101], "type": "Point"}, "properties": {"charge": 59, "id": "smide_2860", "name": "ZH 267097", "provider": "smide", "range": 29.0, "size": 17, "time": "01/29/2020, 09:39:56"}, "type": "Feature"}, {"geometry": {"coordinates": [8.579561, 47.351056], "type": "Point"}, "properties": {"charge": 100, "id": "smide_2856", "name": "ZH 267101", "provider": "smide", "range": 50.0, "size": 17, "time": "01/29/2020, 09:39:56"}, "type": "Feature"}, {"geometry": {"coordinates": [8.51061, 47.398521], "type": "Point"}, "properties": {"charge": 93, "id": "smide_2854", "name": "ZH 267103", "provider": "smide", "range": 46.0, "size": 17, "time": "01/29/2020, 09:39:56"}, "type": "Feature"}, {"geometry": {"coordinates": [8.5701, 47.352331], "type": "Point"}, "properties": {"charge": 76, "id": "smide_2831", "name": "ZH 267180", "provider": "smide", "range": 38.0, "size": 20, "time": "01/29/2020, 09:39:56"}, "type": "Feature"}, {"geometry": {"coordinates": [8.569143, 47.372865], "type": "Point"}, "properties": {"charge": 98, "id": "smide_2829", "name": "ZH 267049", "provider": "smide", "range": 49.0, "size": 20, "time": "01/29/2020, 09:39:56"}, "type": "Feature"}, {"geometry": {"coordinates": [8.506045, 47.418961], "type": "Point"}, "properties": {"charge": 100, "id": "smide_2804", "name": "ZH266903", "provider": "smide", "range": 50.0, "size": 20, "time": "01/29/2020, 09:39:56"}, "type": "Feature"}, {"geometry": {"coordinates": [8.553146, 47.398175], "type": "Point"}, "properties": {"charge": 90, "id": "smide_2798", "name": "ZH266888", "provider": "smide", "range": 45.0, "size": 17, "time": "01/29/2020, 09:39:56"}, "type": "Feature"}, {"geometry": {"coordinates": [8.52186, 47.395328], "type": "Point"}, "properties": {"charge": 94, "id": "smide_2793", "name": "ZH266883", "provider": "smide", "range": 47.0, "size": 17, "time": "01/29/2020, 09:39:56"}, "type": "Feature"}, {"geometry": {"coordinates": [8.550056, 47.361643], "type": "Point"}, "properties": {"charge": 59, "id": "smide_2790", "name": "ZH266880", "provider": "smide", "range": 29.0, "size": 17, "time": "01/29/2020, 09:39:56"}, "type": "Feature"}, {"geometry": {"coordinates": [8.535923, 47.377531], "type": "Point"}, "properties": {"charge": 95, "id": "smide_2785", "name": "ZH266875", "provider": "smide", "range": 47.0, "size": 17, "time": "01/29/2020, 09:39:56"}, "type": "Feature"}, {"geometry": {"coordinates": [8.524788, 47.386011], "type": "Point"}, "properties": {"charge": 49, "id": "smide_2781", "name": "ZH 266871", "provider": "smide", "range": 24.0, "size": 17, "time": "01/29/2020, 09:39:56"}, "type": "Feature"}, {"geometry": {"coordinates": [8.516023, 47.391245], "type": "Point"}, "properties": {"charge": 59, "id": "smide_2780", "name": "ST1 X #1", "provider": "smide", "range": 29.0, "size": 17, "time": "01/29/2020, 09:39:56"}, "type": "Feature"}, {"geometry": {"coordinates": [8.545096, 47.423488], "type": "Point"}, "properties": {"charge": 93, "id": "smide_2773", "name": "ZH266561", "provider": "smide", "range": 46.0, "size": 17, "time": "01/29/2020, 09:39:56"}, "type": "Feature"}, {"geometry": {"coordinates": [8.525667, 47.371984], "type": "Point"}, "properties": {"charge": 34, "id": "smide_2763", "name": "ZH266641", "provider": "smide", "range": 17.0, "size": 17, "time": "01/29/2020, 09:39:56"}, "type": "Feature"}, {"geometry": {"coordinates": [8.560266, 47.382103], "type": "Point"}, "properties": {"charge": 58, "id": "smide_2761", "name": "ZH266642", "provider": "smide", "range": 28.0, "size": 20, "time": "01/29/2020, 09:39:56"}, "type": "Feature"}, {"geometry": {"coordinates": [8.502332, 47.368536], "type": "Point"}, "properties": {"charge": 27, "id": "smide_2758", "name": "ZH266638 M", "provider": "smide", "range": 13.0, "size": 17, "time": "01/29/2020, 09:39:56"}, "type": "Feature"}, {"geometry": {"coordinates": [8.510807, 47.366964], "type": "Point"}, "properties": {"charge": 93, "id": "smide_2752", "name": "BE343856", "provider": "smide", "range": 46.0, "size": 17, "time": "01/29/2020, 09:39:56"}, "type": "Feature"}, {"geometry": {"coordinates": [8.552686, 47.388648], "type": "Point"}, "properties": {"charge": 100, "id": "smide_2751", "name": "BE343857", "provider": "smide", "range": 50.0, "size": 17, "time": "01/29/2020, 09:39:56"}, "type": "Feature"}, {"geometry": {"coordinates": [8.491097, 47.39086], "type": "Point"}, "properties": {"charge": 57, "id": "smide_2749", "name": "BE343867", "provider": "smide", "range": 28.0, "size": 17, "time": "01/29/2020, 09:39:56"}, "type": "Feature"}, {"geometry": {"coordinates": [8.492723, 47.388812], "type": "Point"}, "properties": {"charge": 51, "id": "smide_2748", "name": "BE335758", "provider": "smide", "range": 25.0, "size": 17, "time": "01/29/2020, 09:39:56"}, "type": "Feature"}, {"geometry": {"coordinates": [8.55155, 47.420772], "type": "Point"}, "properties": {"charge": 100, "id": "smide_2747", "name": "BE335820", "provider": "smide", "range": 50.0, "size": 17, "time": "01/29/2020, 09:39:56"}, "type": "Feature"}, {"geometry": {"coordinates": [8.490767, 47.376424], "type": "Point"}, "properties": {"charge": 62, "id": "smide_2745", "name": "BE335818", "provider": "smide", "range": 31.0, "size": 17, "time": "01/29/2020, 09:39:56"}, "type": "Feature"}, {"geometry": {"coordinates": [8.574562, 47.352384], "type": "Point"}, "properties": {"charge": 58, "id": "smide_2742", "name": "BE343866", "provider": "smide", "range": 28.0, "size": 17, "time": "01/29/2020, 09:39:56"}, "type": "Feature"}, {"geometry": {"coordinates": [8.54626, 47.375708], "type": "Point"}, "properties": {"charge": 43, "id": "smide_2740", "name": "BE343875", "provider": "smide", "range": 21.0, "size": 17, "time": "01/29/2020, 09:39:56"}, "type": "Feature"}, {"geometry": {"coordinates": [8.544876, 47.418996], "type": "Point"}, "properties": {"charge": 95, "id": "smide_2738", "name": "BE343865", "provider": "smide", "range": 47.0, "size": 17, "time": "01/29/2020, 09:39:56"}, "type": "Feature"}, {"geometry": {"coordinates": [8.565419, 47.376968], "type": "Point"}, "properties": {"charge": 95, "id": "smide_2737", "name": "BE336149", "provider": "smide", "range": 47.0, "size": 17, "time": "01/29/2020, 09:39:56"}, "type": "Feature"}, {"geometry": {"coordinates": [8.529351, 47.393612], "type": "Point"}, "properties": {"charge": 100, "id": "smide_2734", "name": "BE343876", "provider": "smide", "range": 50.0, "size": 17, "time": "01/29/2020, 09:39:56"}, "type": "Feature"}, {"geometry": {"coordinates": [8.544979, 47.367616], "type": "Point"}, "properties": {"charge": 42, "id": "smide_2733", "name": "BE343873", "provider": "smide", "range": 21.0, "size": 17, "time": "01/29/2020, 09:39:56"}, "type": "Feature"}, {"geometry": {"coordinates": [8.487353, 47.367916], "type": "Point"}, "properties": {"charge": 97, "id": "smide_2732", "name": "BE343870", "provider": "smide", "range": 48.0, "size": 17, "time": "01/29/2020, 09:39:56"}, "type": "Feature"}, {"geometry": {"coordinates": [8.564707, 47.372816], "type": "Point"}, "properties": {"charge": 84, "id": "smide_2729", "name": "BE343878", "provider": "smide", "range": 42.0, "size": 17, "time": "01/29/2020, 09:39:56"}, "type": "Feature"}, {"geometry": {"coordinates": [8.53686, 47.373035], "type": "Point"}, "properties": {"charge": 55, "id": "smide_2725", "name": "ZH261545", "provider": "smide", "range": 27.0, "size": 0, "time": "01/29/2020, 09:39:56"}, "type": "Feature"}, {"geometry": {"coordinates": [8.529756, 47.371155], "type": "Point"}, "properties": {"charge": 93, "id": "smide_2718", "name": "ZH259019", "provider": "smide", "range": 46.0, "size": 20, "time": "01/29/2020, 09:39:56"}, "type": "Feature"}, {"geometry": {"coordinates": [8.503704, 47.38554], "type": "Point"}, "properties": {"charge": 71, "id": "smide_2717", "name": "ZH263287", "provider": "smide", "range": 35.0, "size": 17, "time": "01/29/2020, 09:39:56"}, "type": "Feature"}, {"geometry": {"coordinates": [8.547555, 47.36487], "type": "Point"}, "properties": {"charge": 55, "id": "smide_2716", "name": "ZH254606", "provider": "smide", "range": 27.0, "size": 17, "time": "01/29/2020, 09:39:56"}, "type": "Feature"}, {"geometry": {"coordinates": [8.537427, 47.340576], "type": "Point"}, "properties": {"charge": 88, "id": "smide_2715", "name": "ZH254605", "provider": "smide", "range": 44.0, "size": 17, "time": "01/29/2020, 09:39:56"}, "type": "Feature"}, {"geometry": {"coordinates": [8.498233, 47.35822], "type": "Point"}, "properties": {"charge": 91, "id": "smide_2714", "name": "ZH256461", "provider": "smide", "range": 45.0, "size": 17, "time": "01/29/2020, 09:39:56"}, "type": "Feature"}, {"geometry": {"coordinates": [8.553487, 47.402192], "type": "Point"}, "properties": {"charge": 23, "id": "smide_2710", "name": "ZH256460", "provider": "smide", "range": 11.0, "size": 17, "time": "01/29/2020, 09:39:56"}, "type": "Feature"}, {"geometry": {"coordinates": [8.55175, 47.382176], "type": "Point"}, "properties": {"charge": 56, "id": "smide_2712", "name": "ZH256462", "provider": "smide", "range": 28.0, "size": 17, "time": "01/29/2020, 09:39:56"}, "type": "Feature"}, {"geometry": {"coordinates": [8.529308, 47.37978], "type": "Point"}, "properties": {"charge": 19, "id": "smide_2711", "name": "ZH256463", "provider": "smide", "range": 9.0, "size": 17, "time": "01/29/2020, 09:39:56"}, "type": "Feature"}, {"geometry": {"coordinates": [8.56191, 47.350385], "type": "Point"}, "properties": {"charge": 74, "id": "smide_2709", "name": "ZH256466", "provider": "smide", "range": 37.0, "size": 20, "time": "01/29/2020, 09:39:56"}, "type": "Feature"}, {"geometry": {"coordinates": [8.51651, 47.398228], "type": "Point"}, "properties": {"charge": 76, "id": "smide_2707", "name": "ZH256467", "provider": "smide", "range": 38.0, "size": 20, "time": "01/29/2020, 09:39:56"}, "type": "Feature"}, {"geometry": {"coordinates": [8.552567, 47.414], "type": "Point"}, "properties": {"charge": 73, "id": "smide_2708", "name": "ZH256464", "provider": "smide", "range": 36.0, "size": 17, "time": "01/29/2020, 09:39:56"}, "type": "Feature"}, {"geometry": {"coordinates": [8.548232, 47.377924], "type": "Point"}, "properties": {"charge": 72, "id": "smide_2706", "name": "ZH256322", "provider": "smide", "range": 36.0, "size": 20, "time": "01/29/2020, 09:39:56"}, "type": "Feature"}, {"geometry": {"coordinates": [8.514686, 47.355492], "type": "Point"}, "properties": {"charge": 72, "id": "smide_2705", "name": "ZH256471", "provider": "smide", "range": 36.0, "size": 20, "time": "01/29/2020, 09:39:56"}, "type": "Feature"}, {"geometry": {"coordinates": [8.564672, 47.372848], "type": "Point"}, "properties": {"charge": 57, "id": "smide_2701", "name": "ZH256468", "provider": "smide", "range": 28.0, "size": 20, "time": "01/29/2020, 09:39:56"}, "type": "Feature"}, {"geometry": {"coordinates": [8.51696, 47.398272], "type": "Point"}, "properties": {"charge": 24, "id": "smide_2700", "name": "ZH256470", "provider": "smide", "range": 12.0, "size": 20, "time": "01/29/2020, 09:39:56"}, "type": "Feature"}, {"geometry": {"coordinates": [8.554731, 47.363604], "type": "Point"}, "properties": {"charge": 49, "id": "smide_2699", "name": "ZH254611", "provider": "smide", "range": 24.0, "size": 20, "time": "01/29/2020, 09:39:56"}, "type": "Feature"}, {"geometry": {"coordinates": [8.506571, 47.360432], "type": "Point"}, "properties": {"charge": 48, "id": "smide_2697", "name": "ZH254629", "provider": "smide", "range": 24.0, "size": 20, "time": "01/29/2020, 09:39:56"}, "type": "Feature"}, {"geometry": {"coordinates": [8.523675, 47.358848], "type": "Point"}, "properties": {"charge": 61, "id": "smide_2696", "name": "ZH254616", "provider": "smide", "range": 30.0, "size": 20, "time": "01/29/2020, 09:39:56"}, "type": "Feature"}, {"geometry": {"coordinates": [8.511371, 47.409015], "type": "Point"}, "properties": {"charge": 88, "id": "smide_2691", "name": "ZH254622", "provider": "smide", "range": 44.0, "size": 20, "time": "01/29/2020, 09:39:56"}, "type": "Feature"}, {"geometry": {"coordinates": [8.565218, 47.358021], "type": "Point"}, "properties": {"charge": 67, "id": "smide_2690", "name": "ZH254625", "provider": "smide", "range": 33.0, "size": 20, "time": "01/29/2020, 09:39:56"}, "type": "Feature"}, {"geometry": {"coordinates": [8.495337, 47.423812], "type": "Point"}, "properties": {"charge": 87, "id": "smide_2689", "name": "ZH254623", "provider": "smide", "range": 43.0, "size": 20, "time": "01/29/2020, 09:39:56"}, "type": "Feature"}, {"geometry": {"coordinates": [8.514582, 47.389432], "type": "Point"}, "properties": {"charge": 87, "id": "smide_2687", "name": "ZH263529", "provider": "smide", "range": 43.0, "size": 20, "time": "01/29/2020, 09:39:56"}, "type": "Feature"}, {"geometry": {"coordinates": [8.568374, 47.367652], "type": "Point"}, "properties": {"charge": 89, "id": "smide_2684", "name": "ZH254626", "provider": "smide", "range": 44.0, "size": 20, "time": "01/29/2020, 09:39:56"}, "type": "Feature"}, {"geometry": {"coordinates": [8.535616, 47.368513], "type": "Point"}, "properties": {"charge": 66, "id": "smide_2683", "name": "ZH254620", "provider": "smide", "range": 33.0, "size": 20, "time": "01/29/2020, 09:39:56"}, "type": "Feature"}, {"geometry": {"coordinates": [8.587494, 47.403176], "type": "Point"}, "properties": {"charge": 71, "id": "smide_2680", "name": "ZH254619", "provider": "smide", "range": 35.0, "size": 20, "time": "01/29/2020, 09:39:56"}, "type": "Feature"}, {"geometry": {"coordinates": [8.576496, 47.35118], "type": "Point"}, "properties": {"charge": 89, "id": "smide_2679", "name": "ZH258489", "provider": "smide", "range": 44.0, "size": 17, "time": "01/29/2020, 09:39:56"}, "type": "Feature"}, {"geometry": {"coordinates": [8.529892, 47.3736], "type": "Point"}, "properties": {"charge": 70, "id": "smide_2671", "name": "ZH258645", "provider": "smide", "range": 35.0, "size": 17, "time": "01/29/2020, 09:39:56"}, "type": "Feature"}, {"geometry": {"coordinates": [8.476685, 47.387364], "type": "Point"}, "properties": {"charge": 74, "id": "smide_2669", "name": "ZH263294", "provider": "smide", "range": 37.0, "size": 17, "time": "01/29/2020, 09:39:56"}, "type": "Feature"}, {"geometry": {"coordinates": [8.547924, 47.368708], "type": "Point"}, "properties": {"charge": 53, "id": "smide_2666", "name": "ZH258653", "provider": "smide", "range": 26.0, "size": 17, "time": "01/29/2020, 09:39:56"}, "type": "Feature"}, {"geometry": {"coordinates": [8.521517, 47.361644], "type": "Point"}, "properties": {"charge": 100, "id": "smide_2665", "name": "ZH258644", "provider": "smide", "range": 50.0, "size": 17, "time": "01/29/2020, 09:39:56"}, "type": "Feature"}, {"geometry": {"coordinates": [8.546303, 47.40842], "type": "Point"}, "properties": {"charge": 63, "id": "smide_2664", "name": "ZH258652", "provider": "smide", "range": 31.0, "size": 17, "time": "01/29/2020, 09:39:56"}, "type": "Feature"}, {"geometry": {"coordinates": [8.508363, 47.353832], "type": "Point"}, "properties": {"charge": 76, "id": "smide_2663", "name": "ZH258649", "provider": "smide", "range": 38.0, "size": 17, "time": "01/29/2020, 09:39:56"}, "type": "Feature"}, {"geometry": {"coordinates": [8.544915, 47.36836], "type": "Point"}, "properties": {"charge": 46, "id": "smide_2662", "name": "ZH258643", "provider": "smide", "range": 23.0, "size": 17, "time": "01/29/2020, 09:39:56"}, "type": "Feature"}, {"geometry": {"coordinates": [8.571763, 47.358248], "type": "Point"}, "properties": {"charge": 44, "id": "smide_2648", "name": "ZH257930", "provider": "smide", "range": 22.0, "size": 20, "time": "01/29/2020, 09:39:56"}, "type": "Feature"}, {"geometry": {"coordinates": [8.576211, 47.353203], "type": "Point"}, "properties": {"charge": 87, "id": "smide_2657", "name": "ZH257936", "provider": "smide", "range": 43.0, "size": 17, "time": "01/29/2020, 09:39:56"}, "type": "Feature"}, {"geometry": {"coordinates": [8.548304, 47.377896], "type": "Point"}, "properties": {"charge": 59, "id": "smide_2647", "name": "ZH257932", "provider": "smide", "range": 29.0, "size": 20, "time": "01/29/2020, 09:39:56"}, "type": "Feature"}, {"geometry": {"coordinates": [8.528879, 47.378564], "type": "Point"}, "properties": {"charge": 87, "id": "smide_2645", "name": "ZH257933", "provider": "smide", "range": 43.0, "size": 20, "time": "01/29/2020, 09:39:56"}, "type": "Feature"}, {"geometry": {"coordinates": [8.546925, 47.373595], "type": "Point"}, "properties": {"charge": 73, "id": "smide_3", "name": "ZH253765", "provider": "smide", "range": 36.0, "size": 20, "time": "01/29/2020, 09:39:56"}, "type": "Feature"}, {"geometry": {"coordinates": [8.495126, 47.387106], "type": "Point"}, "properties": {"charge": 36, "id": "smide_105", "name": "ZH253804", "provider": "smide", "range": 18.0, "size": 17, "time": "01/29/2020, 09:39:56"}, "type": "Feature"}, {"geometry": {"coordinates": [8.483568, 47.38164], "type": "Point"}, "properties": {"charge": 57, "id": "smide_186", "name": "ZH253751", "provider": "smide", "range": 28.0, "size": 20, "time": "01/29/2020, 09:39:56"}, "type": "Feature"}, {"geometry": {"coordinates": [8.569528, 47.351992], "type": "Point"}, "properties": {"charge": 95, "id": "smide_173", "name": "ZH258501", "provider": "smide", "range": 47.0, "size": 17, "time": "01/29/2020, 09:39:56"}, "type": "Feature"}, {"geometry": {"coordinates": [8.559271, 47.406024], "type": "Point"}, "properties": {"charge": 73, "id": "smide_77", "name": "ZH261548", "provider": "smide", "range": 36.0, "size": 20, "time": "01/29/2020, 09:39:56"}, "type": "Feature"}, {"geometry": {"coordinates": [8.508313, 47.400648], "type": "Point"}, "properties": {"charge": 27, "id": "smide_200", "name": "ZH253801", "provider": "smide", "range": 13.0, "size": 20, "time": "01/29/2020, 09:39:56"}, "type": "Feature"}, {"geometry": {"coordinates": [8.53879, 47.337865], "type": "Point"}, "properties": {"charge": 93, "id": "smide_197", "name": "ZH253864", "provider": "smide", "range": 46.0, "size": 20, "time": "01/29/2020, 09:39:56"}, "type": "Feature"}, {"geometry": {"coordinates": [8.550454, 47.356224], "type": "Point"}, "properties": {"charge": 90, "id": "smide_199", "name": "ZH253766", "provider": "smide", "range": 45.0, "size": 20, "time": "01/29/2020, 09:39:56"}, "type": "Feature"}, {"geometry": {"coordinates": [8.572352, 47.404116], "type": "Point"}, "properties": {"charge": 86, "id": "smide_8", "name": "ZH253861", "provider": "smide", "range": 43.0, "size": 17, "time": "01/29/2020, 09:39:56"}, "type": "Feature"}, {"geometry": {"coordinates": [8.525608, 47.368923], "type": "Point"}, "properties": {"charge": 100, "id": "smide_45", "name": "ZH253716", "provider": "smide", "range": 50.0, "size": 17, "time": "01/29/2020, 09:39:56"}, "type": "Feature"}, {"geometry": {"coordinates": [8.504689, 47.399772], "type": "Point"}, "properties": {"charge": 94, "id": "smide_188", "name": "ZH261543", "provider": "smide", "range": 47.0, "size": 20, "time": "01/29/2020, 09:39:56"}, "type": "Feature"}, {"geometry": {"coordinates": [8.512843, 47.398892], "type": "Point"}, "properties": {"charge": 27, "id": "smide_101", "name": "ZH253814", "provider": "smide", "range": 13.0, "size": 17, "time": "01/29/2020, 09:39:56"}, "type": "Feature"}, {"geometry": {"coordinates": [8.555598, 47.384428], "type": "Point"}, "properties": {"charge": 42, "id": "smide_143", "name": "ZH253778", "provider": "smide", "range": 21.0, "size": 17, "time": "01/29/2020, 09:39:56"}, "type": "Feature"}, {"geometry": {"coordinates": [8.529781, 47.376173], "type": "Point"}, "properties": {"charge": 58, "id": "smide_180", "name": "ZH253824", "provider": "smide", "range": 28.0, "size": 20, "time": "01/29/2020, 09:39:56"}, "type": "Feature"}, {"geometry": {"coordinates": [8.549996, 47.398464], "type": "Point"}, "properties": {"charge": 40, "id": "smide_20", "name": "ZH253770", "provider": "smide", "range": 20.0, "size": 20, "time": "01/29/2020, 09:39:56"}, "type": "Feature"}, {"geometry": {"coordinates": [8.509334, 47.354956], "type": "Point"}, "properties": {"charge": 90, "id": "smide_50", "name": "ZH253853", "provider": "smide", "range": 45.0, "size": 17, "time": "01/29/2020, 09:39:56"}, "type": "Feature"}, {"geometry": {"coordinates": [8.545933, 47.390603], "type": "Point"}, "properties": {"charge": 45, "id": "smide_30", "name": "ZH253813", "provider": "smide", "range": 22.0, "size": 20, "time": "01/29/2020, 09:39:56"}, "type": "Feature"}, {"geometry": {"coordinates": [8.545845, 47.369778], "type": "Point"}, "properties": {"charge": 66, "id": "smide_10", "name": "ZH253855", "provider": "smide", "range": 33.0, "size": 17, "time": "01/29/2020, 09:39:56"}, "type": "Feature"}, {"geometry": {"coordinates": [8.565899, 47.364284], "type": "Point"}, "properties": {"charge": 51, "id": "smide_165", "name": "ZH253752", "provider": "smide", "range": 25.0, "size": 17, "time": "01/29/2020, 09:39:56"}, "type": "Feature"}, {"geometry": {"coordinates": [8.552514, 47.413992], "type": "Point"}, "properties": {"charge": 61, "id": "smide_119", "name": "ZH253686", "provider": "smide", "range": 30.0, "size": 20, "time": "01/29/2020, 09:39:56"}, "type": "Feature"}, {"geometry": {"coordinates": [8.535908, 47.371564], "type": "Point"}, "properties": {"charge": 17, "id": "smide_129", "name": "ZH261378", "provider": "smide", "range": 8.0, "size": 17, "time": "01/29/2020, 09:39:56"}, "type": "Feature"}, {"geometry": {"coordinates": [8.507421, 47.365835], "type": "Point"}, "properties": {"charge": 45, "id": "smide_49", "name": "ZH253873", "provider": "smide", "range": 22.0, "size": 17, "time": "01/29/2020, 09:39:56"}, "type": "Feature"}, {"geometry": {"coordinates": [8.550315, 47.397616], "type": "Point"}, "properties": {"charge": 83, "id": "smide_94", "name": "ZH253754", "provider": "smide", "range": 41.0, "size": 17, "time": "01/29/2020, 09:39:56"}, "type": "Feature"}, {"geometry": {"coordinates": [8.518103, 47.388304], "type": "Point"}, "properties": {"charge": 51, "id": "smide_37", "name": "ZH261377", "provider": "smide", "range": 25.0, "size": 20, "time": "01/29/2020, 09:39:56"}, "type": "Feature"}, {"geometry": {"coordinates": [8.570626, 47.352341], "type": "Point"}, "properties": {"charge": 70, "id": "smide_191", "name": "ZH253762", "provider": "smide", "range": 35.0, "size": 17, "time": "01/29/2020, 09:39:56"}, "type": "Feature"}, {"geometry": {"coordinates": [8.512663, 47.359753], "type": "Point"}, "properties": {"charge": 85, "id": "smide_202", "name": "ZH253830", "provider": "smide", "range": 42.0, "size": 17, "time": "01/29/2020, 09:39:56"}, "type": "Feature"}, {"geometry": {"coordinates": [8.574892, 47.373268], "type": "Point"}, "properties": {"charge": 99, "id": "smide_56", "name": "ZH261442", "provider": "smide", "range": 49.0, "size": 20, "time": "01/29/2020, 09:39:56"}, "type": "Feature"}, {"geometry": {"coordinates": [8.54528, 47.386543], "type": "Point"}, "properties": {"charge": 32, "id": "smide_47", "name": "ZH253858", "provider": "smide", "range": 16.0, "size": 17, "time": "01/29/2020, 09:39:56"}, "type": "Feature"}, {"geometry": {"coordinates": [8.551445, 47.38002], "type": "Point"}, "properties": {"charge": 55, "id": "smide_150", "name": "ZH253703", "provider": "smide", "range": 27.0, "size": 20, "time": "01/29/2020, 09:39:56"}, "type": "Feature"}, {"geometry": {"coordinates": [8.537408, 47.39538], "type": "Point"}, "properties": {"charge": 46, "id": "smide_181", "name": "ZH253815", "provider": "smide", "range": 23.0, "size": 17, "time": "01/29/2020, 09:39:56"}, "type": "Feature"}, {"geometry": {"coordinates": [8.544016, 47.37976], "type": "Point"}, "properties": {"charge": 46, "id": "smide_66", "name": "ZH253818", "provider": "smide", "range": 23.0, "size": 20, "time": "01/29/2020, 09:39:56"}, "type": "Feature"}, {"geometry": {"coordinates": [8.498475, 47.366666], "type": "Point"}, "properties": {"charge": 49, "id": "smide_17", "name": "ZH253793", "provider": "smide", "range": 24.0, "size": 17, "time": "01/29/2020, 09:39:56"}, "type": "Feature"}, {"geometry": {"coordinates": [8.559325, 47.414866], "type": "Point"}, "properties": {"charge": 50, "id": "smide_145", "name": "ZH253780", "provider": "smide", "range": 25.0, "size": 20, "time": "01/29/2020, 09:39:56"}, "type": "Feature"}, {"geometry": {"coordinates": [8.54949, 47.365972], "type": "Point"}, "properties": {"charge": 70, "id": "smide_114", "name": "ZH253878", "provider": "smide", "range": 35.0, "size": 20, "time": "01/29/2020, 09:39:56"}, "type": "Feature"}, {"geometry": {"coordinates": [8.559346, 47.360068], "type": "Point"}, "properties": {"charge": 70, "id": "smide_203", "name": "ZH261547", "provider": "smide", "range": 35.0, "size": 17, "time": "01/29/2020, 09:39:56"}, "type": "Feature"}, {"geometry": {"coordinates": [8.560396, 47.413284], "type": "Point"}, "properties": {"charge": 22, "id": "smide_164", "name": "ZH253775", "provider": "smide", "range": 11.0, "size": 17, "time": "01/29/2020, 09:39:56"}, "type": "Feature"}, {"geometry": {"coordinates": [8.524543, 47.338728], "type": "Point"}, "properties": {"charge": 53, "id": "smide_189", "name": "ZH253845", "provider": "smide", "range": 26.0, "size": 20, "time": "01/29/2020, 09:39:56"}, "type": "Feature"}, {"geometry": {"coordinates": [8.554277, 47.379516], "type": "Point"}, "properties": {"charge": 62, "id": "smide_81", "name": "ZH253753", "provider": "smide", "range": 31.0, "size": 17, "time": "01/29/2020, 09:39:56"}, "type": "Feature"}, {"geometry": {"coordinates": [8.501053, 47.37738], "type": "Point"}, "properties": {"charge": 91, "id": "smide_171", "name": "ZH253689", "provider": "smide", "range": 45.0, "size": 20, "time": "01/29/2020, 09:39:56"}, "type": "Feature"}, {"geometry": {"coordinates": [8.524343, 47.395824], "type": "Point"}, "properties": {"charge": 28, "id": "smide_93", "name": "ZH253681", "provider": "smide", "range": 14.0, "size": 17, "time": "01/29/2020, 09:39:56"}, "type": "Feature"}, {"geometry": {"coordinates": [8.572295, 47.352584], "type": "Point"}, "properties": {"charge": 88, "id": "smide_67", "name": "ZH253779", "provider": "smide", "range": 44.0, "size": 17, "time": "01/29/2020, 09:39:56"}, "type": "Feature"}, {"geometry": {"coordinates": [8.51312, 47.39182], "type": "Point"}, "properties": {"charge": 61, "id": "smide_133", "name": "ZH253848", "provider": "smide", "range": 30.0, "size": 20, "time": "01/29/2020, 09:39:56"}, "type": "Feature"}, {"geometry": {"coordinates": [8.479918, 47.38562], "type": "Point"}, "properties": {"charge": 72, "id": "smide_118", "name": "ZH253759", "provider": "smide", "range": 36.0, "size": 20, "time": "01/29/2020, 09:39:56"}, "type": "Feature"}, {"geometry": {"coordinates": [8.502086, 47.368888], "type": "Point"}, "properties": {"charge": 18, "id": "smide_142", "name": "ZH258745", "provider": "smide", "range": 9.0, "size": 17, "time": "01/29/2020, 09:39:56"}, "type": "Feature"}, {"geometry": {"coordinates": [8.539236, 47.388198], "type": "Point"}, "properties": {"charge": 90, "id": "smide_166", "name": "ZH253728", "provider": "smide", "range": 45.0, "size": 17, "time": "01/29/2020, 09:39:56"}, "type": "Feature"}, {"geometry": {"coordinates": [8.514938, 47.389964], "type": "Point"}, "properties": {"charge": 16, "id": "smide_126", "name": "ZH268400", "provider": "smide", "range": 8.0, "size": 17, "time": "01/29/2020, 09:39:56"}, "type": "Feature"}, {"geometry": {"coordinates": [8.490861, 47.372113], "type": "Point"}, "properties": {"charge": 19, "id": "smide_44", "name": "ZH253837", "provider": "smide", "range": 9.0, "size": 17, "time": "01/29/2020, 09:39:56"}, "type": "Feature"}, {"geometry": {"coordinates": [8.514926, 47.395933], "type": "Point"}, "properties": {"charge": 31, "id": "smide_98", "name": "ZH256321", "provider": "smide", "range": 15.0, "size": 17, "time": "01/29/2020, 09:39:56"}, "type": "Feature"}, {"geometry": {"coordinates": [8.572348, 47.352452], "type": "Point"}, "properties": {"charge": 100, "id": "smide_154", "name": "ZH253744", "provider": "smide", "range": 50.0, "size": 20, "time": "01/29/2020, 09:39:56"}, "type": "Feature"}, {"geometry": {"coordinates": [8.516164, 47.39694], "type": "Point"}, "properties": {"charge": 49, "id": "smide_92", "name": "ZH253798", "provider": "smide", "range": 24.0, "size": 17, "time": "01/29/2020, 09:39:56"}, "type": "Feature"}, {"geometry": {"coordinates": [8.544578, 47.422008], "type": "Point"}, "properties": {"charge": 100, "id": "smide_167", "name": "ZH253854", "provider": "smide", "range": 50.0, "size": 17, "time": "01/29/2020, 09:39:56"}, "type": "Feature"}, {"geometry": {"coordinates": [8.528188, 47.39502], "type": "Point"}, "properties": {"charge": 34, "id": "smide_65", "name": "ZH253810", "provider": "smide", "range": 17.0, "size": 17, "time": "01/29/2020, 09:39:56"}, "type": "Feature"}, {"geometry": {"coordinates": [8.509827, 47.408308], "type": "Point"}, "properties": {"charge": 90, "id": "smide_111", "name": "ZH253763", "provider": "smide", "range": 45.0, "size": 17, "time": "01/29/2020, 09:39:56"}, "type": "Feature"}, {"geometry": {"coordinates": [8.510056, 47.425504], "type": "Point"}, "properties": {"charge": 79, "id": "smide_40", "name": "ZH253690", "provider": "smide", "range": 39.0, "size": 20, "time": "01/29/2020, 09:39:56"}, "type": "Feature"}, {"geometry": {"coordinates": [8.563839, 47.348168], "type": "Point"}, "properties": {"charge": 44, "id": "smide_1", "name": "ZH253776", "provider": "smide", "range": 22.0, "size": 17, "time": "01/29/2020, 09:39:56"}, "type": "Feature"}, {"geometry": {"coordinates": [8.556663, 47.353488], "type": "Point"}, "properties": {"charge": 53, "id": "smide_28", "name": "ZH253831", "provider": "smide", "range": 26.0, "size": 17, "time": "01/29/2020, 09:39:56"}, "type": "Feature"}, {"geometry": {"coordinates": [8.51663, 47.398478], "type": "Point"}, "properties": {"charge": 71, "id": "smide_14", "name": "ZH253749", "provider": "smide", "range": 35.0, "size": 20, "time": "01/29/2020, 09:39:56"}, "type": "Feature"}, {"geometry": {"coordinates": [8.554598, 47.402908], "type": "Point"}, "properties": {"charge": 62, "id": "smide_130", "name": "ZH253847", "provider": "smide", "range": 31.0, "size": 20, "time": "01/29/2020, 09:39:56"}, "type": "Feature"}, {"geometry": {"coordinates": [8.540401, 47.378996], "type": "Point"}, "properties": {"charge": 74, "id": "smide_24", "name": "ZH253696", "provider": "smide", "range": 37.0, "size": 20, "time": "01/29/2020, 09:39:56"}, "type": "Feature"}, {"geometry": {"coordinates": [8.524194, 47.39816], "type": "Point"}, "properties": {"charge": 89, "id": "smide_193", "name": "ZH253738", "provider": "smide", "range": 44.0, "size": 20, "time": "01/29/2020, 09:39:56"}, "type": "Feature"}, {"geometry": {"coordinates": [8.5635, 47.407873], "type": "Point"}, "properties": {"charge": 100, "id": "smide_73", "name": "ZH261379", "provider": "smide", "range": 50.0, "size": 20, "time": "01/29/2020, 09:39:56"}, "type": "Feature"}, {"geometry": {"coordinates": [8.547165, 47.423088], "type": "Point"}, "properties": {"charge": 100, "id": "smide_158", "name": "ZH253870", "provider": "smide", "range": 50.0, "size": 20, "time": "01/29/2020, 09:39:56"}, "type": "Feature"}, {"geometry": {"coordinates": [8.49428, 47.424288], "type": "Point"}, "properties": {"charge": 22, "id": "smide_100", "name": "ZH253862", "provider": "smide", "range": 11.0, "size": 20, "time": "01/29/2020, 09:39:56"}, "type": "Feature"}, {"geometry": {"coordinates": [8.529191, 47.375401], "type": "Point"}, "properties": {"charge": 73, "id": "smide_134", "name": "ZH253741", "provider": "smide", "range": 36.0, "size": 20, "time": "01/29/2020, 09:39:56"}, "type": "Feature"}, {"geometry": {"coordinates": [8.485096, 47.391486], "type": "Point"}, "properties": {"charge": 85, "id": "smide_141", "name": "ZH253800", "provider": "smide", "range": 42.0, "size": 20, "time": "01/29/2020, 09:39:56"}, "type": "Feature"}, {"geometry": {"coordinates": [8.543671, 47.408625], "type": "Point"}, "properties": {"charge": 87, "id": "smide_149", "name": "ZH253743", "provider": "smide", "range": 43.0, "size": 20, "time": "01/29/2020, 09:39:56"}, "type": "Feature"}, {"geometry": {"coordinates": [8.550556, 47.414724], "type": "Point"}, "properties": {"charge": 32, "id": "smide_16", "name": "ZH253713", "provider": "smide", "range": 16.0, "size": 20, "time": "01/29/2020, 09:39:56"}, "type": "Feature"}, {"geometry": {"coordinates": [8.535733, 47.407048], "type": "Point"}, "properties": {"charge": 28, "id": "smide_74", "name": "ZH253693", "provider": "smide", "range": 14.0, "size": 20, "time": "01/29/2020, 09:39:56"}, "type": "Feature"}, {"geometry": {"coordinates": [8.496745, 47.392528], "type": "Point"}, "properties": {"charge": 100, "id": "smide_33", "name": "ZH253782", "provider": "smide", "range": 50.0, "size": 20, "time": "01/29/2020, 09:39:56"}, "type": "Feature"}, {"geometry": {"coordinates": [8.546076, 47.373356], "type": "Point"}, "properties": {"charge": 99, "id": "smide_161", "name": "ZH253691", "provider": "smide", "range": 49.0, "size": 20, "time": "01/29/2020, 09:39:56"}, "type": "Feature"}, {"geometry": {"coordinates": [8.517565, 47.367573], "type": "Point"}, "properties": {"charge": 95, "id": "smide_183", "name": "ZH253868", "provider": "smide", "range": 47.0, "size": 17, "time": "01/29/2020, 09:39:56"}, "type": "Feature"}, {"geometry": {"coordinates": [8.483368, 47.37464], "type": "Point"}, "properties": {"charge": 100, "id": "smide_42", "name": "ZH253846", "provider": "smide", "range": 50.0, "size": 20, "time": "01/29/2020, 09:39:56"}, "type": "Feature"}, {"geometry": {"coordinates": [8.561466, 47.416056], "type": "Point"}, "properties": {"charge": 89, "id": "smide_160", "name": "ZH253722", "provider": "smide", "range": 44.0, "size": 17, "time": "01/29/2020, 09:39:56"}, "type": "Feature"}, {"geometry": {"coordinates": [8.524155, 47.372286], "type": "Point"}, "properties": {"charge": 64, "id": "smide_137", "name": "ZH258502", "provider": "smide", "range": 32.0, "size": 17, "time": "01/29/2020, 09:39:56"}, "type": "Feature"}, {"geometry": {"coordinates": [8.501528, 47.38418], "type": "Point"}, "properties": {"charge": 37, "id": "smide_178", "name": "ZH253803", "provider": "smide", "range": 18.0, "size": 17, "time": "01/29/2020, 09:39:56"}, "type": "Feature"}, {"geometry": {"coordinates": [8.476661, 47.387413], "type": "Point"}, "properties": {"charge": 88, "id": "smide_55", "name": "ZH253875", "provider": "smide", "range": 44.0, "size": 17, "time": "01/29/2020, 09:39:56"}, "type": "Feature"}, {"geometry": {"coordinates": [8.526998, 47.39092], "type": "Point"}, "properties": {"charge": 72, "id": "smide_96", "name": "ZH256146", "provider": "smide", "range": 36.0, "size": 20, "time": "01/29/2020, 09:39:56"}, "type": "Feature"}, {"geometry": {"coordinates": [8.507226, 47.407008], "type": "Point"}, "properties": {"charge": 43, "id": "smide_58", "name": "ZH259246", "provider": "smide", "range": 21.0, "size": 20, "time": "01/29/2020, 09:39:56"}, "type": "Feature"}, {"geometry": {"coordinates": [8.560369, 47.382128], "type": "Point"}, "properties": {"charge": 100, "id": "smide_54", "name": "ZH253874", "provider": "smide", "range": 50.0, "size": 20, "time": "01/29/2020, 09:39:56"}, "type": "Feature"}, {"geometry": {"coordinates": [8.550426, 47.379836], "type": "Point"}, "properties": {"charge": 56, "id": "smide_175", "name": "ZH253730", "provider": "smide", "range": 28.0, "size": 17, "time": "01/29/2020, 09:39:56"}, "type": "Feature"}, {"geometry": {"coordinates": [8.574694, 47.372172], "type": "Point"}, "properties": {"charge": 100, "id": "smide_163", "name": "ZH256147", "provider": "smide", "range": 50.0, "size": 20, "time": "01/29/2020, 09:39:56"}, "type": "Feature"}, {"geometry": {"coordinates": [8.512767, 47.374052], "type": "Point"}, "properties": {"charge": 28, "id": "smide_112", "name": "ZH263530", "provider": "smide", "range": 14.0, "size": 20, "time": "01/29/2020, 09:39:56"}, "type": "Feature"}, {"geometry": {"coordinates": [8.546112, 47.366496], "type": "Point"}, "properties": {"charge": 89, "id": "smide_122", "name": "ZH253850", "provider": "smide", "range": 44.0, "size": 20, "time": "01/29/2020, 09:39:56"}, "type": "Feature"}, {"geometry": {"coordinates": [8.561708, 47.350033], "type": "Point"}, "properties": {"charge": 42, "id": "smide_38", "name": "ZH253851", "provider": "smide", "range": 21.0, "size": 20, "time": "01/29/2020, 09:39:56"}, "type": "Feature"}, {"geometry": {"coordinates": [8.532763, 47.368168], "type": "Point"}, "properties": {"charge": 83, "id": "smide_6", "name": "ZH253787", "provider": "smide", "range": 41.0, "size": 17, "time": "01/29/2020, 09:39:56"}, "type": "Feature"}, {"geometry": {"coordinates": [8.553786, 47.412376], "type": "Point"}, "properties": {"charge": 76, "id": "smide_18", "name": "ZH253859", "provider": "smide", "range": 38.0, "size": 17, "time": "01/29/2020, 09:39:56"}, "type": "Feature"}, {"geometry": {"coordinates": [8.520232, 47.37216], "type": "Point"}, "properties": {"charge": 26, "id": "smide_12", "name": "ZH253685", "provider": "smide", "range": 13.0, "size": 17, "time": "01/29/2020, 09:39:56"}, "type": "Feature"}, {"geometry": {"coordinates": [8.559273, 47.353128], "type": "Point"}, "properties": {"charge": 51, "id": "smide_192", "name": "ZH253706", "provider": "smide", "range": 25.0, "size": 20, "time": "01/29/2020, 09:39:56"}, "type": "Feature"}, {"geometry": {"coordinates": [8.559618, 47.415624], "type": "Point"}, "properties": {"charge": 100, "id": "smide_39", "name": "ZH253714", "provider": "smide", "range": 50.0, "size": 20, "time": "01/29/2020, 09:39:56"}, "type": "Feature"}, {"geometry": {"coordinates": [8.557631, 47.352441], "type": "Point"}, "properties": {"charge": 100, "id": "smide_5", "name": "ZH261443", "provider": "smide", "range": 50.0, "size": 20, "time": "01/29/2020, 09:39:56"}, "type": "Feature"}, {"geometry": {"coordinates": [8.562131, 47.3773], "type": "Point"}, "properties": {"charge": 27, "id": "smide_85", "name": "ZH253729", "provider": "smide", "range": 13.0, "size": 17, "time": "01/29/2020, 09:39:56"}, "type": "Feature"}, {"geometry": {"coordinates": [8.573055, 47.404084], "type": "Point"}, "properties": {"charge": 87, "id": "smide_29", "name": "ZH253723", "provider": "smide", "range": 43.0, "size": 17, "time": "01/29/2020, 09:39:56"}, "type": "Feature"}, {"geometry": {"coordinates": [8.540886, 47.377108], "type": "Point"}, "properties": {"charge": 92, "id": "smide_48", "name": "ZH253849", "provider": "smide", "range": 46.0, "size": 20, "time": "01/29/2020, 09:39:56"}, "type": "Feature"}, {"geometry": {"coordinates": [8.550677, 47.381144], "type": "Point"}, "properties": {"charge": 61, "id": "smide_46", "name": "ZH253843", "provider": "smide", "range": 30.0, "size": 20, "time": "01/29/2020, 09:39:56"}, "type": "Feature"}, {"geometry": {"coordinates": [8.51050166666667, 47.3904], "type": "Point"}, "properties": {"charge": 83, "id": "bird_3ba26ab6-9faf-444d-91b1-48920251b108", "provider": "bird", "timeStamp": "01/29/2020, 09:39:56"}, "type": "Feature"}, {"geometry": {"coordinates": [8.51084166666667, 47.3903966666667], "type": "Point"}, "properties": {"charge": 35, "id": "bird_660ccde2-0469-4994-94e7-edd73b6a4522", "provider": "bird", "timeStamp": "01/29/2020, 09:39:56"}, "type": "Feature"}, {"geometry": {"coordinates": [8.50559, 47.3786616666667], "type": "Point"}, "properties": {"charge": 52, "id": "bird_93da11f4-1135-401a-81a2-7cd94d5a4c4c", "provider": "bird", "timeStamp": "01/29/2020, 09:39:56"}, "type": "Feature"}, {"geometry": {"coordinates": [8.51096166666667, 47.3902816666667], "type": "Point"}, "properties": {"charge": 58, "id": "bird_45652e88-53aa-47ac-a17a-fa33acc5d3da", "provider": "bird", "timeStamp": "01/29/2020, 09:39:56"}, "type": "Feature"}, {"geometry": {"coordinates": [8.545115, 47.3675883333333], "type": "Point"}, "properties": {"charge": 56, "id": "bird_a56801ec-207d-4bbe-9daa-36679cc482a8", "provider": "bird", "timeStamp": "01/29/2020, 09:39:56"}, "type": "Feature"}, {"geometry": {"coordinates": [8.52627, 47.3641166666667], "type": "Point"}, "properties": {"charge": 17, "id": "bird_5be236b5-990e-4593-8300-11675e3b13a5", "provider": "bird", "timeStamp": "01/29/2020, 09:39:56"}, "type": "Feature"}, {"geometry": {"coordinates": [8.52617333333333, 47.364135], "type": "Point"}, "properties": {"charge": 10, "id": "bird_8b9c23f7-97d8-48eb-9d52-9139eeca7fbb", "provider": "bird", "timeStamp": "01/29/2020, 09:39:56"}, "type": "Feature"}, {"geometry": {"coordinates": [8.52624833333333, 47.364135], "type": "Point"}, "properties": {"charge": 20, "id": "bird_96c9f325-461c-44a8-887c-354226effd2e", "provider": "bird", "timeStamp": "01/29/2020, 09:39:56"}, "type": "Feature"}, {"geometry": {"coordinates": [8.52625833333333, 47.36414], "type": "Point"}, "properties": {"charge": 17, "id": "bird_8a97a9ae-d0ff-482d-b845-155553795962", "provider": "bird", "timeStamp": "01/29/2020, 09:39:56"}, "type": "Feature"}, {"geometry": {"coordinates": [8.52121833333333, 47.3650816666667], "type": "Point"}, "properties": {"charge": 60, "id": "bird_8029bf11-4f79-4bcb-b350-d5faf20f32fe", "provider": "bird", "timeStamp": "01/29/2020, 09:39:56"}, "type": "Feature"}, {"geometry": {"coordinates": [8.531635, 47.3640016666667], "type": "Point"}, "properties": {"charge": 96, "id": "bird_a1fd59ba-acc2-408e-b27e-adac8f65bf4c", "provider": "bird", "timeStamp": "01/29/2020, 09:39:56"}, "type": "Feature"}, {"geometry": {"coordinates": [8.53147333333333, 47.3640516666667], "type": "Point"}, "properties": {"charge": 91, "id": "bird_ed3619b1-eac8-4b60-93ba-870480b15f87", "provider": "bird", "timeStamp": "01/29/2020, 09:39:56"}, "type": "Feature"}, {"geometry": {"coordinates": [8.53150166666667, 47.364075], "type": "Point"}, "properties": {"charge": 69, "id": "bird_3ca1c68d-734e-4659-a692-26a1136c0cd7", "provider": "bird", "timeStamp": "01/29/2020, 09:39:56"}, "type": "Feature"}, {"geometry": {"coordinates": [8.53126166666667, 47.3640783333333], "type": "Point"}, "properties": {"charge": 85, "id": "bird_411cc28f-1cb0-403b-a801-8684b316ab20", "provider": "bird", "timeStamp": "01/29/2020, 09:39:56"}, "type": "Feature"}, {"geometry": {"coordinates": [8.53157666666667, 47.3641133333333], "type": "Point"}, "properties": {"charge": 66, "id": "bird_8034e203-521e-4ffa-865a-f3b7bb69d8b5", "provider": "bird", "timeStamp": "01/29/2020, 09:39:56"}, "type": "Feature"}, {"geometry": {"coordinates": [8.531655, 47.36425], "type": "Point"}, "properties": {"charge": 93, "id": "bird_3c94ea55-7399-42f1-a165-87ad779b89d7", "provider": "bird", "timeStamp": "01/29/2020, 09:39:56"}, "type": "Feature"}, {"geometry": {"coordinates": [8.53174333333333, 47.3642733333333], "type": "Point"}, "properties": {"charge": 98, "id": "bird_53ae970c-9de7-494d-ad53-0d05928ef6a7", "provider": "bird", "timeStamp": "01/29/2020, 09:39:56"}, "type": "Feature"}, {"geometry": {"coordinates": [8.53160333333333, 47.36428], "type": "Point"}, "properties": {"charge": 89, "id": "bird_12716bb0-e49b-44b6-af3c-34593d18f8e7", "provider": "bird", "timeStamp": "01/29/2020, 09:39:56"}, "type": "Feature"}, {"geometry": {"coordinates": [8.53163833333333, 47.3643116666667], "type": "Point"}, "properties": {"charge": 89, "id": "bird_7cb8a581-fee4-4f9f-949f-2000a5cdb736", "provider": "bird", "timeStamp": "01/29/2020, 09:39:56"}, "type": "Feature"}, {"geometry": {"coordinates": [8.53161333333333, 47.3643333333333], "type": "Point"}, "properties": {"charge": 96, "id": "bird_b88778a3-a45e-43dd-a611-1b56ec455b06", "provider": "bird", "timeStamp": "01/29/2020, 09:39:56"}, "type": "Feature"}, {"geometry": {"coordinates": [8.53181666666667, 47.36436], "type": "Point"}, "properties": {"charge": 93, "id": "bird_7647c39a-402a-4b27-901c-23313d43c0b6", "provider": "bird", "timeStamp": "01/29/2020, 09:39:56"}, "type": "Feature"}, {"geometry": {"coordinates": [8.53889833333333, 47.3655616666667], "type": "Point"}, "properties": {"charge": 55, "id": "bird_0dae2de2-566b-4727-9550-7a07d94b4694", "provider": "bird", "timeStamp": "01/29/2020, 09:39:56"}, "type": "Feature"}, {"geometry": {"coordinates": [8.54084666666667, 47.3662266666667], "type": "Point"}, "properties": {"charge": 75, "id": "bird_8debb2d5-a9be-461c-a601-fc13d240eaa7", "provider": "bird", "timeStamp": "01/29/2020, 09:39:56"}, "type": "Feature"}, {"geometry": {"coordinates": [8.53278, 47.36451], "type": "Point"}, "properties": {"charge": 73, "id": "bird_9e96fac3-f4c0-465a-b4e3-7c1350e41f12", "provider": "bird", "timeStamp": "01/29/2020, 09:39:56"}, "type": "Feature"}, {"geometry": {"coordinates": [8.54083166666667, 47.36623], "type": "Point"}, "properties": {"charge": 64, "id": "bird_a1e3cdcb-e228-45b7-95bf-25e326bd1966", "provider": "bird", "timeStamp": "01/29/2020, 09:39:56"}, "type": "Feature"}, {"geometry": {"coordinates": [8.54098, 47.3662983333333], "type": "Point"}, "properties": {"charge": 70, "id": "bird_5a09278a-7833-4e06-aab3-c014cfc2bfc9", "provider": "bird", "timeStamp": "01/29/2020, 09:39:56"}, "type": "Feature"}, {"geometry": {"coordinates": [8.530945, 47.3645483333333], "type": "Point"}, "properties": {"charge": 92, "id": "bird_3543b2fc-d94d-4673-88b2-34d90c30811d", "provider": "bird", "timeStamp": "01/29/2020, 09:39:56"}, "type": "Feature"}, {"geometry": {"coordinates": [8.53660333333333, 47.3652033333333], "type": "Point"}, "properties": {"charge": 60, "id": "bird_85795aa9-3669-44c0-8851-6e1a7780b9e8", "provider": "bird", "timeStamp": "01/29/2020, 09:39:56"}, "type": "Feature"}, {"geometry": {"coordinates": [8.530885, 47.3648533333333], "type": "Point"}, "properties": {"charge": 27, "id": "bird_d50bd51c-2d7c-4761-9490-f71a0034c264", "provider": "bird", "timeStamp": "01/29/2020, 09:39:56"}, "type": "Feature"}, {"geometry": {"coordinates": [8.52063666666667, 47.36647], "type": "Point"}, "properties": {"charge": 66, "id": "bird_3ee58353-3a48-4737-9542-31c945df83b3", "provider": "bird", "timeStamp": "01/29/2020, 09:39:56"}, "type": "Feature"}, {"geometry": {"coordinates": [8.52535, 47.3945433333333], "type": "Point"}, "properties": {"charge": 46, "id": "bird_34226415-f3c1-4e27-b28a-33d350bd433e", "provider": "bird", "timeStamp": "01/29/2020, 09:39:56"}, "type": "Feature"}, {"geometry": {"coordinates": [8.52103666666667, 47.3666383333333], "type": "Point"}, "properties": {"charge": 40, "id": "bird_6f783e5e-2bde-463e-8ada-c27c4bf3a2cc", "provider": "bird", "timeStamp": "01/29/2020, 09:39:56"}, "type": "Feature"}, {"geometry": {"coordinates": [8.53217166666667, 47.3655466666667], "type": "Point"}, "properties": {"charge": 52, "id": "bird_919dd6a9-7e40-4d1e-980d-554890686216", "provider": "bird", "timeStamp": "01/29/2020, 09:39:56"}, "type": "Feature"}, {"geometry": {"coordinates": [8.531825, 47.365555], "type": "Point"}, "properties": {"charge": 64, "id": "bird_8e634515-b1ca-474f-9e02-bed64b6832ce", "provider": "bird", "timeStamp": "01/29/2020, 09:39:56"}, "type": "Feature"}, {"geometry": {"coordinates": [8.50909666666667, 47.3779366666667], "type": "Point"}, "properties": {"charge": 71, "id": "bird_8fade3f9-10d5-49f8-916b-7f0774adb8d7", "provider": "bird", "timeStamp": "01/29/2020, 09:39:56"}, "type": "Feature"}, {"geometry": {"coordinates": [8.53650833333333, 47.3664583333333], "type": "Point"}, "properties": {"charge": 35, "id": "bird_d059bb1e-3366-4e74-909c-35b51bb507e2", "provider": "bird", "timeStamp": "01/29/2020, 09:39:56"}, "type": "Feature"}, {"geometry": {"coordinates": [8.53794, 47.3931816666667], "type": "Point"}, "properties": {"charge": 74, "id": "bird_244fd5d1-8786-4e2b-926c-438941ad85f7", "provider": "bird", "timeStamp": "01/29/2020, 09:39:56"}, "type": "Feature"}, {"geometry": {"coordinates": [8.532445, 47.3939316666667], "type": "Point"}, "properties": {"charge": 60, "id": "bird_43500f9b-7ec5-44d9-ba78-e2b9e8677dcf", "provider": "bird", "timeStamp": "01/29/2020, 09:39:56"}, "type": "Feature"}, {"geometry": {"coordinates": [8.50965833333333, 47.3783833333333], "type": "Point"}, "properties": {"charge": 96, "id": "bird_f0854fef-a61f-4cbe-a487-cd41844a4a2a", "provider": "bird", "timeStamp": "01/29/2020, 09:39:56"}, "type": "Feature"}, {"geometry": {"coordinates": [8.50971666666667, 47.37838], "type": "Point"}, "properties": {"charge": 96, "id": "bird_f4f90cd8-db35-4cd0-9a2e-334f72d4211b", "provider": "bird", "timeStamp": "01/29/2020, 09:39:56"}, "type": "Feature"}, {"geometry": {"coordinates": [8.539695, 47.36784], "type": "Point"}, "properties": {"charge": 30, "id": "bird_c073e2cd-0f0e-46ab-aa24-7a02d63186a5", "provider": "bird", "timeStamp": "01/29/2020, 09:39:56"}, "type": "Feature"}, {"geometry": {"coordinates": [8.50979666666667, 47.3782083333333], "type": "Point"}, "properties": {"charge": 93, "id": "bird_726f90fd-fe41-49f0-b320-c940402c97b9", "provider": "bird", "timeStamp": "01/29/2020, 09:39:56"}, "type": "Feature"}, {"geometry": {"coordinates": [8.50983, 47.3782316666667], "type": "Point"}, "properties": {"charge": 99, "id": "bird_3e319395-4a33-465f-b01f-ced5b16a9658", "provider": "bird", "timeStamp": "01/29/2020, 09:39:56"}, "type": "Feature"}, {"geometry": {"coordinates": [8.51001333333333, 47.3780166666667], "type": "Point"}, "properties": {"charge": 93, "id": "bird_79acb977-5b89-43bd-a01f-7dce52b8a993", "provider": "bird", "timeStamp": "01/29/2020, 09:39:56"}, "type": "Feature"}, {"geometry": {"coordinates": [8.53629333333333, 47.367005], "type": "Point"}, "properties": {"charge": 36, "id": "bird_c79537cd-17c3-4cf8-9344-30d0b1deda6a", "provider": "bird", "timeStamp": "01/29/2020, 09:39:56"}, "type": "Feature"}, {"geometry": {"coordinates": [8.51325666666667, 47.3876083333333], "type": "Point"}, "properties": {"charge": 92, "id": "bird_daf78aca-b701-49b0-b55c-7cd6d94445f5", "provider": "bird", "timeStamp": "01/29/2020, 09:39:56"}, "type": "Feature"}, {"geometry": {"coordinates": [8.51004833333333, 47.3780483333333], "type": "Point"}, "properties": {"charge": 93, "id": "bird_454c8dc4-4351-4e78-97da-e7794d31561b", "provider": "bird", "timeStamp": "01/29/2020, 09:39:56"}, "type": "Feature"}, {"geometry": {"coordinates": [8.51009833333333, 47.3781283333333], "type": "Point"}, "properties": {"charge": 94, "id": "bird_7656c2f7-23ac-4d71-a8f8-e0e0d3749297", "provider": "bird", "timeStamp": "01/29/2020, 09:39:56"}, "type": "Feature"}, {"geometry": {"coordinates": [8.53938166666667, 47.3679766666667], "type": "Point"}, "properties": {"charge": 48, "id": "bird_fc4761b7-f1c7-4a4c-8500-a42e205fc4f5", "provider": "bird", "timeStamp": "01/29/2020, 09:39:56"}, "type": "Feature"}, {"geometry": {"coordinates": [8.51083833333333, 47.3759683333333], "type": "Point"}, "properties": {"charge": 21, "id": "bird_20d63ca3-54c4-4a25-878d-946d1782cb46", "provider": "bird", "timeStamp": "01/29/2020, 09:39:56"}, "type": "Feature"}, {"geometry": {"coordinates": [8.51015333333333, 47.3780333333333], "type": "Point"}, "properties": {"charge": 92, "id": "bird_2e5c91ba-104a-44d5-936f-7c4f033a4134", "provider": "bird", "timeStamp": "01/29/2020, 09:39:56"}, "type": "Feature"}, {"geometry": {"coordinates": [8.53695666666667, 47.3672633333333], "type": "Point"}, "properties": {"charge": 48, "id": "bird_d874d8d2-8a46-4500-8747-e1ceab906b7f", "provider": "bird", "timeStamp": "01/29/2020, 09:39:56"}, "type": "Feature"}, {"geometry": {"coordinates": [8.547135, 47.3729633333333], "type": "Point"}, "properties": {"charge": 43, "id": "bird_3d8ee1e7-c095-4b1f-99b0-fbb83fcb5aa7", "provider": "bird", "timeStamp": "01/29/2020, 09:39:56"}, "type": "Feature"}, {"geometry": {"coordinates": [8.53630333333333, 47.3671566666667], "type": "Point"}, "properties": {"charge": 34, "id": "bird_c2a8228c-f440-449d-8301-1ff23be9f43c", "provider": "bird", "timeStamp": "01/29/2020, 09:39:56"}, "type": "Feature"}, {"geometry": {"coordinates": [8.52415333333333, 47.392895], "type": "Point"}, "properties": {"charge": 35, "id": "bird_c9600e90-18b9-4c08-8587-5f5785b49d05", "provider": "bird", "timeStamp": "01/29/2020, 09:39:56"}, "type": "Feature"}, {"geometry": {"coordinates": [8.53055166666667, 47.3932183333333], "type": "Point"}, "properties": {"charge": 12, "id": "bird_08dbb665-35b3-4c39-8722-da63b628b84f", "provider": "bird", "timeStamp": "01/29/2020, 09:39:56"}, "type": "Feature"}, {"geometry": {"coordinates": [8.51814, 47.3695], "type": "Point"}, "properties": {"charge": 44, "id": "bird_12eea7b5-c2bc-489a-9260-52334ce7f974", "provider": "bird", "timeStamp": "01/29/2020, 09:39:56"}, "type": "Feature"}, {"geometry": {"coordinates": [8.532505, 47.3669783333333], "type": "Point"}, "properties": {"charge": 93, "id": "bird_4a2ffffc-9a11-4291-bfb4-e25834d6b5b2", "provider": "bird", "timeStamp": "01/29/2020, 09:39:56"}, "type": "Feature"}, {"geometry": {"coordinates": [8.54850166666667, 47.3769266666667], "type": "Point"}, "properties": {"charge": 27, "id": "bird_9fabec3f-9724-4730-9611-921bdee93f54", "provider": "bird", "timeStamp": "01/29/2020, 09:39:56"}, "type": "Feature"}, {"geometry": {"coordinates": [8.543205, 47.3707233333333], "type": "Point"}, "properties": {"charge": 67, "id": "bird_eb13e671-5ba2-4f39-8084-3c3f2bd63cf5", "provider": "bird", "timeStamp": "01/29/2020, 09:39:56"}, "type": "Feature"}, {"geometry": {"coordinates": [8.543075, 47.3706733333333], "type": "Point"}, "properties": {"charge": 84, "id": "bird_9ae5654e-dc54-452b-b892-546e89924631", "provider": "bird", "timeStamp": "01/29/2020, 09:39:56"}, "type": "Feature"}, {"geometry": {"coordinates": [8.53469166666667, 47.36755], "type": "Point"}, "properties": {"charge": 51, "id": "bird_f8bfd309-faa6-4045-ade6-5951c0289733", "provider": "bird", "timeStamp": "01/29/2020, 09:39:56"}, "type": "Feature"}, {"geometry": {"coordinates": [8.52836, 47.3926466666667], "type": "Point"}, "properties": {"charge": 54, "id": "bird_c3833c67-b2df-462a-965b-c9dc5f96eef2", "provider": "bird", "timeStamp": "01/29/2020, 09:39:56"}, "type": "Feature"}, {"geometry": {"coordinates": [8.53368166666667, 47.3675616666667], "type": "Point"}, "properties": {"charge": 19, "id": "bird_7ef17bb8-5d9c-4ed5-bb2a-120f03093edf", "provider": "bird", "timeStamp": "01/29/2020, 09:39:56"}, "type": "Feature"}, {"geometry": {"coordinates": [8.51643333333333, 47.37128], "type": "Point"}, "properties": {"charge": 22, "id": "bird_d57216a6-83c8-4c30-adbe-4c658a607fbe", "provider": "bird", "timeStamp": "01/29/2020, 09:39:56"}, "type": "Feature"}, {"geometry": {"coordinates": [8.536225, 47.3681366666667], "type": "Point"}, "properties": {"charge": 71, "id": "bird_f7ca1b4d-8186-42d5-8236-9721df2220a7", "provider": "bird", "timeStamp": "01/29/2020, 09:39:56"}, "type": "Feature"}, {"geometry": {"coordinates": [8.54810666666667, 47.37746], "type": "Point"}, "properties": {"charge": 80, "id": "bird_bf4fd5aa-e40f-4fe7-922c-57d34c4104d3", "provider": "bird", "timeStamp": "01/29/2020, 09:39:56"}, "type": "Feature"}, {"geometry": {"coordinates": [8.51856666666667, 47.37027], "type": "Point"}, "properties": {"charge": 31, "id": "bird_22d59842-0698-471d-9faa-48a1227fb387", "provider": "bird", "timeStamp": "01/29/2020, 09:39:56"}, "type": "Feature"}, {"geometry": {"coordinates": [8.54376, 47.3718116666667], "type": "Point"}, "properties": {"charge": 61, "id": "bird_de203de1-431b-422b-9c95-1e6e23876523", "provider": "bird", "timeStamp": "01/29/2020, 09:39:56"}, "type": "Feature"}, {"geometry": {"coordinates": [8.51794333333333, 47.37075], "type": "Point"}, "properties": {"charge": 20, "id": "bird_944187ab-6c38-4d87-b1da-5020e95dd864", "provider": "bird", "timeStamp": "01/29/2020, 09:39:56"}, "type": "Feature"}, {"geometry": {"coordinates": [8.54385833333333, 47.372055], "type": "Point"},