{"features": [{"geometry": {"coordinates": [8.540062, 47.374392], "type": "Point"}, "properties": {"address": "Uraniastrasse 7", "electric": 8, "id": "pb_60", "manual": 11, "name": "Demo Station Werdm\u00fchleplatz", "provider": "publibike", "timeStamp": "02/08/2020, 17:58:03", "zip": 8001}, "type": "Feature"}, {"geometry": {"coordinates": [8.5452956, 47.4099615], "type": "Point"}, "properties": {"address": "Querstrasse 8", "electric": 6, "id": "pb_61", "manual": 1, "name": "Marktplatz", "provider": "publibike", "timeStamp": "02/08/2020, 17:58:03", "zip": 8050}, "type": "Feature"}, {"geometry": {"coordinates": [8.5156327, 47.3795837], "type": "Point"}, "properties": {"address": "Bullingerstrasse 5", "electric": 2, "id": "pb_80", "manual": 3, "name": "Bullingerplatz", "provider": "publibike", "timeStamp": "02/08/2020, 17:58:03", "zip": 8004}, "type": "Feature"}, {"geometry": {"coordinates": [8.5104051, 47.3899342], "type": "Point"}, "properties": {"address": "Pfingstweidstrasse 96e", "electric": 8, "id": "pb_81", "manual": 0, "name": "Herdern", "provider": "publibike", "timeStamp": "02/08/2020, 17:58:03", "zip": 8001}, "type": "Feature"}, {"geometry": {"coordinates": [8.535718, 47.359675], "type": "Point"}, "properties": {"address": "Mythenquai 50", "electric": 2, "id": "pb_82", "manual": 6, "name": "Hafen Enge", "provider": "publibike", "timeStamp": "02/08/2020, 17:58:03", "zip": 8002}, "type": "Feature"}, {"geometry": {"coordinates": [8.520370505, 47.358663827], "type": "Point"}, "properties": {"address": "Bubenbergstrasse 1", "electric": 1, "id": "pb_83", "manual": 3, "name": "Comerge", "provider": "publibike", "timeStamp": "02/08/2020, 17:58:03", "zip": 8045}, "type": "Feature"}, {"geometry": {"coordinates": [8.5412505, 47.3789825], "type": "Point"}, "properties": {"address": "Museumstrasse 2", "electric": 17, "id": "pb_84", "manual": 20, "name": "Landesmuseum", "provider": "publibike", "timeStamp": "02/08/2020, 17:58:03", "zip": 8001}, "type": "Feature"}, {"geometry": {"coordinates": [8.5235479, 47.3716661], "type": "Point"}, "properties": {"address": "Birmensdorferstrasse 80", "electric": 2, "id": "pb_85", "manual": 4, "name": "Bahnhof Wiedikon", "provider": "publibike", "timeStamp": "02/08/2020, 17:58:03", "zip": 8003}, "type": "Feature"}, {"geometry": {"coordinates": [8.506822854, 47.40781197], "type": "Point"}, "properties": {"address": "Stefano-Franscini-Platz 5", "electric": 0, "id": "pb_86", "manual": 0, "name": "ETH H\u00f6nggerberg", "provider": "publibike", "timeStamp": "02/08/2020, 17:58:03", "zip": 8093}, "type": "Feature"}, {"geometry": {"coordinates": [8.536101, 47.371083], "type": "Point"}, "properties": {"address": "Pelikanplatz 5", "electric": 2, "id": "pb_87", "manual": 14, "name": "Pelikanplatz", "provider": "publibike", "timeStamp": "02/08/2020, 17:58:03", "zip": 8001}, "type": "Feature"}, {"geometry": {"coordinates": [8.5257822, 47.3651936], "type": "Point"}, "properties": {"address": "H\u00fcrlimannplatz 90", "electric": 2, "id": "pb_88", "manual": 1, "name": "H\u00fcrlimannplatz", "provider": "publibike", "timeStamp": "02/08/2020, 17:58:03", "zip": 8002}, "type": "Feature"}, {"geometry": {"coordinates": [8.5313344, 47.3713591], "type": "Point"}, "properties": {"address": "Selnaustrasse 32", "electric": 0, "id": "pb_89", "manual": 4, "name": "Stauffacherbr\u00fccke", "provider": "publibike", "timeStamp": "02/08/2020, 17:58:03", "zip": 8001}, "type": "Feature"}, {"geometry": {"coordinates": [8.5056978, 47.3917964], "type": "Point"}, "properties": {"address": "Sportweg 25", "electric": 3, "id": "pb_90", "manual": 1, "name": "Sportweg", "provider": "publibike", "timeStamp": "02/08/2020, 17:58:03", "zip": 8005}, "type": "Feature"}, {"geometry": {"coordinates": [8.5181701, 47.3917837], "type": "Point"}, "properties": {"address": "Hardturmstrasse 11", "electric": 1, "id": "pb_91", "manual": 3, "name": "Puls 5", "provider": "publibike", "timeStamp": "02/08/2020, 17:58:03", "zip": 8005}, "type": "Feature"}, {"geometry": {"coordinates": [8.5286468, 47.3820827], "type": "Point"}, "properties": {"address": "R\u00f6ntgenstrasse 6", "electric": 6, "id": "pb_92", "manual": 0, "name": "R\u00f6ntgenstrasse", "provider": "publibike", "timeStamp": "02/08/2020, 17:58:03", "zip": 8005}, "type": "Feature"}, {"geometry": {"coordinates": [8.531935, 47.384918], "type": "Point"}, "properties": {"address": "Kornhausbr\u00fccke 1", "electric": 0, "id": "pb_93", "manual": 4, "name": "Limmatplatz", "provider": "publibike", "timeStamp": "02/08/2020, 17:58:03", "zip": 8005}, "type": "Feature"}, {"geometry": {"coordinates": [8.5354006, 47.3758639], "type": "Point"}, "properties": {"address": "Gessnerallee 15", "electric": 8, "id": "pb_94", "manual": 3, "name": "Gessnerallee", "provider": "publibike", "timeStamp": "02/08/2020, 17:58:03", "zip": 8001}, "type": "Feature"}, {"geometry": {"coordinates": [8.523818, 47.377148], "type": "Point"}, "properties": {"address": "Stauffacherstrasse 127", "electric": 4, "id": "pb_95", "manual": 0, "name": "B\u00e4ckeranlage", "provider": "publibike", "timeStamp": "02/08/2020, 17:58:03", "zip": 8004}, "type": "Feature"}, {"geometry": {"coordinates": [8.531836, 47.378548], "type": "Point"}, "properties": {"address": "Lagerstrasse 44", "electric": 1, "id": "pb_96", "manual": 1, "name": "Gustav-Gull-Platz", "provider": "publibike", "timeStamp": "02/08/2020, 17:58:03", "zip": 8004}, "type": "Feature"}, {"geometry": {"coordinates": [8.5104883, 47.3771535], "type": "Point"}, "properties": {"address": "Zurlindenstrasse 291", "electric": 1, "id": "pb_97", "manual": 9, "name": "Zurlindenstrasse", "provider": "publibike", "timeStamp": "02/08/2020, 17:58:03", "zip": 8003}, "type": "Feature"}, {"geometry": {"coordinates": [8.5333139, 47.3731102], "type": "Point"}, "properties": {"address": "Sihlstrasse 81", "electric": 7, "id": "pb_98", "manual": 6, "name": "Sihlstrasse", "provider": "publibike", "timeStamp": "02/08/2020, 17:58:03", "zip": 8001}, "type": "Feature"}, {"geometry": {"coordinates": [8.520532, 47.374951], "type": "Point"}, "properties": {"address": "Feldstrasse 24", "electric": 3, "id": "pb_99", "manual": 7, "name": "Kalkbreite", "provider": "publibike", "timeStamp": "02/08/2020, 17:58:03", "zip": 8004}, "type": "Feature"}, {"geometry": {"coordinates": [8.539046, 47.368064], "type": "Point"}, "properties": {"address": "Talstrasse 12", "electric": 4, "id": "pb_100", "manual": 6, "name": "Z\u00fcrcher Kantonalbank", "provider": "publibike", "timeStamp": "02/08/2020, 17:58:03", "zip": 8001}, "type": "Feature"}, {"geometry": {"coordinates": [8.5348427, 47.3625938], "type": "Point"}, "properties": {"address": "Breitingerstrasse 5", "electric": 2, "id": "pb_101", "manual": 1, "name": "Rentenanstalt", "provider": "publibike", "timeStamp": "02/08/2020, 17:58:03", "zip": 8002}, "type": "Feature"}, {"geometry": {"coordinates": [8.5166922, 47.3897772], "type": "Point"}, "properties": {"address": "Technoparkstrasse 4", "electric": 0, "id": "pb_102", "manual": 5, "name": "Turbinenplatz", "provider": "publibike", "timeStamp": "02/08/2020, 17:58:03", "zip": 8005}, "type": "Feature"}, {"geometry": {"coordinates": [8.539312, 47.3739964], "type": "Point"}, "properties": {"address": "Oetenbachgasse 14", "electric": 1, "id": "pb_104", "manual": 5, "name": "Rennweg", "provider": "publibike", "timeStamp": "02/08/2020, 17:58:03", "zip": 8001}, "type": "Feature"}, {"geometry": {"coordinates": [8.5360685, 47.3775022], "type": "Point"}, "properties": {"address": "Kasernenstrasse 101", "electric": 16, "id": "pb_105", "manual": 34, "name": "Sihlpost", "provider": "publibike", "timeStamp": "02/08/2020, 17:58:03", "zip": 8004}, "type": "Feature"}, {"geometry": {"coordinates": [8.53545, 47.382798], "type": "Point"}, "properties": {"address": "Ausstellungsstrasse 44", "electric": 5, "id": "pb_106", "manual": 10, "name": "Museum f\u00fcr Gestaltung", "provider": "publibike", "timeStamp": "02/08/2020, 17:58:03", "zip": 8005}, "type": "Feature"}, {"geometry": {"coordinates": [8.5306155, 47.3647902], "type": "Point"}, "properties": {"address": "Gutenbergstrasse 1", "electric": 4, "id": "pb_107", "manual": 7, "name": "Bederbr\u00fccke", "provider": "publibike", "timeStamp": "02/08/2020, 17:58:03", "zip": 8002}, "type": "Feature"}, {"geometry": {"coordinates": [8.518982, 47.386741], "type": "Point"}, "properties": {"address": "Geroldstrasse 4", "electric": 9, "id": "pb_108", "manual": 10, "name": "Bahnhof Hardbr\u00fccke", "provider": "publibike", "timeStamp": "02/08/2020, 17:58:03", "zip": 8005}, "type": "Feature"}, {"geometry": {"coordinates": [8.53001018, 47.37247535], "type": "Point"}, "properties": {"address": "Werdstrasse 21", "electric": 3, "id": "pb_109", "manual": 1, "name": "Tamedia", "provider": "publibike", "timeStamp": "02/08/2020, 17:58:03", "zip": 8004}, "type": "Feature"}, {"geometry": {"coordinates": [8.4860017, 47.396401], "type": "Point"}, "properties": {"address": "Gr\u00fcnauring 37", "electric": 7, "id": "pb_110", "manual": 5, "name": "Gr\u00fcnau", "provider": "publibike", "timeStamp": "02/08/2020, 17:58:03", "zip": 8064}, "type": "Feature"}, {"geometry": {"coordinates": [8.548519, 47.376756], "type": "Point"}, "properties": {"address": "R\u00e4mistrasse 101", "electric": 2, "id": "pb_111", "manual": 3, "name": "ETH Zentrum", "provider": "publibike", "timeStamp": "02/08/2020, 17:58:03", "zip": 8006}, "type": "Feature"}, {"geometry": {"coordinates": [8.520449, 47.388151], "type": "Point"}, "properties": {"address": "Josefstrasse 224", "electric": 1, "id": "pb_112", "manual": 3, "name": "Steinfelsareal", "provider": "publibike", "timeStamp": "02/08/2020, 17:58:03", "zip": 8005}, "type": "Feature"}, {"geometry": {"coordinates": [8.520482, 47.37209], "type": "Point"}, "properties": {"address": "Weststrasse 115", "electric": 2, "id": "pb_124", "manual": 4, "name": "Weststrasse", "provider": "publibike", "timeStamp": "02/08/2020, 17:58:03", "zip": 8003}, "type": "Feature"}, {"geometry": {"coordinates": [8.496727, 47.378521], "type": "Point"}, "properties": {"address": "Albisriederstrasse 200", "electric": 1, "id": "pb_125", "manual": 3, "name": "Utogrund", "provider": "publibike", "timeStamp": "02/08/2020, 17:58:03", "zip": 8047}, "type": "Feature"}, {"geometry": {"coordinates": [8.510418, 47.381356], "type": "Point"}, "properties": {"address": "Bullingerstrasse 73", "electric": 1, "id": "pb_126", "manual": 7, "name": "Hardau", "provider": "publibike", "timeStamp": "02/08/2020, 17:58:03", "zip": 8004}, "type": "Feature"}, {"geometry": {"coordinates": [8.525525, 47.361567], "type": "Point"}, "properties": {"address": "Klopstockstrasse 23", "electric": 2, "id": "pb_127", "manual": 2, "name": "Klopstockwiese", "provider": "publibike", "timeStamp": "02/08/2020, 17:58:03", "zip": 8002}, "type": "Feature"}, {"geometry": {"coordinates": [8.518143, 47.363148], "type": "Point"}, "properties": {"address": "Haldenstrasse 8", "electric": 0, "id": "pb_128", "manual": 0, "name": "Binz", "provider": "publibike", "timeStamp": "02/08/2020, 17:58:03", "zip": 8045}, "type": "Feature"}, {"geometry": {"coordinates": [8.542726, 47.379952], "type": "Point"}, "properties": {"address": "Walchestrasse 11", "electric": 6, "id": "pb_129", "manual": 3, "name": "Stampfenbachplatz", "provider": "publibike", "timeStamp": "02/08/2020, 17:58:03", "zip": 8006}, "type": "Feature"}, {"geometry": {"coordinates": [8.488108, 47.391366], "type": "Point"}, "properties": {"address": "Altstetterplatz 1", "electric": 6, "id": "pb_130", "manual": 2, "name": "Bahnhof Altstetten", "provider": "publibike", "timeStamp": "02/08/2020, 17:58:03", "zip": 8048}, "type": "Feature"}, {"geometry": {"coordinates": [8.554114, 47.365119], "type": "Point"}, "properties": {"address": "Kreuzplatz 2", "electric": 1, "id": "pb_131", "manual": 3, "name": "Kreuzplatz", "provider": "publibike", "timeStamp": "02/08/2020, 17:58:03", "zip": 8032}, "type": "Feature"}, {"geometry": {"coordinates": [8.549852, 47.35594], "type": "Point"}, "properties": {"address": "H\u00f6schgasse 3", "electric": 10, "id": "pb_132", "manual": 10, "name": "Blatterwiese", "provider": "publibike", "timeStamp": "02/08/2020, 17:58:03", "zip": 8008}, "type": "Feature"}, {"geometry": {"coordinates": [8.554501, 47.36162], "type": "Point"}, "properties": {"address": "Feldeggstrasse 80", "electric": 2, "id": "pb_133", "manual": 3, "name": "Villa Bleuler", "provider": "publibike", "timeStamp": "02/08/2020, 17:58:03", "zip": 8008}, "type": "Feature"}, {"geometry": {"coordinates": [8.557088, 47.358557], "type": "Point"}, "properties": {"address": "M\u00fchlebachstrasse 131", "electric": 2, "id": "pb_134", "manual": 1, "name": "M\u00fchlebachstrasse", "provider": "publibike", "timeStamp": "02/08/2020, 17:58:03", "zip": 8008}, "type": "Feature"}, {"geometry": {"coordinates": [8.547639, 47.361266], "type": "Point"}, "properties": {"address": "Utoquai 50", "electric": 10, "id": "pb_135", "manual": 10, "name": "Seebad Utoquai", "provider": "publibike", "timeStamp": "02/08/2020, 17:58:03", "zip": 8008}, "type": "Feature"}, {"geometry": {"coordinates": [8.548045, 47.370869], "type": "Point"}, "properties": {"address": "Heimplatz 1", "electric": 6, "id": "pb_137", "manual": 1, "name": "Kunsthaus", "provider": "publibike", "timeStamp": "02/08/2020, 17:58:03", "zip": 8001}, "type": "Feature"}, {"geometry": {"coordinates": [8.543447, 47.375933], "type": "Point"}, "properties": {"address": "Limmatquai 138", "electric": 7, "id": "pb_138", "manual": 6, "name": "Central", "provider": "publibike", "timeStamp": "02/08/2020, 17:58:03", "zip": 8001}, "type": "Feature"}, {"geometry": {"coordinates": [8.549356, 47.408827], "type": "Point"}, "properties": {"address": "Tramstrasse 35", "electric": 3, "id": "pb_139", "manual": 3, "name": "ewz Tramstrasse", "provider": "publibike", "timeStamp": "02/08/2020, 17:58:03", "zip": 8050}, "type": "Feature"}, {"geometry": {"coordinates": [8.533736, 47.366904], "type": "Point"}, "properties": {"address": "Bleicherweg 33", "electric": 4, "id": "pb_140", "manual": 2, "name": "Bleicherweg", "provider": "publibike", "timeStamp": "02/08/2020, 17:58:03", "zip": 8002}, "type": "Feature"}, {"geometry": {"coordinates": [8.544935, 47.366752], "type": "Point"}, "properties": {"address": "Bellevueplatz 2", "electric": 31, "id": "pb_141", "manual": 23, "name": "Bellevue", "provider": "publibike", "timeStamp": "02/08/2020, 17:58:03", "zip": 8001}, "type": "Feature"}, {"geometry": {"coordinates": [8.5285533, 47.3742296], "type": "Point"}, "properties": {"address": "Stauffacherstrasse 41", "electric": 2, "id": "pb_142", "manual": 3, "name": "Stauffacher", "provider": "publibike", "timeStamp": "02/08/2020, 17:58:03", "zip": 8004}, "type": "Feature"}, {"geometry": {"coordinates": [8.523722, 47.3899], "type": "Point"}, "properties": {"address": "Limmatstrasse 310", "electric": 1, "id": "pb_143", "manual": 3, "name": "Escher-Wyss-Platz", "provider": "publibike", "timeStamp": "02/08/2020, 17:58:03", "zip": 8005}, "type": "Feature"}, {"geometry": {"coordinates": [8.491061, 47.392336], "type": "Point"}, "properties": {"address": "Vulkanplatz 1", "electric": 3, "id": "pb_149", "manual": 8, "name": "Vulkanplatz", "provider": "publibike", "timeStamp": "02/08/2020, 17:58:03", "zip": 8048}, "type": "Feature"}, {"geometry": {"coordinates": [8.52306, 47.359872], "type": "Point"}, "properties": {"address": "Giessh\u00fcbelstrasse 15", "electric": 13, "id": "pb_150", "manual": 0, "name": "Utoplatz", "provider": "publibike", "timeStamp": "02/08/2020, 17:58:03", "zip": 8045}, "type": "Feature"}, {"geometry": {"coordinates": [8.486284, 47.387685], "type": "Point"}, "properties": {"address": "Lindenplatz 1", "electric": 3, "id": "pb_151", "manual": 9, "name": "Lindenplatz", "provider": "publibike", "timeStamp": "02/08/2020, 17:58:03", "zip": 8048}, "type": "Feature"}, {"geometry": {"coordinates": [8.49163, 47.389823], "type": "Point"}, "properties": {"address": "Hohlstrasse 563", "electric": 1, "id": "pb_152", "manual": 1, "name": "Luggweg", "provider": "publibike", "timeStamp": "02/08/2020, 17:58:03", "zip": 8048}, "type": "Feature"}, {"geometry": {"coordinates": [8.52174, 47.365272], "type": "Point"}, "properties": {"address": "Manessestrasse 87", "electric": 0, "id": "pb_153", "manual": 0, "name": "Manesseplatz", "provider": "publibike", "timeStamp": "02/08/2020, 17:58:03", "zip": 8045}, "type": "Feature"}, {"geometry": {"coordinates": [8.52714, 47.372329], "type": "Point"}, "properties": {"address": "Werdstrasse 75", "electric": 1, "id": "pb_154", "manual": 2, "name": "Werd", "provider": "publibike", "timeStamp": "02/08/2020, 17:58:03", "zip": 8004}, "type": "Feature"}, {"geometry": {"coordinates": [8.543042, 47.374711], "type": "Point"}, "properties": {"address": "Limmatquai 100", "electric": 0, "id": "pb_155", "manual": 0, "name": "Rudolf-Brun-Br\u00fccke", "provider": "publibike", "timeStamp": "02/08/2020, 17:58:03", "zip": 8001}, "type": "Feature"}, {"geometry": {"coordinates": [8.490837, 47.386596], "type": "Point"}, "properties": {"address": "Badenerstrasse 627", "electric": 0, "id": "pb_156", "manual": 0, "name": "Luggwegstrasse VBZ", "provider": "publibike", "timeStamp": "02/08/2020, 17:58:03", "zip": 8048}, "type": "Feature"}, {"geometry": {"coordinates": [8.535119, 47.355189], "type": "Point"}, "properties": {"address": "Mythenquai 95", "electric": 0, "id": "pb_157", "manual": 2, "name": "Strandbad Mythenquai", "provider": "publibike", "timeStamp": "02/08/2020, 17:58:03", "zip": 8002}, "type": "Feature"}, {"geometry": {"coordinates": [8.545505, 47.373675], "type": "Point"}, "properties": {"address": "Predigerpatz 21", "electric": 3, "id": "pb_158", "manual": 4, "name": "Predigerplatz", "provider": "publibike", "timeStamp": "02/08/2020, 17:58:03", "zip": 8001}, "type": "Feature"}, {"geometry": {"coordinates": [8.515558, 47.371868], "type": "Point"}, "properties": {"address": "Aemtlerstrasse 23", "electric": 5, "id": "pb_159", "manual": 5, "name": "Zwinglihaus", "provider": "publibike", "timeStamp": "02/08/2020, 17:58:03", "zip": 8003}, "type": "Feature"}, {"geometry": {"coordinates": [8.524629, 47.386072], "type": "Point"}, "properties": {"address": "Josefstrasse 188", "electric": 3, "id": "pb_160", "manual": 0, "name": "Josefwiese", "provider": "publibike", "timeStamp": "02/08/2020, 17:58:03", "zip": 8005}, "type": "Feature"}, {"geometry": {"coordinates": [8.527138, 47.387531], "type": "Point"}, "properties": {"address": "R\u00f6ntgenstrasse 87", "electric": 0, "id": "pb_164", "manual": 2, "name": "Markthalle", "provider": "publibike", "timeStamp": "02/08/2020, 17:58:03", "zip": 8005}, "type": "Feature"}, {"geometry": {"coordinates": [8.552717, 47.359978], "type": "Point"}, "properties": {"address": "Seefeldstrasse 96", "electric": 6, "id": "pb_263", "manual": 10, "name": "Feldeggstrasse", "provider": "publibike", "timeStamp": "02/08/2020, 17:58:03", "zip": 8008}, "type": "Feature"}, {"geometry": {"coordinates": [8.553189, 47.353198], "type": "Point"}, "properties": {"address": "Bellerivestrasse 170", "electric": 2, "id": "pb_264", "manual": 1, "name": "Lake Side", "provider": "publibike", "timeStamp": "02/08/2020, 17:58:03", "zip": 8008}, "type": "Feature"}, {"geometry": {"coordinates": [8.543437, 47.369256], "type": "Point"}, "properties": {"address": "Limmatquai 18", "electric": 0, "id": "pb_265", "manual": 0, "name": "Helmhaus", "provider": "publibike", "timeStamp": "02/08/2020, 17:58:03", "zip": 8032}, "type": "Feature"}, {"geometry": {"coordinates": [8.516676, 47.375819], "type": "Point"}, "properties": {"address": "Badenerstrasse 246", "electric": 0, "id": "pb_266", "manual": 8, "name": "Lochergut", "provider": "publibike", "timeStamp": "02/08/2020, 17:58:03", "zip": 8004}, "type": "Feature"}, {"geometry": {"coordinates": [8.514605, 47.389862], "type": "Point"}, "properties": {"address": "Pfingstweidstrasse 60", "electric": 4, "id": "pb_273", "manual": 0, "name": "Westpark", "provider": "publibike", "timeStamp": "02/08/2020, 17:58:03", "zip": 8005}, "type": "Feature"}, {"geometry": {"coordinates": [8.541239126, 47.375991201], "type": "Point"}, "properties": {"address": "Beatenplatz 1", "electric": 3, "id": "pb_274", "manual": 7, "name": "Beatenplatz", "provider": "publibike", "timeStamp": "02/08/2020, 17:58:03", "zip": 8001}, "type": "Feature"}, {"geometry": {"coordinates": [8.5417135, 47.3942197], "type": "Point"}, "properties": {"address": "Scheuchzerstrasse 181", "electric": 5, "id": "pb_275", "manual": 1, "name": "Pauluskirche", "provider": "publibike", "timeStamp": "02/08/2020, 17:58:03", "zip": 8057}, "type": "Feature"}, {"geometry": {"coordinates": [8.5528182, 47.414558], "type": "Point"}, "properties": {"address": "Hagenholzstrasse 51", "electric": 2, "id": "pb_276", "manual": 4, "name": "Airgate", "provider": "publibike", "timeStamp": "02/08/2020, 17:58:03", "zip": 8050}, "type": "Feature"}, {"geometry": {"coordinates": [8.537816, 47.413514], "type": "Point"}, "properties": {"address": "Birchstrasse 183", "electric": 5, "id": "pb_277", "manual": 2, "name": "Lamprechtweg", "provider": "publibike", "timeStamp": "02/08/2020, 17:58:03", "zip": 8050}, "type": "Feature"}, {"geometry": {"coordinates": [8.545602, 47.417701], "type": "Point"}, "properties": {"address": "Felsenrainstrasse 2", "electric": 5, "id": "pb_278", "manual": 4, "name": "Emil-Oberh\u00e4nsli", "provider": "publibike", "timeStamp": "02/08/2020, 17:58:03", "zip": 8050}, "type": "Feature"}, {"geometry": {"coordinates": [8.533647, 47.39808], "type": "Point"}, "properties": {"address": "Bucheggplatz 2", "electric": 0, "id": "pb_279", "manual": 4, "name": "Bucheggplatz", "provider": "publibike", "timeStamp": "02/08/2020, 17:58:03", "zip": 8057}, "type": "Feature"}, {"geometry": {"coordinates": [8.523549, 47.392347], "type": "Point"}, "properties": {"address": "Wipkingerplatz 4", "electric": 6, "id": "pb_280", "manual": 5, "name": "Wipkingerplatz", "provider": "publibike", "timeStamp": "02/08/2020, 17:58:03", "zip": 8037}, "type": "Feature"}, {"geometry": {"coordinates": [8.548562, 47.36691], "type": "Point"}, "properties": {"address": "Galerie \u00fcber Gleis 2/3", "electric": 12, "id": "pb_285", "manual": 4, "name": "Bahnhof Stadelhofen", "provider": "publibike", "timeStamp": "02/08/2020, 17:58:03", "zip": 8001}, "type": "Feature"}, {"geometry": {"coordinates": [8.493822, 47.3985553], "type": "Point"}, "properties": {"address": "Meierwiesenstrasse 12-4", "electric": 8, "id": "pb_286", "manual": 8, "name": "T\u00fcffenwies", "provider": "publibike", "timeStamp": "02/08/2020, 17:58:03", "zip": 8064}, "type": "Feature"}, {"geometry": {"coordinates": [8.552432, 47.3801757], "type": "Point"}, "properties": {"address": "Hochstrasse 34", "electric": 4, "id": "pb_356", "manual": 1, "name": "Siriuswiese", "provider": "publibike", "timeStamp": "02/08/2020, 17:58:03", "zip": 8044}, "type": "Feature"}, {"geometry": {"coordinates": [8.527298, 47.370141], "type": "Point"}, "properties": {"address": "Hallwylstrasse 71", "electric": 1, "id": "pb_357", "manual": 5, "name": "Hallwylstrasse", "provider": "publibike", "timeStamp": "02/08/2020, 17:58:03", "zip": 8004}, "type": "Feature"}, {"geometry": {"coordinates": [8.5414185, 47.3972455], "type": "Point"}, "properties": {"address": "Schaffhauserstrasse 137", "electric": 3, "id": "pb_358", "manual": 2, "name": "Milchbuck", "provider": "publibike", "timeStamp": "02/08/2020, 17:58:03", "zip": 8057}, "type": "Feature"}, {"geometry": {"coordinates": [8.512381, 47.393409], "type": "Point"}, "properties": {"address": "Hardturmstrasse 161", "electric": 3, "id": "pb_359", "manual": 3, "name": "Fischerweg", "provider": "publibike", "timeStamp": "02/08/2020, 17:58:03", "zip": 8005}, "type": "Feature"}, {"geometry": {"coordinates": [8.5421457, 47.3876979], "type": "Point"}, "properties": {"address": "Turnerstrasse 47", "electric": 1, "id": "pb_360", "manual": 0, "name": "Kirche Unterstrass", "provider": "publibike", "timeStamp": "02/08/2020, 17:58:03", "zip": 8006}, "type": "Feature"}, {"geometry": {"coordinates": [8.522117, 47.394554], "type": "Point"}, "properties": {"address": "Dorfstrasse 40", "electric": 6, "id": "pb_361", "manual": 2, "name": "Dorfstrasse", "provider": "publibike", "timeStamp": "02/08/2020, 17:58:03", "zip": 8037}, "type": "Feature"}, {"geometry": {"coordinates": [8.530437, 47.37271], "type": "Point"}, "properties": {"address": "Werdstrasse 25", "electric": 2, "id": "pb_362", "manual": 0, "name": "Stauffachertor", "provider": "publibike", "timeStamp": "02/08/2020, 17:58:03", "zip": 8004}, "type": "Feature"}, {"geometry": {"coordinates": [8.541712, 47.416155], "type": "Point"}, "properties": {"address": "Eggb\u00fchlstrasse 21", "electric": 10, "id": "pb_363", "manual": 3, "name": "Wahlenpark", "provider": "publibike", "timeStamp": "02/08/2020, 17:58:03", "zip": 8050}, "type": "Feature"}, {"geometry": {"coordinates": [8.5595335, 47.3708387], "type": "Point"}, "properties": {"address": "Dolderstrasse 32", "electric": 0, "id": "pb_364", "manual": 3, "name": "Kinderspital", "provider": "publibike", "timeStamp": "02/08/2020, 17:58:03", "zip": 8032}, "type": "Feature"}, {"geometry": {"coordinates": [8.536433, 47.388689], "type": "Point"}, "properties": {"address": "Kornhausstrasse 30", "electric": 2, "id": "pb_365", "manual": 0, "name": "Kornhausstrasse", "provider": "publibike", "timeStamp": "02/08/2020, 17:58:03", "zip": 8006}, "type": "Feature"}, {"geometry": {"coordinates": [8.55033, 47.407098], "type": "Point"}, "properties": {"address": "Schwamendingenstrasse 41", "electric": 5, "id": "pb_366", "manual": 10, "name": "Dorflinde", "provider": "publibike", "timeStamp": "02/08/2020, 17:58:03", "zip": 8050}, "type": "Feature"}, {"geometry": {"coordinates": [8.560476, 47.368199], "type": "Point"}, "properties": {"address": "R\u00f6merhofplatz 5", "electric": 3, "id": "pb_367", "manual": 0, "name": "R\u00f6merhof", "provider": "publibike", "timeStamp": "02/08/2020, 17:58:03", "zip": 8032}, "type": "Feature"}, {"geometry": {"coordinates": [8.5609218, 47.3619068], "type": "Point"}, "properties": {"address": "Forchstrasse 99", "electric": 15, "id": "pb_368", "manual": 0, "name": "Hegibachplatz", "provider": "publibike", "timeStamp": "02/08/2020, 17:58:03", "zip": 8032}, "type": "Feature"}, {"geometry": {"coordinates": [8.5721264, 47.4039985], "type": "Point"}, "properties": {"address": "Winterthurerstrasse 519", "electric": 9, "id": "pb_370", "manual": 7, "name": "Schwamendingerplatz", "provider": "publibike", "timeStamp": "02/08/2020, 17:58:03", "zip": 8051}, "type": "Feature"}, {"geometry": {"coordinates": [8.520168, 47.378556], "type": "Point"}, "properties": {"address": "Herman-Greulich-Strasse 56", "electric": 1, "id": "pb_384", "manual": 10, "name": "Hermann-Greulich-Weg", "provider": "publibike", "timeStamp": "02/08/2020, 17:58:03", "zip": 8004}, "type": "Feature"}, {"geometry": {"coordinates": [8.547912, 47.384923], "type": "Point"}, "properties": {"address": "Culmannstrasse", "electric": 1, "id": "pb_386", "manual": 0, "name": "Rigiplatz", "provider": "publibike", "timeStamp": "02/08/2020, 17:58:03", "zip": 8006}, "type": "Feature"}, {"geometry": {"coordinates": [8.543768, 47.411057], "type": "Point"}, "properties": {"address": "Hofwiesenstrasse 369", "electric": 4, "id": "pb_387", "manual": 6, "name": "Bahnhof Oerlikon S\u00fcd", "provider": "publibike", "timeStamp": "02/08/2020, 17:58:03", "zip": 8050}, "type": "Feature"}, {"geometry": {"coordinates": [8.544185, 47.412732], "type": "Point"}, "properties": {"address": "Jungholzstrasse 6", "electric": 0, "id": "pb_388", "manual": 2, "name": "Max-Frisch-Platz", "provider": "publibike", "timeStamp": "02/08/2020, 17:58:03", "zip": 8050}, "type": "Feature"}, {"geometry": {"coordinates": [8.558096, 47.413032], "type": "Point"}, "properties": {"address": "Andreasstrasse", "electric": 3, "id": "pb_389", "manual": 3, "name": "Hunziker-Areal", "provider": "publibike", "timeStamp": "02/08/2020, 17:58:03", "zip": 8050}, "type": "Feature"}, {"geometry": {"coordinates": [8.533265, 47.412873], "type": "Point"}, "properties": {"address": "Regina-K\u00e4gi-Strasse 1", "electric": 4, "id": "pb_390", "manual": 6, "name": "Luis-H\u00e4fliger-Park", "provider": "publibike", "timeStamp": "02/08/2020, 17:58:03", "zip": 8050}, "type": "Feature"}, {"geometry": {"coordinates": [8.499265, 47.401852], "type": "Point"}, "properties": {"address": "Limmattalstrasse 177", "electric": 3, "id": "pb_391", "manual": 3, "name": "Meierhofplatz", "provider": "publibike", "timeStamp": "02/08/2020, 17:58:03", "zip": 8049}, "type": "Feature"}, {"geometry": {"coordinates": [8.528356, 47.393255], "type": "Point"}, "properties": {"address": "R\u00f6schibachstrasse 73", "electric": 8, "id": "pb_392", "manual": 4, "name": "R\u00f6schibachplatz", "provider": "publibike", "timeStamp": "02/08/2020, 17:58:03", "zip": 8037}, "type": "Feature"}, {"geometry": {"coordinates": [8.538067, 47.415721], "type": "Point"}, "properties": {"address": "Birchstrasse 191", "electric": 3, "id": "pb_393", "manual": 1, "name": "Oerliker Park", "provider": "publibike", "timeStamp": "02/08/2020, 17:58:03", "zip": 8050}, "type": "Feature"}, {"geometry": {"coordinates": [8.5420304, 47.3669233], "type": "Point"}, "properties": {"address": "Stadthausquai 1", "electric": 2, "id": "pb_395", "manual": 3, "name": "B\u00fcrkliplatz", "provider": "publibike", "timeStamp": "02/08/2020, 17:58:03", "zip": 8001}, "type": "Feature"}, {"geometry": {"coordinates": [8.535767, 47.409881], "type": "Point"}, "properties": {"address": "Regensbergstrasse 195", "electric": 2, "id": "pb_396", "manual": 3, "name": "Holunderhof", "provider": "publibike", "timeStamp": "02/08/2020, 17:58:03", "zip": 8050}, "type": "Feature"}, {"geometry": {"coordinates": [8.5116245, 47.3616199], "type": "Point"}, "properties": {"address": "Grubenstrasse 42", "electric": 3, "id": "pb_431", "manual": 1, "name": "Binz Center", "provider": "publibike", "timeStamp": "02/08/2020, 17:58:03", "zip": 8045}, "type": "Feature"}, {"geometry": {"coordinates": [8.547195, 47.382089], "type": "Point"}, "properties": {"address": "Nelkenstrasse 24", "electric": 0, "id": "pb_430", "manual": 0, "name": "Stapferstube", "provider": "publibike", "timeStamp": "02/08/2020, 17:58:03", "zip": 8006}, "type": "Feature"}, {"geometry": {"coordinates": [8.5787183, 47.4039845], "type": "Point"}, "properties": {"address": "Kronwiesenstrasse 35", "electric": 0, "id": "pb_426", "manual": 2, "name": "Kronwiesen", "provider": "publibike", "timeStamp": "02/08/2020, 17:58:03", "zip": 8051}, "type": "Feature"}, {"geometry": {"coordinates": [8.508131, 47.420757], "type": "Point"}, "properties": {"address": "Riedenhaldenstrasse 20-18", "electric": 7, "id": "pb_425", "manual": 1, "name": "Bahnhof Affoltern", "provider": "publibike", "timeStamp": "02/08/2020, 17:58:03", "zip": 8046}, "type": "Feature"}, {"geometry": {"coordinates": [8.532464, 47.406988], "type": "Point"}, "properties": {"address": "K\u00fcnzlistrasse 41", "electric": 6, "id": "pb_424", "manual": 0, "name": "Birchd\u00f6rfli", "provider": "publibike", "timeStamp": "02/08/2020, 17:58:03", "zip": 8057}, "type": "Feature"}, {"geometry": {"coordinates": [8.5777038, 47.4080095], "type": "Point"}, "properties": {"address": "Luegislandstrasse 412", "electric": 8, "id": "pb_429", "manual": 4, "name": "Luegisland", "provider": "publibike", "timeStamp": "02/08/2020, 17:58:03", "zip": 8051}, "type": "Feature"}, {"geometry": {"coordinates": [8.58841, 47.40158], "type": "Point"}, "properties": {"address": "Hirzenbachstrasse 2-4", "electric": 1, "id": "pb_428", "manual": 1, "name": "Hirzenbachstrasse", "provider": "publibike", "timeStamp": "02/08/2020, 17:58:03", "zip": 8051}, "type": "Feature"}, {"geometry": {"coordinates": [8.5563463, 47.4095467], "type": "Point"}, "properties": {"address": "K\u00fchriedweg", "electric": 6, "id": "pb_445", "manual": 4, "name": "Hallenbad Oerlikon", "provider": "publibike", "timeStamp": "02/08/2020, 17:58:03", "zip": 8050}, "type": "Feature"}, {"geometry": {"coordinates": [8.537971, 47.364871], "type": "Point"}, "properties": {"address": "General-Guisan-Quai 17", "electric": 3, "id": "pb_454", "manual": 6, "name": "General-Guisan-Quai", "provider": "publibike", "timeStamp": "02/08/2020, 17:58:03", "zip": 8002}, "type": "Feature"}, {"geometry": {"coordinates": [8.560587, 47.350578], "type": "Point"}, "properties": {"address": "Bellerivestrasse 245", "electric": 7, "id": "pb_450", "manual": 4, "name": "Bahnhof Tiefenbrunnen", "provider": "publibike", "timeStamp": "02/08/2020, 17:58:03", "zip": 8008}, "type": "Feature"}, {"geometry": {"coordinates": [8.5269416, 47.3563719], "type": "Point"}, "properties": {"address": "Waffenplatzstrasse 89", "electric": 4, "id": "pb_452", "manual": 6, "name": "Rieterplatz", "provider": "publibike", "timeStamp": "02/08/2020, 17:58:03", "zip": 8002}, "type": "Feature"}, {"geometry": {"coordinates": [8.514176, 47.3663708], "type": "Point"}, "properties": {"address": "Talwiesenstrasse 92", "electric": 4, "id": "pb_446", "manual": 3, "name": "Binzallee", "provider": "publibike", "timeStamp": "02/08/2020, 17:58:03", "zip": 8055}, "type": "Feature"}, {"geometry": {"coordinates": [8.5070564, 47.371455], "type": "Point"}, "properties": {"address": "Gutstrasse 87", "electric": 3, "id": "pb_447", "manual": 0, "name": "Gutstrasse", "provider": "publibike", "timeStamp": "02/08/2020, 17:58:03", "zip": 8055}, "type": "Feature"}, {"geometry": {"coordinates": [8.4941268, 47.3836391], "type": "Point"}, "properties": {"address": "Flurstrasse 62", "electric": 4, "id": "pb_453", "manual": 3, "name": "Flurpark", "provider": "publibike", "timeStamp": "02/08/2020, 17:58:03", "zip": 8048}, "type": "Feature"}, {"geometry": {"coordinates": [8.500343, 47.380778], "type": "Point"}, "properties": {"address": "Edelweissstrasse 32", "electric": 3, "id": "pb_448", "manual": 2, "name": "Bl\u00fcemliquartier", "provider": "publibike", "timeStamp": "02/08/2020, 17:58:03", "zip": 8048}, "type": "Feature"}, {"geometry": {"coordinates": [8.528796, 47.383858], "type": "Point"}, "properties": {"address": "Gasometerstrasse 24", "electric": 3, "id": "pb_449", "manual": 3, "name": "Gasometerstrasse", "provider": "publibike", "timeStamp": "02/08/2020, 17:58:03", "zip": 8005}, "type": "Feature"}, {"geometry": {"coordinates": [8.4981964, 47.3859194], "type": "Point"}, "properties": {"address": "Baslerstrasse 57", "electric": 8, "id": "pb_455", "manual": 8, "name": "Letzipark", "provider": "publibike", "timeStamp": "02/08/2020, 17:58:03", "zip": 8048}, "type": "Feature"}, {"geometry": {"coordinates": [8.515252, 47.381915], "type": "Point"}, "properties": {"address": "Sihlfeldstrasse 175", "electric": 1, "id": "pb_451", "manual": 0, "name": "Hardplatz", "provider": "publibike", "timeStamp": "02/08/2020, 17:58:03", "zip": 8004}, "type": "Feature"}, {"geometry": {"coordinates": [8.5064743, 47.4188324], "type": "Point"}, "properties": {"address": "Wehntalerstrasse 541", "electric": 6, "id": "pb_427", "manual": 7, "name": "Zehntenhausplatz", "provider": "publibike", "timeStamp": "02/08/2020, 17:58:03", "zip": 8046}, "type": "Feature"}, {"geometry": {"coordinates": [8.537729, 47.379719], "type": "Point"}, "properties": {"address": "Sihlquai/HB", "electric": 2, "id": "pb_513", "manual": 13, "name": "Sihlquai", "provider": "publibike", "timeStamp": "02/08/2020, 17:58:03", "zip": 8005}, "type": "Feature"}, {"geometry": {"coordinates": [8.596202, 47.397885], "type": "Point"}, "properties": {"address": "Bahnhof Stettbach", "electric": 6, "id": "pb_514", "manual": 1, "name": "Bahnhof Stettbach", "provider": "publibike", "timeStamp": "02/08/2020, 17:58:03", "zip": 8051}, "type": "Feature"}, {"geometry": {"coordinates": [8.5543974, 47.3690153], "type": "Point"}, "properties": {"address": "Kasinostrasse 10", "electric": 0, "id": "pb_515", "manual": 4, "name": "Hottingerplatz", "provider": "publibike", "timeStamp": "02/08/2020, 17:58:03", "zip": 8032}, "type": "Feature"}, {"geometry": {"coordinates": [8.534444, 47.351525], "type": "Point"}, "properties": {"address": "Mobile Station Z\u00fcrich 1", "electric": 0, "id": "pb_282", "manual": 0, "name": "Theaterspektakel", "provider": "publibike", "timeStamp": "02/08/2020, 17:58:03", "zip": 8002}, "type": "Feature"}, {"geometry": {"coordinates": [8.516257, 47.367656], "type": "Point"}, "properties": {"address": "Goldbrunnenstrasse 54", "electric": 2, "id": "pb_538", "manual": 3, "name": "Kirche B\u00fchl", "provider": "publibike", "timeStamp": "02/08/2020, 17:58:03", "zip": 8055}, "type": "Feature"}, {"geometry": {"coordinates": [8.555639, 47.416873], "type": "Point"}, "properties": {"address": "Leutschenbachstrasse 50", "electric": 2, "id": "pb_537", "manual": 5, "name": "Leutschenpark", "provider": "publibike", "timeStamp": "02/08/2020, 17:58:03", "zip": 8050}, "type": "Feature"}, {"geometry": {"coordinates": [8.546464, 47.403822], "type": "Point"}, "properties": {"address": "Berninastrasse 45", "electric": 5, "id": "pb_540", "manual": 3, "name": "Berninaplatz", "provider": "publibike", "timeStamp": "02/08/2020, 17:58:03", "zip": 8057}, "type": "Feature"}, {"geometry": {"coordinates": [8.523134, 47.369004], "type": "Point"}, "properties": {"address": "Erlachstrasse 3", "electric": 3, "id": "pb_385", "manual": 5, "name": "Aegerten", "provider": "publibike", "timeStamp": "02/08/2020, 17:58:03", "zip": 8003}, "type": "Feature"}, {"geometry": {"coordinates": [8.49038, 47.381591], "type": "Point"}, "properties": {"address": "Rautistrasse 60", "electric": 10, "id": "pb_536", "manual": 4, "name": "Freilager", "provider": "publibike", "timeStamp": "02/08/2020, 17:58:03", "zip": 8048}, "type": "Feature"}, {"geometry": {"coordinates": [8.496511, 47.375247], "type": "Point"}, "properties": {"address": "Letzigraben 139", "electric": 6, "id": "pb_444", "manual": 2, "name": "Sackzelg", "provider": "publibike", "timeStamp": "02/08/2020, 17:58:03", "zip": 8047}, "type": "Feature"}, {"geometry": {"coordinates": [8.58131, 47.402801], "type": "Point"}, "properties": {"address": "Altwiesenstrasse 104", "electric": 0, "id": "pb_539", "manual": 2, "name": "Glattwiesen", "provider": "publibike", "timeStamp": "02/08/2020, 17:58:03", "zip": 8051}, "type": "Feature"}, {"geometry": {"coordinates": [8.52689, 47.3767], "type": "Point"}, "properties": {"address": "Molkenstrasse 5", "electric": 1, "id": "pb_560", "manual": 21, "name": "Helvetiaplatz", "provider": "publibike", "timeStamp": "02/08/2020, 17:58:03", "zip": 8004}, "type": "Feature"}, {"geometry": {"coordinates": [8.525602, 47.374241], "type": "Point"}, "properties": {"address": "Badenerstrasse 90", "electric": 5, "id": "pb_559", "manual": 5, "name": "Bezirksgeb\u00e4ude", "provider": "publibike", "timeStamp": "02/08/2020, 17:58:03", "zip": 8004}, "type": "Feature"}, {"geometry": {"coordinates": [8.535082, 47.345248], "type": "Point"}, "properties": {"address": "Bachstrasse 15", "electric": 8, "id": "pb_564", "manual": 2, "name": "GZ Wollishofen", "provider": "publibike", "timeStamp": "02/08/2020, 17:58:03", "zip": 8038}, "type": "Feature"}, {"geometry": {"coordinates": [8.514841, 47.370238], "type": "Point"}, "properties": {"address": "Schrennengasse 37", "electric": 7, "id": "pb_562", "manual": 2, "name": "Goldbrunnenplatz", "provider": "publibike", "timeStamp": "02/08/2020, 17:58:03", "zip": 8003}, "type": "Feature"}, {"geometry": {"coordinates": [8.514138, 47.374206], "type": "Point"}, "properties": {"address": "Idaplatz 4", "electric": 2, "id": "pb_557", "manual": 5, "name": "Idaplatz", "provider": "publibike", "timeStamp": "02/08/2020, 17:58:03", "zip": 8003}, "type": "Feature"}, {"geometry": {"coordinates": [8.518432, 47.369549], "type": "Point"}, "properties": {"address": "Brinerstrasse 2", "electric": 0, "id": "pb_558", "manual": 11, "name": "Schmiede Wiedikon", "provider": "publibike", "timeStamp": "02/08/2020, 17:58:03", "zip": 8003}, "type": "Feature"}, {"geometry": {"coordinates": [8.537546, 47.391289], "type": "Point"}, "properties": {"address": "Rotbuchstrasse 15", "electric": 4, "id": "pb_556", "manual": 3, "name": "Schaffhauserplatz", "provider": "publibike", "timeStamp": "02/08/2020, 17:58:03", "zip": 8006}, "type": "Feature"}, {"geometry": {"coordinates": [8.541541, 47.413733], "type": "Point"}, "properties": {"address": "Therese-Giehse-Strasse 11", "electric": 2, "id": "pb_561", "manual": 0, "name": "Center Eleven", "provider": "publibike", "timeStamp": "02/08/2020, 17:58:03", "zip": 8050}, "type": "Feature"}, {"geometry": {"coordinates": [8.534227, 47.360004], "type": "Point"}, "properties": {"address": "Alfred Escher-Strasse 76", "electric": 5, "id": "pb_563", "manual": 0, "name": "Mythenschloss", "provider": "publibike", "timeStamp": "02/08/2020, 17:58:03", "zip": 8002}, "type": "Feature"}, {"geometry": {"coordinates": [8.50373, 47.396172], "type": "Point"}, "properties": {"address": "Hardeggstrasse 6", "electric": 4, "id": "pb_566", "manual": 6, "name": "Am Wasser", "provider": "publibike", "timeStamp": "02/08/2020, 17:58:03", "zip": 8049}, "type": "Feature"}, {"geometry": {"coordinates": [8.532432, 47.381174], "type": "Point"}, "properties": {"address": "Klingenstrasse 9", "electric": 0, "id": "pb_565", "manual": 6, "name": "Zollstrasse", "provider": "publibike", "timeStamp": "02/08/2020, 17:58:03", "zip": 8005}, "type": "Feature"}, {"geometry": {"coordinates": [8.497982, 47.381447], "type": "Point"}, "properties": {"address": "Dennlerstrasse 23", "electric": 3, "id": "pb_567", "manual": 3, "name": "Dennlerstrasse", "provider": "publibike", "timeStamp": "02/08/2020, 17:58:03", "zip": 8047}, "type": "Feature"}, {"geometry": {"coordinates": [8.528049, 47.347701], "type": "Point"}, "properties": {"address": "Mutschellenstrasse 114", "electric": 12, "id": "pb_568", "manual": 8, "name": "Jugendherberge", "provider": "publibike", "timeStamp": "02/08/2020, 17:58:03", "zip": 8038}, "type": "Feature"}, {"geometry": {"coordinates": [8.539016, 47.405751], "type": "Point"}, "properties": {"address": "Ringstrasse 82", "electric": 2, "id": "pb_569", "manual": 4, "name": "Freibad Allenmoos", "provider": "publibike", "timeStamp": "02/08/2020, 17:58:03", "zip": 8057}, "type": "Feature"}, {"geometry": {"coordinates": [8.534974, 47.402164], "type": "Point"}, "properties": {"address": "Brache Guggach", "electric": 5, "id": "pb_572", "manual": 1, "name": "Radiostudio", "provider": "publibike", "timeStamp": "02/08/2020, 17:58:03", "zip": 8057}, "type": "Feature"}, {"geometry": {"coordinates": [8.547901, 47.375556], "type": "Point"}, "properties": {"address": "Karl-Schmid-Strasse 4", "electric": 0, "id": "pb_571", "manual": 1, "name": "ETH/Zoologisches Museum", "provider": "publibike", "timeStamp": "02/08/2020, 17:58:03", "zip": 8006}, "type": "Feature"}, {"geometry": {"coordinates": [8.562516, 47.382868], "type": "Point"}, "properties": {"charge": 19, "id": "smide_2901", "name": "ZH 267278", "provider": "smide", "range": 9.0, "size": 20, "time": "02/08/2020, 17:59:35"}, "type": "Feature"}, {"geometry": {"coordinates": [8.544795, 47.411975], "type": "Point"}, "properties": {"charge": 93, "id": "smide_2895", "name": "ZH 267279", "provider": "smide", "range": 46.0, "size": 20, "time": "02/08/2020, 17:59:35"}, "type": "Feature"}, {"geometry": {"coordinates": [8.527573, 47.378856], "type": "Point"}, "properties": {"charge": 30, "id": "smide_2874", "name": "ZH 267288", "provider": "smide", "range": 15.0, "size": 17, "time": "02/08/2020, 17:59:35"}, "type": "Feature"}, {"geometry": {"coordinates": [8.516273, 47.429855], "type": "Point"}, "properties": {"charge": 43, "id": "smide_2867", "name": "ZH 267090", "provider": "smide", "range": 21.0, "size": 20, "time": "02/08/2020, 17:59:35"}, "type": "Feature"}, {"geometry": {"coordinates": [8.528185, 47.37836], "type": "Point"}, "properties": {"charge": 87, "id": "smide_2861", "name": "ZH 267096", "provider": "smide", "range": 43.0, "size": 17, "time": "02/08/2020, 17:59:35"}, "type": "Feature"}, {"geometry": {"coordinates": [8.553793, 47.369036], "type": "Point"}, "properties": {"charge": 98, "id": "smide_2859", "name": "ZH 267098", "provider": "smide", "range": 49.0, "size": 17, "time": "02/08/2020, 17:59:35"}, "type": "Feature"}, {"geometry": {"coordinates": [8.558565, 47.353521], "type": "Point"}, "properties": {"charge": 74, "id": "smide_2856", "name": "ZH 267101", "provider": "smide", "range": 37.0, "size": 17, "time": "02/08/2020, 17:59:35"}, "type": "Feature"}, {"geometry": {"coordinates": [8.52435, 47.398063], "type": "Point"}, "properties": {"charge": 75, "id": "smide_2855", "name": "ZH 267102", "provider": "smide", "range": 37.0, "size": 17, "time": "02/08/2020, 17:59:35"}, "type": "Feature"}, {"geometry": {"coordinates": [8.555676, 47.384426], "type": "Point"}, "properties": {"charge": 100, "id": "smide_2833", "name": "ZH 267182", "provider": "smide", "range": 50.0, "size": 20, "time": "02/08/2020, 17:59:35"}, "type": "Feature"}, {"geometry": {"coordinates": [8.558381, 47.371196], "type": "Point"}, "properties": {"charge": 30, "id": "smide_2831", "name": "ZH 267180", "provider": "smide", "range": 15.0, "size": 20, "time": "02/08/2020, 17:59:35"}, "type": "Feature"}, {"geometry": {"coordinates": [8.558471, 47.41757], "type": "Point"}, "properties": {"charge": 91, "id": "smide_2804", "name": "ZH266903", "provider": "smide", "range": 45.0, "size": 20, "time": "02/08/2020, 17:59:35"}, "type": "Feature"}, {"geometry": {"coordinates": [8.526445, 47.371856], "type": "Point"}, "properties": {"charge": 53, "id": "smide_2793", "name": "ZH266883", "provider": "smide", "range": 26.0, "size": 17, "time": "02/08/2020, 17:59:35"}, "type": "Feature"}, {"geometry": {"coordinates": [8.525603, 47.365153], "type": "Point"}, "properties": {"charge": 30, "id": "smide_2790", "name": "ZH266880", "provider": "smide", "range": 15.0, "size": 17, "time": "02/08/2020, 17:59:35"}, "type": "Feature"}, {"geometry": {"coordinates": [8.545535, 47.397338], "type": "Point"}, "properties": {"charge": 100, "id": "smide_2785", "name": "ZH266875", "provider": "smide", "range": 50.0, "size": 17, "time": "02/08/2020, 17:59:35"}, "type": "Feature"}, {"geometry": {"coordinates": [8.557605, 47.359598], "type": "Point"}, "properties": {"charge": 100, "id": "smide_2780", "name": "ST1 X #1", "provider": "smide", "range": 50.0, "size": 17, "time": "02/08/2020, 17:59:35"}, "type": "Feature"}, {"geometry": {"coordinates": [8.54444, 47.387476], "type": "Point"}, "properties": {"charge": 91, "id": "smide_2763", "name": "ZH266641", "provider": "smide", "range": 45.0, "size": 17, "time": "02/08/2020, 17:59:35"}, "type": "Feature"}, {"geometry": {"coordinates": [8.554635, 47.384628], "type": "Point"}, "properties": {"charge": 99, "id": "smide_2761", "name": "ZH266642", "provider": "smide", "range": 49.0, "size": 20, "time": "02/08/2020, 17:59:35"}, "type": "Feature"}, {"geometry": {"coordinates": [8.551345, 47.392284], "type": "Point"}, "properties": {"charge": 76, "id": "smide_2759", "name": "ZH266639", "provider": "smide", "range": 38.0, "size": 17, "time": "02/08/2020, 17:59:35"}, "type": "Feature"}, {"geometry": {"coordinates": [8.511091, 47.389988], "type": "Point"}, "properties": {"charge": 98, "id": "smide_2758", "name": "ZH266638 M", "provider": "smide", "range": 49.0, "size": 17, "time": "02/08/2020, 17:59:35"}, "type": "Feature"}, {"geometry": {"coordinates": [8.55089, 47.359604], "type": "Point"}, "properties": {"charge": 51, "id": "smide_2752", "name": "BE343856", "provider": "smide", "range": 25.0, "size": 17, "time": "02/08/2020, 17:59:35"}, "type": "Feature"}, {"geometry": {"coordinates": [8.51298, 47.366336], "type": "Point"}, "properties": {"charge": 100, "id": "smide_2749", "name": "BE343867", "provider": "smide", "range": 50.0, "size": 17, "time": "02/08/2020, 17:59:35"}, "type": "Feature"}, {"geometry": {"coordinates": [8.475383, 47.385544], "type": "Point"}, "properties": {"charge": 100, "id": "smide_2748", "name": "BE335758", "provider": "smide", "range": 50.0, "size": 17, "time": "02/08/2020, 17:59:35"}, "type": "Feature"}, {"geometry": {"coordinates": [8.56787, 47.38246], "type": "Point"}, "properties": {"charge": 51, "id": "smide_2746", "name": "BE335817", "provider": "smide", "range": 25.0, "size": 17, "time": "02/08/2020, 17:59:35"}, "type": "Feature"}, {"geometry": {"coordinates": [8.529736, 47.344868], "type": "Point"}, "properties": {"charge": 83, "id": "smide_2747", "name": "BE335820", "provider": "smide", "range": 41.0, "size": 17, "time": "02/08/2020, 17:59:35"}, "type": "Feature"}, {"geometry": {"coordinates": [8.549371, 47.370604], "type": "Point"}, "properties": {"charge": 100, "id": "smide_2745", "name": "BE335818", "provider": "smide", "range": 50.0, "size": 17, "time": "02/08/2020, 17:59:35"}, "type": "Feature"}, {"geometry": {"coordinates": [8.495321, 47.367632], "type": "Point"}, "properties": {"charge": 33, "id": "smide_2742", "name": "BE343866", "provider": "smide", "range": 16.0, "size": 17, "time": "02/08/2020, 17:59:35"}, "type": "Feature"}, {"geometry": {"coordinates": [8.553777, 47.376288], "type": "Point"}, "properties": {"charge": 76, "id": "smide_2741", "name": "BE343874", "provider": "smide", "range": 38.0, "size": 17, "time": "02/08/2020, 17:59:35"}, "type": "Feature"}, {"geometry": {"coordinates": [8.524616, 47.387224], "type": "Point"}, "properties": {"charge": 40, "id": "smide_2740", "name": "BE343875", "provider": "smide", "range": 20.0, "size": 17, "time": "02/08/2020, 17:59:35"}, "type": "Feature"}, {"geometry": {"coordinates": [8.534543, 47.367368], "type": "Point"}, "properties": {"charge": 69, "id": "smide_2738", "name": "BE343865", "provider": "smide", "range": 34.0, "size": 17, "time": "02/08/2020, 17:59:35"}, "type": "Feature"}, {"geometry": {"coordinates": [8.560166, 47.381364], "type": "Point"}, "properties": {"charge": 89, "id": "smide_2736", "name": "BE346639", "provider": "smide", "range": 44.0, "size": 17, "time": "02/08/2020, 17:59:35"}, "type": "Feature"}, {"geometry": {"coordinates": [8.555636, 47.384376], "type": "Point"}, "properties": {"charge": 99, "id": "smide_2734", "name": "BE343876", "provider": "smide", "range": 49.0, "size": 17, "time": "02/08/2020, 17:59:35"}, "type": "Feature"}, {"geometry": {"coordinates": [8.502074, 47.368836], "type": "Point"}, "properties": {"charge": 100, "id": "smide_2733", "name": "BE343873", "provider": "smide", "range": 50.0, "size": 17, "time": "02/08/2020, 17:59:35"}, "type": "Feature"}, {"geometry": {"coordinates": [8.576556, 47.35118], "type": "Point"}, "properties": {"charge": 76, "id": "smide_2729", "name": "BE343878", "provider": "smide", "range": 38.0, "size": 17, "time": "02/08/2020, 17:59:35"}, "type": "Feature"}, {"geometry": {"coordinates": [8.529088, 47.384148], "type": "Point"}, "properties": {"charge": 57, "id": "smide_2725", "name": "ZH261545", "provider": "smide", "range": 28.0, "size": 0, "time": "02/08/2020, 17:59:35"}, "type": "Feature"}, {"geometry": {"coordinates": [8.514206, 47.39354], "type": "Point"}, "properties": {"charge": 45, "id": "smide_2718", "name": "ZH259019", "provider": "smide", "range": 22.0, "size": 20, "time": "02/08/2020, 17:59:35"}, "type": "Feature"}, {"geometry": {"coordinates": [8.490387, 47.371392], "type": "Point"}, "properties": {"charge": 23, "id": "smide_2717", "name": "ZH263287", "provider": "smide", "range": 11.0, "size": 17, "time": "02/08/2020, 17:59:35"}, "type": "Feature"}, {"geometry": {"coordinates": [8.54839, 47.384935], "type": "Point"}, "properties": {"charge": 97, "id": "smide_2716", "name": "ZH254606", "provider": "smide", "range": 48.0, "size": 17, "time": "02/08/2020, 17:59:35"}, "type": "Feature"}, {"geometry": {"coordinates": [8.520452, 47.369892], "type": "Point"}, "properties": {"charge": 85, "id": "smide_2715", "name": "ZH254605", "provider": "smide", "range": 42.0, "size": 17, "time": "02/08/2020, 17:59:35"}, "type": "Feature"}, {"geometry": {"coordinates": [8.512943, 47.366316], "type": "Point"}, "properties": {"charge": 89, "id": "smide_2714", "name": "ZH256461", "provider": "smide", "range": 44.0, "size": 17, "time": "02/08/2020, 17:59:35"}, "type": "Feature"}, {"geometry": {"coordinates": [8.488852, 47.393144], "type": "Point"}, "properties": {"charge": 88, "id": "smide_2710", "name": "ZH256460", "provider": "smide", "range": 44.0, "size": 17, "time": "02/08/2020, 17:59:35"}, "type": "Feature"}, {"geometry": {"coordinates": [8.556099, 47.386288], "type": "Point"}, "properties": {"charge": 24, "id": "smide_2712", "name": "ZH256462", "provider": "smide", "range": 12.0, "size": 17, "time": "02/08/2020, 17:59:35"}, "type": "Feature"}, {"geometry": {"coordinates": [8.564429, 47.37176], "type": "Point"}, "properties": {"charge": 45, "id": "smide_2711", "name": "ZH256463", "provider": "smide", "range": 22.0, "size": 17, "time": "02/08/2020, 17:59:35"}, "type": "Feature"}, {"geometry": {"coordinates": [8.557683, 47.356516], "type": "Point"}, "properties": {"charge": 89, "id": "smide_2709", "name": "ZH256466", "provider": "smide", "range": 44.0, "size": 20, "time": "02/08/2020, 17:59:35"}, "type": "Feature"}, {"geometry": {"coordinates": [8.56338, 47.372556], "type": "Point"}, "properties": {"charge": 99, "id": "smide_2707", "name": "ZH256467", "provider": "smide", "range": 49.0, "size": 20, "time": "02/08/2020, 17:59:35"}, "type": "Feature"}, {"geometry": {"coordinates": [8.487473, 47.367764], "type": "Point"}, "properties": {"charge": 86, "id": "smide_2708", "name": "ZH256464", "provider": "smide", "range": 43.0, "size": 17, "time": "02/08/2020, 17:59:35"}, "type": "Feature"}, {"geometry": {"coordinates": [8.544147, 47.384224], "type": "Point"}, "properties": {"charge": 84, "id": "smide_2701", "name": "ZH256468", "provider": "smide", "range": 42.0, "size": 20, "time": "02/08/2020, 17:59:35"}, "type": "Feature"}, {"geometry": {"coordinates": [8.530138, 47.390364], "type": "Point"}, "properties": {"charge": 40, "id": "smide_2699", "name": "ZH254611", "provider": "smide", "range": 20.0, "size": 20, "time": "02/08/2020, 17:59:35"}, "type": "Feature"}, {"geometry": {"coordinates": [8.530586, 47.39316], "type": "Point"}, "properties": {"charge": 100, "id": "smide_2697", "name": "ZH254629", "provider": "smide", "range": 50.0, "size": 20, "time": "02/08/2020, 17:59:35"}, "type": "Feature"}, {"geometry": {"coordinates": [8.527661, 47.415088], "type": "Point"}, "properties": {"charge": 67, "id": "smide_2696", "name": "ZH254616", "provider": "smide", "range": 33.0, "size": 20, "time": "02/08/2020, 17:59:35"}, "type": "Feature"}, {"geometry": {"coordinates": [8.532007, 47.347296], "type": "Point"}, "properties": {"charge": 49, "id": "smide_2694", "name": "ZH254610", "provider": "smide", "range": 24.0, "size": 20, "time": "02/08/2020, 17:59:35"}, "type": "Feature"}, {"geometry": {"coordinates": [8.573225, 47.38], "type": "Point"}, "properties": {"charge": 72, "id": "smide_2691", "name": "ZH254622", "provider": "smide", "range": 36.0, "size": 20, "time": "02/08/2020, 17:59:35"}, "type": "Feature"}, {"geometry": {"coordinates": [8.52592, 47.365225], "type": "Point"}, "properties": {"charge": 89, "id": "smide_2690", "name": "ZH254625", "provider": "smide", "range": 44.0, "size": 20, "time": "02/08/2020, 17:59:35"}, "type": "Feature"}, {"geometry": {"coordinates": [8.514369, 47.391768], "type": "Point"}, "properties": {"charge": 95, "id": "smide_2689", "name": "ZH254623", "provider": "smide", "range": 47.0, "size": 20, "time": "02/08/2020, 17:59:35"}, "type": "Feature"}, {"geometry": {"coordinates": [8.544136, 47.384196], "type": "Point"}, "properties": {"charge": 24, "id": "smide_2687", "name": "ZH263529", "provider": "smide", "range": 12.0, "size": 20, "time": "02/08/2020, 17:59:35"}, "type": "Feature"}, {"geometry": {"coordinates": [8.550053, 47.385464], "type": "Point"}, "properties": {"charge": 74, "id": "smide_2686", "name": "ZH263288", "provider": "smide", "range": 37.0, "size": 20, "time": "02/08/2020, 17:59:35"}, "type": "Feature"}, {"geometry": {"coordinates": [8.552743, 47.362408], "type": "Point"}, "properties": {"charge": 84, "id": "smide_2684", "name": "ZH254626", "provider": "smide", "range": 42.0, "size": 20, "time": "02/08/2020, 17:59:35"}, "type": "Feature"}, {"geometry": {"coordinates": [8.499611, 47.387068], "type": "Point"}, "properties": {"charge": 50, "id": "smide_2680", "name": "ZH254619", "provider": "smide", "range": 25.0, "size": 20, "time": "02/08/2020, 17:59:35"}, "type": "Feature"}, {"geometry": {"coordinates": [8.573769, 47.356152], "type": "Point"}, "properties": {"charge": 98, "id": "smide_2679", "name": "ZH258489", "provider": "smide", "range": 49.0, "size": 17, "time": "02/08/2020, 17:59:35"}, "type": "Feature"}, {"geometry": {"coordinates": [8.524714, 47.34112], "type": "Point"}, "properties": {"charge": 70, "id": "smide_2677", "name": "ZH258487", "provider": "smide", "range": 35.0, "size": 17, "time": "02/08/2020, 17:59:35"}, "type": "Feature"}, {"geometry": {"coordinates": [8.561816, 47.383452], "type": "Point"}, "properties": {"charge": 75, "id": "smide_2674", "name": "ZH258654", "provider": "smide", "range": 37.0, "size": 17, "time": "02/08/2020, 17:59:35"}, "type": "Feature"}, {"geometry": {"coordinates": [8.540163, 47.378964], "type": "Point"}, "properties": {"charge": 84, "id": "smide_2671", "name": "ZH258645", "provider": "smide", "range": 42.0, "size": 17, "time": "02/08/2020, 17:59:35"}, "type": "Feature"}, {"geometry": {"coordinates": [8.541623, 47.382652], "type": "Point"}, "properties": {"charge": 69, "id": "smide_2669", "name": "ZH263294", "provider": "smide", "range": 34.0, "size": 17, "time": "02/08/2020, 17:59:35"}, "type": "Feature"}, {"geometry": {"coordinates": [8.520137, 47.369904], "type": "Point"}, "properties": {"charge": 27, "id": "smide_2666", "name": "ZH258653", "provider": "smide", "range": 13.0, "size": 17, "time": "02/08/2020, 17:59:35"}, "type": "Feature"}, {"geometry": {"coordinates": [8.574706, 47.3547], "type": "Point"}, "properties": {"charge": 32, "id": "smide_2665", "name": "ZH258644", "provider": "smide", "range": 16.0, "size": 17, "time": "02/08/2020, 17:59:35"}, "type": "Feature"}, {"geometry": {"coordinates": [8.498791, 47.388056], "type": "Point"}, "properties": {"charge": 91, "id": "smide_2663", "name": "ZH258649", "provider": "smide", "range": 45.0, "size": 17, "time": "02/08/2020, 17:59:35"}, "type": "Feature"}, {"geometry": {"coordinates": [8.544812, 47.404352], "type": "Point"}, "properties": {"charge": 22, "id": "smide_2662", "name": "ZH258643", "provider": "smide", "range": 11.0, "size": 17, "time": "02/08/2020, 17:59:35"}, "type": "Feature"}, {"geometry": {"coordinates": [8.514862, 47.391752], "type": "Point"}, "properties": {"charge": 79, "id": "smide_2660", "name": "ZH258647", "provider": "smide", "range": 39.0, "size": 17, "time": "02/08/2020, 17:59:35"}, "type": "Feature"}, {"geometry": {"coordinates": [8.527391, 47.354184], "type": "Point"}, "properties": {"charge": 45, "id": "smide_2647", "name": "ZH257932", "provider": "smide", "range": 22.0, "size": 20, "time": "02/08/2020, 17:59:35"}, "type": "Feature"}, {"geometry": {"coordinates": [8.547986, 47.374436], "type": "Point"}, "properties": {"charge": 24, "id": "smide_3", "name": "ZH253765", "provider": "smide", "range": 12.0, "size": 20, "time": "02/08/2020, 17:59:35"}, "type": "Feature"}, {"geometry": {"coordinates": [8.52597, 47.40845], "type": "Point"}, "properties": {"charge": 100, "id": "smide_105", "name": "ZH253804", "provider": "smide", "range": 50.0, "size": 17, "time": "02/08/2020, 17:59:35"}, "type": "Feature"}, {"geometry": {"coordinates": [8.542295, 47.407888], "type": "Point"}, "properties": {"charge": 77, "id": "smide_186", "name": "ZH253751", "provider": "smide", "range": 38.0, "size": 20, "time": "02/08/2020, 17:59:35"}, "type": "Feature"}, {"geometry": {"coordinates": [8.559284, 47.405968], "type": "Point"}, "properties": {"charge": 100, "id": "smide_77", "name": "ZH261548", "provider": "smide", "range": 50.0, "size": 20, "time": "02/08/2020, 17:59:35"}, "type": "Feature"}, {"geometry": {"coordinates": [8.54012, 47.379], "type": "Point"}, "properties": {"charge": 100, "id": "smide_200", "name": "ZH253801", "provider": "smide", "range": 50.0, "size": 20, "time": "02/08/2020, 17:59:35"}, "type": "Feature"}, {"geometry": {"coordinates": [8.50116, 47.3841], "type": "Point"}, "properties": {"charge": 28, "id": "smide_197", "name": "ZH253864", "provider": "smide", "range": 14.0, "size": 20, "time": "02/08/2020, 17:59:35"}, "type": "Feature"}, {"geometry": {"coordinates": [8.558125, 47.35968], "type": "Point"}, "properties": {"charge": 84, "id": "smide_199", "name": "ZH253766", "provider": "smide", "range": 42.0, "size": 20, "time": "02/08/2020, 17:59:35"}, "type": "Feature"}, {"geometry": {"coordinates": [8.545915, 47.413028], "type": "Point"}, "properties": {"charge": 95, "id": "smide_8", "name": "ZH253861", "provider": "smide", "range": 47.0, "size": 17, "time": "02/08/2020, 17:59:35"}, "type": "Feature"}, {"geometry": {"coordinates": [8.543966, 47.384076], "type": "Point"}, "properties": {"charge": 35, "id": "smide_45", "name": "ZH253716", "provider": "smide", "range": 17.0, "size": 17, "time": "02/08/2020, 17:59:35"}, "type": "Feature"}, {"geometry": {"coordinates": [8.582263, 47.351848], "type": "Point"}, "properties": {"charge": 58, "id": "smide_71", "name": "ZH253742", "provider": "smide", "range": 28.0, "size": 20, "time": "02/08/2020, 17:59:35"}, "type": "Feature"}, {"geometry": {"coordinates": [8.540123, 47.37898], "type": "Point"}, "properties": {"charge": 84, "id": "smide_101", "name": "ZH253814", "provider": "smide", "range": 42.0, "size": 17, "time": "02/08/2020, 17:59:35"}, "type": "Feature"}, {"geometry": {"coordinates": [8.542779, 47.380076], "type": "Point"}, "properties": {"charge": 100, "id": "smide_9", "name": "ZH253796", "provider": "smide", "range": 50.0, "size": 17, "time": "02/08/2020, 17:59:35"}, "type": "Feature"}, {"geometry": {"coordinates": [8.563095, 47.382568], "type": "Point"}, "properties": {"charge": 66, "id": "smide_143", "name": "ZH253778", "provider": "smide", "range": 33.0, "size": 17, "time": "02/08/2020, 17:59:35"}, "type": "Feature"}, {"geometry": {"coordinates": [8.5762, 47.351258], "type": "Point"}, "properties": {"charge": 91, "id": "smide_180", "name": "ZH253824", "provider": "smide", "range": 45.0, "size": 20, "time": "02/08/2020, 17:59:35"}, "type": "Feature"}, {"geometry": {"coordinates": [8.529313, 47.393612], "type": "Point"}, "properties": {"charge": 43, "id": "smide_20", "name": "ZH253770", "provider": "smide", "range": 21.0, "size": 20, "time": "02/08/2020, 17:59:35"}, "type": "Feature"}, {"geometry": {"coordinates": [8.503171, 47.386496], "type": "Point"}, "properties": {"charge": 97, "id": "smide_50", "name": "ZH253853", "provider": "smide", "range": 48.0, "size": 17, "time": "02/08/2020, 17:59:35"}, "type": "Feature"}, {"geometry": {"coordinates": [8.568063, 47.382598], "type": "Point"}, "properties": {"charge": 92, "id": "smide_30", "name": "ZH253813", "provider": "smide", "range": 46.0, "size": 20, "time": "02/08/2020, 17:59:35"}, "type": "Feature"}, {"geometry": {"coordinates": [8.55765, 47.412416], "type": "Point"}, "properties": {"charge": 75, "id": "smide_10", "name": "ZH253855", "provider": "smide", "range": 37.0, "size": 17, "time": "02/08/2020, 17:59:35"}, "type": "Feature"}, {"geometry": {"coordinates": [8.534479, 47.389728], "type": "Point"}, "properties": {"charge": 67, "id": "smide_179", "name": "ZH253687", "provider": "smide", "range": 33.0, "size": 20, "time": "02/08/2020, 17:59:35"}, "type": "Feature"}, {"geometry": {"coordinates": [8.540555, 47.388728], "type": "Point"}, "properties": {"charge": 60, "id": "smide_84", "name": "ZH253733", "provider": "smide", "range": 30.0, "size": 17, "time": "02/08/2020, 17:59:35"}, "type": "Feature"}, {"geometry": {"coordinates": [8.530985, 47.381556], "type": "Point"}, "properties": {"charge": 47, "id": "smide_35", "name": "ZH253755", "provider": "smide", "range": 23.0, "size": 20, "time": "02/08/2020, 17:59:35"}, "type": "Feature"}, {"geometry": {"coordinates": [8.555198, 47.366812], "type": "Point"}, "properties": {"charge": 50, "id": "smide_119", "name": "ZH253686", "provider": "smide", "range": 25.0, "size": 20, "time": "02/08/2020, 17:59:35"}, "type": "Feature"}, {"geometry": {"coordinates": [8.546467, 47.3759], "type": "Point"}, "properties": {"charge": 40, "id": "smide_76", "name": "ZH253764", "provider": "smide", "range": 20.0, "size": 17, "time": "02/08/2020, 17:59:35"}, "type": "Feature"}, {"geometry": {"coordinates": [8.543313, 47.372932], "type": "Point"}, "properties": {"charge": 64, "id": "smide_129", "name": "ZH261378", "provider": "smide", "range": 32.0, "size": 17, "time": "02/08/2020, 17:59:35"}, "type": "Feature"}, {"geometry": {"coordinates": [8.544345, 47.416365], "type": "Point"}, "properties": {"charge": 27, "id": "smide_49", "name": "ZH253873", "provider": "smide", "range": 13.0, "size": 17, "time": "02/08/2020, 17:59:35"}, "type": "Feature"}, {"geometry": {"coordinates": [8.511839, 47.384024], "type": "Point"}, "properties": {"charge": 65, "id": "smide_37", "name": "ZH261377", "provider": "smide", "range": 32.0, "size": 20, "time": "02/08/2020, 17:59:35"}, "type": "Feature"}, {"geometry": {"coordinates": [8.51736, 47.361418], "type": "Point"}, "properties": {"charge": 40, "id": "smide_191", "name": "ZH253762", "provider": "smide", "range": 20.0, "size": 17, "time": "02/08/2020, 17:59:35"}, "type": "Feature"}, {"geometry": {"coordinates": [8.504098, 47.377598], "type": "Point"}, "properties": {"charge": 28, "id": "smide_202", "name": "ZH253830", "provider": "smide", "range": 14.0, "size": 17, "time": "02/08/2020, 17:59:35"}, "type": "Feature"}, {"geometry": {"coordinates": [8.540097, 47.37894], "type": "Point"}, "properties": {"charge": 46, "id": "smide_56", "name": "ZH261442", "provider": "smide", "range": 23.0, "size": 20, "time": "02/08/2020, 17:59:35"}, "type": "Feature"}, {"geometry": {"coordinates": [8.548368, 47.358796], "type": "Point"}, "properties": {"charge": 86, "id": "smide_47", "name": "ZH253858", "provider": "smide", "range": 43.0, "size": 17, "time": "02/08/2020, 17:59:35"}, "type": "Feature"}, {"geometry": {"coordinates": [8.527994, 47.3874], "type": "Point"}, "properties": {"charge": 44, "id": "smide_66", "name": "ZH253818", "provider": "smide", "range": 22.0, "size": 20, "time": "02/08/2020, 17:59:35"}, "type": "Feature"}, {"geometry": {"coordinates": [8.503865, 47.381538], "type": "Point"}, "properties": {"charge": 100, "id": "smide_17", "name": "ZH253793", "provider": "smide", "range": 50.0, "size": 17, "time": "02/08/2020, 17:59:35"}, "type": "Feature"}, {"geometry": {"coordinates": [8.555282, 47.383836], "type": "Point"}, "properties": {"charge": 67, "id": "smide_114", "name": "ZH253878", "provider": "smide", "range": 33.0, "size": 20, "time": "02/08/2020, 17:59:35"}, "type": "Feature"}, {"geometry": {"coordinates": [8.533154, 47.417164], "type": "Point"}, "properties": {"charge": 43, "id": "smide_203", "name": "ZH261547", "provider": "smide", "range": 21.0, "size": 17, "time": "02/08/2020, 17:59:35"}, "type": "Feature"}, {"geometry": {"coordinates": [8.519034, 47.337232], "type": "Point"}, "properties": {"charge": 64, "id": "smide_21", "name": "ZH253841", "provider": "smide", "range": 32.0, "size": 17, "time": "02/08/2020, 17:59:35"}, "type": "Feature"}, {"geometry": {"coordinates": [8.529354, 47.383384], "type": "Point"}, "properties": {"charge": 79, "id": "smide_164", "name": "ZH253775", "provider": "smide", "range": 39.0, "size": 17, "time": "02/08/2020, 17:59:35"}, "type": "Feature"}, {"geometry": {"coordinates": [8.534372, 47.416784], "type": "Point"}, "properties": {"charge": 67, "id": "smide_189", "name": "ZH253845", "provider": "smide", "range": 33.0, "size": 20, "time": "02/08/2020, 17:59:35"}, "type": "Feature"}, {"geometry": {"coordinates": [8.535682, 47.377272], "type": "Point"}, "properties": {"charge": 23, "id": "smide_81", "name": "ZH253753", "provider": "smide", "range": 11.0, "size": 17, "time": "02/08/2020, 17:59:35"}, "type": "Feature"}, {"geometry": {"coordinates": [8.524955, 47.397256], "type": "Point"}, "properties": {"charge": 88, "id": "smide_171", "name": "ZH253689", "provider": "smide", "range": 44.0, "size": 20, "time": "02/08/2020, 17:59:35"}, "type": "Feature"}, {"geometry": {"coordinates": [8.487592, 47.375776], "type": "Point"}, "properties": {"charge": 28, "id": "smide_93", "name": "ZH253681", "provider": "smide", "range": 14.0, "size": 17, "time": "02/08/2020, 17:59:35"}, "type": "Feature"}, {"geometry": {"coordinates": [8.527342, 47.38676], "type": "Point"}, "properties": {"charge": 35, "id": "smide_67", "name": "ZH253779", "provider": "smide", "range": 17.0, "size": 17, "time": "02/08/2020, 17:59:35"}, "type": "Feature"}, {"geometry": {"coordinates": [8.489647, 47.373868], "type": "Point"}, "properties": {"charge": 53, "id": "smide_133", "name": "ZH253848", "provider": "smide", "range": 26.0, "size": 20, "time": "02/08/2020, 17:59:35"}, "type": "Feature"}, {"geometry": {"coordinates": [8.486891, 47.387018], "type": "Point"}, "properties": {"charge": 100, "id": "smide_118", "name": "ZH253759", "provider": "smide", "range": 50.0, "size": 20, "time": "02/08/2020, 17:59:35"}, "type": "Feature"}, {"geometry": {"coordinates": [8.510437, 47.395176], "type": "Point"}, "properties": {"charge": 100, "id": "smide_126", "name": "ZH268400", "provider": "smide", "range": 50.0, "size": 17, "time": "02/08/2020, 17:59:35"}, "type": "Feature"}, {"geometry": {"coordinates": [8.52273, 47.362436], "type": "Point"}, "properties": {"charge": 100, "id": "smide_44", "name": "ZH253837", "provider": "smide", "range": 50.0, "size": 17, "time": "02/08/2020, 17:59:35"}, "type": "Feature"}, {"geometry": {"coordinates": [8.562548, 47.371495], "type": "Point"}, "properties": {"charge": 100, "id": "smide_98", "name": "ZH256321", "provider": "smide", "range": 50.0, "size": 17, "time": "02/08/2020, 17:59:35"}, "type": "Feature"}, {"geometry": {"coordinates": [8.54528, 47.412768], "type": "Point"}, "properties": {"charge": 66, "id": "smide_154", "name": "ZH253744", "provider": "smide", "range": 33.0, "size": 20, "time": "02/08/2020, 17:59:35"}, "type": "Feature"}, {"geometry": {"coordinates": [8.518017, 47.366732], "type": "Point"}, "properties": {"charge": 99, "id": "smide_7", "name": "ZH256289", "provider": "smide", "range": 49.0, "size": 20, "time": "02/08/2020, 17:59:35"}, "type": "Feature"}, {"geometry": {"coordinates": [8.477624, 47.389864], "type": "Point"}, "properties": {"charge": 84, "id": "smide_92", "name": "ZH253798", "provider": "smide", "range": 42.0, "size": 17, "time": "02/08/2020, 17:59:35"}, "type": "Feature"}, {"geometry": {"coordinates": [8.514507, 47.364704], "type": "Point"}, "properties": {"charge": 87, "id": "smide_65", "name": "ZH253810", "provider": "smide", "range": 43.0, "size": 17, "time": "02/08/2020, 17:59:35"}, "type": "Feature"}, {"geometry": {"coordinates": [8.541477, 47.3868], "type": "Point"}, "properties": {"charge": 88, "id": "smide_111", "name": "ZH253763", "provider": "smide", "range": 44.0, "size": 17, "time": "02/08/2020, 17:59:35"}, "type": "Feature"}, {"geometry": {"coordinates": [8.557181, 47.377396], "type": "Point"}, "properties": {"charge": 70, "id": "smide_40", "name": "ZH253690", "provider": "smide", "range": 35.0, "size": 20, "time": "02/08/2020, 17:59:35"}, "type": "Feature"}, {"geometry": {"coordinates": [8.51641, 47.381376], "type": "Point"}, "properties": {"charge": 74, "id": "smide_1", "name": "ZH253776", "provider": "smide", "range": 37.0, "size": 17, "time": "02/08/2020, 17:59:35"}, "type": "Feature"}, {"geometry": {"coordinates": [8.51984, 47.340008], "type": "Point"}, "properties": {"charge": 92, "id": "smide_14", "name": "ZH253749", "provider": "smide", "range": 46.0, "size": 20, "time": "02/08/2020, 17:59:35"}, "type": "Feature"}, {"geometry": {"coordinates": [8.535267, 47.39306], "type": "Point"}, "properties": {"charge": 84, "id": "smide_130", "name": "ZH253847", "provider": "smide", "range": 42.0, "size": 20, "time": "02/08/2020, 17:59:35"}, "type": "Feature"}, {"geometry": {"coordinates": [8.511613, 47.380772], "type": "Point"}, "properties": {"charge": 100, "id": "smide_107", "name": "ZH253819", "provider": "smide", "range": 50.0, "size": 17, "time": "02/08/2020, 17:59:35"}, "type": "Feature"}, {"geometry": {"coordinates": [8.502081, 47.368852], "type": "Point"}, "properties": {"charge": 100, "id": "smide_205", "name": "ZH253805", "provider": "smide", "range": 50.0, "size": 17, "time": "02/08/2020, 17:59:35"}, "type": "Feature"}, {"geometry": {"coordinates": [8.556951, 47.404004], "type": "Point"}, "properties": {"charge": 100, "id": "smide_193", "name": "ZH253738", "provider": "smide", "range": 50.0, "size": 20, "time": "02/08/2020, 17:59:35"}, "type": "Feature"}, {"geometry": {"coordinates": [8.52155, 47.36789], "type": "Point"}, "properties": {"charge": 26, "id": "smide_73", "name": "ZH261379", "provider": "smide", "range": 13.0, "size": 20, "time": "02/08/2020, 17:59:35"}, "type": "Feature"}, {"geometry": {"coordinates": [8.538513, 47.373916], "type": "Point"}, "properties": {"charge": 67, "id": "smide_100", "name": "ZH253862", "provider": "smide", "range": 33.0, "size": 20, "time": "02/08/2020, 17:59:35"}, "type": "Feature"}, {"geometry": {"coordinates": [8.525835, 47.389618], "type": "Point"}, "properties": {"charge": 100, "id": "smide_134", "name": "ZH253741", "provider": "smide", "range": 50.0, "size": 20, "time": "02/08/2020, 17:59:35"}, "type": "Feature"}, {"geometry": {"coordinates": [8.56014, 47.351891], "type": "Point"}, "properties": {"charge": 100, "id": "smide_141", "name": "ZH253800", "provider": "smide", "range": 50.0, "size": 20, "time": "02/08/2020, 17:59:35"}, "type": "Feature"}, {"geometry": {"coordinates": [8.572575, 47.351668], "type": "Point"}, "properties": {"charge": 75, "id": "smide_16", "name": "ZH253713", "provider": "smide", "range": 37.0, "size": 20, "time": "02/08/2020, 17:59:35"}, "type": "Feature"}, {"geometry": {"coordinates": [8.523316, 47.385588], "type": "Point"}, "properties": {"charge": 66, "id": "smide_74", "name": "ZH253693", "provider": "smide", "range": 33.0, "size": 20, "time": "02/08/2020, 17:59:35"}, "type": "Feature"}, {"geometry": {"coordinates": [8.560253, 47.354628], "type": "Point"}, "properties": {"charge": 91, "id": "smide_33", "name": "ZH253782", "provider": "smide", "range": 45.0, "size": 20, "time": "02/08/2020, 17:59:35"}, "type": "Feature"}, {"geometry": {"coordinates": [8.514312, 47.386816], "type": "Point"}, "properties": {"charge": 97, "id": "smide_161", "name": "ZH253691", "provider": "smide", "range": 48.0, "size": 20, "time": "02/08/2020, 17:59:35"}, "type": "Feature"}, {"geometry": {"coordinates": [8.517528, 47.367488], "type": "Point"}, "properties": {"charge": 100, "id": "smide_183", "name": "ZH253868", "provider": "smide", "range": 50.0, "size": 17, "time": "02/08/2020, 17:59:35"}, "type": "Feature"}, {"geometry": {"coordinates": [8.496157, 47.386552], "type": "Point"}, "properties": {"charge": 38, "id": "smide_42", "name": "ZH253846", "provider": "smide", "range": 19.0, "size": 20, "time": "02/08/2020, 17:59:35"}, "type": "Feature"}, {"geometry": {"coordinates": [8.537116, 47.419108], "type": "Point"}, "properties": {"charge": 61, "id": "smide_4", "name": "ZH253740", "provider": "smide", "range": 30.0, "size": 20, "time": "02/08/2020, 17:59:35"}, "type": "Feature"}, {"geometry": {"coordinates": [8.496371, 47.3928], "type": "Point"}, "properties": {"charge": 98, "id": "smide_160", "name": "ZH253722", "provider": "smide", "range": 49.0, "size": 17, "time": "02/08/2020, 17:59:35"}, "type": "Feature"}, {"geometry": {"coordinates": [8.544033, 47.384418], "type": "Point"}, "properties": {"charge": 91, "id": "smide_137", "name": "ZH258502", "provider": "smide", "range": 45.0, "size": 17, "time": "02/08/2020, 17:59:35"}, "type": "Feature"}, {"geometry": {"coordinates": [8.549212, 47.361872], "type": "Point"}, "properties": {"charge": 78, "id": "smide_178", "name": "ZH253803", "provider": "smide", "range": 39.0, "size": 17, "time": "02/08/2020, 17:59:35"}, "type": "Feature"}, {"geometry": {"coordinates": [8.517986, 47.366678], "type": "Point"}, "properties": {"charge": 99, "id": "smide_55", "name": "ZH253875", "provider": "smide", "range": 49.0, "size": 17, "time": "02/08/2020, 17:59:35"}, "type": "Feature"}, {"geometry": {"coordinates": [8.54815, 47.370856], "type": "Point"}, "properties": {"charge": 93, "id": "smide_96", "name": "ZH256146", "provider": "smide", "range": 46.0, "size": 20, "time": "02/08/2020, 17:59:35"}, "type": "Feature"}, {"geometry": {"coordinates": [8.547984, 47.366376], "type": "Point"}, "properties": {"charge": 100, "id": "smide_58", "name": "ZH259246", "provider": "smide", "range": 50.0, "size": 20, "time": "02/08/2020, 17:59:35"}, "type": "Feature"}, {"geometry": {"coordinates": [8.475154, 47.385416], "type": "Point"}, "properties": {"charge": 99, "id": "smide_54", "name": "ZH253874", "provider": "smide", "range": 49.0, "size": 20, "time": "02/08/2020, 17:59:35"}, "type": "Feature"}, {"geometry": {"coordinates": [8.542891, 47.38552], "type": "Point"}, "properties": {"charge": 100, "id": "smide_175", "name": "ZH253730", "provider": "smide", "range": 50.0, "size": 17, "time": "02/08/2020, 17:59:35"}, "type": "Feature"}, {"geometry": {"coordinates": [8.546681, 47.377324], "type": "Point"}, "properties": {"charge": 43, "id": "smide_95", "name": "ZH253773", "provider": "smide", "range": 21.0, "size": 17, "time": "02/08/2020, 17:59:35"}, "type": "Feature"}, {"geometry": {"coordinates": [8.536391, 47.343544], "type": "Point"}, "properties": {"charge": 31, "id": "smide_163", "name": "ZH256147", "provider": "smide", "range": 15.0, "size": 20, "time": "02/08/2020, 17:59:35"}, "type": "Feature"}, {"geometry": {"coordinates": [8.531594, 47.36394], "type": "Point"}, "properties": {"charge": 94, "id": "smide_112", "name": "ZH263530", "provider": "smide", "range": 47.0, "size": 20, "time": "02/08/2020, 17:59:35"}, "type": "Feature"}, {"geometry": {"coordinates": [8.540156, 47.378888], "type": "Point"}, "properties": {"charge": 60, "id": "smide_122", "name": "ZH253850", "provider": "smide", "range": 30.0, "size": 20, "time": "02/08/2020, 17:59:35"}, "type": "Feature"}, {"geometry": {"coordinates": [8.54641, 47.412785], "type": "Point"}, "properties": {"charge": 30, "id": "smide_38", "name": "ZH253851", "provider": "smide", "range": 15.0, "size": 20, "time": "02/08/2020, 17:59:35"}, "type": "Feature"}, {"geometry": {"coordinates": [8.557758, 47.404404], "type": "Point"}, "properties": {"charge": 73, "id": "smide_6", "name": "ZH253787", "provider": "smide", "range": 36.0, "size": 17, "time": "02/08/2020, 17:59:35"}, "type": "Feature"}, {"geometry": {"coordinates": [8.523782, 47.3868], "type": "Point"}, "properties": {"charge": 100, "id": "smide_18", "name": "ZH253859", "provider": "smide", "range": 50.0, "size": 17, "time": "02/08/2020, 17:59:35"}, "type": "Feature"}, {"geometry": {"coordinates": [8.508774, 47.35266], "type": "Point"}, "properties": {"charge": 84, "id": "smide_12", "name": "ZH253685", "provider": "smide", "range": 42.0, "size": 17, "time": "02/08/2020, 17:59:35"}, "type": "Feature"}, {"geometry": {"coordinates": [8.544682, 47.374096], "type": "Point"}, "properties": {"charge": 94, "id": "smide_192", "name": "ZH253706", "provider": "smide", "range": 47.0, "size": 20, "time": "02/08/2020, 17:59:35"}, "type": "Feature"}, {"geometry": {"coordinates": [8.525806, 47.365304], "type": "Point"}, "properties": {"charge": 37, "id": "smide_39", "name": "ZH253714", "provider": "smide", "range": 18.0, "size": 20, "time": "02/08/2020, 17:59:35"}, "type": "Feature"}, {"geometry": {"coordinates": [8.51401, 47.365245], "type": "Point"}, "properties": {"charge": 52, "id": "smide_5", "name": "ZH261443", "provider": "smide", "range": 26.0, "size": 20, "time": "02/08/2020, 17:59:35"}, "type": "Feature"}, {"geometry": {"coordinates": [8.475332, 47.385464], "type": "Point"}, "properties": {"charge": 100, "id": "smide_29", "name": "ZH253723", "provider": "smide", "range": 50.0, "size": 17, "time": "02/08/2020, 17:59:35"}, "type": "Feature"}, {"geometry": {"coordinates": [8.563064, 47.382608], "type": "Point"}, "properties": {"charge": 79, "id": "smide_46", "name": "ZH253843", "provider": "smide", "range": 39.0, "size": 20, "time": "02/08/2020, 17:59:35"}, "type": "Feature"}, {"geometry": {"coordinates": [8.53686833333333, 47.370655], "type": "Point"}, "properties": {"charge": 30, "id": "bird_0231b52f-e7e1-4875-9fe0-7c095b3194a8", "provider": "bird", "timeStamp": "02/08/2020, 17:59:35"}, "type": "Feature"}, {"geometry": {"coordinates": [8.53952666666667, 47.388165], "type": "Point"}, "properties": {"charge": 42, "id": "bird_1c9c676d-754d-48cf-a974-f8d6d01e3933", "provider": "bird", "timeStamp": "02/08/2020, 17:59:35"}, "type": "Feature"}, {"geometry": {"coordinates": [8.54296, 47.37452], "type": "Point"}, "properties": {"charge": 40, "id": "bird_7bda6bb7-44bc-45ef-8780-cbb9fe9f7688", "provider": "bird", "timeStamp": "02/08/2020, 17:59:35"}, "type": "Feature"}, {"geometry": {"coordinates": [8.53579833333333, 47.37046], "type": "Point"}, "properties": {"charge": 76, "id": "bird_a596951e-772a-49ea-93a0-7d24ede46adc", "provider": "bird", "timeStamp": "02/08/2020, 17:59:35"}, "type": "Feature"}, {"geometry": {"coordinates": [8.52056833333333, 47.3880683333333], "type": "Point"}, "properties": {"charge": 20, "id": "bird_2d8872de-a127-4079-9010-a0f2f0094c25", "provider": "bird", "timeStamp": "02/08/2020, 17:59:35"}, "type": "Feature"}, {"geometry": {"coordinates": [8.534295, 47.38987], "type": "Point"}, "properties": {"charge": 48, "id": "bird_3d781b9e-5c99-4024-b9e5-9b17ec1f0248", "provider": "bird", "timeStamp": "02/08/2020, 17:59:35"}, "type": "Feature"}, {"geometry": {"coordinates": [8.53590333333333, 47.3705633333333], "type": "Point"}, "properties": {"charge": 52, "id": "bird_92bf9106-3f95-4eb1-88ce-9592057ba5e7", "provider": "bird", "timeStamp": "02/08/2020, 17:59:35"}, "type": "Feature"}, {"geometry": {"coordinates": [8.54457166666667, 47.3825983333333], "type": "Point"}, "properties": {"charge": 29, "id": "bird_a00592cb-5b67-4c0b-9e76-e49f6944bd11", "provider": "bird", "timeStamp": "02/08/2020, 17:59:35"}, "type": "Feature"}, {"geometry": {"coordinates": [8.53525166666667, 47.3704416666667], "type": "Point"}, "properties": {"charge": 54, "id": "bird_61335831-403b-4378-8bd4-e0345862d472", "provider": "bird", "timeStamp": "02/08/2020, 17:59:35"}, "type": "Feature"}, {"geometry": {"coordinates": [8.51760166666667, 47.3857533333333], "type": "Point"}, "properties": {"charge": 87, "id": "bird_bdc36e3f-b377-4fb7-8ff1-a5df0fde8e23", "provider": "bird", "timeStamp": "02/08/2020, 17:59:35"}, "type": "Feature"}, {"geometry": {"coordinates": [8.54329666666667, 47.3754966666667], "type": "Point"}, "properties": {"charge": 83, "id": "bird_cad9d1ec-db93-45cc-af89-84b11a75e1a7", "provider": "bird", "timeStamp": "02/08/2020, 17:59:35"}, "type": "Feature"}, {"geometry": {"coordinates": [8.53303, 47.389855], "type": "Point"}, "properties": {"charge": 29, "id": "bird_2fe51dd7-e08b-444f-8cfa-5e8b5eadb02d", "provider": "bird", "timeStamp": "02/08/2020, 17:59:35"}, "type": "Feature"}, {"geometry": {"coordinates": [8.51781666666667, 47.3857533333333], "type": "Point"}, "properties": {"charge": 92, "id": "bird_fb63a808-1468-4fcf-9b05-4e330db2fdab", "provider": "bird", "timeStamp": "02/08/2020, 17:59:35"}, "type": "Feature"}, {"geometry": {"coordinates": [8.52613333333333, 47.3702966666667], "type": "Point"}, "properties": {"charge": 55, "id": "bird_5207c00a-f5e2-4e7e-af7b-47bc16e5430c", "provider": "bird", "timeStamp": "02/08/2020, 17:59:35"}, "type": "Feature"}, {"geometry": {"coordinates": [8.51765166666667, 47.38557], "type": "Point"}, "properties": {"charge": 89, "id": "bird_ba826b22-71c2-4ba8-b84a-e74e927f23eb", "provider": "bird", "timeStamp": "02/08/2020, 17:59:35"}, "type": "Feature"}, {"geometry": {"coordinates": [8.54377666666667, 47.376285], "type": "Point"}, "properties": {"charge": 52, "id": "bird_6dcb6c9f-b877-43e1-87d3-f03415c7e849", "provider": "bird", "timeStamp": "02/08/2020, 17:59:35"}, "type": "Feature"}, {"geometry": {"coordinates": [8.52773333333333, 47.37009], "type": "Point"}, "properties": {"charge": 40, "id": "bird_2575f248-1e93-409b-9b77-ac9523ea5d05", "provider": "bird", "timeStamp": "02/08/2020, 17:59:35"}, "type": "Feature"}, {"geometry": {"coordinates": [8.51766833333333, 47.385525], "type": "Point"}, "properties": {"charge": 93, "id": "bird_96fd3c4b-cacf-4214-b3db-29b243fe3f86", "provider": "bird", "timeStamp": "02/08/2020, 17:59:35"}, "type": "Feature"}, {"geometry": {"coordinates": [8.52348333333333, 47.3710166666667], "type": "Point"}, "properties": {"charge": 79, "id": "bird_26934ae3-6e31-4d93-9a26-098f05f7c8c0", "provider": "bird", "timeStamp": "02/08/2020, 17:59:35"}, "type": "Feature"}, {"geometry": {"coordinates": [8.54387833333333, 47.376575], "type": "Point"}, "properties": {"charge": 91, "id": "bird_3b2f333d-d5b9-435b-8ae7-6becfa137ec7", "provider": "bird", "timeStamp": "02/08/2020, 17:59:35"}, "type": "Feature"}, {"geometry": {"coordinates": [8.51766166666667, 47.3854983333333], "type": "Point"}, "properties": {"charge": 65, "id": "bird_0695c79e-a988-4691-9193-866cc4ebd93e", "provider": "bird", "timeStamp": "02/08/2020, 17:59:35"}, "type": "Feature"}, {"geometry": {"coordinates": [8.54381333333333, 47.3765333333333], "type": "Point"}, "properties": {"charge": 43, "id": "bird_beef0d56-7e09-491e-afce-f452cb9c50ce", "provider": "bird", "timeStamp": "02/08/2020, 17:59:35"}, "type": "Feature"}, {"geometry": {"coordinates": [8.51668, 47.3757583333333], "type": "Point"}, "properties": {"charge": 65, "id": "bird_c2ded891-6cdb-40bd-af7a-5ad5243c23ef", "provider": "bird", "timeStamp": "02/08/2020, 17:59:35"}, "type": "Feature"}, {"geometry": {"coordinates": [8.53727166666667, 47.3886483333333], "type": "Point"}, "properties": {"charge": 82, "id": "bird_75e053a4-1248-4139-a113-a30d40a04930", "provider": "bird", "timeStamp": "02/08/2020, 17:59:35"}, "type": "Feature"}, {"geometry": {"coordinates": [8.51891833333333, 47.3734933333333], "type": "Point"}, "properties": {"charge": 33, "id": "bird_e256a0ca-f4fd-4a1b-8d8d-772e067ff95b", "provider": "bird", "timeStamp": "02/08/2020, 17:59:35"}, "type": "Feature"}, {"geometry": {"coordinates": [8.54359, 47.3762933333333], "type": "Point"}, "properties": {"charge": 28, "id": "bird_7dfd8294-a6bf-4fa9-956f-3ec07bb6703d", "provider": "bird", "timeStamp": "02/08/2020, 17:59:35"}, "type": "Feature"}, {"geometry": {"coordinates": [8.54374, 47.3766333333333], "type": "Point"}, "properties": {"charge": 46, "id": "bird_5a114cb4-d573-41a0-9446-1ba7d5c68c51", "provider": "bird", "timeStamp": "02/08/2020, 17:59:35"}, "type": "Feature"}, {"geometry": {"coordinates": [8.51807666666667, 47.3743666666667], "type": "Point"}, "properties": {"charge": 29, "id": "bird_4d753c8b-6d42-4046-8b3d-8ef69ec71efc", "provider": "bird", "timeStamp": "02/08/2020, 17:59:35"}, "type": "Feature"}, {"geometry": {"coordinates": [8.53814333333333, 47.3880733333333], "type": "Point"}, "properties": {"charge": 74, "id": "bird_87068fbc-6ee2-42c1-9798-e9914518d514", "provider": "bird", "timeStamp": "02/08/2020, 17:59:35"}, "type": "Feature"}, {"geometry": {"coordinates": [8.54348166666667, 47.383365], "type": "Point"}, "properties": {"charge": 69, "id": "bird_85307dcd-14c7-4281-8956-faf8a8394a21", "provider": "bird", "timeStamp": "02/08/2020, 17:59:35"}, "type": "Feature"}, {"geometry": {"coordinates": [8.54032833333333, 47.38675], "type": "Point"}, "properties": {"charge": 19, "id": "bird_2747f7ff-0aee-4f2e-b248-6e6185568159", "provider": "bird", "timeStamp": "02/08/2020, 17:59:35"}, "type": "Feature"}, {"geometry": {"coordinates": [8.54347166666667, 47.3833266666667], "type": "Point"}, "properties": {"charge": 64, "id": "bird_2dc8fe09-b24f-4957-a839-17f09af60603", "provider": "bird", "timeStamp": "02/08/2020, 17:59:35"}, "type": "Feature"}, {"geometry": {"coordinates": [8.51577833333333, 47.3789133333333], "type": "Point"}, "properties": {"charge": 27, "id": "bird_0d33f263-1dd4-455b-b2ba-86cf26e67a51", "provider": "bird", "timeStamp": "02/08/2020, 17:59:35"}, "type": "Feature"}, {"geometry": {"coordinates": [8.54355, 47.38311], "type": "Point"}, "properties": {"charge": 24, "id": "bird_e2ec4534-e541-4a85-9c0c-f81c4139cb37", "provider": "bird", "timeStamp": "02/08/2020, 17:59:35"}, "type": "Feature"}, {"geometry": {"coordinates": [8.54351833333333, 47.3831333333333], "type": "Point"}, "properties": {"charge": 73, "id": "bird_471a8ecb-89c6-4a70-9d47-3c9f01dd03d5", "provider": "bird", "timeStamp": "02/08/2020, 17:59:35"}, "type": "Feature"}, {"geometry": {"coordinates": [8.51580166666667, 47.38108], "type": "Point"}, "properties": {"charge": 48, "id": "bird_5d397e03-5017-4300-a1b4-2dfc6562c17d", "provider": "bird", "timeStamp": "02/08/2020, 17:59:35"}, "type": "Feature"}, {"geometry": {"coordinates": [8.52174833333333, 47.38784], "type": "Point"}, "properties": {"charge": 64, "id": "bird_f377ae84-d53e-4555-8c1b-f40e9fef4fd7", "provider": "bird", "timeStamp": "02/08/2020, 17:59:35"}, "type": "Feature"}, {"geometry": {"coordinates": [8.52175666666667, 47.3878133333333], "type": "Point"}, "properties": {"charge": 21, "id": "bird_8d35aaa5-4fb2-4f1b-990a-e1f9b80ed823", "provider": "bird", "timeStamp": "02/08/2020, 17:59:35"}, "type": "Feature"}, {"geometry": {"coordinates": [8.52396333333333, 47.371365], "type": "Point"}, "properties": {"charge": 44, "id": "bird_eb8fc8f8-7484-4855-90c5-e53506e5dc1f", "provider": "bird", "timeStamp": "02/08/2020, 17:59:35"}, "type": "Feature"}, {"geometry": {"coordinates": [8.54071333333333, 47.3738066666667], "type": "Point"}, "properties": {"charge": 57, "id": "bird_5e6e3ba6-8c14-4579-8ddc-305aa03d39c7", "provider": "bird", "timeStamp": "02/08/2020, 17:59:35"}, "type": "Feature"}, {"geometry": {"coordinates": [8.51606, 47.37864], "type": "Point"}, "properties": {"charge": 26, "id": "bird_11be8c33-c67d-4873-ac6e-51ad1c694d19", "provider": "bird", "timeStamp": "02/08/2020, 17:59:35"}, "type": "Feature"}, {"geometry": {"coordinates": [8.51608833333333, 47.37865], "type": "Point"}, "properties": {"charge": 42, "id": "bird_7e45ac03-e10b-4252-9390-e06fcfd6167d", "provider": "bird", "timeStamp": "02/08/2020, 17:59:35"}, "type": "Feature"}, {"geometry": {"coordinates": [8.53957, 47.3730316666667], "type": "Point"}, "properties": {"charge": 19, "id": "bird_8b733d74-ff5e-4dd9-b17f-965b490efe8b", "provider": "bird", "timeStamp": "02/08/2020, 17:59:35"}, "type": "Feature"}, {"geometry": {"coordinates": [8.522535, 47.3879733333333], "type": "Point"}, "properties": {"charge": 28, "id": "bird_18b83dfc-b3cf-4393-9420-6f16b7743322", "provider": "bird", "timeStamp": "02/08/2020, 17:59:35"}, "type": "Feature"}, {"geometry": {"coordinates": [8.51944333333333, 47.3738516666667], "type": "Point"}, "properties": {"charge": 48, "id": "bird_cc56167e-fdb1-480a-8599-f718c3ade91f", "provider": "bird", "timeStamp": "02/08/2020, 17:59:35"}, "type": "Feature"}, {"geometry": {"coordinates": [8.53629833333333, 47.3715933333333], "type": "Point"}, "properties": {"charge": 80, "id": "bird_f73a05f5-efef-4337-ae73-e58b6956df2b", "provider": "bird", "timeStamp": "02/08/2020, 17:59:35"}, "type": "Feature"}, {"geometry": {"coordinates": [8.52269333333333, 47.3880116666667], "type": "Point"}, "properties": {"charge": 49, "id": "bird_f22d4317-b334-425b-84a1-8dadb058a977", "provider": "bird", "timeStamp": "02/08/2020, 17:59:35"}, "type": "Feature"}, {"geometry": {"coordinates": [8.519415, 47.3739083333333], "type": "Point"}, "properties": {"charge": 54, "id": "bird_2a28d335-f060-4d47-87a2-f1a8f9e23fab", "provider": "bird", "timeStamp": "02/08/2020, 17:59:35"}, "type": "Feature"}, {"geometry": {"coordinates": [8.54056333333333, 47.3739016666667], "type": "Point"}, "properties": {"charge": 38, "id": "bird_823208e0-241e-4487-b256-4dc60db3fa1a", "provider": "bird", "timeStamp": "02/08/2020, 17:59:35"}, "type": "Feature"}, {"geometry": {"coordinates": [8.51860833333333, 47.3853566666667], "type": "Point"}, "properties": {"charge": 80, "id": "bird_8b5f36d7-e397-4492-a40d-2b18891d7956", "provider": "bird", "timeStamp": "02/08/2020, 17:59:35"}, "type": "Feature"}, {"geometry": {"coordinates": [8.538995, 47.3729483333333], "type": "Point"}, "properties": {"charge": 31, "id": "bird_0ea654f7-a2f2-4bb9-9da8-3aa48fd5d6e0", "provider": "bird", "timeStamp": "02/08/2020, 17:59:35"}, "type": "Feature"}, {"geometry": {"coordinates": [8.526105, 47.3889083333333], "type": "Point"}, "properties": {"charge": 75, "id": "bird_a8c063fb-280e-4239-8bfa-2b8be44567fc", "provider": "bird", "timeStamp": "02/08/2020, 17:59:35"}, "type": "Feature"}, {"geometry": {"coordinates": [8.523285, 47.37191], "type": "Point"}, "properties": {"charge": 55, "id": "bird_caa99872-b4cd-4233-8aa3-4911a7ab950f", "provider": "bird", "timeStamp": "02/08/2020, 17:59:35"}, "type": "Feature"}, {"geometry": {"coordinates": [8.516655, 47.3817666666667], "type": "Point"}, "properties": {"charge": 62, "id": "bird_9fc5cc19-70fb-46b3-9369-ce16fe58e9fb", "provider": "bird", "timeStamp": "02/08/2020, 17:59:35"}, "type": "Feature"}, {"geometry": {"coordinates": [8.51653166666667, 47.3796616666667], "type": "Point"}, "properties": {"charge": 54, "id": "bird_44c5a76c-446f-4909-a78d-dd9ecac10a2e", "provider": "bird", "timeStamp": "02/08/2020, 17:59:35"}, "type": "Feature"}, {"geometry": {"coordinates": [8.536395, 47.37199], "type": "Point"}, "properties": {"charge": 82, "id": "bird_164f27af-1840-43a5-83d0-ab85ade229bb", "provider": "bird", "timeStamp": "02/08/2020, 17:59:35"}, "type": "Feature"}, {"geometry": {"coordinates": [8.53596833333333, 47.3718533333333], "type": "Point"}, "properties": {"charge": 76, "id": "bird_d2e842e0-3045-4f24-9aad-400a38a96ace", "provider": "bird", "timeStamp": "02/08/2020, 17:59:35"}, "type": "Feature"}, {"geometry": {"coordinates": [8.52037, 47.3736683333333], "type": "Point"}, "properties": {"charge": 65, "id": "bird_dc23a9d3-abd9-4f6b-804f-0378bd660817", "provider": "bird", "timeStamp": "02/08/2020, 17:59:35"}, "type": "Feature"}, {"geometry": {"coordinates": [8.51658666666667, 47.380085], "type": "Point"}, "properties": {"charge": 28, "id": "bird_03764669-6bb1-4e15-85d3-da5afcb9a136", "provider": "bird", "timeStamp": "02/08/2020, 17:59:35"}, "type": "Feature"}, {"geometry": {"coordinates": [8.52056833333333, 47.3736], "type": "Point"}, "properties": {"charge": 26, "id": "bird_379ef6f3-6e57-41e8-bc25-73db6acd1a88", "provider": "bird", "timeStamp": "02/08/2020, 17:59:35"}, "type": "Feature"}, {"geometry": {"coordinates": [8.52326833333333, 47.3722], "type": "Point"}, "properties": {"charge": 55, "id": "bird_50586e51-2dda-4767-9bde-64a5cf6ea784", "provider": "bird", "timeStamp": "02/08/2020, 17:59:35"}, "type": "Feature"}, {"geometry": {"coordinates": [8.53501166666667, 47.3718533333333], "type": "Point"}, "properties": {"charge": 81, "id": "bird_b12c17f3-fe8f-4767-a66f-7df653eb798b", "provider": "bird", "timeStamp": "02/08/2020, 17:59:35"}, "type": "Feature"}, {"geometry": {"coordinates": [8.52596666666667, 47.3716433333333], "type": "Point"}, "properties": {"charge": 79, "id": "bird_359ff445-71f0-492d-a143-44b6d80ceb4e", "provider": "bird", "timeStamp": "02/08/2020, 17:59:35"}, "type": "Feature"}, {"geometry": {"coordinates": [8.53924833333333, 47.3739583333333], "type": "Point"}, "properties": {"charge": 87, "id": "bird_4f2ab3bb-822c-4b89-af0d-3b032ea7d7d4", "provider": "bird", "timeStamp": "02/08/2020, 17:59:35"}, "type": "Feature"}, {"geometry": {"coordinates": [8.53608, 47.372345], "type": "Point"}, "properties": {"charge": 70, "id": "bird_a79d6674-8feb-401f-938b-248a872af366", "provider": "bird", "timeStamp": "02/08/2020, 17:59:35"}, "type": "Feature"}, {"geometry": {"coordinates": [8.54214333333333, 47.3772433333333], "type": "Point"}, "properties": {"charge": 25, "id": "bird_20963b3e-7660-421c-a292-6b0b85c93782", "provider": "bird", "timeStamp": "02/08/2020, 17:59:35"}, "type": "Feature"}, {"geometry": {"coordinates": [8.54211, 47.3772166666667], "type": "Point"}, "properties": {"charge": 31, "id": "bird_f7860172-43d5-4d2c-805c-ef7383f01709", "provider": "bird", "timeStamp": "02/08/2020, 17:59:35"}, "type": "Feature"}, {"geometry": {"coordinates": [8.53977166666667, 47.3745416666667], "type": "Point"}, "properties": {"charge": 56, "id": "bird_ac6ca77e-be88-43a1-88a7-6cb169f424cb", "provider": "bird", "timeStamp": "02/08/2020, 17:59:35"}, "type": "Feature"}, {"geometry": {"coordinates": [8.52595, 47.3881116666667], "type": "Point"}, "properties": {"charge": 44, "id": "bird_63fb7bfc-8782-42b5-a51d-fdbd58c8e9e7", "provider": "bird", "timeStamp": "02/08/2020, 17:59:35"}, "type": "Feature"}, {"geometry": {"coordinates": [8.52451833333333, 47.3877066666667], "type": "Point"}, "properties": {"charge": 57, "id": "bird_5bf197ac-d23b-4eb8-8269-1f9cee486752", "provider": "bird", "timeStamp": "02/08/2020, 17:59:35"}, "type": "Feature"}, {"geometry": {"coordinates": [8.524605, 47.3877033333333], "type": "Point"}, "properties": {"charge": 54, "id": "bird_8abcb454-b789-4a3c-aa90-a1ef2b9165ea", "provider": "bird", "timeStamp": "02/08/2020, 17:59:35"}, "type": "Feature"}, {"geometry": {"coordinates": [8.52237666666667, 47.37323], "type": "Point"}, "properties": {"charge": 69, "id": "bird_fa94bbb5-2bb8-4510-8390-e8830e7115f1", "provider": "bird", "timeStamp": "02/08/2020, 17:59:35"}, "type": "Feature"}, {"geometry": {"coordinates": [8.51754833333333, 47.38087], "type": "Point"}, "properties": {"charge": 76, "id": "bird_dd65205e-f8c8-4175-9b80-374ee9770c35", "provider": "bird", "timeStamp": "02/08/2020, 17:59:35"}, "type": "Feature"}, {"geometry": {"coordinates": [8.53989833333333, 47.3749966666667], "type": "Point"}, "properties": {"charge": 91, "id": "bird_8e008a35-8813-4fc9-af73-cdf504a27f21", "provider": "bird", "timeStamp": "02/08/2020, 17:59:35"}, "type": "Feature"}, {"geometry": {"coordinates": [8.53679833333333, 47.3730433333333], "type": "Point"}, "properties": {"charge": 82, "id": "bird_c4e5b489-1229-40c6-add1-ce12df1b109d", "provider": "bird", "timeStamp": "02/08/2020, 17:59:35"}, "type": "Feature"}, {"geometry": {"coordinates": [8.53986833333333, 47.3750083333333], "type": "Point"}, "properties": {"charge": 91, "id": "bird_5cb88d5a-16cf-496b-9994-23c937f8f7f8", "provider": "bird", "timeStamp": "02/08/2020, 17:59:35"}, "type": "Feature"}, {"geometry": {"coordinates": [8.53434833333333, 47.3722033333333], "type": "Point"}, "properties": {"charge": 62, "id": "bird_da22a858-fa0b-431d-972e-3a2d8eedd856", "provider": "bird", "timeStamp": "02/08/2020, 17:59:35"}, "type": "Feature"}, {"geometry": {"coordinates": [8.53679333333333, 47.3730933333333], "type": "Point"}, "properties": {"charge": 80, "id": "bird_9c4cfdcc-83f3-4960-9169-66503f6cdd9f", "provider": "bird", "timeStamp": "02/08/2020, 17:59:35"}, "type": "Feature"}, {"geometry": {"coordinates": [8.52087666666667, 47.3854716666667], "type": "Point"}, "properties": {"charge": 63, "id": "bird_04804a81-b53f-4606-bbf2-95b464ce61e3", "provider": "bird", "timeStamp": "02/08/2020, 17:59:35"}, "type": "Feature"}, {"geometry": {"coordinates": [8.52093166666667, 47.3854983333333], "type": "Point"}, "properties": {"charge": 57, "id": "bird_0eb21605-4786-4525-9094-ddb564472d92", "provider": "bird", "timeStamp": "02/08/2020, 17:59:35"}, "type": "Feature"}, {"geometry": {"coordinates": [8.517945, 47.3809783333333], "type": "Point"}, "properties": {"charge": 69, "id": "bird_447df0d4-b1dc-4bb0-8188-886a3c2f9f66", "provider": "bird", "timeStamp": "02/08/2020, 17:59:35"}, "type": "Feature"}, {"geometry": {"coordinates": [8.54115, 47.3831633333333], "type": "Point"},