{"features": [{"geometry": {"coordinates": [8.540062, 47.374392], "type": "Point"}, "properties": {"address": "Uraniastrasse 7", "electric": 0, "id": "pb_60", "manual": 19, "name": "Demo Station Werdm\u00fchleplatz", "provider": "publibike", "timeStamp": "02/25/2020, 05:38:28", "zip": 8001}, "type": "Feature"}, {"geometry": {"coordinates": [8.5452956, 47.4099615], "type": "Point"}, "properties": {"address": "Querstrasse 8", "electric": 7, "id": "pb_61", "manual": 3, "name": "Marktplatz", "provider": "publibike", "timeStamp": "02/25/2020, 05:38:28", "zip": 8050}, "type": "Feature"}, {"geometry": {"coordinates": [8.5156327, 47.3795837], "type": "Point"}, "properties": {"address": "Bullingerstrasse 5", "electric": 12, "id": "pb_80", "manual": 3, "name": "Bullingerplatz", "provider": "publibike", "timeStamp": "02/25/2020, 05:38:28", "zip": 8004}, "type": "Feature"}, {"geometry": {"coordinates": [8.5104051, 47.3899342], "type": "Point"}, "properties": {"address": "Pfingstweidstrasse 96e", "electric": 0, "id": "pb_81", "manual": 0, "name": "Herdern", "provider": "publibike", "timeStamp": "02/25/2020, 05:38:28", "zip": 8001}, "type": "Feature"}, {"geometry": {"coordinates": [8.535718, 47.359675], "type": "Point"}, "properties": {"address": "Mythenquai 50", "electric": 0, "id": "pb_82", "manual": 0, "name": "Hafen Enge", "provider": "publibike", "timeStamp": "02/25/2020, 05:38:28", "zip": 8002}, "type": "Feature"}, {"geometry": {"coordinates": [8.520370505, 47.358663827], "type": "Point"}, "properties": {"address": "Bubenbergstrasse 1", "electric": 7, "id": "pb_83", "manual": 7, "name": "Comerge", "provider": "publibike", "timeStamp": "02/25/2020, 05:38:28", "zip": 8045}, "type": "Feature"}, {"geometry": {"coordinates": [8.5412505, 47.3789825], "type": "Point"}, "properties": {"address": "Museumstrasse 2", "electric": 2, "id": "pb_84", "manual": 18, "name": "Landesmuseum", "provider": "publibike", "timeStamp": "02/25/2020, 05:38:28", "zip": 8001}, "type": "Feature"}, {"geometry": {"coordinates": [8.5235479, 47.3716661], "type": "Point"}, "properties": {"address": "Birmensdorferstrasse 80", "electric": 4, "id": "pb_85", "manual": 10, "name": "Bahnhof Wiedikon", "provider": "publibike", "timeStamp": "02/25/2020, 05:38:28", "zip": 8003}, "type": "Feature"}, {"geometry": {"coordinates": [8.506822854, 47.40781197], "type": "Point"}, "properties": {"address": "Stefano-Franscini-Platz 5", "electric": 0, "id": "pb_86", "manual": 0, "name": "ETH H\u00f6nggerberg", "provider": "publibike", "timeStamp": "02/25/2020, 05:38:28", "zip": 8093}, "type": "Feature"}, {"geometry": {"coordinates": [8.536101, 47.371083], "type": "Point"}, "properties": {"address": "Pelikanplatz 5", "electric": 2, "id": "pb_87", "manual": 2, "name": "Pelikanplatz", "provider": "publibike", "timeStamp": "02/25/2020, 05:38:28", "zip": 8001}, "type": "Feature"}, {"geometry": {"coordinates": [8.5257822, 47.3651936], "type": "Point"}, "properties": {"address": "H\u00fcrlimannplatz 90", "electric": 1, "id": "pb_88", "manual": 6, "name": "H\u00fcrlimannplatz", "provider": "publibike", "timeStamp": "02/25/2020, 05:38:28", "zip": 8002}, "type": "Feature"}, {"geometry": {"coordinates": [8.5313344, 47.3713591], "type": "Point"}, "properties": {"address": "Selnaustrasse 32", "electric": 2, "id": "pb_89", "manual": 4, "name": "Stauffacherbr\u00fccke", "provider": "publibike", "timeStamp": "02/25/2020, 05:38:28", "zip": 8001}, "type": "Feature"}, {"geometry": {"coordinates": [8.5056978, 47.3917964], "type": "Point"}, "properties": {"address": "Sportweg 25", "electric": 3, "id": "pb_90", "manual": 12, "name": "Sportweg", "provider": "publibike", "timeStamp": "02/25/2020, 05:38:28", "zip": 8005}, "type": "Feature"}, {"geometry": {"coordinates": [8.5181701, 47.3917837], "type": "Point"}, "properties": {"address": "Hardturmstrasse 11", "electric": 2, "id": "pb_91", "manual": 0, "name": "Puls 5", "provider": "publibike", "timeStamp": "02/25/2020, 05:38:28", "zip": 8005}, "type": "Feature"}, {"geometry": {"coordinates": [8.5286468, 47.3820827], "type": "Point"}, "properties": {"address": "R\u00f6ntgenstrasse 6", "electric": 0, "id": "pb_92", "manual": 1, "name": "R\u00f6ntgenstrasse", "provider": "publibike", "timeStamp": "02/25/2020, 05:38:28", "zip": 8005}, "type": "Feature"}, {"geometry": {"coordinates": [8.531935, 47.384918], "type": "Point"}, "properties": {"address": "Kornhausbr\u00fccke 1", "electric": 3, "id": "pb_93", "manual": 5, "name": "Limmatplatz", "provider": "publibike", "timeStamp": "02/25/2020, 05:38:28", "zip": 8005}, "type": "Feature"}, {"geometry": {"coordinates": [8.5354006, 47.3758639], "type": "Point"}, "properties": {"address": "Gessnerallee 15", "electric": 1, "id": "pb_94", "manual": 2, "name": "Gessnerallee", "provider": "publibike", "timeStamp": "02/25/2020, 05:38:28", "zip": 8001}, "type": "Feature"}, {"geometry": {"coordinates": [8.523818, 47.377148], "type": "Point"}, "properties": {"address": "Stauffacherstrasse 127", "electric": 10, "id": "pb_95", "manual": 6, "name": "B\u00e4ckeranlage", "provider": "publibike", "timeStamp": "02/25/2020, 05:38:28", "zip": 8004}, "type": "Feature"}, {"geometry": {"coordinates": [8.531836, 47.378548], "type": "Point"}, "properties": {"address": "Lagerstrasse 44", "electric": 1, "id": "pb_96", "manual": 4, "name": "Gustav-Gull-Platz", "provider": "publibike", "timeStamp": "02/25/2020, 05:38:28", "zip": 8004}, "type": "Feature"}, {"geometry": {"coordinates": [8.5104883, 47.3771535], "type": "Point"}, "properties": {"address": "Zurlindenstrasse 291", "electric": 4, "id": "pb_97", "manual": 14, "name": "Zurlindenstrasse", "provider": "publibike", "timeStamp": "02/25/2020, 05:38:28", "zip": 8003}, "type": "Feature"}, {"geometry": {"coordinates": [8.5333139, 47.3731102], "type": "Point"}, "properties": {"address": "Sihlstrasse 81", "electric": 6, "id": "pb_98", "manual": 1, "name": "Sihlstrasse", "provider": "publibike", "timeStamp": "02/25/2020, 05:38:28", "zip": 8001}, "type": "Feature"}, {"geometry": {"coordinates": [8.520532, 47.374951], "type": "Point"}, "properties": {"address": "Feldstrasse 24", "electric": 3, "id": "pb_99", "manual": 0, "name": "Kalkbreite", "provider": "publibike", "timeStamp": "02/25/2020, 05:38:28", "zip": 8004}, "type": "Feature"}, {"geometry": {"coordinates": [8.539046, 47.368064], "type": "Point"}, "properties": {"address": "Talstrasse 12", "electric": 0, "id": "pb_100", "manual": 6, "name": "Z\u00fcrcher Kantonalbank", "provider": "publibike", "timeStamp": "02/25/2020, 05:38:28", "zip": 8001}, "type": "Feature"}, {"geometry": {"coordinates": [8.5348427, 47.3625938], "type": "Point"}, "properties": {"address": "Breitingerstrasse 5", "electric": 1, "id": "pb_101", "manual": 0, "name": "Rentenanstalt", "provider": "publibike", "timeStamp": "02/25/2020, 05:38:28", "zip": 8002}, "type": "Feature"}, {"geometry": {"coordinates": [8.5166922, 47.3897772], "type": "Point"}, "properties": {"address": "Technoparkstrasse 4", "electric": 0, "id": "pb_102", "manual": 2, "name": "Turbinenplatz", "provider": "publibike", "timeStamp": "02/25/2020, 05:38:28", "zip": 8005}, "type": "Feature"}, {"geometry": {"coordinates": [8.539312, 47.3739964], "type": "Point"}, "properties": {"address": "Oetenbachgasse 14", "electric": 7, "id": "pb_104", "manual": 5, "name": "Rennweg", "provider": "publibike", "timeStamp": "02/25/2020, 05:38:28", "zip": 8001}, "type": "Feature"}, {"geometry": {"coordinates": [8.5360685, 47.3775022], "type": "Point"}, "properties": {"address": "Kasernenstrasse 101", "electric": 12, "id": "pb_105", "manual": 12, "name": "Sihlpost", "provider": "publibike", "timeStamp": "02/25/2020, 05:38:28", "zip": 8004}, "type": "Feature"}, {"geometry": {"coordinates": [8.53545, 47.382798], "type": "Point"}, "properties": {"address": "Ausstellungsstrasse 44", "electric": 2, "id": "pb_106", "manual": 9, "name": "Museum f\u00fcr Gestaltung", "provider": "publibike", "timeStamp": "02/25/2020, 05:38:28", "zip": 8005}, "type": "Feature"}, {"geometry": {"coordinates": [8.5306155, 47.3647902], "type": "Point"}, "properties": {"address": "Gutenbergstrasse 1", "electric": 12, "id": "pb_107", "manual": 7, "name": "Bederbr\u00fccke", "provider": "publibike", "timeStamp": "02/25/2020, 05:38:28", "zip": 8002}, "type": "Feature"}, {"geometry": {"coordinates": [8.518982, 47.386741], "type": "Point"}, "properties": {"address": "Geroldstrasse 4", "electric": 0, "id": "pb_108", "manual": 1, "name": "Bahnhof Hardbr\u00fccke", "provider": "publibike", "timeStamp": "02/25/2020, 05:38:28", "zip": 8005}, "type": "Feature"}, {"geometry": {"coordinates": [8.53001018, 47.37247535], "type": "Point"}, "properties": {"address": "Werdstrasse 21", "electric": 2, "id": "pb_109", "manual": 0, "name": "Tamedia", "provider": "publibike", "timeStamp": "02/25/2020, 05:38:28", "zip": 8004}, "type": "Feature"}, {"geometry": {"coordinates": [8.4860017, 47.396401], "type": "Point"}, "properties": {"address": "Gr\u00fcnauring 37", "electric": 7, "id": "pb_110", "manual": 5, "name": "Gr\u00fcnau", "provider": "publibike", "timeStamp": "02/25/2020, 05:38:28", "zip": 8064}, "type": "Feature"}, {"geometry": {"coordinates": [8.548519, 47.376756], "type": "Point"}, "properties": {"address": "R\u00e4mistrasse 101", "electric": 0, "id": "pb_111", "manual": 0, "name": "ETH Zentrum", "provider": "publibike", "timeStamp": "02/25/2020, 05:38:28", "zip": 8006}, "type": "Feature"}, {"geometry": {"coordinates": [8.520449, 47.388151], "type": "Point"}, "properties": {"address": "Josefstrasse 224", "electric": 0, "id": "pb_112", "manual": 0, "name": "Steinfelsareal", "provider": "publibike", "timeStamp": "02/25/2020, 05:38:28", "zip": 8005}, "type": "Feature"}, {"geometry": {"coordinates": [8.520482, 47.37209], "type": "Point"}, "properties": {"address": "Weststrasse 115", "electric": 1, "id": "pb_124", "manual": 8, "name": "Weststrasse", "provider": "publibike", "timeStamp": "02/25/2020, 05:38:28", "zip": 8003}, "type": "Feature"}, {"geometry": {"coordinates": [8.496727, 47.378521], "type": "Point"}, "properties": {"address": "Albisriederstrasse 200", "electric": 0, "id": "pb_125", "manual": 4, "name": "Utogrund", "provider": "publibike", "timeStamp": "02/25/2020, 05:38:28", "zip": 8047}, "type": "Feature"}, {"geometry": {"coordinates": [8.510418, 47.381356], "type": "Point"}, "properties": {"address": "Bullingerstrasse 73", "electric": 6, "id": "pb_126", "manual": 14, "name": "Hardau", "provider": "publibike", "timeStamp": "02/25/2020, 05:38:28", "zip": 8004}, "type": "Feature"}, {"geometry": {"coordinates": [8.525525, 47.361567], "type": "Point"}, "properties": {"address": "Klopstockstrasse 23", "electric": 6, "id": "pb_127", "manual": 1, "name": "Klopstockwiese", "provider": "publibike", "timeStamp": "02/25/2020, 05:38:28", "zip": 8002}, "type": "Feature"}, {"geometry": {"coordinates": [8.518143, 47.363148], "type": "Point"}, "properties": {"address": "Haldenstrasse 8", "electric": 8, "id": "pb_128", "manual": 2, "name": "Binz", "provider": "publibike", "timeStamp": "02/25/2020, 05:38:28", "zip": 8045}, "type": "Feature"}, {"geometry": {"coordinates": [8.542726, 47.379952], "type": "Point"}, "properties": {"address": "Walchestrasse 11", "electric": 1, "id": "pb_129", "manual": 3, "name": "Stampfenbachplatz", "provider": "publibike", "timeStamp": "02/25/2020, 05:38:28", "zip": 8006}, "type": "Feature"}, {"geometry": {"coordinates": [8.488108, 47.391366], "type": "Point"}, "properties": {"address": "Altstetterplatz 1", "electric": 3, "id": "pb_130", "manual": 5, "name": "Bahnhof Altstetten", "provider": "publibike", "timeStamp": "02/25/2020, 05:38:28", "zip": 8048}, "type": "Feature"}, {"geometry": {"coordinates": [8.554114, 47.365119], "type": "Point"}, "properties": {"address": "Kreuzplatz 2", "electric": 8, "id": "pb_131", "manual": 5, "name": "Kreuzplatz", "provider": "publibike", "timeStamp": "02/25/2020, 05:38:28", "zip": 8032}, "type": "Feature"}, {"geometry": {"coordinates": [8.549852, 47.35594], "type": "Point"}, "properties": {"address": "H\u00f6schgasse 3", "electric": 5, "id": "pb_132", "manual": 2, "name": "Blatterwiese", "provider": "publibike", "timeStamp": "02/25/2020, 05:38:28", "zip": 8008}, "type": "Feature"}, {"geometry": {"coordinates": [8.554501, 47.36162], "type": "Point"}, "properties": {"address": "Feldeggstrasse 80", "electric": 2, "id": "pb_133", "manual": 1, "name": "Villa Bleuler", "provider": "publibike", "timeStamp": "02/25/2020, 05:38:28", "zip": 8008}, "type": "Feature"}, {"geometry": {"coordinates": [8.557088, 47.358557], "type": "Point"}, "properties": {"address": "M\u00fchlebachstrasse 131", "electric": 0, "id": "pb_134", "manual": 0, "name": "M\u00fchlebachstrasse", "provider": "publibike", "timeStamp": "02/25/2020, 05:38:28", "zip": 8008}, "type": "Feature"}, {"geometry": {"coordinates": [8.547639, 47.361266], "type": "Point"}, "properties": {"address": "Utoquai 50", "electric": 7, "id": "pb_135", "manual": 6, "name": "Seebad Utoquai", "provider": "publibike", "timeStamp": "02/25/2020, 05:38:28", "zip": 8008}, "type": "Feature"}, {"geometry": {"coordinates": [8.548045, 47.370869], "type": "Point"}, "properties": {"address": "Heimplatz 1", "electric": 1, "id": "pb_137", "manual": 6, "name": "Kunsthaus", "provider": "publibike", "timeStamp": "02/25/2020, 05:38:28", "zip": 8001}, "type": "Feature"}, {"geometry": {"coordinates": [8.543447, 47.375933], "type": "Point"}, "properties": {"address": "Limmatquai 138", "electric": 0, "id": "pb_138", "manual": 9, "name": "Central", "provider": "publibike", "timeStamp": "02/25/2020, 05:38:28", "zip": 8001}, "type": "Feature"}, {"geometry": {"coordinates": [8.549356, 47.408827], "type": "Point"}, "properties": {"address": "Tramstrasse 35", "electric": 0, "id": "pb_139", "manual": 4, "name": "ewz Tramstrasse", "provider": "publibike", "timeStamp": "02/25/2020, 05:38:28", "zip": 8050}, "type": "Feature"}, {"geometry": {"coordinates": [8.533736, 47.366904], "type": "Point"}, "properties": {"address": "Bleicherweg 33", "electric": 0, "id": "pb_140", "manual": 1, "name": "Bleicherweg", "provider": "publibike", "timeStamp": "02/25/2020, 05:38:28", "zip": 8002}, "type": "Feature"}, {"geometry": {"coordinates": [8.544935, 47.366752], "type": "Point"}, "properties": {"address": "Bellevueplatz 2", "electric": 16, "id": "pb_141", "manual": 45, "name": "Bellevue", "provider": "publibike", "timeStamp": "02/25/2020, 05:38:28", "zip": 8001}, "type": "Feature"}, {"geometry": {"coordinates": [8.5285533, 47.3742296], "type": "Point"}, "properties": {"address": "Stauffacherstrasse 41", "electric": 1, "id": "pb_142", "manual": 3, "name": "Stauffacher", "provider": "publibike", "timeStamp": "02/25/2020, 05:38:28", "zip": 8004}, "type": "Feature"}, {"geometry": {"coordinates": [8.523722, 47.3899], "type": "Point"}, "properties": {"address": "Limmatstrasse 310", "electric": 0, "id": "pb_143", "manual": 0, "name": "Escher-Wyss-Platz", "provider": "publibike", "timeStamp": "02/25/2020, 05:38:28", "zip": 8005}, "type": "Feature"}, {"geometry": {"coordinates": [8.491061, 47.392336], "type": "Point"}, "properties": {"address": "Vulkanplatz 1", "electric": 4, "id": "pb_149", "manual": 9, "name": "Vulkanplatz", "provider": "publibike", "timeStamp": "02/25/2020, 05:38:28", "zip": 8048}, "type": "Feature"}, {"geometry": {"coordinates": [8.52306, 47.359872], "type": "Point"}, "properties": {"address": "Giessh\u00fcbelstrasse 15", "electric": 2, "id": "pb_150", "manual": 2, "name": "Utoplatz", "provider": "publibike", "timeStamp": "02/25/2020, 05:38:28", "zip": 8045}, "type": "Feature"}, {"geometry": {"coordinates": [8.486284, 47.387685], "type": "Point"}, "properties": {"address": "Lindenplatz 1", "electric": 8, "id": "pb_151", "manual": 9, "name": "Lindenplatz", "provider": "publibike", "timeStamp": "02/25/2020, 05:38:28", "zip": 8048}, "type": "Feature"}, {"geometry": {"coordinates": [8.49163, 47.389823], "type": "Point"}, "properties": {"address": "Hohlstrasse 563", "electric": 14, "id": "pb_152", "manual": 1, "name": "Luggweg", "provider": "publibike", "timeStamp": "02/25/2020, 05:38:28", "zip": 8048}, "type": "Feature"}, {"geometry": {"coordinates": [8.52174, 47.365272], "type": "Point"}, "properties": {"address": "Manessestrasse 87", "electric": 3, "id": "pb_153", "manual": 7, "name": "Manesseplatz", "provider": "publibike", "timeStamp": "02/25/2020, 05:38:28", "zip": 8045}, "type": "Feature"}, {"geometry": {"coordinates": [8.52714, 47.372329], "type": "Point"}, "properties": {"address": "Werdstrasse 75", "electric": 5, "id": "pb_154", "manual": 3, "name": "Werd", "provider": "publibike", "timeStamp": "02/25/2020, 05:38:28", "zip": 8004}, "type": "Feature"}, {"geometry": {"coordinates": [8.543042, 47.374711], "type": "Point"}, "properties": {"address": "Limmatquai 100", "electric": 0, "id": "pb_155", "manual": 0, "name": "Rudolf-Brun-Br\u00fccke", "provider": "publibike", "timeStamp": "02/25/2020, 05:38:28", "zip": 8001}, "type": "Feature"}, {"geometry": {"coordinates": [8.490837, 47.386596], "type": "Point"}, "properties": {"address": "Badenerstrasse 627", "electric": 4, "id": "pb_156", "manual": 5, "name": "Luggwegstrasse VBZ", "provider": "publibike", "timeStamp": "02/25/2020, 05:38:28", "zip": 8048}, "type": "Feature"}, {"geometry": {"coordinates": [8.535119, 47.355189], "type": "Point"}, "properties": {"address": "Mythenquai 95", "electric": 2, "id": "pb_157", "manual": 13, "name": "Strandbad Mythenquai", "provider": "publibike", "timeStamp": "02/25/2020, 05:38:28", "zip": 8002}, "type": "Feature"}, {"geometry": {"coordinates": [8.545505, 47.373675], "type": "Point"}, "properties": {"address": "Predigerpatz 21", "electric": 1, "id": "pb_158", "manual": 13, "name": "Predigerplatz", "provider": "publibike", "timeStamp": "02/25/2020, 05:38:28", "zip": 8001}, "type": "Feature"}, {"geometry": {"coordinates": [8.515558, 47.371868], "type": "Point"}, "properties": {"address": "Aemtlerstrasse 23", "electric": 4, "id": "pb_159", "manual": 3, "name": "Zwinglihaus", "provider": "publibike", "timeStamp": "02/25/2020, 05:38:28", "zip": 8003}, "type": "Feature"}, {"geometry": {"coordinates": [8.524629, 47.386072], "type": "Point"}, "properties": {"address": "Josefstrasse 188", "electric": 0, "id": "pb_160", "manual": 4, "name": "Josefwiese", "provider": "publibike", "timeStamp": "02/25/2020, 05:38:28", "zip": 8005}, "type": "Feature"}, {"geometry": {"coordinates": [8.527138, 47.387531], "type": "Point"}, "properties": {"address": "R\u00f6ntgenstrasse 87", "electric": 7, "id": "pb_164", "manual": 4, "name": "Markthalle", "provider": "publibike", "timeStamp": "02/25/2020, 05:38:28", "zip": 8005}, "type": "Feature"}, {"geometry": {"coordinates": [8.552717, 47.359978], "type": "Point"}, "properties": {"address": "Seefeldstrasse 96", "electric": 2, "id": "pb_263", "manual": 8, "name": "Feldeggstrasse", "provider": "publibike", "timeStamp": "02/25/2020, 05:38:28", "zip": 8008}, "type": "Feature"}, {"geometry": {"coordinates": [8.553189, 47.353198], "type": "Point"}, "properties": {"address": "Bellerivestrasse 170", "electric": 2, "id": "pb_264", "manual": 0, "name": "Lake Side", "provider": "publibike", "timeStamp": "02/25/2020, 05:38:28", "zip": 8008}, "type": "Feature"}, {"geometry": {"coordinates": [8.543437, 47.369256], "type": "Point"}, "properties": {"address": "Limmatquai 18", "electric": 0, "id": "pb_265", "manual": 0, "name": "Helmhaus", "provider": "publibike", "timeStamp": "02/25/2020, 05:38:28", "zip": 8032}, "type": "Feature"}, {"geometry": {"coordinates": [8.516676, 47.375819], "type": "Point"}, "properties": {"address": "Badenerstrasse 246", "electric": 8, "id": "pb_266", "manual": 10, "name": "Lochergut", "provider": "publibike", "timeStamp": "02/25/2020, 05:38:28", "zip": 8004}, "type": "Feature"}, {"geometry": {"coordinates": [8.514605, 47.389862], "type": "Point"}, "properties": {"address": "Pfingstweidstrasse 60", "electric": 2, "id": "pb_273", "manual": 0, "name": "Westpark", "provider": "publibike", "timeStamp": "02/25/2020, 05:38:28", "zip": 8005}, "type": "Feature"}, {"geometry": {"coordinates": [8.541239126, 47.375991201], "type": "Point"}, "properties": {"address": "Beatenplatz 1", "electric": 3, "id": "pb_274", "manual": 12, "name": "Beatenplatz", "provider": "publibike", "timeStamp": "02/25/2020, 05:38:28", "zip": 8001}, "type": "Feature"}, {"geometry": {"coordinates": [8.5417135, 47.3942197], "type": "Point"}, "properties": {"address": "Scheuchzerstrasse 181", "electric": 5, "id": "pb_275", "manual": 1, "name": "Pauluskirche", "provider": "publibike", "timeStamp": "02/25/2020, 05:38:28", "zip": 8057}, "type": "Feature"}, {"geometry": {"coordinates": [8.5528182, 47.414558], "type": "Point"}, "properties": {"address": "Hagenholzstrasse 51", "electric": 2, "id": "pb_276", "manual": 3, "name": "Airgate", "provider": "publibike", "timeStamp": "02/25/2020, 05:38:28", "zip": 8050}, "type": "Feature"}, {"geometry": {"coordinates": [8.537816, 47.413514], "type": "Point"}, "properties": {"address": "Birchstrasse 183", "electric": 0, "id": "pb_277", "manual": 2, "name": "Lamprechtweg", "provider": "publibike", "timeStamp": "02/25/2020, 05:38:28", "zip": 8050}, "type": "Feature"}, {"geometry": {"coordinates": [8.545602, 47.417701], "type": "Point"}, "properties": {"address": "Felsenrainstrasse 2", "electric": 8, "id": "pb_278", "manual": 2, "name": "Emil-Oberh\u00e4nsli", "provider": "publibike", "timeStamp": "02/25/2020, 05:38:28", "zip": 8050}, "type": "Feature"}, {"geometry": {"coordinates": [8.533647, 47.39808], "type": "Point"}, "properties": {"address": "Bucheggplatz 2", "electric": 6, "id": "pb_279", "manual": 0, "name": "Bucheggplatz", "provider": "publibike", "timeStamp": "02/25/2020, 05:38:28", "zip": 8057}, "type": "Feature"}, {"geometry": {"coordinates": [8.523549, 47.392347], "type": "Point"}, "properties": {"address": "Wipkingerplatz 4", "electric": 3, "id": "pb_280", "manual": 5, "name": "Wipkingerplatz", "provider": "publibike", "timeStamp": "02/25/2020, 05:38:28", "zip": 8037}, "type": "Feature"}, {"geometry": {"coordinates": [8.548562, 47.36691], "type": "Point"}, "properties": {"address": "Galerie \u00fcber Gleis 2/3", "electric": 23, "id": "pb_285", "manual": 15, "name": "Bahnhof Stadelhofen", "provider": "publibike", "timeStamp": "02/25/2020, 05:38:28", "zip": 8001}, "type": "Feature"}, {"geometry": {"coordinates": [8.493822, 47.3985553], "type": "Point"}, "properties": {"address": "Meierwiesenstrasse 12-4", "electric": 2, "id": "pb_286", "manual": 5, "name": "T\u00fcffenwies", "provider": "publibike", "timeStamp": "02/25/2020, 05:38:28", "zip": 8064}, "type": "Feature"}, {"geometry": {"coordinates": [8.552432, 47.3801757], "type": "Point"}, "properties": {"address": "Hochstrasse 34", "electric": 4, "id": "pb_356", "manual": 0, "name": "Siriuswiese", "provider": "publibike", "timeStamp": "02/25/2020, 05:38:28", "zip": 8044}, "type": "Feature"}, {"geometry": {"coordinates": [8.527298, 47.370141], "type": "Point"}, "properties": {"address": "Hallwylstrasse 71", "electric": 1, "id": "pb_357", "manual": 6, "name": "Hallwylstrasse", "provider": "publibike", "timeStamp": "02/25/2020, 05:38:28", "zip": 8004}, "type": "Feature"}, {"geometry": {"coordinates": [8.5414185, 47.3972455], "type": "Point"}, "properties": {"address": "Schaffhauserstrasse 137", "electric": 4, "id": "pb_358", "manual": 1, "name": "Milchbuck", "provider": "publibike", "timeStamp": "02/25/2020, 05:38:28", "zip": 8057}, "type": "Feature"}, {"geometry": {"coordinates": [8.512381, 47.393409], "type": "Point"}, "properties": {"address": "Hardturmstrasse 161", "electric": 0, "id": "pb_359", "manual": 1, "name": "Fischerweg", "provider": "publibike", "timeStamp": "02/25/2020, 05:38:28", "zip": 8005}, "type": "Feature"}, {"geometry": {"coordinates": [8.5421457, 47.3876979], "type": "Point"}, "properties": {"address": "Turnerstrasse 47", "electric": 3, "id": "pb_360", "manual": 0, "name": "Kirche Unterstrass", "provider": "publibike", "timeStamp": "02/25/2020, 05:38:28", "zip": 8006}, "type": "Feature"}, {"geometry": {"coordinates": [8.522117, 47.394554], "type": "Point"}, "properties": {"address": "Dorfstrasse 40", "electric": 8, "id": "pb_361", "manual": 1, "name": "Dorfstrasse", "provider": "publibike", "timeStamp": "02/25/2020, 05:38:28", "zip": 8037}, "type": "Feature"}, {"geometry": {"coordinates": [8.530437, 47.37271], "type": "Point"}, "properties": {"address": "Werdstrasse 25", "electric": 0, "id": "pb_362", "manual": 0, "name": "Stauffachertor", "provider": "publibike", "timeStamp": "02/25/2020, 05:38:28", "zip": 8004}, "type": "Feature"}, {"geometry": {"coordinates": [8.541712, 47.416155], "type": "Point"}, "properties": {"address": "Eggb\u00fchlstrasse 21", "electric": 5, "id": "pb_363", "manual": 2, "name": "Wahlenpark", "provider": "publibike", "timeStamp": "02/25/2020, 05:38:28", "zip": 8050}, "type": "Feature"}, {"geometry": {"coordinates": [8.5595335, 47.3708387], "type": "Point"}, "properties": {"address": "Dolderstrasse 32", "electric": 3, "id": "pb_364", "manual": 0, "name": "Kinderspital", "provider": "publibike", "timeStamp": "02/25/2020, 05:38:28", "zip": 8032}, "type": "Feature"}, {"geometry": {"coordinates": [8.536433, 47.388689], "type": "Point"}, "properties": {"address": "Kornhausstrasse 30", "electric": 4, "id": "pb_365", "manual": 6, "name": "Kornhausstrasse", "provider": "publibike", "timeStamp": "02/25/2020, 05:38:28", "zip": 8006}, "type": "Feature"}, {"geometry": {"coordinates": [8.55033, 47.407098], "type": "Point"}, "properties": {"address": "Schwamendingenstrasse 41", "electric": 10, "id": "pb_366", "manual": 2, "name": "Dorflinde", "provider": "publibike", "timeStamp": "02/25/2020, 05:38:28", "zip": 8050}, "type": "Feature"}, {"geometry": {"coordinates": [8.560476, 47.368199], "type": "Point"}, "properties": {"address": "R\u00f6merhofplatz 5", "electric": 13, "id": "pb_367", "manual": 0, "name": "R\u00f6merhof", "provider": "publibike", "timeStamp": "02/25/2020, 05:38:28", "zip": 8032}, "type": "Feature"}, {"geometry": {"coordinates": [8.5609218, 47.3619068], "type": "Point"}, "properties": {"address": "Forchstrasse 99", "electric": 16, "id": "pb_368", "manual": 4, "name": "Hegibachplatz", "provider": "publibike", "timeStamp": "02/25/2020, 05:38:28", "zip": 8032}, "type": "Feature"}, {"geometry": {"coordinates": [8.5721264, 47.4039985], "type": "Point"}, "properties": {"address": "Winterthurerstrasse 519", "electric": 11, "id": "pb_370", "manual": 0, "name": "Schwamendingerplatz", "provider": "publibike", "timeStamp": "02/25/2020, 05:38:28", "zip": 8051}, "type": "Feature"}, {"geometry": {"coordinates": [8.520168, 47.378556], "type": "Point"}, "properties": {"address": "Herman-Greulich-Strasse 56", "electric": 4, "id": "pb_384", "manual": 3, "name": "Hermann-Greulich-Weg", "provider": "publibike", "timeStamp": "02/25/2020, 05:38:28", "zip": 8004}, "type": "Feature"}, {"geometry": {"coordinates": [8.547912, 47.384923], "type": "Point"}, "properties": {"address": "Culmannstrasse", "electric": 1, "id": "pb_386", "manual": 0, "name": "Rigiplatz", "provider": "publibike", "timeStamp": "02/25/2020, 05:38:28", "zip": 8006}, "type": "Feature"}, {"geometry": {"coordinates": [8.543768, 47.411057], "type": "Point"}, "properties": {"address": "Hofwiesenstrasse 369", "electric": 0, "id": "pb_387", "manual": 3, "name": "Bahnhof Oerlikon S\u00fcd", "provider": "publibike", "timeStamp": "02/25/2020, 05:38:28", "zip": 8050}, "type": "Feature"}, {"geometry": {"coordinates": [8.544185, 47.412732], "type": "Point"}, "properties": {"address": "Jungholzstrasse 6", "electric": 1, "id": "pb_388", "manual": 3, "name": "Max-Frisch-Platz", "provider": "publibike", "timeStamp": "02/25/2020, 05:38:28", "zip": 8050}, "type": "Feature"}, {"geometry": {"coordinates": [8.558096, 47.413032], "type": "Point"}, "properties": {"address": "Andreasstrasse", "electric": 8, "id": "pb_389", "manual": 6, "name": "Hunziker-Areal", "provider": "publibike", "timeStamp": "02/25/2020, 05:38:28", "zip": 8050}, "type": "Feature"}, {"geometry": {"coordinates": [8.533265, 47.412873], "type": "Point"}, "properties": {"address": "Regina-K\u00e4gi-Strasse 1", "electric": 0, "id": "pb_390", "manual": 5, "name": "Luis-H\u00e4fliger-Park", "provider": "publibike", "timeStamp": "02/25/2020, 05:38:28", "zip": 8050}, "type": "Feature"}, {"geometry": {"coordinates": [8.499265, 47.401852], "type": "Point"}, "properties": {"address": "Limmattalstrasse 177", "electric": 0, "id": "pb_391", "manual": 0, "name": "Meierhofplatz", "provider": "publibike", "timeStamp": "02/25/2020, 05:38:28", "zip": 8049}, "type": "Feature"}, {"geometry": {"coordinates": [8.528356, 47.393255], "type": "Point"}, "properties": {"address": "R\u00f6schibachstrasse 73", "electric": 7, "id": "pb_392", "manual": 11, "name": "R\u00f6schibachplatz", "provider": "publibike", "timeStamp": "02/25/2020, 05:38:28", "zip": 8037}, "type": "Feature"}, {"geometry": {"coordinates": [8.538067, 47.415721], "type": "Point"}, "properties": {"address": "Birchstrasse 191", "electric": 11, "id": "pb_393", "manual": 3, "name": "Oerliker Park", "provider": "publibike", "timeStamp": "02/25/2020, 05:38:28", "zip": 8050}, "type": "Feature"}, {"geometry": {"coordinates": [8.5420304, 47.3669233], "type": "Point"}, "properties": {"address": "Stadthausquai 1", "electric": 0, "id": "pb_395", "manual": 5, "name": "B\u00fcrkliplatz", "provider": "publibike", "timeStamp": "02/25/2020, 05:38:28", "zip": 8001}, "type": "Feature"}, {"geometry": {"coordinates": [8.535767, 47.409881], "type": "Point"}, "properties": {"address": "Regensbergstrasse 195", "electric": 8, "id": "pb_396", "manual": 2, "name": "Holunderhof", "provider": "publibike", "timeStamp": "02/25/2020, 05:38:28", "zip": 8050}, "type": "Feature"}, {"geometry": {"coordinates": [8.5116245, 47.3616199], "type": "Point"}, "properties": {"address": "Grubenstrasse 42", "electric": 0, "id": "pb_431", "manual": 0, "name": "Binz Center", "provider": "publibike", "timeStamp": "02/25/2020, 05:38:28", "zip": 8045}, "type": "Feature"}, {"geometry": {"coordinates": [8.547195, 47.382089], "type": "Point"}, "properties": {"address": "Nelkenstrasse 24", "electric": 0, "id": "pb_430", "manual": 0, "name": "Stapferstube", "provider": "publibike", "timeStamp": "02/25/2020, 05:38:28", "zip": 8006}, "type": "Feature"}, {"geometry": {"coordinates": [8.5787183, 47.4039845], "type": "Point"}, "properties": {"address": "Kronwiesenstrasse 35", "electric": 3, "id": "pb_426", "manual": 4, "name": "Kronwiesen", "provider": "publibike", "timeStamp": "02/25/2020, 05:38:28", "zip": 8051}, "type": "Feature"}, {"geometry": {"coordinates": [8.508131, 47.420757], "type": "Point"}, "properties": {"address": "Riedenhaldenstrasse 20-18", "electric": 13, "id": "pb_425", "manual": 3, "name": "Bahnhof Affoltern", "provider": "publibike", "timeStamp": "02/25/2020, 05:38:28", "zip": 8046}, "type": "Feature"}, {"geometry": {"coordinates": [8.532464, 47.406988], "type": "Point"}, "properties": {"address": "K\u00fcnzlistrasse 41", "electric": 4, "id": "pb_424", "manual": 0, "name": "Birchd\u00f6rfli", "provider": "publibike", "timeStamp": "02/25/2020, 05:38:28", "zip": 8057}, "type": "Feature"}, {"geometry": {"coordinates": [8.5777038, 47.4080095], "type": "Point"}, "properties": {"address": "Luegislandstrasse 412", "electric": 5, "id": "pb_429", "manual": 0, "name": "Luegisland", "provider": "publibike", "timeStamp": "02/25/2020, 05:38:28", "zip": 8051}, "type": "Feature"}, {"geometry": {"coordinates": [8.58841, 47.40158], "type": "Point"}, "properties": {"address": "Hirzenbachstrasse 2-4", "electric": 9, "id": "pb_428", "manual": 0, "name": "Hirzenbachstrasse", "provider": "publibike", "timeStamp": "02/25/2020, 05:38:28", "zip": 8051}, "type": "Feature"}, {"geometry": {"coordinates": [8.5563463, 47.4095467], "type": "Point"}, "properties": {"address": "K\u00fchriedweg", "electric": 5, "id": "pb_445", "manual": 7, "name": "Hallenbad Oerlikon", "provider": "publibike", "timeStamp": "02/25/2020, 05:38:28", "zip": 8050}, "type": "Feature"}, {"geometry": {"coordinates": [8.537971, 47.364871], "type": "Point"}, "properties": {"address": "General-Guisan-Quai 17", "electric": 2, "id": "pb_454", "manual": 10, "name": "General-Guisan-Quai", "provider": "publibike", "timeStamp": "02/25/2020, 05:38:28", "zip": 8002}, "type": "Feature"}, {"geometry": {"coordinates": [8.560587, 47.350578], "type": "Point"}, "properties": {"address": "Bellerivestrasse 245", "electric": 7, "id": "pb_450", "manual": 3, "name": "Bahnhof Tiefenbrunnen", "provider": "publibike", "timeStamp": "02/25/2020, 05:38:28", "zip": 8008}, "type": "Feature"}, {"geometry": {"coordinates": [8.5269416, 47.3563719], "type": "Point"}, "properties": {"address": "Waffenplatzstrasse 89", "electric": 6, "id": "pb_452", "manual": 1, "name": "Rieterplatz", "provider": "publibike", "timeStamp": "02/25/2020, 05:38:28", "zip": 8002}, "type": "Feature"}, {"geometry": {"coordinates": [8.514176, 47.3663708], "type": "Point"}, "properties": {"address": "Talwiesenstrasse 92", "electric": 7, "id": "pb_446", "manual": 4, "name": "Binzallee", "provider": "publibike", "timeStamp": "02/25/2020, 05:38:28", "zip": 8055}, "type": "Feature"}, {"geometry": {"coordinates": [8.5070564, 47.371455], "type": "Point"}, "properties": {"address": "Gutstrasse 87", "electric": 9, "id": "pb_447", "manual": 4, "name": "Gutstrasse", "provider": "publibike", "timeStamp": "02/25/2020, 05:38:28", "zip": 8055}, "type": "Feature"}, {"geometry": {"coordinates": [8.4941268, 47.3836391], "type": "Point"}, "properties": {"address": "Flurstrasse 62", "electric": 3, "id": "pb_453", "manual": 5, "name": "Flurpark", "provider": "publibike", "timeStamp": "02/25/2020, 05:38:28", "zip": 8048}, "type": "Feature"}, {"geometry": {"coordinates": [8.500343, 47.380778], "type": "Point"}, "properties": {"address": "Edelweissstrasse 32", "electric": 4, "id": "pb_448", "manual": 7, "name": "Bl\u00fcemliquartier", "provider": "publibike", "timeStamp": "02/25/2020, 05:38:28", "zip": 8048}, "type": "Feature"}, {"geometry": {"coordinates": [8.528796, 47.383858], "type": "Point"}, "properties": {"address": "Gasometerstrasse 24", "electric": 6, "id": "pb_449", "manual": 5, "name": "Gasometerstrasse", "provider": "publibike", "timeStamp": "02/25/2020, 05:38:28", "zip": 8005}, "type": "Feature"}, {"geometry": {"coordinates": [8.4981964, 47.3859194], "type": "Point"}, "properties": {"address": "Baslerstrasse 57", "electric": 8, "id": "pb_455", "manual": 9, "name": "Letzipark", "provider": "publibike", "timeStamp": "02/25/2020, 05:38:28", "zip": 8048}, "type": "Feature"}, {"geometry": {"coordinates": [8.515252, 47.381915], "type": "Point"}, "properties": {"address": "Sihlfeldstrasse 175", "electric": 0, "id": "pb_451", "manual": 8, "name": "Hardplatz", "provider": "publibike", "timeStamp": "02/25/2020, 05:38:28", "zip": 8004}, "type": "Feature"}, {"geometry": {"coordinates": [8.5064743, 47.4188324], "type": "Point"}, "properties": {"address": "Wehntalerstrasse 541", "electric": 11, "id": "pb_427", "manual": 0, "name": "Zehntenhausplatz", "provider": "publibike", "timeStamp": "02/25/2020, 05:38:28", "zip": 8046}, "type": "Feature"}, {"geometry": {"coordinates": [8.537729, 47.379719], "type": "Point"}, "properties": {"address": "Sihlquai/HB", "electric": 0, "id": "pb_513", "manual": 6, "name": "Sihlquai", "provider": "publibike", "timeStamp": "02/25/2020, 05:38:28", "zip": 8005}, "type": "Feature"}, {"geometry": {"coordinates": [8.596202, 47.397885], "type": "Point"}, "properties": {"address": "Bahnhof Stettbach", "electric": 0, "id": "pb_514", "manual": 0, "name": "Bahnhof Stettbach", "provider": "publibike", "timeStamp": "02/25/2020, 05:38:28", "zip": 8051}, "type": "Feature"}, {"geometry": {"coordinates": [8.5543974, 47.3690153], "type": "Point"}, "properties": {"address": "Kasinostrasse 10", "electric": 6, "id": "pb_515", "manual": 0, "name": "Hottingerplatz", "provider": "publibike", "timeStamp": "02/25/2020, 05:38:28", "zip": 8032}, "type": "Feature"}, {"geometry": {"coordinates": [8.534444, 47.351525], "type": "Point"}, "properties": {"address": "Mobile Station Z\u00fcrich 1", "electric": 0, "id": "pb_282", "manual": 0, "name": "Theaterspektakel", "provider": "publibike", "timeStamp": "02/25/2020, 05:38:28", "zip": 8002}, "type": "Feature"}, {"geometry": {"coordinates": [8.516257, 47.367656], "type": "Point"}, "properties": {"address": "Goldbrunnenstrasse 54", "electric": 2, "id": "pb_538", "manual": 3, "name": "Kirche B\u00fchl", "provider": "publibike", "timeStamp": "02/25/2020, 05:38:28", "zip": 8055}, "type": "Feature"}, {"geometry": {"coordinates": [8.555639, 47.416873], "type": "Point"}, "properties": {"address": "Leutschenbachstrasse 50", "electric": 0, "id": "pb_537", "manual": 6, "name": "Leutschenpark", "provider": "publibike", "timeStamp": "02/25/2020, 05:38:28", "zip": 8050}, "type": "Feature"}, {"geometry": {"coordinates": [8.546464, 47.403822], "type": "Point"}, "properties": {"address": "Berninastrasse 45", "electric": 12, "id": "pb_540", "manual": 2, "name": "Berninaplatz", "provider": "publibike", "timeStamp": "02/25/2020, 05:38:28", "zip": 8057}, "type": "Feature"}, {"geometry": {"coordinates": [8.523134, 47.369004], "type": "Point"}, "properties": {"address": "Erlachstrasse 3", "electric": 2, "id": "pb_385", "manual": 8, "name": "Aegerten", "provider": "publibike", "timeStamp": "02/25/2020, 05:38:28", "zip": 8003}, "type": "Feature"}, {"geometry": {"coordinates": [8.49038, 47.381591], "type": "Point"}, "properties": {"address": "Rautistrasse 60", "electric": 15, "id": "pb_536", "manual": 4, "name": "Freilager", "provider": "publibike", "timeStamp": "02/25/2020, 05:38:28", "zip": 8048}, "type": "Feature"}, {"geometry": {"coordinates": [8.496511, 47.375247], "type": "Point"}, "properties": {"address": "Letzigraben 139", "electric": 5, "id": "pb_444", "manual": 8, "name": "Sackzelg", "provider": "publibike", "timeStamp": "02/25/2020, 05:38:28", "zip": 8047}, "type": "Feature"}, {"geometry": {"coordinates": [8.58131, 47.402801], "type": "Point"}, "properties": {"address": "Altwiesenstrasse 104", "electric": 12, "id": "pb_539", "manual": 1, "name": "Glattwiesen", "provider": "publibike", "timeStamp": "02/25/2020, 05:38:28", "zip": 8051}, "type": "Feature"}, {"geometry": {"coordinates": [8.52689, 47.3767], "type": "Point"}, "properties": {"address": "Molkenstrasse 5", "electric": 3, "id": "pb_560", "manual": 9, "name": "Helvetiaplatz", "provider": "publibike", "timeStamp": "02/25/2020, 05:38:28", "zip": 8004}, "type": "Feature"}, {"geometry": {"coordinates": [8.525602, 47.374241], "type": "Point"}, "properties": {"address": "Badenerstrasse 90", "electric": 1, "id": "pb_559", "manual": 0, "name": "Bezirksgeb\u00e4ude", "provider": "publibike", "timeStamp": "02/25/2020, 05:38:28", "zip": 8004}, "type": "Feature"}, {"geometry": {"coordinates": [8.535082, 47.345248], "type": "Point"}, "properties": {"address": "Bachstrasse 15", "electric": 6, "id": "pb_564", "manual": 3, "name": "GZ Wollishofen", "provider": "publibike", "timeStamp": "02/25/2020, 05:38:28", "zip": 8038}, "type": "Feature"}, {"geometry": {"coordinates": [8.514841, 47.370238], "type": "Point"}, "properties": {"address": "Schrennengasse 37", "electric": 8, "id": "pb_562", "manual": 3, "name": "Goldbrunnenplatz", "provider": "publibike", "timeStamp": "02/25/2020, 05:38:28", "zip": 8003}, "type": "Feature"}, {"geometry": {"coordinates": [8.514138, 47.374206], "type": "Point"}, "properties": {"address": "Idaplatz 4", "electric": 3, "id": "pb_557", "manual": 6, "name": "Idaplatz", "provider": "publibike", "timeStamp": "02/25/2020, 05:38:28", "zip": 8003}, "type": "Feature"}, {"geometry": {"coordinates": [8.518432, 47.369549], "type": "Point"}, "properties": {"address": "Brinerstrasse 2", "electric": 5, "id": "pb_558", "manual": 5, "name": "Schmiede Wiedikon", "provider": "publibike", "timeStamp": "02/25/2020, 05:38:28", "zip": 8003}, "type": "Feature"}, {"geometry": {"coordinates": [8.537546, 47.391289], "type": "Point"}, "properties": {"address": "Rotbuchstrasse 15", "electric": 2, "id": "pb_556", "manual": 4, "name": "Schaffhauserplatz", "provider": "publibike", "timeStamp": "02/25/2020, 05:38:28", "zip": 8006}, "type": "Feature"}, {"geometry": {"coordinates": [8.541541, 47.413733], "type": "Point"}, "properties": {"address": "Therese-Giehse-Strasse 11", "electric": 2, "id": "pb_561", "manual": 0, "name": "Center Eleven", "provider": "publibike", "timeStamp": "02/25/2020, 05:38:28", "zip": 8050}, "type": "Feature"}, {"geometry": {"coordinates": [8.534227, 47.360004], "type": "Point"}, "properties": {"address": "Alfred Escher-Strasse 76", "electric": 0, "id": "pb_563", "manual": 0, "name": "Mythenschloss", "provider": "publibike", "timeStamp": "02/25/2020, 05:38:28", "zip": 8002}, "type": "Feature"}, {"geometry": {"coordinates": [8.50373, 47.396172], "type": "Point"}, "properties": {"address": "Hardeggstrasse 6", "electric": 2, "id": "pb_566", "manual": 3, "name": "Am Wasser", "provider": "publibike", "timeStamp": "02/25/2020, 05:38:28", "zip": 8049}, "type": "Feature"}, {"geometry": {"coordinates": [8.532432, 47.381174], "type": "Point"}, "properties": {"address": "Klingenstrasse 9", "electric": 2, "id": "pb_565", "manual": 4, "name": "Zollstrasse", "provider": "publibike", "timeStamp": "02/25/2020, 05:38:28", "zip": 8005}, "type": "Feature"}, {"geometry": {"coordinates": [8.497982, 47.381447], "type": "Point"}, "properties": {"address": "Dennlerstrasse 23", "electric": 1, "id": "pb_567", "manual": 1, "name": "Dennlerstrasse", "provider": "publibike", "timeStamp": "02/25/2020, 05:38:28", "zip": 8047}, "type": "Feature"}, {"geometry": {"coordinates": [8.528049, 47.347701], "type": "Point"}, "properties": {"address": "Mutschellenstrasse 114", "electric": 8, "id": "pb_568", "manual": 11, "name": "Jugendherberge", "provider": "publibike", "timeStamp": "02/25/2020, 05:38:28", "zip": 8038}, "type": "Feature"}, {"geometry": {"coordinates": [8.539016, 47.405751], "type": "Point"}, "properties": {"address": "Ringstrasse 82", "electric": 3, "id": "pb_569", "manual": 1, "name": "Freibad Allenmoos", "provider": "publibike", "timeStamp": "02/25/2020, 05:38:28", "zip": 8057}, "type": "Feature"}, {"geometry": {"coordinates": [8.534974, 47.402164], "type": "Point"}, "properties": {"address": "Brache Guggach", "electric": 9, "id": "pb_572", "manual": 4, "name": "Radiostudio", "provider": "publibike", "timeStamp": "02/25/2020, 05:38:28", "zip": 8057}, "type": "Feature"}, {"geometry": {"coordinates": [8.547901, 47.375556], "type": "Point"}, "properties": {"address": "Karl-Schmid-Strasse 4", "electric": 0, "id": "pb_571", "manual": 0, "name": "ETH/Zoologisches Museum", "provider": "publibike", "timeStamp": "02/25/2020, 05:38:28", "zip": 8006}, "type": "Feature"}, {"geometry": {"coordinates": [8.531396, 47.38513], "type": "Point"}, "properties": {"charge": 100, "id": "smide_2880", "name": "ZH267289", "provider": "smide", "range": 50.0, "size": 17, "time": "02/25/2020, 05:38:03"}, "type": "Feature"}, {"geometry": {"coordinates": [8.513991, 47.386678], "type": "Point"}, "properties": {"charge": 18, "id": "smide_2871", "name": "ZH 267086", "provider": "smide", "range": 9.0, "size": 20, "time": "02/25/2020, 05:38:03"}, "type": "Feature"}, {"geometry": {"coordinates": [8.574926, 47.37288], "type": "Point"}, "properties": {"charge": 47, "id": "smide_2867", "name": "ZH 267090", "provider": "smide", "range": 23.0, "size": 20, "time": "02/25/2020, 05:38:03"}, "type": "Feature"}, {"geometry": {"coordinates": [8.55506, 47.383848], "type": "Point"}, "properties": {"charge": 47, "id": "smide_2861", "name": "ZH 267096", "provider": "smide", "range": 23.0, "size": 17, "time": "02/25/2020, 05:38:03"}, "type": "Feature"}, {"geometry": {"coordinates": [8.510856, 47.371938], "type": "Point"}, "properties": {"charge": 56, "id": "smide_2856", "name": "ZH 267101", "provider": "smide", "range": 28.0, "size": 17, "time": "02/25/2020, 05:38:03"}, "type": "Feature"}, {"geometry": {"coordinates": [8.55156, 47.414771], "type": "Point"}, "properties": {"charge": 61, "id": "smide_2854", "name": "ZH 267103", "provider": "smide", "range": 30.0, "size": 17, "time": "02/25/2020, 05:38:03"}, "type": "Feature"}, {"geometry": {"coordinates": [8.52755, 47.354145], "type": "Point"}, "properties": {"charge": 88, "id": "smide_2831", "name": "ZH 267180", "provider": "smide", "range": 44.0, "size": 20, "time": "02/25/2020, 05:38:03"}, "type": "Feature"}, {"geometry": {"coordinates": [8.574296, 47.348471], "type": "Point"}, "properties": {"charge": 27, "id": "smide_2795", "name": "ZH 266885", "provider": "smide", "range": 13.0, "size": 17, "time": "02/25/2020, 05:38:03"}, "type": "Feature"}, {"geometry": {"coordinates": [8.503408, 47.361708], "type": "Point"}, "properties": {"charge": 100, "id": "smide_2793", "name": "ZH266883", "provider": "smide", "range": 50.0, "size": 17, "time": "02/25/2020, 05:38:03"}, "type": "Feature"}, {"geometry": {"coordinates": [8.53802, 47.415868], "type": "Point"}, "properties": {"charge": 100, "id": "smide_2785", "name": "ZH266875", "provider": "smide", "range": 50.0, "size": 17, "time": "02/25/2020, 05:38:03"}, "type": "Feature"}, {"geometry": {"coordinates": [8.562406, 47.382606], "type": "Point"}, "properties": {"charge": 99, "id": "smide_2780", "name": "ST1 X #1", "provider": "smide", "range": 49.0, "size": 17, "time": "02/25/2020, 05:38:03"}, "type": "Feature"}, {"geometry": {"coordinates": [8.549776, 47.398248], "type": "Point"}, "properties": {"charge": 95, "id": "smide_2773", "name": "ZH266561", "provider": "smide", "range": 47.0, "size": 17, "time": "02/25/2020, 05:38:03"}, "type": "Feature"}, {"geometry": {"coordinates": [8.483702, 47.397376], "type": "Point"}, "properties": {"charge": 76, "id": "smide_2763", "name": "ZH266641", "provider": "smide", "range": 38.0, "size": 17, "time": "02/25/2020, 05:38:03"}, "type": "Feature"}, {"geometry": {"coordinates": [8.487508, 47.39371], "type": "Point"}, "properties": {"charge": 14, "id": "smide_2761", "name": "ZH266642", "provider": "smide", "range": 7.0, "size": 20, "time": "02/25/2020, 05:38:03"}, "type": "Feature"}, {"geometry": {"coordinates": [8.538165, 47.390848], "type": "Point"}, "properties": {"charge": 47, "id": "smide_2759", "name": "ZH266639", "provider": "smide", "range": 23.0, "size": 17, "time": "02/25/2020, 05:38:03"}, "type": "Feature"}, {"geometry": {"coordinates": [8.500919, 47.3733], "type": "Point"}, "properties": {"charge": 57, "id": "smide_2758", "name": "ZH266638 M", "provider": "smide", "range": 28.0, "size": 17, "time": "02/25/2020, 05:38:03"}, "type": "Feature"}, {"geometry": {"coordinates": [8.488165, 47.3851], "type": "Point"}, "properties": {"charge": 44, "id": "smide_2751", "name": "BE343857", "provider": "smide", "range": 22.0, "size": 17, "time": "02/25/2020, 05:38:03"}, "type": "Feature"}, {"geometry": {"coordinates": [8.5441, 47.39194], "type": "Point"}, "properties": {"charge": 92, "id": "smide_2743", "name": "BE343864", "provider": "smide", "range": 46.0, "size": 17, "time": "02/25/2020, 05:38:03"}, "type": "Feature"}, {"geometry": {"coordinates": [8.534851, 47.39298], "type": "Point"}, "properties": {"charge": 99, "id": "smide_2742", "name": "BE343866", "provider": "smide", "range": 49.0, "size": 17, "time": "02/25/2020, 05:38:03"}, "type": "Feature"}, {"geometry": {"coordinates": [8.553279, 47.401984], "type": "Point"}, "properties": {"charge": 53, "id": "smide_2737", "name": "BE336149", "provider": "smide", "range": 26.0, "size": 17, "time": "02/25/2020, 05:38:03"}, "type": "Feature"}, {"geometry": {"coordinates": [8.574896, 47.373164], "type": "Point"}, "properties": {"charge": 89, "id": "smide_2734", "name": "BE343876", "provider": "smide", "range": 44.0, "size": 17, "time": "02/25/2020, 05:38:03"}, "type": "Feature"}, {"geometry": {"coordinates": [8.49612, 47.399672], "type": "Point"}, "properties": {"charge": 56, "id": "smide_2732", "name": "BE343870", "provider": "smide", "range": 28.0, "size": 17, "time": "02/25/2020, 05:38:03"}, "type": "Feature"}, {"geometry": {"coordinates": [8.564558, 47.346552], "type": "Point"}, "properties": {"charge": 95, "id": "smide_2729", "name": "BE343878", "provider": "smide", "range": 47.0, "size": 17, "time": "02/25/2020, 05:38:03"}, "type": "Feature"}, {"geometry": {"coordinates": [8.523948, 47.35908], "type": "Point"}, "properties": {"charge": 43, "id": "smide_2725", "name": "ZH261545", "provider": "smide", "range": 21.0, "size": 0, "time": "02/25/2020, 05:38:03"}, "type": "Feature"}, {"geometry": {"coordinates": [8.542868, 47.371813], "type": "Point"}, "properties": {"charge": 13, "id": "smide_2718", "name": "ZH259019", "provider": "smide", "range": 6.0, "size": 20, "time": "02/25/2020, 05:38:03"}, "type": "Feature"}, {"geometry": {"coordinates": [8.560268, 47.382031], "type": "Point"}, "properties": {"charge": 62, "id": "smide_2716", "name": "ZH254606", "provider": "smide", "range": 31.0, "size": 17, "time": "02/25/2020, 05:38:03"}, "type": "Feature"}, {"geometry": {"coordinates": [8.565753, 47.36828], "type": "Point"}, "properties": {"charge": 94, "id": "smide_2715", "name": "ZH254605", "provider": "smide", "range": 47.0, "size": 17, "time": "02/25/2020, 05:38:03"}, "type": "Feature"}, {"geometry": {"coordinates": [8.542369, 47.40082], "type": "Point"}, "properties": {"charge": 57, "id": "smide_2714", "name": "ZH256461", "provider": "smide", "range": 28.0, "size": 17, "time": "02/25/2020, 05:38:03"}, "type": "Feature"}, {"geometry": {"coordinates": [8.504088, 47.423508], "type": "Point"}, "properties": {"charge": 66, "id": "smide_2710", "name": "ZH256460", "provider": "smide", "range": 33.0, "size": 17, "time": "02/25/2020, 05:38:03"}, "type": "Feature"}, {"geometry": {"coordinates": [8.508874, 47.354188], "type": "Point"}, "properties": {"charge": 53, "id": "smide_2712", "name": "ZH256462", "provider": "smide", "range": 26.0, "size": 17, "time": "02/25/2020, 05:38:03"}, "type": "Feature"}, {"geometry": {"coordinates": [8.535076, 47.393073], "type": "Point"}, "properties": {"charge": 84, "id": "smide_2709", "name": "ZH256466", "provider": "smide", "range": 42.0, "size": 20, "time": "02/25/2020, 05:38:03"}, "type": "Feature"}, {"geometry": {"coordinates": [8.546015, 47.386936], "type": "Point"}, "properties": {"charge": 32, "id": "smide_2708", "name": "ZH256464", "provider": "smide", "range": 16.0, "size": 17, "time": "02/25/2020, 05:38:03"}, "type": "Feature"}, {"geometry": {"coordinates": [8.498729, 47.42558], "type": "Point"}, "properties": {"charge": 17, "id": "smide_2706", "name": "ZH256322", "provider": "smide", "range": 8.0, "size": 20, "time": "02/25/2020, 05:38:03"}, "type": "Feature"}, {"geometry": {"coordinates": [8.510834, 47.366668], "type": "Point"}, "properties": {"charge": 41, "id": "smide_2701", "name": "ZH256468", "provider": "smide", "range": 20.0, "size": 20, "time": "02/25/2020, 05:38:03"}, "type": "Feature"}, {"geometry": {"coordinates": [8.483112, 47.384676], "type": "Point"}, "properties": {"charge": 61, "id": "smide_2700", "name": "ZH256470", "provider": "smide", "range": 30.0, "size": 20, "time": "02/25/2020, 05:38:03"}, "type": "Feature"}, {"geometry": {"coordinates": [8.487267, 47.384324], "type": "Point"}, "properties": {"charge": 76, "id": "smide_2697", "name": "ZH254629", "provider": "smide", "range": 38.0, "size": 20, "time": "02/25/2020, 05:38:03"}, "type": "Feature"}, {"geometry": {"coordinates": [8.542085, 47.424576], "type": "Point"}, "properties": {"charge": 80, "id": "smide_2696", "name": "ZH254616", "provider": "smide", "range": 40.0, "size": 20, "time": "02/25/2020, 05:38:03"}, "type": "Feature"}, {"geometry": {"coordinates": [8.553801, 47.402792], "type": "Point"}, "properties": {"charge": 34, "id": "smide_2694", "name": "ZH254610", "provider": "smide", "range": 17.0, "size": 20, "time": "02/25/2020, 05:38:03"}, "type": "Feature"}, {"geometry": {"coordinates": [8.560878, 47.383803], "type": "Point"}, "properties": {"charge": 63, "id": "smide_2691", "name": "ZH254622", "provider": "smide", "range": 31.0, "size": 20, "time": "02/25/2020, 05:38:03"}, "type": "Feature"}, {"geometry": {"coordinates": [8.502626, 47.420366], "type": "Point"}, "properties": {"charge": 53, "id": "smide_2690", "name": "ZH254625", "provider": "smide", "range": 26.0, "size": 20, "time": "02/25/2020, 05:38:03"}, "type": "Feature"}, {"geometry": {"coordinates": [8.531855, 47.37946], "type": "Point"}, "properties": {"charge": 85, "id": "smide_2689", "name": "ZH254623", "provider": "smide", "range": 42.0, "size": 20, "time": "02/25/2020, 05:38:03"}, "type": "Feature"}, {"geometry": {"coordinates": [8.55733, 47.402916], "type": "Point"}, "properties": {"charge": 88, "id": "smide_2687", "name": "ZH263529", "provider": "smide", "range": 44.0, "size": 20, "time": "02/25/2020, 05:38:03"}, "type": "Feature"}, {"geometry": {"coordinates": [8.509496, 47.41362], "type": "Point"}, "properties": {"charge": 41, "id": "smide_2686", "name": "ZH263288", "provider": "smide", "range": 20.0, "size": 20, "time": "02/25/2020, 05:38:03"}, "type": "Feature"}, {"geometry": {"coordinates": [8.524413, 47.378068], "type": "Point"}, "properties": {"charge": 98, "id": "smide_2684", "name": "ZH254626", "provider": "smide", "range": 49.0, "size": 20, "time": "02/25/2020, 05:38:03"}, "type": "Feature"}, {"geometry": {"coordinates": [8.500606, 47.424185], "type": "Point"}, "properties": {"charge": 52, "id": "smide_2683", "name": "ZH254620", "provider": "smide", "range": 26.0, "size": 20, "time": "02/25/2020, 05:38:03"}, "type": "Feature"}, {"geometry": {"coordinates": [8.560865, 47.38394], "type": "Point"}, "properties": {"charge": 88, "id": "smide_2680", "name": "ZH254619", "provider": "smide", "range": 44.0, "size": 20, "time": "02/25/2020, 05:38:03"}, "type": "Feature"}, {"geometry": {"coordinates": [8.561898, 47.35034], "type": "Point"}, "properties": {"charge": 57, "id": "smide_2679", "name": "ZH258489", "provider": "smide", "range": 28.0, "size": 17, "time": "02/25/2020, 05:38:03"}, "type": "Feature"}, {"geometry": {"coordinates": [8.518091, 47.367652], "type": "Point"}, "properties": {"charge": 80, "id": "smide_2674", "name": "ZH258654", "provider": "smide", "range": 40.0, "size": 17, "time": "02/25/2020, 05:38:03"}, "type": "Feature"}, {"geometry": {"coordinates": [8.563006, 47.382652], "type": "Point"}, "properties": {"charge": 80, "id": "smide_2671", "name": "ZH258645", "provider": "smide", "range": 40.0, "size": 17, "time": "02/25/2020, 05:38:03"}, "type": "Feature"}, {"geometry": {"coordinates": [8.514438, 47.357488], "type": "Point"}, "properties": {"charge": 23, "id": "smide_2669", "name": "ZH263294", "provider": "smide", "range": 11.0, "size": 17, "time": "02/25/2020, 05:38:03"}, "type": "Feature"}, {"geometry": {"coordinates": [8.56433, 47.3634], "type": "Point"}, "properties": {"charge": 18, "id": "smide_2668", "name": "ZH258640", "provider": "smide", "range": 9.0, "size": 17, "time": "02/25/2020, 05:38:03"}, "type": "Feature"}, {"geometry": {"coordinates": [8.510395, 47.39522], "type": "Point"}, "properties": {"charge": 81, "id": "smide_2666", "name": "ZH258653", "provider": "smide", "range": 40.0, "size": 17, "time": "02/25/2020, 05:38:03"}, "type": "Feature"}, {"geometry": {"coordinates": [8.529154, 47.355864], "type": "Point"}, "properties": {"charge": 74, "id": "smide_2665", "name": "ZH258644", "provider": "smide", "range": 37.0, "size": 17, "time": "02/25/2020, 05:38:03"}, "type": "Feature"}, {"geometry": {"coordinates": [8.553787, 47.38186], "type": "Point"}, "properties": {"charge": 76, "id": "smide_2664", "name": "ZH258652", "provider": "smide", "range": 38.0, "size": 17, "time": "02/25/2020, 05:38:03"}, "type": "Feature"}, {"geometry": {"coordinates": [8.491207, 47.394832], "type": "Point"}, "properties": {"charge": 99, "id": "smide_2663", "name": "ZH258649", "provider": "smide", "range": 49.0, "size": 17, "time": "02/25/2020, 05:38:03"}, "type": "Feature"}, {"geometry": {"coordinates": [8.560811, 47.383044], "type": "Point"}, "properties": {"charge": 56, "id": "smide_2662", "name": "ZH258643", "provider": "smide", "range": 28.0, "size": 17, "time": "02/25/2020, 05:38:03"}, "type": "Feature"}, {"geometry": {"coordinates": [8.510647, 47.398436], "type": "Point"}, "properties": {"charge": 100, "id": "smide_2660", "name": "ZH258647", "provider": "smide", "range": 50.0, "size": 17, "time": "02/25/2020, 05:38:03"}, "type": "Feature"}, {"geometry": {"coordinates": [8.483561, 47.381712], "type": "Point"}, "properties": {"charge": 53, "id": "smide_2648", "name": "ZH257930", "provider": "smide", "range": 26.0, "size": 20, "time": "02/25/2020, 05:38:03"}, "type": "Feature"}, {"geometry": {"coordinates": [8.57023, 47.352193], "type": "Point"}, "properties": {"charge": 26, "id": "smide_2657", "name": "ZH257936", "provider": "smide", "range": 13.0, "size": 17, "time": "02/25/2020, 05:38:03"}, "type": "Feature"}, {"geometry": {"coordinates": [8.560257, 47.381392], "type": "Point"}, "properties": {"charge": 20, "id": "smide_2647", "name": "ZH257932", "provider": "smide", "range": 10.0, "size": 20, "time": "02/25/2020, 05:38:03"}, "type": "Feature"}, {"geometry": {"coordinates": [8.497163, 47.401868], "type": "Point"}, "properties": {"charge": 46, "id": "smide_2645", "name": "ZH257933", "provider": "smide", "range": 23.0, "size": 20, "time": "02/25/2020, 05:38:03"}, "type": "Feature"}, {"geometry": {"coordinates": [8.551898, 47.38201], "type": "Point"}, "properties": {"charge": 100, "id": "smide_3", "name": "ZH253765", "provider": "smide", "range": 50.0, "size": 20, "time": "02/25/2020, 05:38:03"}, "type": "Feature"}, {"geometry": {"coordinates": [8.537418, 47.407288], "type": "Point"}, "properties": {"charge": 27, "id": "smide_105", "name": "ZH253804", "provider": "smide", "range": 13.0, "size": 17, "time": "02/25/2020, 05:38:03"}, "type": "Feature"}, {"geometry": {"coordinates": [8.569456, 47.35202], "type": "Point"}, "properties": {"charge": 59, "id": "smide_77", "name": "ZH261548", "provider": "smide", "range": 29.0, "size": 20, "time": "02/25/2020, 05:38:03"}, "type": "Feature"}, {"geometry": {"coordinates": [8.491436, 47.371788], "type": "Point"}, "properties": {"charge": 88, "id": "smide_200", "name": "ZH253801", "provider": "smide", "range": 44.0, "size": 20, "time": "02/25/2020, 05:38:03"}, "type": "Feature"}, {"geometry": {"coordinates": [8.564618, 47.369213], "type": "Point"}, "properties": {"charge": 28, "id": "smide_199", "name": "ZH253766", "provider": "smide", "range": 14.0, "size": 20, "time": "02/25/2020, 05:38:03"}, "type": "Feature"}, {"geometry": {"coordinates": [8.567007, 47.360392], "type": "Point"}, "properties": {"charge": 66, "id": "smide_8", "name": "ZH253861", "provider": "smide", "range": 33.0, "size": 17, "time": "02/25/2020, 05:38:03"}, "type": "Feature"}, {"geometry": {"coordinates": [8.489706, 47.381681], "type": "Point"}, "properties": {"charge": 81, "id": "smide_201", "name": "ZH253698", "provider": "smide", "range": 40.0, "size": 17, "time": "02/25/2020, 05:38:03"}, "type": "Feature"}, {"geometry": {"coordinates": [8.531985, 47.35264], "type": "Point"}, "properties": {"charge": 60, "id": "smide_71", "name": "ZH253742", "provider": "smide", "range": 30.0, "size": 20, "time": "02/25/2020, 05:38:03"}, "type": "Feature"}, {"geometry": {"coordinates": [8.557073, 47.352832], "type": "Point"}, "properties": {"charge": 63, "id": "smide_101", "name": "ZH253814", "provider": "smide", "range": 31.0, "size": 17, "time": "02/25/2020, 05:38:03"}, "type": "Feature"}, {"geometry": {"coordinates": [8.496039, 47.386856], "type": "Point"}, "properties": {"charge": 51, "id": "smide_9", "name": "ZH253796", "provider": "smide", "range": 25.0, "size": 17, "time": "02/25/2020, 05:38:03"}, "type": "Feature"}, {"geometry": {"coordinates": [8.552144, 47.358008], "type": "Point"}, "properties": {"charge": 94, "id": "smide_143", "name": "ZH253778", "provider": "smide", "range": 47.0, "size": 17, "time": "02/25/2020, 05:38:03"}, "type": "Feature"}, {"geometry": {"coordinates": [8.527661, 47.380888], "type": "Point"}, "properties": {"charge": 45, "id": "smide_180", "name": "ZH253824", "provider": "smide", "range": 22.0, "size": 20, "time": "02/25/2020, 05:38:03"}, "type": "Feature"}, {"geometry": {"coordinates": [8.54028, 47.413964], "type": "Point"}, "properties": {"charge": 62, "id": "smide_50", "name": "ZH253853", "provider": "smide", "range": 31.0, "size": 17, "time": "02/25/2020, 05:38:03"}, "type": "Feature"}, {"geometry": {"coordinates": [8.50217, 47.361653], "type": "Point"}, "properties": {"charge": 100, "id": "smide_30", "name": "ZH253813", "provider": "smide", "range": 50.0, "size": 20, "time": "02/25/2020, 05:38:03"}, "type": "Feature"}, {"geometry": {"coordinates": [8.568743, 47.373008], "type": "Point"}, "properties": {"charge": 61, "id": "smide_10", "name": "ZH253855", "provider": "smide", "range": 30.0, "size": 17, "time": "02/25/2020, 05:38:03"}, "type": "Feature"}, {"geometry": {"coordinates": [8.554571, 47.402896], "type": "Point"}, "properties": {"charge": 98, "id": "smide_179", "name": "ZH253687", "provider": "smide", "range": 49.0, "size": 20, "time": "02/25/2020, 05:38:03"}, "type": "Feature"}, {"geometry": {"coordinates": [8.525659, 47.372208], "type": "Point"}, "properties": {"charge": 15, "id": "smide_84", "name": "ZH253733", "provider": "smide", "range": 7.0, "size": 17, "time": "02/25/2020, 05:38:03"}, "type": "Feature"}, {"geometry": {"coordinates": [8.562765, 47.409404], "type": "Point"}, "properties": {"charge": 31, "id": "smide_165", "name": "ZH253752", "provider": "smide", "range": 15.0, "size": 17, "time": "02/25/2020, 05:38:03"}, "type": "Feature"}, {"geometry": {"coordinates": [8.564344, 47.409324], "type": "Point"}, "properties": {"charge": 46, "id": "smide_35", "name": "ZH253755", "provider": "smide", "range": 23.0, "size": 20, "time": "02/25/2020, 05:38:03"}, "type": "Feature"}, {"geometry": {"coordinates": [8.518246, 47.396156], "type": "Point"}, "properties": {"charge": 63, "id": "smide_119", "name": "ZH253686", "provider": "smide", "range": 31.0, "size": 20, "time": "02/25/2020, 05:38:03"}, "type": "Feature"}, {"geometry": {"coordinates": [8.542381, 47.400856], "type": "Point"}, "properties": {"charge": 47, "id": "smide_76", "name": "ZH253764", "provider": "smide", "range": 23.0, "size": 17, "time": "02/25/2020, 05:38:03"}, "type": "Feature"}, {"geometry": {"coordinates": [8.555261, 47.38394], "type": "Point"}, "properties": {"charge": 60, "id": "smide_129", "name": "ZH261378", "provider": "smide", "range": 30.0, "size": 17, "time": "02/25/2020, 05:38:03"}, "type": "Feature"}, {"geometry": {"coordinates": [8.558396, 47.373775], "type": "Point"}, "properties": {"charge": 79, "id": "smide_49", "name": "ZH253873", "provider": "smide", "range": 39.0, "size": 17, "time": "02/25/2020, 05:38:03"}, "type": "Feature"}, {"geometry": {"coordinates": [8.519021, 47.33724], "type": "Point"}, "properties": {"charge": 86, "id": "smide_94", "name": "ZH253754", "provider": "smide", "range": 43.0, "size": 17, "time": "02/25/2020, 05:38:03"}, "type": "Feature"}, {"geometry": {"coordinates": [8.567648, 47.360592], "type": "Point"}, "properties": {"charge": 45, "id": "smide_37", "name": "ZH261377", "provider": "smide", "range": 22.0, "size": 20, "time": "02/25/2020, 05:38:03"}, "type": "Feature"}, {"geometry": {"coordinates": [8.560831, 47.383203], "type": "Point"}, "properties": {"charge": 69, "id": "smide_191", "name": "ZH253762", "provider": "smide", "range": 34.0, "size": 17, "time": "02/25/2020, 05:38:03"}, "type": "Feature"}, {"geometry": {"coordinates": [8.474593, 47.385836], "type": "Point"}, "properties": {"charge": 30, "id": "smide_202", "name": "ZH253830", "provider": "smide", "range": 15.0, "size": 17, "time": "02/25/2020, 05:38:03"}, "type": "Feature"}, {"geometry": {"coordinates": [8.484559, 47.393764], "type": "Point"}, "properties": {"charge": 73, "id": "smide_56", "name": "ZH261442", "provider": "smide", "range": 36.0, "size": 20, "time": "02/25/2020, 05:38:03"}, "type": "Feature"}, {"geometry": {"coordinates": [8.518325, 47.338873], "type": "Point"}, "properties": {"charge": 34, "id": "smide_47", "name": "ZH253858", "provider": "smide", "range": 17.0, "size": 17, "time": "02/25/2020, 05:38:03"}, "type": "Feature"}, {"geometry": {"coordinates": [8.569003, 47.37271], "type": "Point"}, "properties": {"charge": 13, "id": "smide_97", "name": "ZH253799", "provider": "smide", "range": 6.0, "size": 20, "time": "02/25/2020, 05:38:03"}, "type": "Feature"}, {"geometry": {"coordinates": [8.476715, 47.387352], "type": "Point"}, "properties": {"charge": 77, "id": "smide_66", "name": "ZH253818", "provider": "smide", "range": 38.0, "size": 20, "time": "02/25/2020, 05:38:03"}, "type": "Feature"}, {"geometry": {"coordinates": [8.496911, 47.362788], "type": "Point"}, "properties": {"charge": 92, "id": "smide_17", "name": "ZH253793", "provider": "smide", "range": 46.0, "size": 17, "time": "02/25/2020, 05:38:03"}, "type": "Feature"}, {"geometry": {"coordinates": [8.531506, 47.344113], "type": "Point"}, "properties": {"charge": 36, "id": "smide_145", "name": "ZH253780", "provider": "smide", "range": 18.0, "size": 20, "time": "02/25/2020, 05:38:03"}, "type": "Feature"}, {"geometry": {"coordinates": [8.555647, 47.384432], "type": "Point"}, "properties": {"charge": 69, "id": "smide_21", "name": "ZH253841", "provider": "smide", "range": 34.0, "size": 17, "time": "02/25/2020, 05:38:03"}, "type": "Feature"}, {"geometry": {"coordinates": [8.563099, 47.382544], "type": "Point"}, "properties": {"charge": 92, "id": "smide_164", "name": "ZH253775", "provider": "smide", "range": 46.0, "size": 17, "time": "02/25/2020, 05:38:03"}, "type": "Feature"}, {"geometry": {"coordinates": [8.475821, 47.38432], "type": "Point"}, "properties": {"charge": 67, "id": "smide_189", "name": "ZH253845", "provider": "smide", "range": 33.0, "size": 20, "time": "02/25/2020, 05:38:03"}, "type": "Feature"}, {"geometry": {"coordinates": [8.560174, 47.381432], "type": "Point"}, "properties": {"charge": 86, "id": "smide_81", "name": "ZH253753", "provider": "smide", "range": 43.0, "size": 17, "time": "02/25/2020, 05:38:03"}, "type": "Feature"}, {"geometry": {"coordinates": [8.551772, 47.36166], "type": "Point"}, "properties": {"charge": 72, "id": "smide_171", "name": "ZH253689", "provider": "smide", "range": 36.0, "size": 20, "time": "02/25/2020, 05:38:03"}, "type": "Feature"}, {"geometry": {"coordinates": [8.5094, 47.413696], "type": "Point"}, "properties": {"charge": 86, "id": "smide_67", "name": "ZH253779", "provider": "smide", "range": 43.0, "size": 17, "time": "02/25/2020, 05:38:03"}, "type": "Feature"}, {"geometry": {"coordinates": [8.50132, 47.384031], "type": "Point"}, "properties": {"charge": 78, "id": "smide_118", "name": "ZH253759", "provider": "smide", "range": 39.0, "size": 20, "time": "02/25/2020, 05:38:03"}, "type": "Feature"}, {"geometry": {"coordinates": [8.560756, 47.368068], "type": "Point"}, "properties": {"charge": 29, "id": "smide_142", "name": "ZH258745", "provider": "smide", "range": 14.0, "size": 17, "time": "02/25/2020, 05:38:03"}, "type": "Feature"}, {"geometry": {"coordinates": [8.532725, 47.406541], "type": "Point"}, "properties": {"charge": 85, "id": "smide_166", "name": "ZH253728", "provider": "smide", "range": 42.0, "size": 17, "time": "02/25/2020, 05:38:03"}, "type": "Feature"}, {"geometry": {"coordinates": [8.521598, 47.367516], "type": "Point"}, "properties": {"charge": 55, "id": "smide_126", "name": "ZH268400", "provider": "smide", "range": 27.0, "size": 17, "time": "02/25/2020, 05:38:03"}, "type": "Feature"}, {"geometry": {"coordinates": [8.543048, 47.370398], "type": "Point"}, "properties": {"charge": 47, "id": "smide_44", "name": "ZH253837", "provider": "smide", "range": 23.0, "size": 17, "time": "02/25/2020, 05:38:03"}, "type": "Feature"}, {"geometry": {"coordinates": [8.577606, 47.350426], "type": "Point"}, "properties": {"charge": 100, "id": "smide_98", "name": "ZH256321", "provider": "smide", "range": 50.0, "size": 17, "time": "02/25/2020, 05:38:03"}, "type": "Feature"}, {"geometry": {"coordinates": [8.560675, 47.383253], "type": "Point"}, "properties": {"charge": 87, "id": "smide_57", "name": "ZH253772", "provider": "smide", "range": 43.0, "size": 17, "time": "02/25/2020, 05:38:03"}, "type": "Feature"}, {"geometry": {"coordinates": [8.537176, 47.419128], "type": "Point"}, "properties": {"charge": 53, "id": "smide_154", "name": "ZH253744", "provider": "smide", "range": 26.0, "size": 20, "time": "02/25/2020, 05:38:03"}, "type": "Feature"}, {"geometry": {"coordinates": [8.502148, 47.370244], "type": "Point"}, "properties": {"charge": 81, "id": "smide_7", "name": "ZH256289", "provider": "smide", "range": 40.0, "size": 20, "time": "02/25/2020, 05:38:03"}, "type": "Feature"}, {"geometry": {"coordinates": [8.580155, 47.350932], "type": "Point"}, "properties": {"charge": 41, "id": "smide_92", "name": "ZH253798", "provider": "smide", "range": 20.0, "size": 17, "time": "02/25/2020, 05:38:03"}, "type": "Feature"}, {"geometry": {"coordinates": [8.496359, 47.382368], "type": "Point"}, "properties": {"charge": 71, "id": "smide_111", "name": "ZH253763", "provider": "smide", "range": 35.0, "size": 17, "time": "02/25/2020, 05:38:03"}, "type": "Feature"}, {"geometry": {"coordinates": [8.504377, 47.351916], "type": "Point"}, "properties": {"charge": 90, "id": "smide_40", "name": "ZH253690", "provider": "smide", "range": 45.0, "size": 20, "time": "02/25/2020, 05:38:03"}, "type": "Feature"}, {"geometry": {"coordinates": [8.562613, 47.410436], "type": "Point"}, "properties": {"charge": 99, "id": "smide_1", "name": "ZH253776", "provider": "smide", "range": 49.0, "size": 17, "time": "02/25/2020, 05:38:03"}, "type": "Feature"}, {"geometry": {"coordinates": [8.573878, 47.352784], "type": "Point"}, "properties": {"charge": 94, "id": "smide_28", "name": "ZH253831", "provider": "smide", "range": 47.0, "size": 17, "time": "02/25/2020, 05:38:03"}, "type": "Feature"}, {"geometry": {"coordinates": [8.517108, 47.384078], "type": "Point"}, "properties": {"charge": 29, "id": "smide_14", "name": "ZH253749", "provider": "smide", "range": 14.0, "size": 20, "time": "02/25/2020, 05:38:03"}, "type": "Feature"}, {"geometry": {"coordinates": [8.562553, 47.371304], "type": "Point"}, "properties": {"charge": 23, "id": "smide_130", "name": "ZH253847", "provider": "smide", "range": 11.0, "size": 20, "time": "02/25/2020, 05:38:03"}, "type": "Feature"}, {"geometry": {"coordinates": [8.533061, 47.416785], "type": "Point"}, "properties": {"charge": 83, "id": "smide_24", "name": "ZH253696", "provider": "smide", "range": 41.0, "size": 20, "time": "02/25/2020, 05:38:03"}, "type": "Feature"}, {"geometry": {"coordinates": [8.522406, 47.35873], "type": "Point"}, "properties": {"charge": 72, "id": "smide_107", "name": "ZH253819", "provider": "smide", "range": 36.0, "size": 17, "time": "02/25/2020, 05:38:03"}, "type": "Feature"}, {"geometry": {"coordinates": [8.557437, 47.41848], "type": "Point"}, "properties": {"charge": 41, "id": "smide_136", "name": "ZH253682", "provider": "smide", "range": 20.0, "size": 17, "time": "02/25/2020, 05:38:03"}, "type": "Feature"}, {"geometry": {"coordinates": [8.498274, 47.358192], "type": "Point"}, "properties": {"charge": 92, "id": "smide_83", "name": "ZH253869", "provider": "smide", "range": 46.0, "size": 20, "time": "02/25/2020, 05:38:03"}, "type": "Feature"}, {"geometry": {"coordinates": [8.532424, 47.397368], "type": "Point"}, "properties": {"charge": 41, "id": "smide_205", "name": "ZH253805", "provider": "smide", "range": 20.0, "size": 17, "time": "02/25/2020, 05:38:03"}, "type": "Feature"}, {"geometry": {"coordinates": [8.582225, 47.351876], "type": "Point"}, "properties": {"charge": 88, "id": "smide_193", "name": "ZH253738", "provider": "smide", "range": 44.0, "size": 20, "time": "02/25/2020, 05:38:03"}, "type": "Feature"}, {"geometry": {"coordinates": [8.523435, 47.37475], "type": "Point"}, "properties": {"charge": 46, "id": "smide_73", "name": "ZH261379", "provider": "smide", "range": 23.0, "size": 20, "time": "02/25/2020, 05:38:03"}, "type": "Feature"}, {"geometry": {"coordinates": [8.550788, 47.358846], "type": "Point"}, "properties": {"charge": 61, "id": "smide_158", "name": "ZH253870", "provider": "smide", "range": 30.0, "size": 20, "time": "02/25/2020, 05:38:03"}, "type": "Feature"}, {"geometry": {"coordinates": [8.521569, 47.365664], "type": "Point"}, "properties": {"charge": 41, "id": "smide_100", "name": "ZH253862", "provider": "smide", "range": 20.0, "size": 20, "time": "02/25/2020, 05:38:03"}, "type": "Feature"}, {"geometry": {"coordinates": [8.557625, 47.370205], "type": "Point"}, "properties": {"charge": 36, "id": "smide_134", "name": "ZH253741", "provider": "smide", "range": 18.0, "size": 20, "time": "02/25/2020, 05:38:03"}, "type": "Feature"}, {"geometry": {"coordinates": [8.5603, 47.382075], "type": "Point"}, "properties": {"charge": 84, "id": "smide_141", "name": "ZH253800", "provider": "smide", "range": 42.0, "size": 20, "time": "02/25/2020, 05:38:03"}, "type": "Feature"}, {"geometry": {"coordinates": [8.493668, 47.392273], "type": "Point"}, "properties": {"charge": 100, "id": "smide_149", "name": "ZH253743", "provider": "smide", "range": 50.0, "size": 20, "time": "02/25/2020, 05:38:03"}, "type": "Feature"}, {"geometry": {"coordinates": [8.563774, 47.349788], "type": "Point"}, "properties": {"charge": 45, "id": "smide_16", "name": "ZH253713", "provider": "smide", "range": 22.0, "size": 20, "time": "02/25/2020, 05:38:03"}, "type": "Feature"}, {"geometry": {"coordinates": [8.518071, 47.339004], "type": "Point"}, "properties": {"charge": 81, "id": "smide_74", "name": "ZH253693", "provider": "smide", "range": 40.0, "size": 20, "time": "02/25/2020, 05:38:03"}, "type": "Feature"}, {"geometry": {"coordinates": [8.56614, 47.362193], "type": "Point"}, "properties": {"charge": 14, "id": "smide_33", "name": "ZH253782", "provider": "smide", "range": 7.0, "size": 20, "time": "02/25/2020, 05:38:03"}, "type": "Feature"}, {"geometry": {"coordinates": [8.536592, 47.407912], "type": "Point"}, "properties": {"charge": 100, "id": "smide_161", "name": "ZH253691", "provider": "smide", "range": 50.0, "size": 20, "time": "02/25/2020, 05:38:03"}, "type": "Feature"}, {"geometry": {"coordinates": [8.557608, 47.406528], "type": "Point"}, "properties": {"charge": 69, "id": "smide_183", "name": "ZH253868", "provider": "smide", "range": 34.0, "size": 17, "time": "02/25/2020, 05:38:03"}, "type": "Feature"}, {"geometry": {"coordinates": [8.564391, 47.373336], "type": "Point"}, "properties": {"charge": 83, "id": "smide_42", "name": "ZH253846", "provider": "smide", "range": 41.0, "size": 20, "time": "02/25/2020, 05:38:03"}, "type": "Feature"}, {"geometry": {"coordinates": [8.502612, 47.423672], "type": "Point"}, "properties": {"charge": 77, "id": "smide_4", "name": "ZH253740", "provider": "smide", "range": 38.0, "size": 20, "time": "02/25/2020, 05:38:03"}, "type": "Feature"}, {"geometry": {"coordinates": [8.528118, 47.386836], "type": "Point"}, "properties": {"charge": 83, "id": "smide_160", "name": "ZH253722", "provider": "smide", "range": 41.0, "size": 17, "time": "02/25/2020, 05:38:03"}, "type": "Feature"}, {"geometry": {"coordinates": [8.551921, 47.361643], "type": "Point"}, "properties": {"charge": 90, "id": "smide_137", "name": "ZH258502", "provider": "smide", "range": 45.0, "size": 17, "time": "02/25/2020, 05:38:03"}, "type": "Feature"}, {"geometry": {"coordinates": [8.560726, 47.383095], "type": "Point"}, "properties": {"charge": 54, "id": "smide_55", "name": "ZH253875", "provider": "smide", "range": 27.0, "size": 17, "time": "02/25/2020, 05:38:03"}, "type": "Feature"}, {"geometry": {"coordinates": [8.542059, 47.424536], "type": "Point"}, "properties": {"charge": 77, "id": "smide_96", "name": "ZH256146", "provider": "smide", "range": 38.0, "size": 20, "time": "02/25/2020, 05:38:03"}, "type": "Feature"}, {"geometry": {"coordinates": [8.554051, 47.357176], "type": "Point"}, "properties": {"charge": 18, "id": "smide_58", "name": "ZH259246", "provider": "smide", "range": 9.0, "size": 20, "time": "02/25/2020, 05:38:03"}, "type": "Feature"}, {"geometry": {"coordinates": [8.535924, 47.399808], "type": "Point"}, "properties": {"charge": 51, "id": "smide_54", "name": "ZH253874", "provider": "smide", "range": 25.0, "size": 20, "time": "02/25/2020, 05:38:03"}, "type": "Feature"}, {"geometry": {"coordinates": [8.514576, 47.364792], "type": "Point"}, "properties": {"charge": 89, "id": "smide_175", "name": "ZH253730", "provider": "smide", "range": 44.0, "size": 17, "time": "02/25/2020, 05:38:03"}, "type": "Feature"}, {"geometry": {"coordinates": [8.536468, 47.39132], "type": "Point"}, "properties": {"charge": 37, "id": "smide_162", "name": "ZH253760", "provider": "smide", "range": 18.0, "size": 17, "time": "02/25/2020, 05:38:03"}, "type": "Feature"}, {"geometry": {"coordinates": [8.569525, 47.352088], "type": "Point"}, "properties": {"charge": 72, "id": "smide_95", "name": "ZH253773", "provider": "smide", "range": 36.0, "size": 17, "time": "02/25/2020, 05:38:03"}, "type": "Feature"}, {"geometry": {"coordinates": [8.548498, 47.361424], "type": "Point"}, "properties": {"charge": 65, "id": "smide_163", "name": "ZH256147", "provider": "smide", "range": 32.0, "size": 20, "time": "02/25/2020, 05:38:03"}, "type": "Feature"}, {"geometry": {"coordinates": [8.560875, 47.38392], "type": "Point"}, "properties": {"charge": 42, "id": "smide_112", "name": "ZH263530", "provider": "smide", "range": 21.0, "size": 20, "time": "02/25/2020, 05:38:03"}, "type": "Feature"}, {"geometry": {"coordinates": [8.527374, 47.343188], "type": "Point"}, "properties": {"charge": 36, "id": "smide_122", "name": "ZH253850", "provider": "smide", "range": 18.0, "size": 20, "time": "02/25/2020, 05:38:03"}, "type": "Feature"}, {"geometry": {"coordinates": [8.575063, 47.372583], "type": "Point"}, "properties": {"charge": 52, "id": "smide_38", "name": "ZH253851", "provider": "smide", "range": 26.0, "size": 20, "time": "02/25/2020, 05:38:03"}, "type": "Feature"}, {"geometry": {"coordinates": [8.563538, 47.38228], "type": "Point"}, "properties": {"charge": 65, "id": "smide_6", "name": "ZH253787", "provider": "smide", "range": 32.0, "size": 17, "time": "02/25/2020, 05:38:03"}, "type": "Feature"}, {"geometry": {"coordinates": [8.519163, 47.337228], "type": "Point"}, "properties": {"charge": 16, "id": "smide_18", "name": "ZH253859", "provider": "smide", "range": 8.0, "size": 17, "time": "02/25/2020, 05:38:03"}, "type": "Feature"}, {"geometry": {"coordinates": [8.508965, 47.382144], "type": "Point"}, "properties": {"charge": 72, "id": "smide_12", "name": "ZH253685", "provider": "smide", "range": 36.0, "size": 17, "time": "02/25/2020, 05:38:03"}, "type": "Feature"}, {"geometry": {"coordinates": [8.495172, 47.38524], "type": "Point"}, "properties": {"charge": 87, "id": "smide_192", "name": "ZH253706", "provider": "smide", "range": 43.0, "size": 20, "time": "02/25/2020, 05:38:03"}, "type": "Feature"}, {"geometry": {"coordinates": [8.527665, 47.415013], "type": "Point"}, "properties": {"charge": 60, "id": "smide_5", "name": "ZH261443", "provider": "smide", "range": 30.0, "size": 20, "time": "02/25/2020, 05:38:03"}, "type": "Feature"}, {"geometry": {"coordinates": [8.492641, 47.388615], "type": "Point"}, "properties": {"charge": 100, "id": "smide_85", "name": "ZH253729", "provider": "smide", "range": 50.0, "size": 17, "time": "02/25/2020, 05:38:03"}, "type": "Feature"}, {"geometry": {"coordinates": [8.569474, 47.352048], "type": "Point"}, "properties": {"charge": 48, "id": "smide_29", "name": "ZH253723", "provider": "smide", "range": 24.0, "size": 17, "time": "02/25/2020, 05:38:03"}, "type": "Feature"}, {"geometry": {"coordinates": [8.533133, 47.380808], "type": "Point"}, "properties": {"charge": 100, "id": "smide_48", "name": "ZH253849", "provider": "smide", "range": 50.0, "size": 20, "time": "02/25/2020, 05:38:03"}, "type": "Feature"}, {"geometry": {"coordinates": [8.563124, 47.404028], "type": "Point"}, "properties": {"charge": 37, "id": "smide_46", "name": "ZH253843", "provider": "smide", "range": 18.0, "size": 20, "time": "02/25/2020, 05:38:03"}, "type": "Feature"}, {"geometry": {"coordinates": [8.54024833333333, 47.3901933333333], "type": "Point"}, "properties": {"charge": 92, "id": "bird_a3482e41-357d-4589-8d83-a3ef077ce04a", "provider": "bird", "timeStamp": "02/25/2020, 05:38:03"}, "type": "Feature"}, {"geometry": {"coordinates": [8.535565, 47.3916966666667], "type": "Point"}, "properties": {"charge": 82, "id": "bird_f433d199-5654-4be4-8641-52caad7e93af", "provider": "bird", "timeStamp": "02/25/2020, 05:38:03"}, "type": "Feature"}, {"geometry": {"coordinates": [8.52032333333333, 47.3696283333333], "type": "Point"}, "properties": {"charge": 42, "id": "bird_f88c4888-d38e-4772-965b-a50d83cd5187", "provider": "bird", "timeStamp": "02/25/2020, 05:38:03"}, "type": "Feature"}, {"geometry": {"coordinates": [8.51341166666667, 47.3750883333333], "type": "Point"}, "properties": {"charge": 96, "id": "bird_bf93f709-60e9-419d-9d86-11803c327be6", "provider": "bird", "timeStamp": "02/25/2020, 05:38:03"}, "type": "Feature"}, {"geometry": {"coordinates": [8.53851333333333, 47.36929], "type": "Point"}, "properties": {"charge": 83, "id": "bird_f1c8f1af-9f47-4f3d-8c54-4c895d16c3a9", "provider": "bird", "timeStamp": "02/25/2020, 05:38:03"}, "type": "Feature"}, {"geometry": {"coordinates": [8.53223666666667, 47.3679466666667], "type": "Point"}, "properties": {"charge": 88, "id": "bird_c15c7e40-3303-44f1-9032-fddc4ea27c93", "provider": "bird", "timeStamp": "02/25/2020, 05:38:03"}, "type": "Feature"}, {"geometry": {"coordinates": [8.53643166666667, 47.3912433333333], "type": "Point"}, "properties": {"charge": 93, "id": "bird_21925341-bbb0-47d7-811c-27e913d6a011", "provider": "bird", "timeStamp": "02/25/2020, 05:38:03"}, "type": "Feature"}, {"geometry": {"coordinates": [8.51642166666667, 47.3875433333333], "type": "Point"}, "properties": {"charge": 45, "id": "bird_90e341cf-bbc9-4d17-9ddc-ccdad19149ae", "provider": "bird", "timeStamp": "02/25/2020, 05:38:03"}, "type": "Feature"}, {"geometry": {"coordinates": [8.512605, 47.3785666666667], "type": "Point"}, "properties": {"charge": 66, "id": "bird_2b3d6b40-e08a-4501-8fdb-3b2d631708ef", "provider": "bird", "timeStamp": "02/25/2020, 05:38:03"}, "type": "Feature"}, {"geometry": {"coordinates": [8.512745, 47.3820683333333], "type": "Point"}, "properties": {"charge": 45, "id": "bird_fe585af8-4707-4818-ae02-802a1bab7fb7", "provider": "bird", "timeStamp": "02/25/2020, 05:38:03"}, "type": "Feature"}, {"geometry": {"coordinates": [8.51479, 47.37416], "type": "Point"}, "properties": {"charge": 81, "id": "bird_e8b1f627-fff4-4455-892f-a4b91e27cc4b", "provider": "bird", "timeStamp": "02/25/2020, 05:38:03"}, "type": "Feature"}, {"geometry": {"coordinates": [8.51913333333333, 47.3891633333333], "type": "Point"}, "properties": {"charge": 62, "id": "bird_39f1be75-372a-426d-945d-f92e710425ab", "provider": "bird", "timeStamp": "02/25/2020, 05:38:03"}, "type": "Feature"}, {"geometry": {"coordinates": [8.546585, 47.3765833333333], "type": "Point"}, "properties": {"charge": 64, "id": "bird_a8eab544-bed8-4ac0-ade4-10aac52c2e49", "provider": "bird", "timeStamp": "02/25/2020, 05:38:03"}, "type": "Feature"}, {"geometry": {"coordinates": [8.547235, 47.3804466666667], "type": "Point"}, "properties": {"charge": 33, "id": "bird_bd25a682-9635-46a3-9837-5dfcefe7eace", "provider": "bird", "timeStamp": "02/25/2020, 05:38:03"}, "type": "Feature"}, {"geometry": {"coordinates": [8.54104166666667, 47.3710433333333], "type": "Point"}, "properties": {"charge": 89, "id": "bird_3858ad5c-5210-4ba6-adc1-d25e22766e79", "provider": "bird", "timeStamp": "02/25/2020, 05:38:03"}, "type": "Feature"}, {"geometry": {"coordinates": [8.54616166666667, 47.376285], "type": "Point"}, "properties": {"charge": 46, "id": "bird_7151de62-97a0-418e-b389-e92f11067b94", "provider": "bird", "timeStamp": "02/25/2020, 05:38:03"}, "type": "Feature"}, {"geometry": {"coordinates": [8.54698666666667, 47.3793333333333], "type": "Point"}, "properties": {"charge": 21, "id": "bird_48eea5d5-689b-4c77-8e90-cf5e78c6eb1a", "provider": "bird", "timeStamp": "02/25/2020, 05:38:03"}, "type": "Feature"}, {"geometry": {"coordinates": [8.54459166666667, 47.3741716666667], "type": "Point"}, "properties": {"charge": 39, "id": "bird_4292ff47-0bf0-4b9e-ba50-52462ea807a1", "provider": "bird", "timeStamp": "02/25/2020, 05:38:03"}, "type": "Feature"}, {"geometry": {"coordinates": [8.51780666666667, 47.3721], "type": "Point"}, "properties": {"charge": 66, "id": "bird_5c6c5f16-bb25-4608-aae0-bb55bec76a1f", "provider": "bird", "timeStamp": "02/25/2020, 05:38:03"}, "type": "Feature"}, {"geometry": {"coordinates": [8.53616666666667, 47.3905716666667], "type": "Point"}, "properties": {"charge": 10, "id": "bird_39df6f21-56b6-42c5-9c95-2cee9e718dc6", "provider": "bird", "timeStamp": "02/25/2020, 05:38:03"}, "type": "Feature"}, {"geometry": {"coordinates": [8.53187333333333, 47.3687483333333], "type": "Point"}, "properties": {"charge": 45, "id": "bird_b583994c-0d82-4669-8818-8fa262bfebc9", "provider": "bird", "timeStamp": "02/25/2020, 05:38:03"}, "type": "Feature"}, {"geometry": {"coordinates": [8.53139166666667, 47.3687933333333], "type": "Point"}, "properties": {"charge": 83, "id": "bird_217a8beb-459c-4de6-97cb-03e8ce575644", "provider": "bird", "timeStamp": "02/25/2020, 05:38:03"}, "type": "Feature"}, {"geometry": {"coordinates": [8.51863666666667, 47.3881983333333], "type": "Point"}, "properties": {"charge": 28, "id": "bird_2d9af6a2-5e8f-48fa-b029-773e15999aab", "provider": "bird", "timeStamp": "02/25/2020, 05:38:03"}, "type": "Feature"}, {"geometry": {"coordinates": [8.51719833333333, 47.3728783333333], "type": "Point"}, "properties": {"charge": 34, "id": "bird_6c3345c7-abbc-48c9-aa87-a927e0c60f29", "provider": "bird", "timeStamp": "02/25/2020, 05:38:03"}, "type": "Feature"}, {"geometry": {"coordinates": [8.51664166666667, 47.386615], "type": "Point"}, "properties": {"charge": 37, "id": "bird_f0cc1608-1f9c-47f0-a4d7-e71d6cc1c406", "provider": "bird", "timeStamp": "02/25/2020, 05:38:03"}, "type": "Feature"}, {"geometry": {"coordinates": [8.539965, 47.3710816666667], "type": "Point"}, "properties": {"charge": 85, "id": "bird_a9f30e26-7205-4439-bcab-b3db48539c78", "provider": "bird", "timeStamp": "02/25/2020, 05:38:03"}, "type": "Feature"}, {"geometry": {"coordinates": [8.51668333333333, 47.38657], "type": "Point"}, "properties": {"charge": 29, "id": "bird_ec94d222-8392-480c-8286-3b4dbfe7f6df", "provider": "bird", "timeStamp": "02/25/2020, 05:38:03"}, "type": "Feature"}, {"geometry": {"coordinates": [8.54414333333333, 47.374375], "type": "Point"}, "properties": {"charge": 57, "id": "bird_7813f6aa-322c-4993-89dc-cc2b00dafe44", "provider": "bird", "timeStamp": "02/25/2020, 05:38:03"}, "type": "Feature"}, {"geometry": {"coordinates": [8.51601166666667, 47.3856816666667], "type": "Point"}, "properties": {"charge": 22, "id": "bird_351bdf6e-3164-48c1-8eb8-c1982c21530a", "provider": "bird", "timeStamp": "02/25/2020, 05:38:03"}, "type": "Feature"}, {"geometry": {"coordinates": [8.52295833333333, 47.370125], "type": "Point"}, "properties": {"charge": 69, "id": "bird_b1e0910b-9c7f-4c65-8ba2-6214c37a9a39", "provider": "bird", "timeStamp": "02/25/2020, 05:38:03"}, "type": "Feature"}, {"geometry": {"coordinates": [8.52982833333333, 47.369065], "type": "Point"}, "properties": {"charge": 80, "id": "bird_8c2f63e2-6def-4ac8-a614-552031eec830", "provider": "bird", "timeStamp": "02/25/2020, 05:38:03"}, "type": "Feature"}, {"geometry": {"coordinates": [8.51984, 47.38839], "type": "Point"}, "properties": {"charge": 96, "id": "bird_3cca4b83-7714-41fb-8156-f51f0a5692bd", "provider": "bird", "timeStamp": "02/25/2020, 05:38:03"}, "type": "Feature"}, {"geometry": {"coordinates": [8.52227333333333, 47.38945], "type": "Point"}, "properties": {"charge": 17, "id": "bird_aa8ec451-ffef-4649-a30e-4cfc60702a67", "provider": "bird", "timeStamp": "02/25/2020, 05:38:03"}, "type": "Feature"}, {"geometry": {"coordinates": [8.51905, 47.37215], "type": "Point"}, "properties": {"charge": 39, "id": "bird_8c41794d-80c0-4639-b84b-cde737148920", "provider": "bird", "timeStamp": "02/25/2020, 05:38:03"}, "type": "Feature"}, {"geometry": {"coordinates": [8.51486166666667, 47.3766333333333], "type": "Point"}, "properties": {"charge": 36, "id": "bird_295644cf-e9e2-4181-a84b-f93ae870731c", "provider": "bird", "timeStamp": "02/25/2020, 05:38:03"}, "type": "Feature"}, {"geometry": {"coordinates": [8.51494333333333, 47.376995], "type": "Point"}, "properties": {"charge": 53, "id": "bird_40205b11-7fb6-4830-a2e8-afc5eed33e24", "provider": "bird", "timeStamp": "02/25/2020, 05:38:03"}, "type": "Feature"}, {"geometry": {"coordinates": [8.52050333333333, 47.38845], "type": "Point"}, "properties": {"charge": 91, "id": "bird_527ca5d9-c3e8-434a-997e-fc5af7f64195", "provider": "bird", "timeStamp": "02/25/2020, 05:38:03"}, "type": "Feature"}, {"geometry": {"coordinates": [8.51698166666667, 47.3858916666667], "type": "Point"}, "properties": {"charge": 82, "id": "bird_fc5b19e1-793d-4c4c-a2fd-d8390fcc9b26", "provider": "bird", "timeStamp": "02/25/2020, 05:38:03"}, "type": "Feature"}, {"geometry": {"coordinates": [8.51707, 47.3859066666667], "type": "Point"}, "properties": {"charge": 18, "id": "bird_9fcbeaff-ab2e-4d3a-99cf-dbdba54c32cc", "provider": "bird", "timeStamp": "02/25/2020, 05:38:03"}, "type": "Feature"}, {"geometry": {"coordinates": [8.52340666666667, 47.3895416666667], "type": "Point"}, "properties": {"charge": 21, "id": "bird_897ce362-03c4-4cfa-be09-f33c78376f82", "provider": "bird", "timeStamp": "02/25/2020, 05:38:03"}, "type": "Feature"}, {"geometry": {"coordinates": [8.51745166666667, 47.3861966666667], "type": "Point"}, "properties": {"charge": 96, "id": "bird_d69fd246-44da-400b-a66f-708ed451b337", "provider": "bird", "timeStamp": "02/25/2020, 05:38:03"}, "type": "Feature"}, {"geometry": {"coordinates": [8.51485666666667, 47.3823133333333], "type": "Point"}, "properties": {"charge": 90, "id": "bird_408e1a0a-654a-48e3-9f87-e5edd50f3e87", "provider": "bird", "timeStamp": "02/25/2020, 05:38:03"}, "type": "Feature"}, {"geometry": {"coordinates": [8.51485, 47.382195], "type": "Point"}, "properties": {"charge": 93, "id": "bird_22114ca5-30fa-4694-9b87-4e2a9fa0778f", "provider": "bird", "timeStamp": "02/25/2020, 05:38:03"}, "type": "Feature"}, {"geometry": {"coordinates": [8.51788, 47.3865316666667], "type": "Point"}, "properties": {"charge": 98, "id": "bird_26a09425-3c14-4ca7-a63d-0c48172ca20a", "provider": "bird", "timeStamp": "02/25/2020, 05:38:03"}, "type": "Feature"}, {"geometry": {"coordinates": [8.52051166666667, 47.38829], "type": "Point"}, "properties": {"charge": 98, "id": "bird_0d5d08da-e912-435c-a7a0-aefe6fccc887", "provider": "bird", "timeStamp": "02/25/2020, 05:38:03"}, "type": "Feature"}, {"geometry": {"coordinates": [8.51785166666667, 47.38649], "type": "Point"}, "properties": {"charge": 96, "id": "bird_c6bd0995-1dfb-44e2-ab12-8a405789e1fa", "provider": "bird", "timeStamp": "02/25/2020, 05:38:03"}, "type": "Feature"}, {"geometry": {"coordinates": [8.51781, 47.386395], "type": "Point"}, "properties": {"charge": 79, "id": "bird_79f2fd9d-5be1-481d-9892-156c719bb897", "provider": "bird", "timeStamp": "02/25/2020, 05:38:03"}, "type": "Feature"}, {"geometry": {"coordinates": [8.51511333333333, 47.3827216666667], "type": "Point"}, "properties": {"charge": 22, "id": "bird_8d1e04de-3c4c-4618-9ed9-36b2870576f3", "provider": "bird", "timeStamp": "02/25/2020, 05:38:03"}, "type": "Feature"}, {"geometry": {"coordinates": [8.51752833333333, 47.3861383333333], "type": "Point"}, "properties": {"charge": 97, "id": "bird_9e8bed34-17d8-4dc8-bf98-c75726c73f36", "provider": "bird", "timeStamp": "02/25/2020, 05:38:03"}, "type": "Feature"}, {"geometry": {"coordinates": [8.51765, 47.3861766666667], "type": "Point"}, "properties": {"charge": 97, "id": "bird_eb909e3f-0c56-4d66-826f-84c6b006dedd", "provider": "bird", "timeStamp": "02/25/2020, 05:38:03"}, "type": "Feature"}, {"geometry": {"coordinates": [8.52124333333333, 47.38853], "type": "Point"}, "properties": {"charge": 33, "id": "bird_e8c32186-e55c-4296-aa48-8d9075e93015", "provider": "bird", "timeStamp": "02/25/2020, 05:38:03"}, "type": "Feature"}, {"geometry": {"coordinates": [8.51796, 47.3863866666667], "type": "Point"}, "properties": {"charge": 98, "id": "bird_bda392a4-dffa-40ee-b171-4804ed3ed32e", "provider": "bird", "timeStamp": "02/25/2020, 05:38:03"}, "type": "Feature"}, {"geometry": {"coordinates": [8.51694833333333, 47.3746116666667], "type": "Point"}, "properties": {"charge": 79, "id": "bird_ca3e570c-a429-4687-9e17-028a1ad4960c", "provider": "bird", "timeStamp": "02/25/2020, 05:38:03"}, "type": "Feature"}, {"geometry": {"coordinates": [8.53519333333333, 47.37027], "type": "Point"}, "properties": {"charge": 80, "id": "bird_296797e2-176b-42fd-99b0-1bee46cb5a36", "provider": "bird", "timeStamp": "02/25/2020, 05:38:03"}, "type": "Feature"}, {"geometry": {"coordinates": [8.53679166666667, 47.370765], "type": "Point"}, "properties": {"charge": 12, "id": "bird_e1d7699b-4670-4c04-9d22-d6a97c393bd9", "provider": "bird", "timeStamp": "02/25/2020, 05:38:03"}, "type": "Feature"}, {"geometry": {"coordinates": [8.53755333333333, 47.3889583333333], "type": "Point"}, "properties": {"charge": 79, "id": "bird_5711e003-c3a4-4c1c-9628-8cdeda69f5c9", "provider": "bird", "timeStamp": "02/25/2020, 05:38:03"}, "type": "Feature"}, {"geometry": {"coordinates": [8.51601, 47.3760266666667], "type": "Point"}, "properties": {"charge": 81, "id": "bird_ea4d07cc-7c26-4ea3-9898-bf604dbc14b5", "provider": "bird", "timeStamp": "02/25/2020, 05:38:03"}, "type": "Feature"}, {"geometry": {"coordinates": [8.51519666666667, 47.38216], "type": "Point"}, "properties": {"charge": 91, "id": "bird_fc246cb2-8b30-4eeb-824a-c95220ed79ae", "provider": "bird", "timeStamp": "02/25/2020, 05:38:03"}, "type": "Feature"}, {"geometry": {"coordinates": [8.51522166666667, 47.3821833333333], "type": "Point"}, "properties": {"charge": 91, "id": "bird_be6d008a-36fd-4abd-bfed-966ed1de7a57", "provider": "bird", "timeStamp": "02/25/2020, 05:38:03"}, "type": "Feature"}, {"geometry": {"coordinates": [8.53342333333333, 47.37003], "type": "Point"}, "properties": {"charge": 63, "id": "bird_bce812fa-636a-40ea-8a0f-1957e413f0c1", "provider": "bird", "timeStamp": "02/25/2020, 05:38:03"}, "type": "Feature"}, {"geometry": {"coordinates": [8.518255, 47.3863683333333], "type": "Point"}, "properties": {"charge": 96, "id": "bird_d7aeab31-1e68-4a88-acf6-b0cf13c21511", "provider": "bird", "timeStamp": "02/25/2020, 05:38:03"}, "type": "Feature"}, {"geometry": {"coordinates": [8.51754333333333, 47.3743316666667], "type": "Point"}, "properties": {"charge": 27, "id": "bird_059c5dff-04f3-415c-ac0a-4790cb203362", "provider": "bird", "timeStamp": "02/25/2020, 05:38:03"}, "type": "Feature"}, {"geometry": {"coordinates": [8.52695833333333, 47.37009], "type": "Point"}, "properties": {"charge": 63, "id": "bird_8a703ba3-4010-4395-9542-7be348309ce3", "provider": "bird", "timeStamp": "02/25/2020, 05:38:03"}, "type": "Feature"}, {"geometry": {"coordinates": [8.51772333333333, 47.38575], "type": "Point"}, "properties": {"charge": 84, "id": "bird_5d811538-f01e-4993-adaf-6cad88b464f3", "provider": "bird", "timeStamp": "02/25/2020, 05:38:03"}, "type": "Feature"}, {"geometry": {"coordinates": [8.53803, 47.371495], "type": "Point"}, "properties": {"charge": 87, "id": "bird_c4a80866-465c-4974-bb4a-c8326c394340", "provider": "bird", "timeStamp": "02/25/2020, 05:38:03"}, "type": "Feature"}, {"geometry": {"coordinates": [8.51796833333333, 47.38596], "type": "Point"}, "properties": {"charge": 94, "id": "bird_efb4b167-7147-4071-8a9a-0c1598646b6d", "provider": "bird", "timeStamp": "02/25/2020, 05:38:03"}, "type": "Feature"}, {"geometry": {"coordinates": [8.54370166666667, 47.3760916666667], "type": "Point"}, "properties": {"charge": 18, "id": "bird_e947c290-c329-4295-806c-be35ec2bca6e", "provider": "bird", "timeStamp": "02/25/2020, 05:38:03"}, "type": "Feature"}, {"geometry": {"coordinates": [8.54397666666667, 47.3765866666667], "type": "Point"}, "properties": {"charge": 93, "id": "bird_4875636f-83e5-4bcd-ac1a-9f1f5fa20522", "provider": "bird", "timeStamp": "02/25/2020, 05:38:03"}, "type": "Feature"}, {"geometry": {"coordinates": [8.54394666666667, 47.3765716666667], "type": "Point"}, "properties": {"charge": 92, "id": "bird_4b90bcdf-eea4-430f-ab12-3b9cfd491a31", "provider": "bird", "timeStamp": "02/25/2020, 05:38:03"}, "type": "Feature"}, {"geometry": {"coordinates": [8.543925, 47.3765416666667], "type": "Point"}, "properties": {"charge": 93, "id": "bird_5804b6a4-fc22-498b-97dd-5aedb1201dd6", "provider": "bird", "timeStamp": "02/25/2020, 05:38:03"}, "type": "Feature"}, {"geometry": {"coordinates": [8.51846, 47.3863066666667], "type": "Point"}, "properties": {"charge": 97, "id": "bird_8a37573a-2a31-446f-b7e6-d2986cf7758e", "provider": "bird", "timeStamp": "02/25/2020, 05:38:03"}, "type": "Feature"}, {"geometry": {"coordinates": [8.51776166666667, 47.38565], "type": "Point"}, "properties": {"charge": 34, "id": "bird_529a04ca-60c2-4dee-8f90-92f1d55dcd43", "provider": "bird", "timeStamp": "02/25/2020, 05:38:03"}, "type": "Feature"}, {"geometry": {"coordinates": [8.51782, 47.3856316666667], "type": "Point"}, "properties": {"charge": 94, "id": "bird_b03e53bf-34f3-4c27-9f83-fbd57ef32d96", "provider": "bird", "timeStamp": "02/25/2020, 05:38:03"}, "type": "Feature"}, {"geometry": {"coordinates": [8.5233, 47.371105], "type": "Point"}, "properties": {"charge": 84, "id": "bird_e1cf2fa4-f56b-4502-8275-92aeef173022", "provider": "bird", "timeStamp": "02/25/2020, 05:38:03"}, "type": "Feature"}, {"geometry": {"coordinates": [8.54366833333333, 47.3762633333333], "type": "Point"}, "properties": {"charge": 82, "id": "bird_ff1df3b9-3815-4c70-bb83-687ab402b659", "provider": "bird", "timeStamp": "02/25/2020, 05:38:03"}, "type": "Feature"}, {"geometry": {"coordinates": [8.51607, 47.37674], "type": "Point"}, "properties": {"charge": 38, "id": "bird_1b411d9d-0bdf-478a-9ab9-5057ccd8658d", "provider": "bird", "timeStamp": "02/25/2020, 05:38:03"}, "type": "Feature"}, {"geometry": {"coordinates": [8.51973666666667, 47.3728416666667], "type": "Point"}, "properties": {"charge": 26, "id": "bird_822b357d-a776-4e04-b25e-32f39b628031", "provider": "bird", "timeStamp": "02/25/2020, 05:38:03"}, "type": "Feature"}, {"geometry": {"coordinates": [8.52319833333333, 47.3711516666667], "type": "Point"}, "properties": {"charge": 91, "id": "bird_7f8646a1-1440-408c-ba1b-e26b75156c89", "provider": "bird", "timeStamp": "02/25/2020, 05:38:03"}, "type": "Feature"}, {"geometry": {"coordinates": [8.544085, 47.3771216666667], "type": "Point"}, "properties": {"charge": 60, "id": "bird_b09481a4-0325-419e-a42a-e01269a6be69", "provider": "bird", "timeStamp": "02/25/2020, 05:38:03"}, "type": "Feature"}, {"geometry": {"coordinates": [8.523205, 47.371185], "type": "Point"}, "properties": {"charge": 91, "id": "bird_23ca9fe2-ee84-4bee-9662-ee019ad6ce78", "provider": "bird", "timeStamp": "02/25/2020, 05:38:03"}, "type": "Feature"}, {"geometry": {"coordinates": [8.54360166666667, 47.37627], "type": "Point"}, "properties": {"charge": 89, "id": "bird_a7ad26e0-8bc9-4e27-8f7e-17259ce5f6a3", "provider": "bird", "timeStamp": "02/25/2020, 05:38:03"}, "type": "Feature"}, {"geometry": {"coordinates": [8.51789, 47.3855933333333], "type": "Point"}, "properties": {"charge": 97, "id": "bird_424084ef-a0f8-4884-9dad-fd4944e36f58", "provider": "bird", "timeStamp": "02/25/2020, 05:38:03"}, "type": "Feature"}, {"geometry": {"coordinates": [8.51859333333333, 47.3862183333333], "type": "Point"}, "properties": {"charge": 98, "id": "bird_a556a70c-d26b-4b63-9f16-57cafa35f9f9", "provider": "bird", "timeStamp": "02/25/2020, 05:38:03"},