{"features": [{"geometry": {"coordinates": [8.540062, 47.374392], "type": "Point"}, "properties": {"address": "Uraniastrasse 7", "electric": 0, "id": "pb_60", "manual": 12, "name": "Demo Station Werdm\u00fchleplatz", "provider": "publibike", "timeStamp": "03/05/2020, 20:33:47", "zip": 8001}, "type": "Feature"}, {"geometry": {"coordinates": [8.5452956, 47.4099615], "type": "Point"}, "properties": {"address": "Querstrasse 8", "electric": 0, "id": "pb_61", "manual": 9, "name": "Marktplatz", "provider": "publibike", "timeStamp": "03/05/2020, 20:33:47", "zip": 8050}, "type": "Feature"}, {"geometry": {"coordinates": [8.5156327, 47.3795837], "type": "Point"}, "properties": {"address": "Bullingerstrasse 5", "electric": 7, "id": "pb_80", "manual": 2, "name": "Bullingerplatz", "provider": "publibike", "timeStamp": "03/05/2020, 20:33:47", "zip": 8004}, "type": "Feature"}, {"geometry": {"coordinates": [8.5104051, 47.3899342], "type": "Point"}, "properties": {"address": "Pfingstweidstrasse 96e", "electric": 0, "id": "pb_81", "manual": 6, "name": "Herdern", "provider": "publibike", "timeStamp": "03/05/2020, 20:33:47", "zip": 8001}, "type": "Feature"}, {"geometry": {"coordinates": [8.535718, 47.359675], "type": "Point"}, "properties": {"address": "Mythenquai 50", "electric": 5, "id": "pb_82", "manual": 2, "name": "Hafen Enge", "provider": "publibike", "timeStamp": "03/05/2020, 20:33:47", "zip": 8002}, "type": "Feature"}, {"geometry": {"coordinates": [8.520370505, 47.358663827], "type": "Point"}, "properties": {"address": "Bubenbergstrasse 1", "electric": 7, "id": "pb_83", "manual": 2, "name": "Comerge", "provider": "publibike", "timeStamp": "03/05/2020, 20:33:47", "zip": 8045}, "type": "Feature"}, {"geometry": {"coordinates": [8.5412505, 47.3789825], "type": "Point"}, "properties": {"address": "Museumstrasse 2", "electric": 5, "id": "pb_84", "manual": 4, "name": "Landesmuseum", "provider": "publibike", "timeStamp": "03/05/2020, 20:33:47", "zip": 8001}, "type": "Feature"}, {"geometry": {"coordinates": [8.5235479, 47.3716661], "type": "Point"}, "properties": {"address": "Birmensdorferstrasse 80", "electric": 6, "id": "pb_85", "manual": 4, "name": "Bahnhof Wiedikon", "provider": "publibike", "timeStamp": "03/05/2020, 20:33:47", "zip": 8003}, "type": "Feature"}, {"geometry": {"coordinates": [8.506822854, 47.40781197], "type": "Point"}, "properties": {"address": "Stefano-Franscini-Platz 5", "electric": 55, "id": "pb_86", "manual": 0, "name": "ETH H\u00f6nggerberg", "provider": "publibike", "timeStamp": "03/05/2020, 20:33:47", "zip": 8093}, "type": "Feature"}, {"geometry": {"coordinates": [8.536101, 47.371083], "type": "Point"}, "properties": {"address": "Pelikanplatz 5", "electric": 1, "id": "pb_87", "manual": 6, "name": "Pelikanplatz", "provider": "publibike", "timeStamp": "03/05/2020, 20:33:47", "zip": 8001}, "type": "Feature"}, {"geometry": {"coordinates": [8.5257822, 47.3651936], "type": "Point"}, "properties": {"address": "H\u00fcrlimannplatz 90", "electric": 2, "id": "pb_88", "manual": 2, "name": "H\u00fcrlimannplatz", "provider": "publibike", "timeStamp": "03/05/2020, 20:33:47", "zip": 8002}, "type": "Feature"}, {"geometry": {"coordinates": [8.5313344, 47.3713591], "type": "Point"}, "properties": {"address": "Selnaustrasse 32", "electric": 1, "id": "pb_89", "manual": 5, "name": "Stauffacherbr\u00fccke", "provider": "publibike", "timeStamp": "03/05/2020, 20:33:47", "zip": 8001}, "type": "Feature"}, {"geometry": {"coordinates": [8.5056978, 47.3917964], "type": "Point"}, "properties": {"address": "Sportweg 25", "electric": 1, "id": "pb_90", "manual": 6, "name": "Sportweg", "provider": "publibike", "timeStamp": "03/05/2020, 20:33:47", "zip": 8005}, "type": "Feature"}, {"geometry": {"coordinates": [8.5181701, 47.3917837], "type": "Point"}, "properties": {"address": "Hardturmstrasse 11", "electric": 0, "id": "pb_91", "manual": 3, "name": "Puls 5", "provider": "publibike", "timeStamp": "03/05/2020, 20:33:47", "zip": 8005}, "type": "Feature"}, {"geometry": {"coordinates": [8.5286468, 47.3820827], "type": "Point"}, "properties": {"address": "R\u00f6ntgenstrasse 6", "electric": 0, "id": "pb_92", "manual": 4, "name": "R\u00f6ntgenstrasse", "provider": "publibike", "timeStamp": "03/05/2020, 20:33:47", "zip": 8005}, "type": "Feature"}, {"geometry": {"coordinates": [8.531935, 47.384918], "type": "Point"}, "properties": {"address": "Kornhausbr\u00fccke 1", "electric": 1, "id": "pb_93", "manual": 13, "name": "Limmatplatz", "provider": "publibike", "timeStamp": "03/05/2020, 20:33:47", "zip": 8005}, "type": "Feature"}, {"geometry": {"coordinates": [8.5354006, 47.3758639], "type": "Point"}, "properties": {"address": "Gessnerallee 15", "electric": 0, "id": "pb_94", "manual": 6, "name": "Gessnerallee", "provider": "publibike", "timeStamp": "03/05/2020, 20:33:47", "zip": 8001}, "type": "Feature"}, {"geometry": {"coordinates": [8.523818, 47.377148], "type": "Point"}, "properties": {"address": "Stauffacherstrasse 127", "electric": 1, "id": "pb_95", "manual": 3, "name": "B\u00e4ckeranlage", "provider": "publibike", "timeStamp": "03/05/2020, 20:33:47", "zip": 8004}, "type": "Feature"}, {"geometry": {"coordinates": [8.531836, 47.378548], "type": "Point"}, "properties": {"address": "Lagerstrasse 44", "electric": 6, "id": "pb_96", "manual": 8, "name": "Gustav-Gull-Platz", "provider": "publibike", "timeStamp": "03/05/2020, 20:33:47", "zip": 8004}, "type": "Feature"}, {"geometry": {"coordinates": [8.5104883, 47.3771535], "type": "Point"}, "properties": {"address": "Zurlindenstrasse 291", "electric": 3, "id": "pb_97", "manual": 5, "name": "Zurlindenstrasse", "provider": "publibike", "timeStamp": "03/05/2020, 20:33:47", "zip": 8003}, "type": "Feature"}, {"geometry": {"coordinates": [8.5333139, 47.3731102], "type": "Point"}, "properties": {"address": "Sihlstrasse 81", "electric": 1, "id": "pb_98", "manual": 3, "name": "Sihlstrasse", "provider": "publibike", "timeStamp": "03/05/2020, 20:33:47", "zip": 8001}, "type": "Feature"}, {"geometry": {"coordinates": [8.520532, 47.374951], "type": "Point"}, "properties": {"address": "Feldstrasse 24", "electric": 1, "id": "pb_99", "manual": 6, "name": "Kalkbreite", "provider": "publibike", "timeStamp": "03/05/2020, 20:33:47", "zip": 8004}, "type": "Feature"}, {"geometry": {"coordinates": [8.539046, 47.368064], "type": "Point"}, "properties": {"address": "Talstrasse 12", "electric": 0, "id": "pb_100", "manual": 3, "name": "Z\u00fcrcher Kantonalbank", "provider": "publibike", "timeStamp": "03/05/2020, 20:33:47", "zip": 8001}, "type": "Feature"}, {"geometry": {"coordinates": [8.5348427, 47.3625938], "type": "Point"}, "properties": {"address": "Breitingerstrasse 5", "electric": 1, "id": "pb_101", "manual": 4, "name": "Rentenanstalt", "provider": "publibike", "timeStamp": "03/05/2020, 20:33:47", "zip": 8002}, "type": "Feature"}, {"geometry": {"coordinates": [8.5166922, 47.3897772], "type": "Point"}, "properties": {"address": "Technoparkstrasse 4", "electric": 4, "id": "pb_102", "manual": 0, "name": "Turbinenplatz", "provider": "publibike", "timeStamp": "03/05/2020, 20:33:47", "zip": 8005}, "type": "Feature"}, {"geometry": {"coordinates": [8.539312, 47.3739964], "type": "Point"}, "properties": {"address": "Oetenbachgasse 14", "electric": 6, "id": "pb_104", "manual": 8, "name": "Rennweg", "provider": "publibike", "timeStamp": "03/05/2020, 20:33:47", "zip": 8001}, "type": "Feature"}, {"geometry": {"coordinates": [8.5360685, 47.3775022], "type": "Point"}, "properties": {"address": "Kasernenstrasse 101", "electric": 27, "id": "pb_105", "manual": 18, "name": "Sihlpost", "provider": "publibike", "timeStamp": "03/05/2020, 20:33:47", "zip": 8004}, "type": "Feature"}, {"geometry": {"coordinates": [8.53545, 47.382798], "type": "Point"}, "properties": {"address": "Ausstellungsstrasse 44", "electric": 1, "id": "pb_106", "manual": 3, "name": "Museum f\u00fcr Gestaltung", "provider": "publibike", "timeStamp": "03/05/2020, 20:33:47", "zip": 8005}, "type": "Feature"}, {"geometry": {"coordinates": [8.5306155, 47.3647902], "type": "Point"}, "properties": {"address": "Gutenbergstrasse 1", "electric": 4, "id": "pb_107", "manual": 3, "name": "Bederbr\u00fccke", "provider": "publibike", "timeStamp": "03/05/2020, 20:33:47", "zip": 8002}, "type": "Feature"}, {"geometry": {"coordinates": [8.518982, 47.386741], "type": "Point"}, "properties": {"address": "Geroldstrasse 4", "electric": 11, "id": "pb_108", "manual": 17, "name": "Bahnhof Hardbr\u00fccke", "provider": "publibike", "timeStamp": "03/05/2020, 20:33:47", "zip": 8005}, "type": "Feature"}, {"geometry": {"coordinates": [8.53001018, 47.37247535], "type": "Point"}, "properties": {"address": "Werdstrasse 21", "electric": 1, "id": "pb_109", "manual": 0, "name": "Tamedia", "provider": "publibike", "timeStamp": "03/05/2020, 20:33:47", "zip": 8004}, "type": "Feature"}, {"geometry": {"coordinates": [8.4860017, 47.396401], "type": "Point"}, "properties": {"address": "Gr\u00fcnauring 37", "electric": 6, "id": "pb_110", "manual": 2, "name": "Gr\u00fcnau", "provider": "publibike", "timeStamp": "03/05/2020, 20:33:47", "zip": 8064}, "type": "Feature"}, {"geometry": {"coordinates": [8.548519, 47.376756], "type": "Point"}, "properties": {"address": "R\u00e4mistrasse 101", "electric": 15, "id": "pb_111", "manual": 2, "name": "ETH Zentrum", "provider": "publibike", "timeStamp": "03/05/2020, 20:33:47", "zip": 8006}, "type": "Feature"}, {"geometry": {"coordinates": [8.520449, 47.388151], "type": "Point"}, "properties": {"address": "Josefstrasse 224", "electric": 4, "id": "pb_112", "manual": 2, "name": "Steinfelsareal", "provider": "publibike", "timeStamp": "03/05/2020, 20:33:47", "zip": 8005}, "type": "Feature"}, {"geometry": {"coordinates": [8.520482, 47.37209], "type": "Point"}, "properties": {"address": "Weststrasse 115", "electric": 3, "id": "pb_124", "manual": 3, "name": "Weststrasse", "provider": "publibike", "timeStamp": "03/05/2020, 20:33:47", "zip": 8003}, "type": "Feature"}, {"geometry": {"coordinates": [8.496727, 47.378521], "type": "Point"}, "properties": {"address": "Albisriederstrasse 200", "electric": 3, "id": "pb_125", "manual": 4, "name": "Utogrund", "provider": "publibike", "timeStamp": "03/05/2020, 20:33:47", "zip": 8047}, "type": "Feature"}, {"geometry": {"coordinates": [8.510418, 47.381356], "type": "Point"}, "properties": {"address": "Bullingerstrasse 73", "electric": 4, "id": "pb_126", "manual": 5, "name": "Hardau", "provider": "publibike", "timeStamp": "03/05/2020, 20:33:47", "zip": 8004}, "type": "Feature"}, {"geometry": {"coordinates": [8.525525, 47.361567], "type": "Point"}, "properties": {"address": "Klopstockstrasse 23", "electric": 2, "id": "pb_127", "manual": 2, "name": "Klopstockwiese", "provider": "publibike", "timeStamp": "03/05/2020, 20:33:47", "zip": 8002}, "type": "Feature"}, {"geometry": {"coordinates": [8.518143, 47.363148], "type": "Point"}, "properties": {"address": "Haldenstrasse 8", "electric": 13, "id": "pb_128", "manual": 11, "name": "Binz", "provider": "publibike", "timeStamp": "03/05/2020, 20:33:47", "zip": 8045}, "type": "Feature"}, {"geometry": {"coordinates": [8.542726, 47.379952], "type": "Point"}, "properties": {"address": "Walchestrasse 11", "electric": 2, "id": "pb_129", "manual": 0, "name": "Stampfenbachplatz", "provider": "publibike", "timeStamp": "03/05/2020, 20:33:47", "zip": 8006}, "type": "Feature"}, {"geometry": {"coordinates": [8.488108, 47.391366], "type": "Point"}, "properties": {"address": "Altstetterplatz 1", "electric": 5, "id": "pb_130", "manual": 6, "name": "Bahnhof Altstetten", "provider": "publibike", "timeStamp": "03/05/2020, 20:33:47", "zip": 8048}, "type": "Feature"}, {"geometry": {"coordinates": [8.554114, 47.365119], "type": "Point"}, "properties": {"address": "Kreuzplatz 2", "electric": 7, "id": "pb_131", "manual": 4, "name": "Kreuzplatz", "provider": "publibike", "timeStamp": "03/05/2020, 20:33:47", "zip": 8032}, "type": "Feature"}, {"geometry": {"coordinates": [8.549852, 47.35594], "type": "Point"}, "properties": {"address": "H\u00f6schgasse 3", "electric": 3, "id": "pb_132", "manual": 5, "name": "Blatterwiese", "provider": "publibike", "timeStamp": "03/05/2020, 20:33:47", "zip": 8008}, "type": "Feature"}, {"geometry": {"coordinates": [8.554501, 47.36162], "type": "Point"}, "properties": {"address": "Feldeggstrasse 80", "electric": 2, "id": "pb_133", "manual": 5, "name": "Villa Bleuler", "provider": "publibike", "timeStamp": "03/05/2020, 20:33:47", "zip": 8008}, "type": "Feature"}, {"geometry": {"coordinates": [8.557088, 47.358557], "type": "Point"}, "properties": {"address": "M\u00fchlebachstrasse 131", "electric": 3, "id": "pb_134", "manual": 5, "name": "M\u00fchlebachstrasse", "provider": "publibike", "timeStamp": "03/05/2020, 20:33:47", "zip": 8008}, "type": "Feature"}, {"geometry": {"coordinates": [8.547639, 47.361266], "type": "Point"}, "properties": {"address": "Utoquai 50", "electric": 2, "id": "pb_135", "manual": 6, "name": "Seebad Utoquai", "provider": "publibike", "timeStamp": "03/05/2020, 20:33:47", "zip": 8008}, "type": "Feature"}, {"geometry": {"coordinates": [8.548045, 47.370869], "type": "Point"}, "properties": {"address": "Heimplatz 1", "electric": 0, "id": "pb_137", "manual": 0, "name": "Kunsthaus", "provider": "publibike", "timeStamp": "03/05/2020, 20:33:47", "zip": 8001}, "type": "Feature"}, {"geometry": {"coordinates": [8.543447, 47.375933], "type": "Point"}, "properties": {"address": "Limmatquai 138", "electric": 0, "id": "pb_138", "manual": 6, "name": "Central", "provider": "publibike", "timeStamp": "03/05/2020, 20:33:47", "zip": 8001}, "type": "Feature"}, {"geometry": {"coordinates": [8.549356, 47.408827], "type": "Point"}, "properties": {"address": "Tramstrasse 35", "electric": 3, "id": "pb_139", "manual": 0, "name": "ewz Tramstrasse", "provider": "publibike", "timeStamp": "03/05/2020, 20:33:47", "zip": 8050}, "type": "Feature"}, {"geometry": {"coordinates": [8.533736, 47.366904], "type": "Point"}, "properties": {"address": "Bleicherweg 33", "electric": 1, "id": "pb_140", "manual": 10, "name": "Bleicherweg", "provider": "publibike", "timeStamp": "03/05/2020, 20:33:47", "zip": 8002}, "type": "Feature"}, {"geometry": {"coordinates": [8.544935, 47.366752], "type": "Point"}, "properties": {"address": "Bellevueplatz 2", "electric": 15, "id": "pb_141", "manual": 23, "name": "Bellevue", "provider": "publibike", "timeStamp": "03/05/2020, 20:33:47", "zip": 8001}, "type": "Feature"}, {"geometry": {"coordinates": [8.5285533, 47.3742296], "type": "Point"}, "properties": {"address": "Stauffacherstrasse 41", "electric": 2, "id": "pb_142", "manual": 6, "name": "Stauffacher", "provider": "publibike", "timeStamp": "03/05/2020, 20:33:47", "zip": 8004}, "type": "Feature"}, {"geometry": {"coordinates": [8.523722, 47.3899], "type": "Point"}, "properties": {"address": "Limmatstrasse 310", "electric": 5, "id": "pb_143", "manual": 6, "name": "Escher-Wyss-Platz", "provider": "publibike", "timeStamp": "03/05/2020, 20:33:47", "zip": 8005}, "type": "Feature"}, {"geometry": {"coordinates": [8.491061, 47.392336], "type": "Point"}, "properties": {"address": "Vulkanplatz 1", "electric": 2, "id": "pb_149", "manual": 13, "name": "Vulkanplatz", "provider": "publibike", "timeStamp": "03/05/2020, 20:33:47", "zip": 8048}, "type": "Feature"}, {"geometry": {"coordinates": [8.52306, 47.359872], "type": "Point"}, "properties": {"address": "Giessh\u00fcbelstrasse 15", "electric": 8, "id": "pb_150", "manual": 6, "name": "Utoplatz", "provider": "publibike", "timeStamp": "03/05/2020, 20:33:47", "zip": 8045}, "type": "Feature"}, {"geometry": {"coordinates": [8.486284, 47.387685], "type": "Point"}, "properties": {"address": "Lindenplatz 1", "electric": 4, "id": "pb_151", "manual": 6, "name": "Lindenplatz", "provider": "publibike", "timeStamp": "03/05/2020, 20:33:47", "zip": 8048}, "type": "Feature"}, {"geometry": {"coordinates": [8.49163, 47.389823], "type": "Point"}, "properties": {"address": "Hohlstrasse 563", "electric": 1, "id": "pb_152", "manual": 3, "name": "Luggweg", "provider": "publibike", "timeStamp": "03/05/2020, 20:33:47", "zip": 8048}, "type": "Feature"}, {"geometry": {"coordinates": [8.52174, 47.365272], "type": "Point"}, "properties": {"address": "Manessestrasse 87", "electric": 5, "id": "pb_153", "manual": 2, "name": "Manesseplatz", "provider": "publibike", "timeStamp": "03/05/2020, 20:33:47", "zip": 8045}, "type": "Feature"}, {"geometry": {"coordinates": [8.52714, 47.372329], "type": "Point"}, "properties": {"address": "Werdstrasse 75", "electric": 0, "id": "pb_154", "manual": 2, "name": "Werd", "provider": "publibike", "timeStamp": "03/05/2020, 20:33:47", "zip": 8004}, "type": "Feature"}, {"geometry": {"coordinates": [8.543042, 47.374711], "type": "Point"}, "properties": {"address": "Limmatquai 100", "electric": 0, "id": "pb_155", "manual": 0, "name": "Rudolf-Brun-Br\u00fccke", "provider": "publibike", "timeStamp": "03/05/2020, 20:33:47", "zip": 8001}, "type": "Feature"}, {"geometry": {"coordinates": [8.490837, 47.386596], "type": "Point"}, "properties": {"address": "Badenerstrasse 627", "electric": 1, "id": "pb_156", "manual": 5, "name": "Luggwegstrasse VBZ", "provider": "publibike", "timeStamp": "03/05/2020, 20:33:47", "zip": 8048}, "type": "Feature"}, {"geometry": {"coordinates": [8.535119, 47.355189], "type": "Point"}, "properties": {"address": "Mythenquai 95", "electric": 5, "id": "pb_157", "manual": 14, "name": "Strandbad Mythenquai", "provider": "publibike", "timeStamp": "03/05/2020, 20:33:47", "zip": 8002}, "type": "Feature"}, {"geometry": {"coordinates": [8.545505, 47.373675], "type": "Point"}, "properties": {"address": "Predigerpatz 21", "electric": 1, "id": "pb_158", "manual": 5, "name": "Predigerplatz", "provider": "publibike", "timeStamp": "03/05/2020, 20:33:47", "zip": 8001}, "type": "Feature"}, {"geometry": {"coordinates": [8.515558, 47.371868], "type": "Point"}, "properties": {"address": "Aemtlerstrasse 23", "electric": 5, "id": "pb_159", "manual": 6, "name": "Zwinglihaus", "provider": "publibike", "timeStamp": "03/05/2020, 20:33:47", "zip": 8003}, "type": "Feature"}, {"geometry": {"coordinates": [8.524629, 47.386072], "type": "Point"}, "properties": {"address": "Josefstrasse 188", "electric": 4, "id": "pb_160", "manual": 9, "name": "Josefwiese", "provider": "publibike", "timeStamp": "03/05/2020, 20:33:47", "zip": 8005}, "type": "Feature"}, {"geometry": {"coordinates": [8.527138, 47.387531], "type": "Point"}, "properties": {"address": "R\u00f6ntgenstrasse 87", "electric": 3, "id": "pb_164", "manual": 6, "name": "Markthalle", "provider": "publibike", "timeStamp": "03/05/2020, 20:33:47", "zip": 8005}, "type": "Feature"}, {"geometry": {"coordinates": [8.552717, 47.359978], "type": "Point"}, "properties": {"address": "Seefeldstrasse 96", "electric": 1, "id": "pb_263", "manual": 3, "name": "Feldeggstrasse", "provider": "publibike", "timeStamp": "03/05/2020, 20:33:47", "zip": 8008}, "type": "Feature"}, {"geometry": {"coordinates": [8.553189, 47.353198], "type": "Point"}, "properties": {"address": "Bellerivestrasse 170", "electric": 1, "id": "pb_264", "manual": 2, "name": "Lake Side", "provider": "publibike", "timeStamp": "03/05/2020, 20:33:47", "zip": 8008}, "type": "Feature"}, {"geometry": {"coordinates": [8.543437, 47.369256], "type": "Point"}, "properties": {"address": "Limmatquai 18", "electric": 0, "id": "pb_265", "manual": 0, "name": "Helmhaus", "provider": "publibike", "timeStamp": "03/05/2020, 20:33:47", "zip": 8032}, "type": "Feature"}, {"geometry": {"coordinates": [8.516676, 47.375819], "type": "Point"}, "properties": {"address": "Badenerstrasse 246", "electric": 17, "id": "pb_266", "manual": 5, "name": "Lochergut", "provider": "publibike", "timeStamp": "03/05/2020, 20:33:47", "zip": 8004}, "type": "Feature"}, {"geometry": {"coordinates": [8.514605, 47.389862], "type": "Point"}, "properties": {"address": "Pfingstweidstrasse 60", "electric": 1, "id": "pb_273", "manual": 1, "name": "Westpark", "provider": "publibike", "timeStamp": "03/05/2020, 20:33:47", "zip": 8005}, "type": "Feature"}, {"geometry": {"coordinates": [8.541239126, 47.375991201], "type": "Point"}, "properties": {"address": "Beatenplatz 1", "electric": 2, "id": "pb_274", "manual": 14, "name": "Beatenplatz", "provider": "publibike", "timeStamp": "03/05/2020, 20:33:47", "zip": 8001}, "type": "Feature"}, {"geometry": {"coordinates": [8.5417135, 47.3942197], "type": "Point"}, "properties": {"address": "Scheuchzerstrasse 181", "electric": 6, "id": "pb_275", "manual": 1, "name": "Pauluskirche", "provider": "publibike", "timeStamp": "03/05/2020, 20:33:47", "zip": 8057}, "type": "Feature"}, {"geometry": {"coordinates": [8.5528182, 47.414558], "type": "Point"}, "properties": {"address": "Hagenholzstrasse 51", "electric": 1, "id": "pb_276", "manual": 11, "name": "Airgate", "provider": "publibike", "timeStamp": "03/05/2020, 20:33:47", "zip": 8050}, "type": "Feature"}, {"geometry": {"coordinates": [8.537816, 47.413514], "type": "Point"}, "properties": {"address": "Birchstrasse 183", "electric": 1, "id": "pb_277", "manual": 6, "name": "Lamprechtweg", "provider": "publibike", "timeStamp": "03/05/2020, 20:33:47", "zip": 8050}, "type": "Feature"}, {"geometry": {"coordinates": [8.545602, 47.417701], "type": "Point"}, "properties": {"address": "Felsenrainstrasse 2", "electric": 5, "id": "pb_278", "manual": 6, "name": "Emil-Oberh\u00e4nsli", "provider": "publibike", "timeStamp": "03/05/2020, 20:33:47", "zip": 8050}, "type": "Feature"}, {"geometry": {"coordinates": [8.533647, 47.39808], "type": "Point"}, "properties": {"address": "Bucheggplatz 2", "electric": 1, "id": "pb_279", "manual": 6, "name": "Bucheggplatz", "provider": "publibike", "timeStamp": "03/05/2020, 20:33:47", "zip": 8057}, "type": "Feature"}, {"geometry": {"coordinates": [8.523549, 47.392347], "type": "Point"}, "properties": {"address": "Wipkingerplatz 4", "electric": 5, "id": "pb_280", "manual": 15, "name": "Wipkingerplatz", "provider": "publibike", "timeStamp": "03/05/2020, 20:33:47", "zip": 8037}, "type": "Feature"}, {"geometry": {"coordinates": [8.548562, 47.36691], "type": "Point"}, "properties": {"address": "Galerie \u00fcber Gleis 2/3", "electric": 13, "id": "pb_285", "manual": 4, "name": "Bahnhof Stadelhofen", "provider": "publibike", "timeStamp": "03/05/2020, 20:33:47", "zip": 8001}, "type": "Feature"}, {"geometry": {"coordinates": [8.493822, 47.3985553], "type": "Point"}, "properties": {"address": "Meierwiesenstrasse 12-4", "electric": 3, "id": "pb_286", "manual": 1, "name": "T\u00fcffenwies", "provider": "publibike", "timeStamp": "03/05/2020, 20:33:47", "zip": 8064}, "type": "Feature"}, {"geometry": {"coordinates": [8.552432, 47.3801757], "type": "Point"}, "properties": {"address": "Hochstrasse 34", "electric": 1, "id": "pb_356", "manual": 0, "name": "Siriuswiese", "provider": "publibike", "timeStamp": "03/05/2020, 20:33:47", "zip": 8044}, "type": "Feature"}, {"geometry": {"coordinates": [8.527298, 47.370141], "type": "Point"}, "properties": {"address": "Hallwylstrasse 71", "electric": 1, "id": "pb_357", "manual": 3, "name": "Hallwylstrasse", "provider": "publibike", "timeStamp": "03/05/2020, 20:33:47", "zip": 8004}, "type": "Feature"}, {"geometry": {"coordinates": [8.5414185, 47.3972455], "type": "Point"}, "properties": {"address": "Schaffhauserstrasse 137", "electric": 19, "id": "pb_358", "manual": 1, "name": "Milchbuck", "provider": "publibike", "timeStamp": "03/05/2020, 20:33:47", "zip": 8057}, "type": "Feature"}, {"geometry": {"coordinates": [8.512381, 47.393409], "type": "Point"}, "properties": {"address": "Hardturmstrasse 161", "electric": 2, "id": "pb_359", "manual": 1, "name": "Fischerweg", "provider": "publibike", "timeStamp": "03/05/2020, 20:33:47", "zip": 8005}, "type": "Feature"}, {"geometry": {"coordinates": [8.5421457, 47.3876979], "type": "Point"}, "properties": {"address": "Turnerstrasse 47", "electric": 2, "id": "pb_360", "manual": 1, "name": "Kirche Unterstrass", "provider": "publibike", "timeStamp": "03/05/2020, 20:33:47", "zip": 8006}, "type": "Feature"}, {"geometry": {"coordinates": [8.522117, 47.394554], "type": "Point"}, "properties": {"address": "Dorfstrasse 40", "electric": 1, "id": "pb_361", "manual": 1, "name": "Dorfstrasse", "provider": "publibike", "timeStamp": "03/05/2020, 20:33:47", "zip": 8037}, "type": "Feature"}, {"geometry": {"coordinates": [8.530437, 47.37271], "type": "Point"}, "properties": {"address": "Werdstrasse 25", "electric": 1, "id": "pb_362", "manual": 2, "name": "Stauffachertor", "provider": "publibike", "timeStamp": "03/05/2020, 20:33:47", "zip": 8004}, "type": "Feature"}, {"geometry": {"coordinates": [8.541712, 47.416155], "type": "Point"}, "properties": {"address": "Eggb\u00fchlstrasse 21", "electric": 0, "id": "pb_363", "manual": 3, "name": "Wahlenpark", "provider": "publibike", "timeStamp": "03/05/2020, 20:33:47", "zip": 8050}, "type": "Feature"}, {"geometry": {"coordinates": [8.5595335, 47.3708387], "type": "Point"}, "properties": {"address": "Dolderstrasse 32", "electric": 2, "id": "pb_364", "manual": 3, "name": "Kinderspital", "provider": "publibike", "timeStamp": "03/05/2020, 20:33:47", "zip": 8032}, "type": "Feature"}, {"geometry": {"coordinates": [8.536433, 47.388689], "type": "Point"}, "properties": {"address": "Kornhausstrasse 30", "electric": 2, "id": "pb_365", "manual": 6, "name": "Kornhausstrasse", "provider": "publibike", "timeStamp": "03/05/2020, 20:33:47", "zip": 8006}, "type": "Feature"}, {"geometry": {"coordinates": [8.55033, 47.407098], "type": "Point"}, "properties": {"address": "Schwamendingenstrasse 41", "electric": 0, "id": "pb_366", "manual": 7, "name": "Dorflinde", "provider": "publibike", "timeStamp": "03/05/2020, 20:33:47", "zip": 8050}, "type": "Feature"}, {"geometry": {"coordinates": [8.560476, 47.368199], "type": "Point"}, "properties": {"address": "R\u00f6merhofplatz 5", "electric": 11, "id": "pb_367", "manual": 1, "name": "R\u00f6merhof", "provider": "publibike", "timeStamp": "03/05/2020, 20:33:47", "zip": 8032}, "type": "Feature"}, {"geometry": {"coordinates": [8.5609218, 47.3619068], "type": "Point"}, "properties": {"address": "Forchstrasse 99", "electric": 3, "id": "pb_368", "manual": 1, "name": "Hegibachplatz", "provider": "publibike", "timeStamp": "03/05/2020, 20:33:47", "zip": 8032}, "type": "Feature"}, {"geometry": {"coordinates": [8.5721264, 47.4039985], "type": "Point"}, "properties": {"address": "Winterthurerstrasse 519", "electric": 4, "id": "pb_370", "manual": 0, "name": "Schwamendingerplatz", "provider": "publibike", "timeStamp": "03/05/2020, 20:33:47", "zip": 8051}, "type": "Feature"}, {"geometry": {"coordinates": [8.520168, 47.378556], "type": "Point"}, "properties": {"address": "Herman-Greulich-Strasse 56", "electric": 4, "id": "pb_384", "manual": 9, "name": "Hermann-Greulich-Weg", "provider": "publibike", "timeStamp": "03/05/2020, 20:33:47", "zip": 8004}, "type": "Feature"}, {"geometry": {"coordinates": [8.547912, 47.384923], "type": "Point"}, "properties": {"address": "Culmannstrasse", "electric": 4, "id": "pb_386", "manual": 2, "name": "Rigiplatz", "provider": "publibike", "timeStamp": "03/05/2020, 20:33:47", "zip": 8006}, "type": "Feature"}, {"geometry": {"coordinates": [8.543768, 47.411057], "type": "Point"}, "properties": {"address": "Hofwiesenstrasse 369", "electric": 6, "id": "pb_387", "manual": 10, "name": "Bahnhof Oerlikon S\u00fcd", "provider": "publibike", "timeStamp": "03/05/2020, 20:33:47", "zip": 8050}, "type": "Feature"}, {"geometry": {"coordinates": [8.544185, 47.412732], "type": "Point"}, "properties": {"address": "Jungholzstrasse 6", "electric": 2, "id": "pb_388", "manual": 0, "name": "Max-Frisch-Platz", "provider": "publibike", "timeStamp": "03/05/2020, 20:33:47", "zip": 8050}, "type": "Feature"}, {"geometry": {"coordinates": [8.558096, 47.413032], "type": "Point"}, "properties": {"address": "Andreasstrasse", "electric": 5, "id": "pb_389", "manual": 7, "name": "Hunziker-Areal", "provider": "publibike", "timeStamp": "03/05/2020, 20:33:47", "zip": 8050}, "type": "Feature"}, {"geometry": {"coordinates": [8.533265, 47.412873], "type": "Point"}, "properties": {"address": "Regina-K\u00e4gi-Strasse 1", "electric": 7, "id": "pb_390", "manual": 0, "name": "Luis-H\u00e4fliger-Park", "provider": "publibike", "timeStamp": "03/05/2020, 20:33:47", "zip": 8050}, "type": "Feature"}, {"geometry": {"coordinates": [8.499265, 47.401852], "type": "Point"}, "properties": {"address": "Limmattalstrasse 177", "electric": 9, "id": "pb_391", "manual": 2, "name": "Meierhofplatz", "provider": "publibike", "timeStamp": "03/05/2020, 20:33:47", "zip": 8049}, "type": "Feature"}, {"geometry": {"coordinates": [8.528356, 47.393255], "type": "Point"}, "properties": {"address": "R\u00f6schibachstrasse 73", "electric": 3, "id": "pb_392", "manual": 2, "name": "R\u00f6schibachplatz", "provider": "publibike", "timeStamp": "03/05/2020, 20:33:47", "zip": 8037}, "type": "Feature"}, {"geometry": {"coordinates": [8.538067, 47.415721], "type": "Point"}, "properties": {"address": "Birchstrasse 191", "electric": 3, "id": "pb_393", "manual": 3, "name": "Oerliker Park", "provider": "publibike", "timeStamp": "03/05/2020, 20:33:47", "zip": 8050}, "type": "Feature"}, {"geometry": {"coordinates": [8.5420304, 47.3669233], "type": "Point"}, "properties": {"address": "Stadthausquai 1", "electric": 2, "id": "pb_395", "manual": 3, "name": "B\u00fcrkliplatz", "provider": "publibike", "timeStamp": "03/05/2020, 20:33:47", "zip": 8001}, "type": "Feature"}, {"geometry": {"coordinates": [8.535767, 47.409881], "type": "Point"}, "properties": {"address": "Regensbergstrasse 195", "electric": 0, "id": "pb_396", "manual": 2, "name": "Holunderhof", "provider": "publibike", "timeStamp": "03/05/2020, 20:33:47", "zip": 8050}, "type": "Feature"}, {"geometry": {"coordinates": [8.5116245, 47.3616199], "type": "Point"}, "properties": {"address": "Grubenstrasse 42", "electric": 0, "id": "pb_431", "manual": 0, "name": "Binz Center", "provider": "publibike", "timeStamp": "03/05/2020, 20:33:47", "zip": 8045}, "type": "Feature"}, {"geometry": {"coordinates": [8.547195, 47.382089], "type": "Point"}, "properties": {"address": "Nelkenstrasse 24", "electric": 7, "id": "pb_430", "manual": 1, "name": "Stapferstube", "provider": "publibike", "timeStamp": "03/05/2020, 20:33:47", "zip": 8006}, "type": "Feature"}, {"geometry": {"coordinates": [8.5787183, 47.4039845], "type": "Point"}, "properties": {"address": "Kronwiesenstrasse 35", "electric": 2, "id": "pb_426", "manual": 5, "name": "Kronwiesen", "provider": "publibike", "timeStamp": "03/05/2020, 20:33:47", "zip": 8051}, "type": "Feature"}, {"geometry": {"coordinates": [8.508131, 47.420757], "type": "Point"}, "properties": {"address": "Riedenhaldenstrasse 20-18", "electric": 10, "id": "pb_425", "manual": 0, "name": "Bahnhof Affoltern", "provider": "publibike", "timeStamp": "03/05/2020, 20:33:47", "zip": 8046}, "type": "Feature"}, {"geometry": {"coordinates": [8.532464, 47.406988], "type": "Point"}, "properties": {"address": "K\u00fcnzlistrasse 41", "electric": 1, "id": "pb_424", "manual": 3, "name": "Birchd\u00f6rfli", "provider": "publibike", "timeStamp": "03/05/2020, 20:33:47", "zip": 8057}, "type": "Feature"}, {"geometry": {"coordinates": [8.5777038, 47.4080095], "type": "Point"}, "properties": {"address": "Luegislandstrasse 412", "electric": 5, "id": "pb_429", "manual": 1, "name": "Luegisland", "provider": "publibike", "timeStamp": "03/05/2020, 20:33:47", "zip": 8051}, "type": "Feature"}, {"geometry": {"coordinates": [8.58841, 47.40158], "type": "Point"}, "properties": {"address": "Hirzenbachstrasse 2-4", "electric": 6, "id": "pb_428", "manual": 7, "name": "Hirzenbachstrasse", "provider": "publibike", "timeStamp": "03/05/2020, 20:33:47", "zip": 8051}, "type": "Feature"}, {"geometry": {"coordinates": [8.5563463, 47.4095467], "type": "Point"}, "properties": {"address": "K\u00fchriedweg", "electric": 0, "id": "pb_445", "manual": 7, "name": "Hallenbad Oerlikon", "provider": "publibike", "timeStamp": "03/05/2020, 20:33:47", "zip": 8050}, "type": "Feature"}, {"geometry": {"coordinates": [8.537971, 47.364871], "type": "Point"}, "properties": {"address": "General-Guisan-Quai 17", "electric": 3, "id": "pb_454", "manual": 5, "name": "General-Guisan-Quai", "provider": "publibike", "timeStamp": "03/05/2020, 20:33:47", "zip": 8002}, "type": "Feature"}, {"geometry": {"coordinates": [8.560587, 47.350578], "type": "Point"}, "properties": {"address": "Bellerivestrasse 245", "electric": 8, "id": "pb_450", "manual": 3, "name": "Bahnhof Tiefenbrunnen", "provider": "publibike", "timeStamp": "03/05/2020, 20:33:47", "zip": 8008}, "type": "Feature"}, {"geometry": {"coordinates": [8.5269416, 47.3563719], "type": "Point"}, "properties": {"address": "Waffenplatzstrasse 89", "electric": 9, "id": "pb_452", "manual": 1, "name": "Rieterplatz", "provider": "publibike", "timeStamp": "03/05/2020, 20:33:47", "zip": 8002}, "type": "Feature"}, {"geometry": {"coordinates": [8.514176, 47.3663708], "type": "Point"}, "properties": {"address": "Talwiesenstrasse 92", "electric": 14, "id": "pb_446", "manual": 0, "name": "Binzallee", "provider": "publibike", "timeStamp": "03/05/2020, 20:33:47", "zip": 8055}, "type": "Feature"}, {"geometry": {"coordinates": [8.5070564, 47.371455], "type": "Point"}, "properties": {"address": "Gutstrasse 87", "electric": 11, "id": "pb_447", "manual": 7, "name": "Gutstrasse", "provider": "publibike", "timeStamp": "03/05/2020, 20:33:47", "zip": 8055}, "type": "Feature"}, {"geometry": {"coordinates": [8.4941268, 47.3836391], "type": "Point"}, "properties": {"address": "Flurstrasse 62", "electric": 4, "id": "pb_453", "manual": 2, "name": "Flurpark", "provider": "publibike", "timeStamp": "03/05/2020, 20:33:47", "zip": 8048}, "type": "Feature"}, {"geometry": {"coordinates": [8.500343, 47.380778], "type": "Point"}, "properties": {"address": "Edelweissstrasse 32", "electric": 3, "id": "pb_448", "manual": 3, "name": "Bl\u00fcemliquartier", "provider": "publibike", "timeStamp": "03/05/2020, 20:33:47", "zip": 8048}, "type": "Feature"}, {"geometry": {"coordinates": [8.528796, 47.383858], "type": "Point"}, "properties": {"address": "Gasometerstrasse 24", "electric": 0, "id": "pb_449", "manual": 6, "name": "Gasometerstrasse", "provider": "publibike", "timeStamp": "03/05/2020, 20:33:47", "zip": 8005}, "type": "Feature"}, {"geometry": {"coordinates": [8.4981964, 47.3859194], "type": "Point"}, "properties": {"address": "Baslerstrasse 57", "electric": 7, "id": "pb_455", "manual": 2, "name": "Letzipark", "provider": "publibike", "timeStamp": "03/05/2020, 20:33:47", "zip": 8048}, "type": "Feature"}, {"geometry": {"coordinates": [8.515252, 47.381915], "type": "Point"}, "properties": {"address": "Sihlfeldstrasse 175", "electric": 6, "id": "pb_451", "manual": 2, "name": "Hardplatz", "provider": "publibike", "timeStamp": "03/05/2020, 20:33:47", "zip": 8004}, "type": "Feature"}, {"geometry": {"coordinates": [8.5064743, 47.4188324], "type": "Point"}, "properties": {"address": "Wehntalerstrasse 541", "electric": 5, "id": "pb_427", "manual": 5, "name": "Zehntenhausplatz", "provider": "publibike", "timeStamp": "03/05/2020, 20:33:47", "zip": 8046}, "type": "Feature"}, {"geometry": {"coordinates": [8.537729, 47.379719], "type": "Point"}, "properties": {"address": "Sihlquai/HB", "electric": 1, "id": "pb_513", "manual": 15, "name": "Sihlquai", "provider": "publibike", "timeStamp": "03/05/2020, 20:33:47", "zip": 8005}, "type": "Feature"}, {"geometry": {"coordinates": [8.596202, 47.397885], "type": "Point"}, "properties": {"address": "Bahnhof Stettbach", "electric": 2, "id": "pb_514", "manual": 0, "name": "Bahnhof Stettbach", "provider": "publibike", "timeStamp": "03/05/2020, 20:33:47", "zip": 8051}, "type": "Feature"}, {"geometry": {"coordinates": [8.5543974, 47.3690153], "type": "Point"}, "properties": {"address": "Kasinostrasse 10", "electric": 0, "id": "pb_515", "manual": 3, "name": "Hottingerplatz", "provider": "publibike", "timeStamp": "03/05/2020, 20:33:47", "zip": 8032}, "type": "Feature"}, {"geometry": {"coordinates": [8.534444, 47.351525], "type": "Point"}, "properties": {"address": "Mobile Station Z\u00fcrich 1", "electric": 0, "id": "pb_282", "manual": 0, "name": "Theaterspektakel", "provider": "publibike", "timeStamp": "03/05/2020, 20:33:47", "zip": 8002}, "type": "Feature"}, {"geometry": {"coordinates": [8.516257, 47.367656], "type": "Point"}, "properties": {"address": "Goldbrunnenstrasse 54", "electric": 8, "id": "pb_538", "manual": 0, "name": "Kirche B\u00fchl", "provider": "publibike", "timeStamp": "03/05/2020, 20:33:47", "zip": 8055}, "type": "Feature"}, {"geometry": {"coordinates": [8.555639, 47.416873], "type": "Point"}, "properties": {"address": "Leutschenbachstrasse 50", "electric": 5, "id": "pb_537", "manual": 5, "name": "Leutschenpark", "provider": "publibike", "timeStamp": "03/05/2020, 20:33:47", "zip": 8050}, "type": "Feature"}, {"geometry": {"coordinates": [8.546464, 47.403822], "type": "Point"}, "properties": {"address": "Berninastrasse 45", "electric": 5, "id": "pb_540", "manual": 1, "name": "Berninaplatz", "provider": "publibike", "timeStamp": "03/05/2020, 20:33:47", "zip": 8057}, "type": "Feature"}, {"geometry": {"coordinates": [8.523134, 47.369004], "type": "Point"}, "properties": {"address": "Erlachstrasse 3", "electric": 2, "id": "pb_385", "manual": 5, "name": "Aegerten", "provider": "publibike", "timeStamp": "03/05/2020, 20:33:47", "zip": 8003}, "type": "Feature"}, {"geometry": {"coordinates": [8.49038, 47.381591], "type": "Point"}, "properties": {"address": "Rautistrasse 60", "electric": 4, "id": "pb_536", "manual": 4, "name": "Freilager", "provider": "publibike", "timeStamp": "03/05/2020, 20:33:47", "zip": 8048}, "type": "Feature"}, {"geometry": {"coordinates": [8.496511, 47.375247], "type": "Point"}, "properties": {"address": "Letzigraben 139", "electric": 0, "id": "pb_444", "manual": 5, "name": "Sackzelg", "provider": "publibike", "timeStamp": "03/05/2020, 20:33:47", "zip": 8047}, "type": "Feature"}, {"geometry": {"coordinates": [8.58131, 47.402801], "type": "Point"}, "properties": {"address": "Altwiesenstrasse 104", "electric": 1, "id": "pb_539", "manual": 1, "name": "Glattwiesen", "provider": "publibike", "timeStamp": "03/05/2020, 20:33:47", "zip": 8051}, "type": "Feature"}, {"geometry": {"coordinates": [8.52689, 47.3767], "type": "Point"}, "properties": {"address": "Molkenstrasse 5", "electric": 11, "id": "pb_560", "manual": 11, "name": "Helvetiaplatz", "provider": "publibike", "timeStamp": "03/05/2020, 20:33:47", "zip": 8004}, "type": "Feature"}, {"geometry": {"coordinates": [8.525602, 47.374241], "type": "Point"}, "properties": {"address": "Badenerstrasse 90", "electric": 4, "id": "pb_559", "manual": 4, "name": "Bezirksgeb\u00e4ude", "provider": "publibike", "timeStamp": "03/05/2020, 20:33:47", "zip": 8004}, "type": "Feature"}, {"geometry": {"coordinates": [8.535082, 47.345248], "type": "Point"}, "properties": {"address": "Bachstrasse 15", "electric": 1, "id": "pb_564", "manual": 3, "name": "GZ Wollishofen", "provider": "publibike", "timeStamp": "03/05/2020, 20:33:47", "zip": 8038}, "type": "Feature"}, {"geometry": {"coordinates": [8.514841, 47.370238], "type": "Point"}, "properties": {"address": "Schrennengasse 37", "electric": 3, "id": "pb_562", "manual": 5, "name": "Goldbrunnenplatz", "provider": "publibike", "timeStamp": "03/05/2020, 20:33:47", "zip": 8003}, "type": "Feature"}, {"geometry": {"coordinates": [8.514138, 47.374206], "type": "Point"}, "properties": {"address": "Idaplatz 4", "electric": 5, "id": "pb_557", "manual": 2, "name": "Idaplatz", "provider": "publibike", "timeStamp": "03/05/2020, 20:33:47", "zip": 8003}, "type": "Feature"}, {"geometry": {"coordinates": [8.518432, 47.369549], "type": "Point"}, "properties": {"address": "Brinerstrasse 2", "electric": 8, "id": "pb_558", "manual": 4, "name": "Schmiede Wiedikon", "provider": "publibike", "timeStamp": "03/05/2020, 20:33:47", "zip": 8003}, "type": "Feature"}, {"geometry": {"coordinates": [8.537546, 47.391289], "type": "Point"}, "properties": {"address": "Rotbuchstrasse 15", "electric": 8, "id": "pb_556", "manual": 3, "name": "Schaffhauserplatz", "provider": "publibike", "timeStamp": "03/05/2020, 20:33:47", "zip": 8006}, "type": "Feature"}, {"geometry": {"coordinates": [8.541541, 47.413733], "type": "Point"}, "properties": {"address": "Therese-Giehse-Strasse 11", "electric": 1, "id": "pb_561", "manual": 2, "name": "Center Eleven", "provider": "publibike", "timeStamp": "03/05/2020, 20:33:47", "zip": 8050}, "type": "Feature"}, {"geometry": {"coordinates": [8.534227, 47.360004], "type": "Point"}, "properties": {"address": "Alfred Escher-Strasse 76", "electric": 0, "id": "pb_563", "manual": 3, "name": "Mythenschloss", "provider": "publibike", "timeStamp": "03/05/2020, 20:33:47", "zip": 8002}, "type": "Feature"}, {"geometry": {"coordinates": [8.50373, 47.396172], "type": "Point"}, "properties": {"address": "Hardeggstrasse 6", "electric": 2, "id": "pb_566", "manual": 4, "name": "Am Wasser", "provider": "publibike", "timeStamp": "03/05/2020, 20:33:47", "zip": 8049}, "type": "Feature"}, {"geometry": {"coordinates": [8.532432, 47.381174], "type": "Point"}, "properties": {"address": "Klingenstrasse 9", "electric": 4, "id": "pb_565", "manual": 5, "name": "Zollstrasse", "provider": "publibike", "timeStamp": "03/05/2020, 20:33:47", "zip": 8005}, "type": "Feature"}, {"geometry": {"coordinates": [8.497982, 47.381447], "type": "Point"}, "properties": {"address": "Dennlerstrasse 23", "electric": 4, "id": "pb_567", "manual": 9, "name": "Dennlerstrasse", "provider": "publibike", "timeStamp": "03/05/2020, 20:33:47", "zip": 8047}, "type": "Feature"}, {"geometry": {"coordinates": [8.528049, 47.347701], "type": "Point"}, "properties": {"address": "Mutschellenstrasse 114", "electric": 6, "id": "pb_568", "manual": 5, "name": "Jugendherberge", "provider": "publibike", "timeStamp": "03/05/2020, 20:33:47", "zip": 8038}, "type": "Feature"}, {"geometry": {"coordinates": [8.539016, 47.405751], "type": "Point"}, "properties": {"address": "Ringstrasse 82", "electric": 0, "id": "pb_569", "manual": 0, "name": "Freibad Allenmoos", "provider": "publibike", "timeStamp": "03/05/2020, 20:33:47", "zip": 8057}, "type": "Feature"}, {"geometry": {"coordinates": [8.534974, 47.402164], "type": "Point"}, "properties": {"address": "Brache Guggach", "electric": 1, "id": "pb_572", "manual": 3, "name": "Radiostudio", "provider": "publibike", "timeStamp": "03/05/2020, 20:33:47", "zip": 8057}, "type": "Feature"}, {"geometry": {"coordinates": [8.547901, 47.375556], "type": "Point"}, "properties": {"address": "Karl-Schmid-Strasse 4", "electric": 1, "id": "pb_571", "manual": 1, "name": "ETH/Zoologisches Museum", "provider": "publibike", "timeStamp": "03/05/2020, 20:33:47", "zip": 8006}, "type": "Feature"}, {"geometry": {"coordinates": [8.523856, 47.378395], "type": "Point"}, "properties": {"charge": 21, "id": "smide_2880", "name": "ZH267289", "provider": "smide", "range": 10.0, "size": 17, "time": "03/05/2020, 20:25:15"}, "type": "Feature"}, {"geometry": {"coordinates": [8.582315, 47.351905], "type": "Point"}, "properties": {"charge": 81, "id": "smide_2871", "name": "ZH 267086", "provider": "smide", "range": 40.0, "size": 20, "time": "03/05/2020, 20:25:15"}, "type": "Feature"}, {"geometry": {"coordinates": [8.529801, 47.393645], "type": "Point"}, "properties": {"charge": 49, "id": "smide_2868", "name": "ZH 267089", "provider": "smide", "range": 24.0, "size": 20, "time": "03/05/2020, 20:25:15"}, "type": "Feature"}, {"geometry": {"coordinates": [8.560793, 47.350475], "type": "Point"}, "properties": {"charge": 72, "id": "smide_2861", "name": "ZH 267096", "provider": "smide", "range": 36.0, "size": 17, "time": "03/05/2020, 20:25:15"}, "type": "Feature"}, {"geometry": {"coordinates": [8.544905, 47.376303], "type": "Point"}, "properties": {"charge": 33, "id": "smide_2856", "name": "ZH 267101", "provider": "smide", "range": 16.0, "size": 17, "time": "03/05/2020, 20:25:15"}, "type": "Feature"}, {"geometry": {"coordinates": [8.54813, 47.382416], "type": "Point"}, "properties": {"charge": 100, "id": "smide_2831", "name": "ZH 267180", "provider": "smide", "range": 50.0, "size": 20, "time": "03/05/2020, 20:25:15"}, "type": "Feature"}, {"geometry": {"coordinates": [8.559618, 47.406773], "type": "Point"}, "properties": {"charge": 62, "id": "smide_2819", "name": "ZH266943", "provider": "smide", "range": 31.0, "size": 20, "time": "03/05/2020, 20:25:15"}, "type": "Feature"}, {"geometry": {"coordinates": [8.520813, 47.370116], "type": "Point"}, "properties": {"charge": 12, "id": "smide_2785", "name": "ZH266875", "provider": "smide", "range": 6.0, "size": 17, "time": "03/05/2020, 20:25:15"}, "type": "Feature"}, {"geometry": {"coordinates": [8.498613, 47.4254], "type": "Point"}, "properties": {"charge": 74, "id": "smide_2761", "name": "ZH266642", "provider": "smide", "range": 37.0, "size": 20, "time": "03/05/2020, 20:25:15"}, "type": "Feature"}, {"geometry": {"coordinates": [8.519841, 47.337135], "type": "Point"}, "properties": {"charge": 80, "id": "smide_2752", "name": "BE343856", "provider": "smide", "range": 40.0, "size": 17, "time": "03/05/2020, 20:25:15"}, "type": "Feature"}, {"geometry": {"coordinates": [8.544006, 47.377], "type": "Point"}, "properties": {"charge": 40, "id": "smide_2751", "name": "BE343857", "provider": "smide", "range": 20.0, "size": 17, "time": "03/05/2020, 20:25:15"}, "type": "Feature"}, {"geometry": {"coordinates": [8.541999, 47.42462], "type": "Point"}, "properties": {"charge": 22, "id": "smide_2749", "name": "BE343867", "provider": "smide", "range": 11.0, "size": 17, "time": "03/05/2020, 20:25:15"}, "type": "Feature"}, {"geometry": {"coordinates": [8.542013, 47.398208], "type": "Point"}, "properties": {"charge": 85, "id": "smide_2748", "name": "BE335758", "provider": "smide", "range": 42.0, "size": 17, "time": "03/05/2020, 20:25:15"}, "type": "Feature"}, {"geometry": {"coordinates": [8.543225, 47.400535], "type": "Point"}, "properties": {"charge": 86, "id": "smide_2747", "name": "BE335820", "provider": "smide", "range": 43.0, "size": 17, "time": "03/05/2020, 20:25:15"}, "type": "Feature"}, {"geometry": {"coordinates": [8.533183, 47.417156], "type": "Point"}, "properties": {"charge": 63, "id": "smide_2743", "name": "BE343864", "provider": "smide", "range": 31.0, "size": 17, "time": "03/05/2020, 20:25:15"}, "type": "Feature"}, {"geometry": {"coordinates": [8.544664, 47.401172], "type": "Point"}, "properties": {"charge": 17, "id": "smide_2742", "name": "BE343866", "provider": "smide", "range": 8.0, "size": 17, "time": "03/05/2020, 20:25:15"}, "type": "Feature"}, {"geometry": {"coordinates": [8.491366, 47.373601], "type": "Point"}, "properties": {"charge": 92, "id": "smide_2738", "name": "BE343865", "provider": "smide", "range": 46.0, "size": 17, "time": "03/05/2020, 20:25:15"}, "type": "Feature"}, {"geometry": {"coordinates": [8.532086, 47.417016], "type": "Point"}, "properties": {"charge": 83, "id": "smide_2737", "name": "BE336149", "provider": "smide", "range": 41.0, "size": 17, "time": "03/05/2020, 20:25:15"}, "type": "Feature"}, {"geometry": {"coordinates": [8.57535, 47.352372], "type": "Point"}, "properties": {"charge": 50, "id": "smide_2734", "name": "BE343876", "provider": "smide", "range": 25.0, "size": 17, "time": "03/05/2020, 20:25:15"}, "type": "Feature"}, {"geometry": {"coordinates": [8.520449, 47.3397], "type": "Point"}, "properties": {"charge": 24, "id": "smide_2733", "name": "BE343873", "provider": "smide", "range": 12.0, "size": 17, "time": "03/05/2020, 20:25:15"}, "type": "Feature"}, {"geometry": {"coordinates": [8.549107, 47.370636], "type": "Point"}, "properties": {"charge": 75, "id": "smide_2732", "name": "BE343870", "provider": "smide", "range": 37.0, "size": 17, "time": "03/05/2020, 20:25:15"}, "type": "Feature"}, {"geometry": {"coordinates": [8.564478, 47.346536], "type": "Point"}, "properties": {"charge": 81, "id": "smide_2729", "name": "BE343878", "provider": "smide", "range": 40.0, "size": 17, "time": "03/05/2020, 20:25:15"}, "type": "Feature"}, {"geometry": {"coordinates": [8.542024, 47.424632], "type": "Point"}, "properties": {"charge": 95, "id": "smide_2717", "name": "ZH263287", "provider": "smide", "range": 47.0, "size": 17, "time": "03/05/2020, 20:25:15"}, "type": "Feature"}, {"geometry": {"coordinates": [8.553019, 47.384344], "type": "Point"}, "properties": {"charge": 79, "id": "smide_2715", "name": "ZH254605", "provider": "smide", "range": 39.0, "size": 17, "time": "03/05/2020, 20:25:15"}, "type": "Feature"}, {"geometry": {"coordinates": [8.513361, 47.387928], "type": "Point"}, "properties": {"charge": 94, "id": "smide_2714", "name": "ZH256461", "provider": "smide", "range": 47.0, "size": 17, "time": "03/05/2020, 20:25:15"}, "type": "Feature"}, {"geometry": {"coordinates": [8.483055, 47.384668], "type": "Point"}, "properties": {"charge": 86, "id": "smide_2710", "name": "ZH256460", "provider": "smide", "range": 43.0, "size": 17, "time": "03/05/2020, 20:25:15"}, "type": "Feature"}, {"geometry": {"coordinates": [8.560806, 47.383104], "type": "Point"}, "properties": {"charge": 83, "id": "smide_2712", "name": "ZH256462", "provider": "smide", "range": 41.0, "size": 17, "time": "03/05/2020, 20:25:15"}, "type": "Feature"}, {"geometry": {"coordinates": [8.502045, 47.368996], "type": "Point"}, "properties": {"charge": 58, "id": "smide_2708", "name": "ZH256464", "provider": "smide", "range": 28.0, "size": 17, "time": "03/05/2020, 20:25:15"}, "type": "Feature"}, {"geometry": {"coordinates": [8.503361, 47.385616], "type": "Point"}, "properties": {"charge": 36, "id": "smide_2701", "name": "ZH256468", "provider": "smide", "range": 18.0, "size": 20, "time": "03/05/2020, 20:25:15"}, "type": "Feature"}, {"geometry": {"coordinates": [8.513117, 47.366276], "type": "Point"}, "properties": {"charge": 100, "id": "smide_2700", "name": "ZH256470", "provider": "smide", "range": 50.0, "size": 20, "time": "03/05/2020, 20:25:15"}, "type": "Feature"}, {"geometry": {"coordinates": [8.550015, 47.387972], "type": "Point"}, "properties": {"charge": 87, "id": "smide_2697", "name": "ZH254629", "provider": "smide", "range": 43.0, "size": 20, "time": "03/05/2020, 20:25:15"}, "type": "Feature"}, {"geometry": {"coordinates": [8.537961, 47.415104], "type": "Point"}, "properties": {"charge": 100, "id": "smide_2696", "name": "ZH254616", "provider": "smide", "range": 50.0, "size": 20, "time": "03/05/2020, 20:25:15"}, "type": "Feature"}, {"geometry": {"coordinates": [8.522946, 47.385453], "type": "Point"}, "properties": {"charge": 99, "id": "smide_2691", "name": "ZH254622", "provider": "smide", "range": 49.0, "size": 20, "time": "03/05/2020, 20:25:15"}, "type": "Feature"}, {"geometry": {"coordinates": [8.51835, 47.3985], "type": "Point"}, "properties": {"charge": 60, "id": "smide_2690", "name": "ZH254625", "provider": "smide", "range": 30.0, "size": 20, "time": "03/05/2020, 20:25:15"}, "type": "Feature"}, {"geometry": {"coordinates": [8.560282, 47.368308], "type": "Point"}, "properties": {"charge": 80, "id": "smide_2687", "name": "ZH263529", "provider": "smide", "range": 40.0, "size": 20, "time": "03/05/2020, 20:25:15"}, "type": "Feature"}, {"geometry": {"coordinates": [8.49876, 47.402592], "type": "Point"}, "properties": {"charge": 49, "id": "smide_2686", "name": "ZH263288", "provider": "smide", "range": 24.0, "size": 20, "time": "03/05/2020, 20:25:15"}, "type": "Feature"}, {"geometry": {"coordinates": [8.538096, 47.401344], "type": "Point"}, "properties": {"charge": 94, "id": "smide_2684", "name": "ZH254626", "provider": "smide", "range": 47.0, "size": 20, "time": "03/05/2020, 20:25:15"}, "type": "Feature"}, {"geometry": {"coordinates": [8.524145, 47.37817], "type": "Point"}, "properties": {"charge": 89, "id": "smide_2683", "name": "ZH254620", "provider": "smide", "range": 44.0, "size": 20, "time": "03/05/2020, 20:25:15"}, "type": "Feature"}, {"geometry": {"coordinates": [8.559581, 47.368224], "type": "Point"}, "properties": {"charge": 78, "id": "smide_2680", "name": "ZH254619", "provider": "smide", "range": 39.0, "size": 20, "time": "03/05/2020, 20:25:15"}, "type": "Feature"}, {"geometry": {"coordinates": [8.4938, 47.4024], "type": "Point"}, "properties": {"charge": 91, "id": "smide_2674", "name": "ZH258654", "provider": "smide", "range": 45.0, "size": 17, "time": "03/05/2020, 20:25:15"}, "type": "Feature"}, {"geometry": {"coordinates": [8.531774, 47.364304], "type": "Point"}, "properties": {"charge": 100, "id": "smide_2671", "name": "ZH258645", "provider": "smide", "range": 50.0, "size": 17, "time": "03/05/2020, 20:25:15"}, "type": "Feature"}, {"geometry": {"coordinates": [8.566049, 47.356744], "type": "Point"}, "properties": {"charge": 95, "id": "smide_2669", "name": "ZH263294", "provider": "smide", "range": 47.0, "size": 17, "time": "03/05/2020, 20:25:15"}, "type": "Feature"}, {"geometry": {"coordinates": [8.54745, 47.382128], "type": "Point"}, "properties": {"charge": 100, "id": "smide_2668", "name": "ZH258640", "provider": "smide", "range": 50.0, "size": 17, "time": "03/05/2020, 20:25:15"}, "type": "Feature"}, {"geometry": {"coordinates": [8.502308, 47.386888], "type": "Point"}, "properties": {"charge": 83, "id": "smide_2666", "name": "ZH258653", "provider": "smide", "range": 41.0, "size": 17, "time": "03/05/2020, 20:25:15"}, "type": "Feature"}, {"geometry": {"coordinates": [8.54332, 47.372144], "type": "Point"}, "properties": {"charge": 51, "id": "smide_2665", "name": "ZH258644", "provider": "smide", "range": 25.0, "size": 17, "time": "03/05/2020, 20:25:15"}, "type": "Feature"}, {"geometry": {"coordinates": [8.518988, 47.399056], "type": "Point"}, "properties": {"charge": 36, "id": "smide_2664", "name": "ZH258652", "provider": "smide", "range": 18.0, "size": 17, "time": "03/05/2020, 20:25:15"}, "type": "Feature"}, {"geometry": {"coordinates": [8.534444, 47.372648], "type": "Point"}, "properties": {"charge": 52, "id": "smide_2663", "name": "ZH258649", "provider": "smide", "range": 26.0, "size": 17, "time": "03/05/2020, 20:25:15"}, "type": "Feature"}, {"geometry": {"coordinates": [8.531025, 47.369388], "type": "Point"}, "properties": {"charge": 41, "id": "smide_2662", "name": "ZH258643", "provider": "smide", "range": 20.0, "size": 17, "time": "03/05/2020, 20:25:15"}, "type": "Feature"}, {"geometry": {"coordinates": [8.517314, 47.386156], "type": "Point"}, "properties": {"charge": 48, "id": "smide_2660", "name": "ZH258647", "provider": "smide", "range": 24.0, "size": 17, "time": "03/05/2020, 20:25:15"}, "type": "Feature"}, {"geometry": {"coordinates": [8.489485, 47.373908], "type": "Point"}, "properties": {"charge": 21, "id": "smide_2648", "name": "ZH257930", "provider": "smide", "range": 10.0, "size": 20, "time": "03/05/2020, 20:25:15"}, "type": "Feature"}, {"geometry": {"coordinates": [8.569955, 47.352141], "type": "Point"}, "properties": {"charge": 84, "id": "smide_2657", "name": "ZH257936", "provider": "smide", "range": 42.0, "size": 17, "time": "03/05/2020, 20:25:15"}, "type": "Feature"}, {"geometry": {"coordinates": [8.51472, 47.364372], "type": "Point"}, "properties": {"charge": 92, "id": "smide_2647", "name": "ZH257932", "provider": "smide", "range": 46.0, "size": 20, "time": "03/05/2020, 20:25:15"}, "type": "Feature"}, {"geometry": {"coordinates": [8.53714, 47.4072], "type": "Point"}, "properties": {"charge": 69, "id": "smide_2645", "name": "ZH257933", "provider": "smide", "range": 34.0, "size": 20, "time": "03/05/2020, 20:25:15"}, "type": "Feature"}, {"geometry": {"coordinates": [8.495608, 47.374498], "type": "Point"}, "properties": {"charge": 33, "id": "smide_3", "name": "ZH253765", "provider": "smide", "range": 16.0, "size": 20, "time": "03/05/2020, 20:25:15"}, "type": "Feature"}, {"geometry": {"coordinates": [8.520065, 47.340126], "type": "Point"}, "properties": {"charge": 88, "id": "smide_105", "name": "ZH253804", "provider": "smide", "range": 44.0, "size": 17, "time": "03/05/2020, 20:25:15"}, "type": "Feature"}, {"geometry": {"coordinates": [8.496604, 47.384588], "type": "Point"}, "properties": {"charge": 100, "id": "smide_77", "name": "ZH261548", "provider": "smide", "range": 50.0, "size": 20, "time": "03/05/2020, 20:25:15"}, "type": "Feature"}, {"geometry": {"coordinates": [8.518513, 47.362932], "type": "Point"}, "properties": {"charge": 15, "id": "smide_200", "name": "ZH253801", "provider": "smide", "range": 7.0, "size": 20, "time": "03/05/2020, 20:25:15"}, "type": "Feature"}, {"geometry": {"coordinates": [8.53547, 47.377431], "type": "Point"}, "properties": {"charge": 70, "id": "smide_199", "name": "ZH253766", "provider": "smide", "range": 35.0, "size": 20, "time": "03/05/2020, 20:25:15"}, "type": "Feature"}, {"geometry": {"coordinates": [8.538052, 47.415408], "type": "Point"}, "properties": {"charge": 41, "id": "smide_8", "name": "ZH253861", "provider": "smide", "range": 20.0, "size": 17, "time": "03/05/2020, 20:25:15"}, "type": "Feature"}, {"geometry": {"coordinates": [8.568235, 47.367846], "type": "Point"}, "properties": {"charge": 100, "id": "smide_201", "name": "ZH253698", "provider": "smide", "range": 50.0, "size": 17, "time": "03/05/2020, 20:25:15"}, "type": "Feature"}, {"geometry": {"coordinates": [8.559184, 47.416956], "type": "Point"}, "properties": {"charge": 99, "id": "smide_101", "name": "ZH253814", "provider": "smide", "range": 49.0, "size": 17, "time": "03/05/2020, 20:25:15"}, "type": "Feature"}, {"geometry": {"coordinates": [8.573671, 47.352948], "type": "Point"}, "properties": {"charge": 35, "id": "smide_143", "name": "ZH253778", "provider": "smide", "range": 17.0, "size": 17, "time": "03/05/2020, 20:25:15"}, "type": "Feature"}, {"geometry": {"coordinates": [8.5695, 47.351936], "type": "Point"}, "properties": {"charge": 85, "id": "smide_180", "name": "ZH253824", "provider": "smide", "range": 42.0, "size": 20, "time": "03/05/2020, 20:25:15"}, "type": "Feature"}, {"geometry": {"coordinates": [8.54364, 47.372572], "type": "Point"}, "properties": {"charge": 45, "id": "smide_20", "name": "ZH253770", "provider": "smide", "range": 22.0, "size": 20, "time": "03/05/2020, 20:25:15"}, "type": "Feature"}, {"geometry": {"coordinates": [8.504189, 47.372956], "type": "Point"}, "properties": {"charge": 91, "id": "smide_50", "name": "ZH253853", "provider": "smide", "range": 45.0, "size": 17, "time": "03/05/2020, 20:25:15"}, "type": "Feature"}, {"geometry": {"coordinates": [8.532858, 47.41105], "type": "Point"}, "properties": {"charge": 100, "id": "smide_30", "name": "ZH253813", "provider": "smide", "range": 50.0, "size": 20, "time": "03/05/2020, 20:25:15"}, "type": "Feature"}, {"geometry": {"coordinates": [8.571136, 47.356893], "type": "Point"}, "properties": {"charge": 65, "id": "smide_10", "name": "ZH253855", "provider": "smide", "range": 32.0, "size": 17, "time": "03/05/2020, 20:25:15"}, "type": "Feature"}, {"geometry": {"coordinates": [8.559382, 47.352556], "type": "Point"}, "properties": {"charge": 85, "id": "smide_84", "name": "ZH253733", "provider": "smide", "range": 42.0, "size": 17, "time": "03/05/2020, 20:25:15"}, "type": "Feature"}, {"geometry": {"coordinates": [8.544205, 47.41628], "type": "Point"}, "properties": {"charge": 100, "id": "smide_165", "name": "ZH253752", "provider": "smide", "range": 50.0, "size": 17, "time": "03/05/2020, 20:25:15"}, "type": "Feature"}, {"geometry": {"coordinates": [8.502151, 47.362288], "type": "Point"}, "properties": {"charge": 100, "id": "smide_35", "name": "ZH253755", "provider": "smide", "range": 50.0, "size": 20, "time": "03/05/2020, 20:25:15"}, "type": "Feature"}, {"geometry": {"coordinates": [8.514202, 47.3634], "type": "Point"}, "properties": {"charge": 100, "id": "smide_119", "name": "ZH253686", "provider": "smide", "range": 50.0, "size": 20, "time": "03/05/2020, 20:25:15"}, "type": "Feature"}, {"geometry": {"coordinates": [8.525786, 47.364984], "type": "Point"}, "properties": {"charge": 51, "id": "smide_76", "name": "ZH253764", "provider": "smide", "range": 25.0, "size": 17, "time": "03/05/2020, 20:25:15"}, "type": "Feature"}, {"geometry": {"coordinates": [8.573812, 47.35308], "type": "Point"}, "properties": {"charge": 94, "id": "smide_129", "name": "ZH261378", "provider": "smide", "range": 47.0, "size": 17, "time": "03/05/2020, 20:25:15"}, "type": "Feature"}, {"geometry": {"coordinates": [8.570165, 47.352211], "type": "Point"}, "properties": {"charge": 88, "id": "smide_49", "name": "ZH253873", "provider": "smide", "range": 44.0, "size": 17, "time": "03/05/2020, 20:25:15"}, "type": "Feature"}, {"geometry": {"coordinates": [8.538378, 47.419148], "type": "Point"}, "properties": {"charge": 100, "id": "smide_37", "name": "ZH261377", "provider": "smide", "range": 50.0, "size": 20, "time": "03/05/2020, 20:25:15"}, "type": "Feature"}, {"geometry": {"coordinates": [8.5607, 47.382985], "type": "Point"}, "properties": {"charge": 12, "id": "smide_191", "name": "ZH253762", "provider": "smide", "range": 6.0, "size": 17, "time": "03/05/2020, 20:25:15"}, "type": "Feature"}, {"geometry": {"coordinates": [8.540046, 47.378848], "type": "Point"}, "properties": {"charge": 52, "id": "smide_202", "name": "ZH253830", "provider": "smide", "range": 26.0, "size": 17, "time": "03/05/2020, 20:25:15"}, "type": "Feature"}, {"geometry": {"coordinates": [8.520555, 47.339713], "type": "Point"}, "properties": {"charge": 74, "id": "smide_47", "name": "ZH253858", "provider": "smide", "range": 37.0, "size": 17, "time": "03/05/2020, 20:25:15"}, "type": "Feature"}, {"geometry": {"coordinates": [8.551143, 47.389608], "type": "Point"}, "properties": {"charge": 10, "id": "smide_66", "name": "ZH253818", "provider": "smide", "range": 5.0, "size": 20, "time": "03/05/2020, 20:25:15"}, "type": "Feature"}, {"geometry": {"coordinates": [8.531271, 47.41269], "type": "Point"}, "properties": {"charge": 62, "id": "smide_17", "name": "ZH253793", "provider": "smide", "range": 31.0, "size": 17, "time": "03/05/2020, 20:25:15"}, "type": "Feature"}, {"geometry": {"coordinates": [8.568493, 47.410706], "type": "Point"}, "properties": {"charge": 100, "id": "smide_145", "name": "ZH253780", "provider": "smide", "range": 50.0, "size": 20, "time": "03/05/2020, 20:25:15"}, "type": "Feature"}, {"geometry": {"coordinates": [8.50813, 47.3917], "type": "Point"}, "properties": {"charge": 94, "id": "smide_114", "name": "ZH253878", "provider": "smide", "range": 47.0, "size": 20, "time": "03/05/2020, 20:25:15"}, "type": "Feature"}, {"geometry": {"coordinates": [8.484735, 47.374496], "type": "Point"}, "properties": {"charge": 62, "id": "smide_21", "name": "ZH253841", "provider": "smide", "range": 31.0, "size": 17, "time": "03/05/2020, 20:25:15"}, "type": "Feature"}, {"geometry": {"coordinates": [8.391567, 47.415392], "type": "Point"}, "properties": {"charge": 52, "id": "smide_189", "name": "ZH253845", "provider": "smide", "range": 26.0, "size": 20, "time": "03/05/2020, 20:25:15"}, "type": "Feature"}, {"geometry": {"coordinates": [8.497177, 47.386956], "type": "Point"}, "properties": {"charge": 90, "id": "smide_81", "name": "ZH253753", "provider": "smide", "range": 45.0, "size": 17, "time": "03/05/2020, 20:25:15"}, "type": "Feature"}, {"geometry": {"coordinates": [8.49901, 47.401572], "type": "Point"}, "properties": {"charge": 75, "id": "smide_171", "name": "ZH253689", "provider": "smide", "range": 37.0, "size": 20, "time": "03/05/2020, 20:25:15"}, "type": "Feature"}, {"geometry": {"coordinates": [8.505013, 47.381876], "type": "Point"}, "properties": {"charge": 79, "id": "smide_93", "name": "ZH253681", "provider": "smide", "range": 39.0, "size": 17, "time": "03/05/2020, 20:25:15"}, "type": "Feature"}, {"geometry": {"coordinates": [8.534051, 47.384788], "type": "Point"}, "properties": {"charge": 80, "id": "smide_67", "name": "ZH253779", "provider": "smide", "range": 40.0, "size": 17, "time": "03/05/2020, 20:25:15"}, "type": "Feature"}, {"geometry": {"coordinates": [8.489446, 47.384186], "type": "Point"}, "properties": {"charge": 100, "id": "smide_118", "name": "ZH253759", "provider": "smide", "range": 50.0, "size": 20, "time": "03/05/2020, 20:25:15"}, "type": "Feature"}, {"geometry": {"coordinates": [8.545316, 47.42008], "type": "Point"}, "properties": {"charge": 46, "id": "smide_166", "name": "ZH253728", "provider": "smide", "range": 23.0, "size": 17, "time": "03/05/2020, 20:25:15"}, "type": "Feature"}, {"geometry": {"coordinates": [8.565264, 47.358048], "type": "Point"}, "properties": {"charge": 76, "id": "smide_126", "name": "ZH268400", "provider": "smide", "range": 38.0, "size": 17, "time": "03/05/2020, 20:25:15"}, "type": "Feature"}, {"geometry": {"coordinates": [8.564805, 47.373005], "type": "Point"}, "properties": {"charge": 70, "id": "smide_44", "name": "ZH253837", "provider": "smide", "range": 35.0, "size": 17, "time": "03/05/2020, 20:25:15"}, "type": "Feature"}, {"geometry": {"coordinates": [8.532116, 47.39727], "type": "Point"}, "properties": {"charge": 92, "id": "smide_57", "name": "ZH253772", "provider": "smide", "range": 46.0, "size": 17, "time": "03/05/2020, 20:25:15"}, "type": "Feature"}, {"geometry": {"coordinates": [8.487375, 47.367604], "type": "Point"}, "properties": {"charge": 97, "id": "smide_154", "name": "ZH253744", "provider": "smide", "range": 48.0, "size": 20, "time": "03/05/2020, 20:25:15"}, "type": "Feature"}, {"geometry": {"coordinates": [8.534, 47.384852], "type": "Point"}, "properties": {"charge": 27, "id": "smide_92", "name": "ZH253798", "provider": "smide", "range": 13.0, "size": 17, "time": "03/05/2020, 20:25:15"}, "type": "Feature"}, {"geometry": {"coordinates": [8.549471, 47.421232], "type": "Point"}, "properties": {"charge": 22, "id": "smide_111", "name": "ZH253763", "provider": "smide", "range": 11.0, "size": 17, "time": "03/05/2020, 20:25:15"}, "type": "Feature"}, {"geometry": {"coordinates": [8.506916, 47.36702], "type": "Point"}, "properties": {"charge": 100, "id": "smide_40", "name": "ZH253690", "provider": "smide", "range": 50.0, "size": 20, "time": "03/05/2020, 20:25:15"}, "type": "Feature"}, {"geometry": {"coordinates": [8.571039, 47.358392], "type": "Point"}, "properties": {"charge": 100, "id": "smide_1", "name": "ZH253776", "provider": "smide", "range": 50.0, "size": 17, "time": "03/05/2020, 20:25:15"}, "type": "Feature"}, {"geometry": {"coordinates": [8.526664, 47.344496], "type": "Point"}, "properties": {"charge": 100, "id": "smide_130", "name": "ZH253847", "provider": "smide", "range": 50.0, "size": 20, "time": "03/05/2020, 20:25:15"}, "type": "Feature"}, {"geometry": {"coordinates": [8.50546, 47.407295], "type": "Point"}, "properties": {"charge": 26, "id": "smide_107", "name": "ZH253819", "provider": "smide", "range": 13.0, "size": 17, "time": "03/05/2020, 20:25:15"}, "type": "Feature"}, {"geometry": {"coordinates": [8.53746, 47.34054], "type": "Point"}, "properties": {"charge": 81, "id": "smide_136", "name": "ZH253682", "provider": "smide", "range": 40.0, "size": 17, "time": "03/05/2020, 20:25:15"}, "type": "Feature"}, {"geometry": {"coordinates": [8.559025, 47.370768], "type": "Point"}, "properties": {"charge": 86, "id": "smide_193", "name": "ZH253738", "provider": "smide", "range": 43.0, "size": 20, "time": "03/05/2020, 20:25:15"}, "type": "Feature"}, {"geometry": {"coordinates": [8.517251, 47.385193], "type": "Point"}, "properties": {"charge": 83, "id": "smide_73", "name": "ZH261379", "provider": "smide", "range": 41.0, "size": 20, "time": "03/05/2020, 20:25:15"}, "type": "Feature"}, {"geometry": {"coordinates": [8.553081, 47.376846], "type": "Point"}, "properties": {"charge": 100, "id": "smide_158", "name": "ZH253870", "provider": "smide", "range": 50.0, "size": 20, "time": "03/05/2020, 20:25:15"}, "type": "Feature"}, {"geometry": {"coordinates": [8.487248, 47.384468], "type": "Point"}, "properties": {"charge": 76, "id": "smide_141", "name": "ZH253800", "provider": "smide", "range": 38.0, "size": 20, "time": "03/05/2020, 20:25:15"}, "type": "Feature"}, {"geometry": {"coordinates": [8.521291, 47.340406], "type": "Point"}, "properties": {"charge": 91, "id": "smide_149", "name": "ZH253743", "provider": "smide", "range": 45.0, "size": 20, "time": "03/05/2020, 20:25:15"}, "type": "Feature"}, {"geometry": {"coordinates": [8.536407, 47.391072], "type": "Point"}, "properties": {"charge": 91, "id": "smide_16", "name": "ZH253713", "provider": "smide", "range": 45.0, "size": 20, "time": "03/05/2020, 20:25:15"}, "type": "Feature"}, {"geometry": {"coordinates": [8.514515, 47.363096], "type": "Point"}, "properties": {"charge": 47, "id": "smide_74", "name": "ZH253693", "provider": "smide", "range": 23.0, "size": 20, "time": "03/05/2020, 20:25:15"}, "type": "Feature"}, {"geometry": {"coordinates": [8.531709, 47.383216], "type": "Point"}, "properties": {"charge": 69, "id": "smide_161", "name": "ZH253691", "provider": "smide", "range": 34.0, "size": 20, "time": "03/05/2020, 20:25:15"}, "type": "Feature"}, {"geometry": {"coordinates": [8.53332, 47.347996], "type": "Point"}, "properties": {"charge": 100, "id": "smide_42", "name": "ZH253846", "provider": "smide", "range": 50.0, "size": 20, "time": "03/05/2020, 20:25:15"}, "type": "Feature"}, {"geometry": {"coordinates": [8.507334, 47.421408], "type": "Point"}, "properties": {"charge": 17, "id": "smide_4", "name": "ZH253740", "provider": "smide", "range": 8.0, "size": 20, "time": "03/05/2020, 20:25:15"}, "type": "Feature"}, {"geometry": {"coordinates": [8.501146, 47.368984], "type": "Point"}, "properties": {"charge": 89, "id": "smide_160", "name": "ZH253722", "provider": "smide", "range": 44.0, "size": 17, "time": "03/05/2020, 20:25:15"}, "type": "Feature"}, {"geometry": {"coordinates": [8.509336, 47.363251], "type": "Point"}, "properties": {"charge": 81, "id": "smide_137", "name": "ZH258502", "provider": "smide", "range": 40.0, "size": 17, "time": "03/05/2020, 20:25:15"}, "type": "Feature"}, {"geometry": {"coordinates": [8.539987, 47.379136], "type": "Point"}, "properties": {"charge": 99, "id": "smide_178", "name": "ZH253803", "provider": "smide", "range": 49.0, "size": 17, "time": "03/05/2020, 20:25:15"}, "type": "Feature"}, {"geometry": {"coordinates": [8.560723, 47.383178], "type": "Point"}, "properties": {"charge": 74, "id": "smide_55", "name": "ZH253875", "provider": "smide", "range": 37.0, "size": 17, "time": "03/05/2020, 20:25:15"}, "type": "Feature"}, {"geometry": {"coordinates": [8.524828, 47.337668], "type": "Point"}, "properties": {"charge": 85, "id": "smide_96", "name": "ZH256146", "provider": "smide", "range": 42.0, "size": 20, "time": "03/05/2020, 20:25:15"}, "type": "Feature"}, {"geometry": {"coordinates": [8.493757, 47.400268], "type": "Point"}, "properties": {"charge": 83, "id": "smide_54", "name": "ZH253874", "provider": "smide", "range": 41.0, "size": 20, "time": "03/05/2020, 20:25:15"}, "type": "Feature"}, {"geometry": {"coordinates": [8.539597, 47.399724], "type": "Point"}, "properties": {"charge": 81, "id": "smide_175", "name": "ZH253730", "provider": "smide", "range": 40.0, "size": 17, "time": "03/05/2020, 20:25:15"}, "type": "Feature"}, {"geometry": {"coordinates": [8.545041, 47.402835], "type": "Point"}, "properties": {"charge": 55, "id": "smide_162", "name": "ZH253760", "provider": "smide", "range": 27.0, "size": 17, "time": "03/05/2020, 20:25:15"}, "type": "Feature"}, {"geometry": {"coordinates": [8.502012, 47.369084], "type": "Point"}, "properties": {"charge": 100, "id": "smide_95", "name": "ZH253773", "provider": "smide", "range": 50.0, "size": 17, "time": "03/05/2020, 20:25:15"}, "type": "Feature"}, {"geometry": {"coordinates": [8.565168, 47.361564], "type": "Point"}, "properties": {"charge": 99, "id": "smide_163", "name": "ZH256147", "provider": "smide", "range": 49.0, "size": 20, "time": "03/05/2020, 20:25:15"}, "type": "Feature"}, {"geometry": {"coordinates": [8.539171, 47.338288], "type": "Point"}, "properties": {"charge": 100, "id": "smide_112", "name": "ZH263530", "provider": "smide", "range": 50.0, "size": 20, "time": "03/05/2020, 20:25:15"}, "type": "Feature"}, {"geometry": {"coordinates": [8.574946, 47.373426], "type": "Point"}, "properties": {"charge": 100, "id": "smide_38", "name": "ZH253851", "provider": "smide", "range": 50.0, "size": 20, "time": "03/05/2020, 20:25:15"}, "type": "Feature"}, {"geometry": {"coordinates": [8.544178, 47.416344], "type": "Point"}, "properties": {"charge": 27, "id": "smide_6", "name": "ZH253787", "provider": "smide", "range": 13.0, "size": 17, "time": "03/05/2020, 20:25:15"}, "type": "Feature"}, {"geometry": {"coordinates": [8.555146, 47.35694], "type": "Point"}, "properties": {"charge": 51, "id": "smide_12", "name": "ZH253685", "provider": "smide", "range": 25.0, "size": 17, "time": "03/05/2020, 20:25:15"}, "type": "Feature"}, {"geometry": {"coordinates": [8.556602, 47.359324], "type": "Point"}, "properties": {"charge": 66, "id": "smide_192", "name": "ZH253706", "provider": "smide", "range": 33.0, "size": 20, "time": "03/05/2020, 20:25:15"}, "type": "Feature"}, {"geometry": {"coordinates": [8.490571, 47.395315], "type": "Point"}, "properties": {"charge": 69, "id": "smide_39", "name": "ZH253714", "provider": "smide", "range": 34.0, "size": 20, "time": "03/05/2020, 20:25:15"}, "type": "Feature"}, {"geometry": {"coordinates": [8.573881, 47.352621], "type": "Point"}, "properties": {"charge": 44, "id": "smide_5", "name": "ZH261443", "provider": "smide", "range": 22.0, "size": 20, "time": "03/05/2020, 20:25:15"}, "type": "Feature"}, {"geometry": {"coordinates": [8.563128, 47.382248], "type": "Point"}, "properties": {"charge": 37, "id": "smide_132", "name": "ZH253857", "provider": "smide", "range": 18.0, "size": 17, "time": "03/05/2020, 20:25:15"}, "type": "Feature"}, {"geometry": {"coordinates": [8.538728, 47.373968], "type": "Point"}, "properties": {"charge": 98, "id": "smide_48", "name": "ZH253849", "provider": "smide", "range": 49.0, "size": 20, "time": "03/05/2020, 20:25:15"}, "type": "Feature"}, {"geometry": {"coordinates": [8.53992, 47.371925], "type": "Point"}, "properties": {"charge": 35, "id": "bird_919a5d82-a384-4713-be0b-ef181d7086d2", "provider": "bird", "timeStamp": "03/05/2020, 20:33:15"}, "type": "Feature"}, {"geometry": {"coordinates": [8.54547666666667, 47.3799816666667], "type": "Point"}, "properties": {"charge": 65, "id": "bird_4d38e913-7903-4008-858a-c704f2086e74", "provider": "bird", "timeStamp": "03/05/2020, 20:33:15"}, "type": "Feature"}, {"geometry": {"coordinates": [8.51692333333333, 47.385605], "type": "Point"}, "properties": {"charge": 24, "id": "bird_a5caea9f-3587-4120-ae9f-f870df00f2db", "provider": "bird", "timeStamp": "03/05/2020, 20:33:15"}, "type": "Feature"}, {"geometry": {"coordinates": [8.54031666666667, 47.3722566666667], "type": "Point"}, "properties": {"charge": 36, "id": "bird_febd177a-c499-4987-9bb2-af655c22b5c3", "provider": "bird", "timeStamp": "03/05/2020, 20:33:15"}, "type": "Feature"}, {"geometry": {"coordinates": [8.51716333333333, 47.38565], "type": "Point"}, "properties": {"charge": 29, "id": "bird_9b366db8-cd33-4c90-8a36-b0d63559570f", "provider": "bird", "timeStamp": "03/05/2020, 20:33:15"}, "type": "Feature"}, {"geometry": {"coordinates": [8.51703166666667, 47.385505], "type": "Point"}, "properties": {"charge": 60, "id": "bird_e09df77a-ee5f-4677-b287-80f7b2476e45", "provider": "bird", "timeStamp": "03/05/2020, 20:33:15"}, "type": "Feature"}, {"geometry": {"coordinates": [8.51778333333333, 47.3861733333333], "type": "Point"}, "properties": {"charge": 60, "id": "bird_4d1c42ed-0f53-4d4b-9897-b0ed143e86e4", "provider": "bird", "timeStamp": "03/05/2020, 20:33:15"}, "type": "Feature"}, {"geometry": {"coordinates": [8.53507, 47.3702933333333], "type": "Point"}, "properties": {"charge": 78, "id": "bird_e68a3e3f-f1dc-40f6-b974-0c562c3647df", "provider": "bird", "timeStamp": "03/05/2020, 20:33:15"}, "type": "Feature"}, {"geometry": {"coordinates": [8.51786333333333, 47.3861383333333], "type": "Point"}, "properties": {"charge": 62, "id": "bird_94ee4f8e-101b-4798-b9f5-aa58f73fe57b", "provider": "bird", "timeStamp": "03/05/2020, 20:33:15"}, "type": "Feature"}, {"geometry": {"coordinates": [8.51819, 47.3863683333333], "type": "Point"}, "properties": {"charge": 98, "id": "bird_e51e6c8c-9b76-462a-a13d-546591d01b5b", "provider": "bird", "timeStamp": "03/05/2020, 20:33:15"}, "type": "Feature"}, {"geometry": {"coordinates": [8.515265, 47.3821066666667], "type": "Point"}, "properties": {"charge": 76, "id": "bird_cef1c4e3-aa59-44e4-b6ae-c7eb3c64f539", "provider": "bird", "timeStamp": "03/05/2020, 20:33:15"}, "type": "Feature"}, {"geometry": {"coordinates": [8.51529333333333, 47.3821683333333], "type": "Point"}, "properties": {"charge": 35, "id": "bird_4b7519a6-7898-44c9-b66f-6d5832c7c12b", "provider": "bird", "timeStamp": "03/05/2020, 20:33:15"}, "type": "Feature"}, {"geometry": {"coordinates": [8.54399666666667, 47.37627], "type": "Point"}, "properties": {"charge": 46, "id": "bird_031e9340-d49c-4610-b806-30b218151fb2", "provider": "bird", "timeStamp": "03/05/2020, 20:33:15"}, "type": "Feature"}, {"geometry": {"coordinates": [8.51745833333333, 47.3855966666667], "type": "Point"}, "properties": {"charge": 61, "id": "bird_bb1cf013-497f-4f31-94bd-30b6e89a4259", "provider": "bird", "timeStamp": "03/05/2020, 20:33:15"}, "type": "Feature"}, {"geometry": {"coordinates": [8.51733166666667, 47.3854633333333], "type": "Point"}, "properties": {"charge": 60, "id": "bird_d5633e70-3d1a-4f76-935f-67cd027a74ee", "provider": "bird", "timeStamp": "03/05/2020, 20:33:15"}, "type": "Feature"}, {"geometry": {"coordinates": [8.51650333333333, 47.37555], "type": "Point"}, "properties": {"charge": 96, "id": "bird_eb025d0c-ba6b-4581-ad2d-adb2cfb1ceae", "provider": "bird", "timeStamp": "03/05/2020, 20:33:15"}, "type": "Feature"}, {"geometry": {"coordinates": [8.52216166666667, 47.38866], "type": "Point"}, "properties": {"charge": 64, "id": "bird_00e5e7ac-e0de-4b47-b19c-a43e624f433e", "provider": "bird", "timeStamp": "03/05/2020, 20:33:15"}, "type": "Feature"}, {"geometry": {"coordinates": [8.515355, 47.38195], "type": "Point"}, "properties": {"charge": 67, "id": "bird_78148b8a-6fff-4d6e-8bb5-931763391652", "provider": "bird", "timeStamp": "03/05/2020, 20:33:15"}, "type": "Feature"}, {"geometry": {"coordinates": [8.544035, 47.37658], "type": "Point"}, "properties": {"charge": 24, "id": "bird_016a10d7-2a73-4fca-b4ce-6174652151c7", "provider": "bird", "timeStamp": "03/05/2020, 20:33:15"}, "type": "Feature"}, {"geometry": {"coordinates": [8.53922666666667, 47.3721], "type": "Point"}, "properties": {"charge": 55, "id": "bird_655ea08f-0fb6-4a99-be38-9cb291efe78a", "provider": "bird", "timeStamp": "03/05/2020, 20:33:15"}, "type": "Feature"}, {"geometry": {"coordinates": [8.51663166666667, 47.3756033333333], "type": "Point"}, "properties": {"charge": 45, "id": "bird_4e051e9a-427d-4f02-8d22-58f338171610", "provider": "bird", "timeStamp": "03/05/2020, 20:33:15"}, "type": "Feature"}, {"geometry": {"coordinates": [8.537435, 47.3712916666667], "type": "Point"}, "properties": {"charge": 49, "id": "bird_c5edc9e5-b4d9-458e-bd6f-a4ea46434262", "provider": "bird", "timeStamp": "03/05/2020, 20:33:15"}, "type": "Feature"}, {"geometry": {"coordinates": [8.52344666666667, 47.370975], "type": "Point"}, "properties": {"charge": 97, "id": "bird_402a5964-87f7-4ba3-a5af-2ac5a5a328d5", "provider": "bird", "timeStamp": "03/05/2020, 20:33:15"}, "type": "Feature"}, {"geometry": {"coordinates": [8.51794, 47.3858533333333], "type": "Point"}, "properties": {"charge": 55, "id": "bird_ac1c2dbb-6198-4338-8e22-f453f26f5df3", "provider": "bird", "timeStamp": "03/05/2020, 20:33:15"}, "type": "Feature"}, {"geometry": {"coordinates": [8.51708333333333, 47.3849216666667], "type": "Point"}, "properties": {"charge": 25, "id": "bird_e4da89f4-8d3d-4890-b3a6-87764d7f1401", "provider": "bird", "timeStamp": "03/05/2020, 20:33:15"}, "type": "Feature"}, {"geometry": {"coordinates": [8.516735, 47.375545], "type": "Point"}, "properties": {"charge": 93, "id": "bird_8dd4e4d0-9c7e-4133-8bb6-30de0503353e", "provider": "bird", "timeStamp": "03/05/2020, 20:33:15"}, "type": "Feature"}, {"geometry": {"coordinates": [8.51842666666667, 47.3862533333333], "type": "Point"}, "properties": {"charge": 91, "id": "bird_7e3a5e73-77cf-4d5e-a6e6-16cbdb2cc482", "provider": "bird", "timeStamp": "03/05/2020, 20:33:15"}, "type": "Feature"}, {"geometry": {"coordinates": [8.52351833333333, 47.3710166666667], "type": "Point"}, "properties": {"charge": 48, "id": "bird_6057922f-9705-4315-8ffd-f5530be23af2", "provider": "bird", "timeStamp": "03/05/2020, 20:33:15"}, "type": "Feature"}, {"geometry": {"coordinates": [8.518245, 47.3860366666667], "type": "Point"}, "properties": {"charge": 34, "id": "bird_76ec31bf-0bdb-4029-86a1-16934bc374a1", "provider": "bird", "timeStamp": "03/05/2020, 20:33:15"}, "type": "Feature"}, {"geometry": {"coordinates": [8.51665333333333, 47.375755], "type": "Point"}, "properties": {"charge": 73, "id": "bird_9404ce4b-d4f0-437a-8239-8b8517bab28b", "provider": "bird", "timeStamp": "03/05/2020, 20:33:15"}, "type": "Feature"}, {"geometry": {"coordinates": [8.523205, 47.3711616666667], "type": "Point"}, "properties": {"charge": 93, "id": "bird_c4b44fb5-5936-4982-90bd-c244722e6c72", "provider": "bird", "timeStamp": "03/05/2020, 20:33:15"}, "type": "Feature"}, {"geometry": {"coordinates": [8.517885, 47.38565], "type": "Point"}, "properties": {"charge": 63, "id": "bird_3301f769-7c03-43bf-9060-5f6d57a5d4bc", "provider": "bird", "timeStamp": "03/05/2020, 20:33:15"}, "type": "Feature"}, {"geometry": {"coordinates": [8.52473166666667, 47.3892866666667], "type": "Point"}, "properties": {"charge": 69, "id": "bird_efc9de74-64eb-4b56-b814-76832651fddb", "provider": "bird", "timeStamp": "03/05/2020, 20:33:15"}, "type": "Feature"}, {"geometry": {"coordinates": [8.527195, 47.3702466666667], "type": "Point"}, "properties": {"charge": 42, "id": "bird_609009bd-b6e2-488e-9d97-3bdf584154c2", "provider": "bird", "timeStamp": "03/05/2020, 20:33:15"}, "type": "Feature"}, {"geometry": {"coordinates": [8.51539333333333, 47.3807066666667], "type": "Point"}, "properties": {"charge": 57, "id": "bird_0c4e45ac-cfc8-4d47-9739-fd77988c321d", "provider": "bird", "timeStamp": "03/05/2020, 20:33:15"}, "type": "Feature"}, {"geometry": {"coordinates": [8.51752666666667, 47.38512], "type": "Point"}, "properties": {"charge": 55, "id": "bird_99d4a725-9d55-49a3-a9b0-8f110887d972", "provider": "bird", "timeStamp": "03/05/2020, 20:33:15"}, "type": "Feature"}, {"geometry": {"coordinates": [8.51845333333333, 47.3859183333333], "type": "Point"}, "properties": {"charge": 94, "id": "bird_0ef56fcb-3ee0-45db-9649-fd374d483bbd", "provider": "bird", "timeStamp": "03/05/2020, 20:33:15"}, "type": "Feature"}, {"geometry": {"coordinates": [8.54446, 47.3795583333333], "type": "Point"}, "properties": {"charge": 40, "id": "bird_ec4b0ce4-d6df-4b23-b272-5f884cdc32cc", "provider": "bird", "timeStamp": "03/05/2020, 20:33:15"}, "type": "Feature"}, {"geometry": {"coordinates": [8.54387, 47.37732], "type": "Point"}, "properties": {"charge": 44, "id": "bird_6fa51b5c-1e58-4c75-82fd-85b1da351aed", "provider": "bird", "timeStamp": "03/05/2020, 20:33:15"}, "type": "Feature"}, {"geometry": {"coordinates": [8.52414833333333, 47.3711733333333], "type": "Point"}, "properties": {"charge": 96, "id": "bird_6c2a0bcc-c484-4f77-8fcd-1aabcb7f8454", "provider": "bird", "timeStamp": "03/05/2020, 20:33:15"}, "type": "Feature"}, {"geometry": {"coordinates": [8.524145, 47.3711883333333], "type": "Point"}, "properties": {"charge": 92, "id": "bird_f0dc0e66-89f0-4664-a0df-dda12c29b961", "provider": "bird", "timeStamp": "03/05/2020, 20:33:15"}, "type": "Feature"}, {"geometry": {"coordinates": [8.54417333333333, 47.3796966666667], "type": "Point"}, "properties": {"charge": 73, "id": "bird_c5782ba0-cbda-4ce8-9137-53dc9f64840e", "provider": "bird", "timeStamp": "03/05/2020, 20:33:15"}, "type": "Feature"}, {"geometry": {"coordinates": [8.51760833333333, 47.3753433333333], "type": "Point"}, "properties": {"charge": 36, "id": "bird_07c8a53a-75ae-42da-8e99-79832930555f", "provider": "bird", "timeStamp": "03/05/2020, 20:33:15"}, "type": "Feature"}, {"geometry": {"coordinates": [8.51593333333333, 47.379475], "type": "Point"}, "properties": {"charge": 57, "id": "bird_600936ae-f6ac-4fd0-a08a-b959e7ce385d", "provider": "bird", "timeStamp": "03/05/2020, 20:33:15"}, "type": "Feature"}, {"geometry": {"coordinates": [8.52604666666667, 47.3891416666667], "type": "Point"}, "properties": {"charge": 53, "id": "bird_2dd1bb68-7273-47ad-b106-5a297f22d56a", "provider": "bird", "timeStamp": "03/05/2020, 20:33:15"}, "type": "Feature"}, {"geometry": {"coordinates": [8.51596, 47.3794483333333], "type": "Point"}, "properties": {"charge": 71, "id": "bird_5e74f096-3ff3-426c-a471-5033c4c204aa", "provider": "bird", "timeStamp": "03/05/2020, 20:33:15"}, "type": "Feature"}, {"geometry": {"coordinates": [8.51596833333333, 47.3794816666667], "type": "Point"}, "properties": {"charge": 71, "id": "bird_1490d848-74c3-4500-a02c-adf33389c922", "provider": "bird", "timeStamp": "03/05/2020, 20:33:15"}, "type": "Feature"}, {"geometry": {"coordinates": [8.53671666666667, 47.3716933333333], "type": "Point"}, "properties": {"charge": 62, "id": "bird_400b6b88-fa8d-44a1-912a-ecbbbf639985", "provider": "bird", "timeStamp": "03/05/2020, 20:33:15"}, "type": "Feature"}, {"geometry": {"coordinates": [8.519905, 47.3734783333333], "type": "Point"}, "properties": {"charge": 44, "id": "bird_b7ead15b-ba6b-4d8a-848c-24408e83c6ac", "provider": "bird", "timeStamp": "03/05/2020, 20:33:15"}, "type": "Feature"}, {"geometry": {"coordinates": [8.51623, 47.3815083333333], "type": "Point"}, "properties": {"charge": 28, "id": "bird_87f1ce51-075b-445e-9666-64db320bd9be", "provider": "bird", "timeStamp": "03/05/2020, 20:33:15"}, "type": "Feature"}, {"geometry": {"coordinates": [8.536785, 47.3717616666667], "type": "Point"}, "properties": {"charge": 49, "id": "bird_0f99391e-d7c7-4d11-a26b-90632d452cf6", "provider": "bird", "timeStamp": "03/05/2020, 20:33:15"}, "type": "Feature"}, {"geometry": {"coordinates": [8.54391833333333, 47.3801916666667], "type": "Point"}, "properties": {"charge": 58, "id": "bird_b733e0e0-8140-4094-8ca3-cd0f9898bbc6", "provider": "bird", "timeStamp": "03/05/2020, 20:33:15"}, "type": "Feature"}, {"geometry": {"coordinates": [8.53668166666667, 47.3718], "type": "Point"}, "properties": {"charge": 62, "id": "bird_8da5ef1d-634d-43ca-99ba-f36983c1a569", "provider": "bird", "timeStamp": "03/05/2020, 20:33:15"}, "type": "Feature"}, {"geometry": {"coordinates": [8.53674, 47.3718533333333], "type": "Point"}, "properties": {"charge": 71, "id": "bird_8068bd48-22fc-45ac-a02e-4c939bca988f", "provider": "bird", "timeStamp": "03/05/2020, 20:33:15"}, "type": "Feature"}, {"geometry": {"coordinates": [8.53654333333333, 47.3718183333333], "type": "Point"}, "properties": {"charge": 65, "id": "bird_53bdfeb6-eebc-4ade-bb79-5e71bf013722", "provider": "bird", "timeStamp": "03/05/2020, 20:33:15"}, "type": "Feature"}, {"geometry": {"coordinates": [8.54199, 47.38454], "type": "Point"}, "properties": {"charge": 33, "id": "bird_3c8cffdf-04e6-4881-a763-6110b0c6bccb", "provider": "bird", "timeStamp": "03/05/2020, 20:33:15"}, "type": "Feature"}, {"geometry": {"coordinates": [8.51817666666667, 47.3753583333333], "type": "Point"}, "properties": {"charge": 31, "id": "bird_cbb43fec-df0b-4fb7-84ff-91a37e766c1a", "provider": "bird", "timeStamp": "03/05/2020, 20:33:15"}, "type": "Feature"}, {"geometry": {"coordinates": [8.53538, 47.3715166666667], "type": "Point"}, "properties": {"charge": 97, "id": "bird_a461babb-877f-4962-b5c6-9d687990e281", "provider": "bird", "timeStamp": "03/05/2020, 20:33:15"}, "type": "Feature"}, {"geometry": {"coordinates": [8.53695833333333, 47.372375], "type": "Point"}, "properties": {"charge": 42, "id": "bird_5ad930c8-d5a5-4649-ae52-2d42601e7804", "provider": "bird", "timeStamp": "03/05/2020, 20:33:15"}, "type": "Feature"}, {"geometry": {"coordinates": [8.539045, 47.3734633333333], "type": "Point"}, "properties": {"charge": 13, "id": "bird_391f0302-66a1-43ba-81d8-7cca1c33112f", "provider": "bird", "timeStamp": "03/05/2020, 20:33:15"}, "type": "Feature"}, {"geometry": {"coordinates": [8.53634166666667, 47.3722266666667], "type": "Point"}, "properties": {"charge": 27, "id": "bird_f21a8d6a-dbee-45fe-a7a3-245c5152b96d", "provider": "bird", "timeStamp": "03/05/2020, 20:33:15"}, "type": "Feature"}, {"geometry": {"coordinates": [8.53139333333333, 47.3711783333333], "type": "Point"}, "properties": {"charge": 11, "id": "bird_e1facb63-019c-4c90-b3c8-79d1df87f0b0", "provider": "bird", "timeStamp": "03/05/2020, 20:33:15"}, "type": "Feature"}, {"geometry": {"coordinates": [8.54009666666667, 47.3744433333333], "type": "Point"}, "properties": {"charge": 98, "id": "bird_a5eb6f42-8f1b-4108-9df3-5fddaaa076b0", "provider": "bird", "timeStamp": "03/05/2020, 20:33:15"}, "type": "Feature"}, {"geometry": {"coordinates": [8.540155, 47.374515], "type": "Point"}, "properties": {"charge": 92, "id": "bird_af576ff8-e291-4423-b5ea-d521c7dc0e60", "provider": "bird", "timeStamp": "03/05/2020, 20:33:15"}, "type": "Feature"}, {"geometry": {"coordinates": [8.54005166666667, 47.3744433333333], "type": "Point"}, "properties": {"charge": 93, "id": "bird_e93321fc-a300-4664-a589-ca8f33c44c5e", "provider": "bird", "timeStamp": "03/05/2020, 20:33:15"}, "type": "Feature"}, {"geometry": {"coordinates": [8.54017333333333, 47.37455], "type": "Point"}, "properties": {"charge": 98, "id": "bird_d6d93c39-336b-4198-8ba2-df6c480ec028", "provider": "bird", "timeStamp": "03/05/2020, 20:33:15"}, "type": "Feature"}, {"geometry": {"coordinates": [8.54225166666667, 47.377315], "type": "Point"}, "properties": {"charge": 55, "id": "bird_0432d1cc-6024-4f4f-998d-5d20dbbf62aa", "provider": "bird", "timeStamp": "03/05/2020, 20:33:15"}, "type": "Feature"}, {"geometry": {"coordinates": [8.51737666666667, 47.381535], "type": "Point"}, "properties": {"charge": 70, "id": "bird_98188f2f-f02d-4e0f-8878-4c033c7ffa2d", "provider": "bird", "timeStamp": "03/05/2020, 20:33:15"}, "type": "Feature"}, {"geometry": {"coordinates": [8.534025, 47.3717883333333], "type": "Point"}, "properties": {"charge": 42, "id": "bird_07122281-5e9b-422f-863c-54dbbd40e61f", "provider": "bird", "timeStamp": "03/05/2020, 20:33:15"}, "type": "Feature"}, {"geometry": {"coordinates": [8.52792166666667, 47.3714683333333], "type": "Point"}, "properties": {"charge": 17, "id": "bird_b70e58a0-5650-4774-94b2-cebe695adc43", "provider": "bird", "timeStamp": "03/05/2020, 20:33:15"}, "type": "Feature"}, {"geometry": {"coordinates": [8.53780333333333, 47.3731683333333], "type": "Point"}, "properties": {"charge": 74, "id": "bird_280761b2-b4ce-4098-8a59-8e2cd3325005", "provider": "bird", "timeStamp": "03/05/2020, 20:33:15"}, "type": "Feature"}, {"geometry": {"coordinates": [8.537655, 47.37312], "type": "Point"}, "properties": {"charge": 74, "id": "bird_b78500e0-1ae5-4c39-88e8-e73f8922eafc", "provider": "bird", "timeStamp": "03/05/2020, 20:33:15"}, "type": "Feature"}, {"geometry": {"coordinates": [8.524595, 47.3876033333333], "type": "Point"}, "properties": {"charge": 10, "id": "bird_296d72b1-ee85-43df-9316-6b298e58fa8e", "provider": "bird", "timeStamp": "03/05/2020, 20:33:15"}, "type": "Feature"}, {"geometry": {"coordinates": [8.51762666666667, 47.38087], "type": "Point"}, "properties": {"charge": 66, "id": "bird_9dfe51ae-8674-4820-9110-633f2c91bcae", "provider": "bird", "timeStamp": "03/05/2020, 20:33:15"}, "type": "Feature"}, {"geometry": {"coordinates": [8.54146833333333, 47.3767966666667], "type": "Point"}, "properties": {"charge": 65, "id": "bird_2df46fa9-5d23-4807-aae7-699ae60cc892", "provider": "bird", "timeStamp": "03/05/2020, 20:33:15"}, "type": "Feature"}, {"geometry": {"coordinates": [8.53674, 47.373005], "type": "Point"}, "properties": {"charge": 67, "id": "bird_4f11dc07-f2ea-465d-9797-5d3a6672ceff", "provider": "bird", "timeStamp": "03/05/2020, 20:33:15"}, "type": "Feature"}, {"geometry": {"coordinates": [8.52066, 47.38541], "type": "Point"}, "properties": {"charge": 91, "id": "bird_01009e14-ec48-4a66-9e81-0bf384b87910", "provider": "bird", "timeStamp": "03/05/2020, 20:33:15"}, "type": "Feature"}, {"geometry": {"coordinates": [8.53679166666667, 47.3730766666667], "type": "Point"}, "properties": {"charge": 54, "id": "bird_fdb5398c-4e57-4ea2-a6f1-87dd8bde3962", "provider": "bird", "timeStamp": "03/05/2020, 20:33:15"}, "type": "Feature"}, {"geometry": {"coordinates": [8.536785, 47.373085], "type": "Point"}, "properties": {"charge": 71, "id": "bird_82b8566c-4b5d-44ce-9231-d4add9972142", "provider": "bird", "timeStamp": "03/05/2020, 20:33:15"}, "type": "Feature"}, {"geometry": {"coordinates": [8.53544666666667, 47.3725966666667], "type": "Point"}, "properties": {"charge": 34, "id": "bird_08511d3d-06d4-4d90-8ea9-288e706e9343", "provider": "bird", "timeStamp": "03/05/2020, 20:33:15"}, "type": "Feature"}, {"geometry": {"coordinates": [8.52257166666667, 47.3865516666667], "type": "Point"}, "properties": {"charge": 57, "id": "bird_932cac57-be0d-49cb-9a04-8e75d3b8f7e9", "provider": "bird", "timeStamp": "03/05/2020, 20:33:15"}, "type": "Feature"}, {"geometry": {"coordinates": [8.54188666666667, 47.3782233333333], "type": "Point"}, "properties": {"charge": 58, "id": "bird_9222d9a5-7067-4a01-b119-d516e1c026ea", "provider": "bird", "timeStamp": "03/05/2020, 20:33:15"}, "type": "Feature"}, {"geometry": {"coordinates": [8.53655, 47.37307], "type": "Point"}, "properties": {"charge": 65, "id": "bird_ab6b3353-d12e-4427-b12e-9782c91ac547", "provider": "bird", "timeStamp": "03/05/2020, 20:33:15"}, "type": "Feature"}, {"geometry": {"coordinates": [8.53614, 47.3729516666667], "type": "Point"}, "properties": {"charge": 66, "id": "bird_4efc9fe5-ba32-4153-9e0f-f85f3e279f0b", "provider": "bird", "timeStamp": "03/05/2020, 20:33:15"}, "type": "Feature"}, {"geometry": {"coordinates": [8.52191333333333, 47.3860783333333], "type": "Point"}, "properties": {"charge": 18, "id": "bird_0128f0cd-759b-4203-854f-c97c2c889062", "provider": "bird", "timeStamp": "03/05/2020, 20:33:15"}, "type": "Feature"}, {"geometry": {"coordinates": [8.53959833333333, 47.37505], "type": "Point"}, "properties": {"charge": 19, "id": "bird_c2d872b9-94d7-4987-b3de-d4ef9c5fb821", "provider": "bird", "timeStamp": "03/05/2020, 20:33:15"}, "type": "Feature"}, {"geometry": {"coordinates": [8.53683166666667, 47.373275], "type": "Point"}, "properties": {"charge": 65, "id": "bird_ad80381c-2eee-47bd-9d72-b24da957ec16", "provider": "bird", "timeStamp": "03/05/2020, 20:33:15"}, "type": "Feature"}, {"geometry": {"coordinates": [8.52165333333333, 47.374115], "type": "Point"}, "properties": {"charge": 69, "id": "bird_9a919f67-6541-42ec-af79-859d8e3b7e45", "provider": "bird", "timeStamp": "03/05/2020, 20:33:15"}, "type": "Feature"}, {"geometry": {"coordinates": [8.541395, 47.3773916666667], "type": "Point"}, "properties": {"charge": 20, "id": "bird_84bfbfd1-c726-4324-b3b0-fb5a0fad5c34", "provider": "bird", "timeStamp": "03/05/2020, 20:33:15"}, "type": "Feature"}, {"geometry": {"coordinates": [8.53608333333333, 47.3729866666667], "type": "Point"}, "properties": {"charge": 31, "id": "bird_0e54d545-14ac-460e-9c3b-57256ef7e222", "provider": "bird", "timeStamp": "03/05/2020, 20:33:15"}, "type": "Feature"}, {"geometry": {"coordinates": [8.52371, 47.3869216666667], "type": "Point"}, "properties": {"charge": 70, "id": "bird_8c0e440e-7fe3-4e4f-8d51-50f605ce71d1", "provider": "bird", "timeStamp": "03/05/2020, 20:33:15"}, "type": "Feature"}, {"geometry": {"coordinates": [8.536085, 47.3730083333333], "type": "Point"}, "properties": {"charge": 69, "id": "bird_30cf8e87-ba4e-4132-8078-10fa10cb09a0", "provider": "bird", "timeStamp": "03/05/2020, 20:33:15"}, "type": "Feature"}, {"geometry": {"coordinates": [8.52171166666667, 47.3858333333333], "type": "Point"}, "properties": {"charge": 64, "id": "bird_ae72804d-2348-48aa-aba9-515239602f47", "provider": "bird", "timeStamp": "03/05/2020, 20:33:15"}, "type": "Feature"}, {"geometry": {"coordinates": [8.53036666666667, 47.3719666666667], "type": "Point"}, "properties": {"charge": 65, "id": "bird_36ea273d-468a-4d70-a2cd-f070f69cb26c", "provider": "bird", "timeStamp": "03/05/2020, 20:33:15"}, "type": "Feature"}, {"geometry": {"coordinates": [8.54071, 47.376705], "type": "Point"}, "properties": {"charge": 25, "id": "bird_d4b89e6f-ec8d-44da-86a4-4ddb70d22d99", "provider": "bird", "timeStamp": "03/05/2020, 20:33:15"}, "type": "Feature"}, {"geometry": {"coordinates": [8.52506833333333, 47.3727716666667], "type": "Point"}, "properties": {"charge": 69, "id": "bird_04ca4172-9cee-4464-94f4-e7fd9e3c1a50", "provider": "bird", "timeStamp": "03/05/2020, 20:33:15"}, "type": "Feature"}, {"geometry": {"coordinates": [8.53435833333333, 47.3726766666667], "type": "Point"}, "properties": {"charge": 69, "id": "bird_be0f1103-f113-4622-bb64-38f7fcd29e58", "provider": "bird", "timeStamp": "03/05/2020, 20:33:15"}, "type": "Feature"}, {"geometry": {"coordinates": [8.54054833333333, 47.37674], "type": "Point"}, "properties": {"charge": 61, "id": "bird_0dda8443-39c7-4891-a876-b1245f330c03", "provider": "bird", "timeStamp": "03/05/2020, 20:33:15"}, "type": "Feature"}, {"geometry": {"coordinates": [8.53470333333333, 47.3728333333333], "type": "Point"}, "properties": {"charge": 75, "id": "bird_588856cb-f8ef-414b-bacd-f89f29da3de6", "provider": "bird", "timeStamp": "03/05/2020, 20:33:15"}, "type": "Feature"}, {"geometry": {"coordinates": [8.54048166666667, 47.376805], "type": "Point"}, "properties": {"charge": 65, "id": "bird_a69b715e-4a46-445c-86d1-e18192c43a32", "provider": "bird", "timeStamp": "03/05/2020, 20:33:15"}, "type": "Feature"}, {"geometry": {"coordinates": [8.534485, 47.37286], "type": "Point"}, "properties": {"charge": 45, "id": "bird_096e86d4-41f8-4d14-a474-7f111906cdc8", "provider": "bird", "timeStamp": "03/05/2020, 20:33:15"}, "type": "Feature"}, {"geometry": {"coordinates": [8.527935, 47.3723716666667], "type": "Point"}, "properties": {"charge": 43, "id": "bird_c1aaed75-6b99-4ae7-98d3-6fcb30b3b444", "provider": "bird", "timeStamp": "03/05/2020, 20:33:15"}, "type": "Feature"}, {"geometry": {"coordinates": [8.52206833333333, 47.3744133333333], "type": "Point"}, "properties": {"charge": 72, "id": "bird_b28687be-7365-49fc-81f3-636b54e63d1a", "provider": "bird", "timeStamp": "03/05/2020, 20:33:15"}, "type": "Feature"}, {"geometry": {"coordinates": [8.52726333333333, 47.3724933333333], "type": "Point"}, "properties": {"charge": 64, "id": "bird_b9f17ad9-8db0-4dfe-8207-05f2fc392afd", "provider": "bird", "timeStamp": "03/05/2020, 20:33:15"}, "type": "Feature"}, {"geometry": {"coordinates": [8.52804166666667, 47.3723866666667], "type": "Point"}, "properties": {"charge": 57, "id": "bird_658b9b80-642d-40ea-a892-06aff2c2e655", "provider": "bird", "timeStamp": "03/05/2020, 20:33:15"}, "type": "Feature"}, {"geometry": {"coordinates": [8.54036833333333, 47.3768233333333], "type": "Point"}, "properties": {"charge": 62, "id": "bird_1983d632-6750-4588-aac5-aef9e7d18a13", "provider": "bird", "timeStamp": "03/05/2020, 20:33:15"}, "type": "Feature"}, {"geometry": {"coordinates": [8.54036833333333, 47.37685], "type": "Point"}, "properties": {"charge": 65, "id": "bird_02c7a513-f170-4bdd-8ef3-eac1b9ef74bc", "provider": "bird", "timeStamp": "03/05/2020, 20:33:15"}, "type": "Feature"}, {"geometry": {"coordinates": [8.53799, 47.3746333333333], "type": "Point"}, "properties": {"charge": 98, "id": "bird_56b954dd-0881-4166-8de4-f3ce37e68fd8", "provider": "bird", "timeStamp": "03/05/2020, 20:33:15"}, "type": "Feature"}, {"geometry": {"coordinates": [8.54024, 47.3768466666667], "type": "Point"}, "properties": {"charge": 53, "id": "bird_88bf928e-d962-4149-b830-82f70b3e11ee", "provider": "bird", "timeStamp": "03/05/2020, 20:33:15"}, "type": "Feature"}, {"geometry": {"coordinates": [8.54024, 47.37688], "type": "Point"}, "properties": {"charge": 47, "id": "bird_927f56b2-fad7-4d64-ace0-f85ea6927827", "provider": "bird", "timeStamp": "03/05/2020, 20:33:15"}, "type": "Feature"},