{"features": [{"geometry": {"coordinates": [8.540062, 47.374392], "type": "Point"}, "properties": {"address": "Uraniastrasse 7", "electric": 1, "id": "pb_60", "manual": 13, "name": "Demo Station Werdm\u00fchleplatz", "provider": "publibike", "timeStamp": "02/20/2020, 17:37:38", "zip": 8001}, "type": "Feature"}, {"geometry": {"coordinates": [8.5452956, 47.4099615], "type": "Point"}, "properties": {"address": "Querstrasse 8", "electric": 2, "id": "pb_61", "manual": 6, "name": "Marktplatz", "provider": "publibike", "timeStamp": "02/20/2020, 17:37:38", "zip": 8050}, "type": "Feature"}, {"geometry": {"coordinates": [8.5156327, 47.3795837], "type": "Point"}, "properties": {"address": "Bullingerstrasse 5", "electric": 1, "id": "pb_80", "manual": 3, "name": "Bullingerplatz", "provider": "publibike", "timeStamp": "02/20/2020, 17:37:38", "zip": 8004}, "type": "Feature"}, {"geometry": {"coordinates": [8.5104051, 47.3899342], "type": "Point"}, "properties": {"address": "Pfingstweidstrasse 96e", "electric": 0, "id": "pb_81", "manual": 0, "name": "Herdern", "provider": "publibike", "timeStamp": "02/20/2020, 17:37:38", "zip": 8001}, "type": "Feature"}, {"geometry": {"coordinates": [8.535718, 47.359675], "type": "Point"}, "properties": {"address": "Mythenquai 50", "electric": 10, "id": "pb_82", "manual": 4, "name": "Hafen Enge", "provider": "publibike", "timeStamp": "02/20/2020, 17:37:38", "zip": 8002}, "type": "Feature"}, {"geometry": {"coordinates": [8.520370505, 47.358663827], "type": "Point"}, "properties": {"address": "Bubenbergstrasse 1", "electric": 4, "id": "pb_83", "manual": 5, "name": "Comerge", "provider": "publibike", "timeStamp": "02/20/2020, 17:37:38", "zip": 8045}, "type": "Feature"}, {"geometry": {"coordinates": [8.5412505, 47.3789825], "type": "Point"}, "properties": {"address": "Museumstrasse 2", "electric": 22, "id": "pb_84", "manual": 14, "name": "Landesmuseum", "provider": "publibike", "timeStamp": "02/20/2020, 17:37:38", "zip": 8001}, "type": "Feature"}, {"geometry": {"coordinates": [8.5235479, 47.3716661], "type": "Point"}, "properties": {"address": "Birmensdorferstrasse 80", "electric": 3, "id": "pb_85", "manual": 1, "name": "Bahnhof Wiedikon", "provider": "publibike", "timeStamp": "02/20/2020, 17:37:38", "zip": 8003}, "type": "Feature"}, {"geometry": {"coordinates": [8.506822854, 47.40781197], "type": "Point"}, "properties": {"address": "Stefano-Franscini-Platz 5", "electric": 1, "id": "pb_86", "manual": 0, "name": "ETH H\u00f6nggerberg", "provider": "publibike", "timeStamp": "02/20/2020, 17:37:38", "zip": 8093}, "type": "Feature"}, {"geometry": {"coordinates": [8.536101, 47.371083], "type": "Point"}, "properties": {"address": "Pelikanplatz 5", "electric": 10, "id": "pb_87", "manual": 4, "name": "Pelikanplatz", "provider": "publibike", "timeStamp": "02/20/2020, 17:37:38", "zip": 8001}, "type": "Feature"}, {"geometry": {"coordinates": [8.5257822, 47.3651936], "type": "Point"}, "properties": {"address": "H\u00fcrlimannplatz 90", "electric": 25, "id": "pb_88", "manual": 9, "name": "H\u00fcrlimannplatz", "provider": "publibike", "timeStamp": "02/20/2020, 17:37:38", "zip": 8002}, "type": "Feature"}, {"geometry": {"coordinates": [8.5313344, 47.3713591], "type": "Point"}, "properties": {"address": "Selnaustrasse 32", "electric": 2, "id": "pb_89", "manual": 5, "name": "Stauffacherbr\u00fccke", "provider": "publibike", "timeStamp": "02/20/2020, 17:37:38", "zip": 8001}, "type": "Feature"}, {"geometry": {"coordinates": [8.5056978, 47.3917964], "type": "Point"}, "properties": {"address": "Sportweg 25", "electric": 1, "id": "pb_90", "manual": 9, "name": "Sportweg", "provider": "publibike", "timeStamp": "02/20/2020, 17:37:38", "zip": 8005}, "type": "Feature"}, {"geometry": {"coordinates": [8.5181701, 47.3917837], "type": "Point"}, "properties": {"address": "Hardturmstrasse 11", "electric": 0, "id": "pb_91", "manual": 2, "name": "Puls 5", "provider": "publibike", "timeStamp": "02/20/2020, 17:37:38", "zip": 8005}, "type": "Feature"}, {"geometry": {"coordinates": [8.5286468, 47.3820827], "type": "Point"}, "properties": {"address": "R\u00f6ntgenstrasse 6", "electric": 0, "id": "pb_92", "manual": 5, "name": "R\u00f6ntgenstrasse", "provider": "publibike", "timeStamp": "02/20/2020, 17:37:38", "zip": 8005}, "type": "Feature"}, {"geometry": {"coordinates": [8.531935, 47.384918], "type": "Point"}, "properties": {"address": "Kornhausbr\u00fccke 1", "electric": 1, "id": "pb_93", "manual": 2, "name": "Limmatplatz", "provider": "publibike", "timeStamp": "02/20/2020, 17:37:38", "zip": 8005}, "type": "Feature"}, {"geometry": {"coordinates": [8.5354006, 47.3758639], "type": "Point"}, "properties": {"address": "Gessnerallee 15", "electric": 0, "id": "pb_94", "manual": 3, "name": "Gessnerallee", "provider": "publibike", "timeStamp": "02/20/2020, 17:37:38", "zip": 8001}, "type": "Feature"}, {"geometry": {"coordinates": [8.523818, 47.377148], "type": "Point"}, "properties": {"address": "Stauffacherstrasse 127", "electric": 3, "id": "pb_95", "manual": 8, "name": "B\u00e4ckeranlage", "provider": "publibike", "timeStamp": "02/20/2020, 17:37:38", "zip": 8004}, "type": "Feature"}, {"geometry": {"coordinates": [8.531836, 47.378548], "type": "Point"}, "properties": {"address": "Lagerstrasse 44", "electric": 5, "id": "pb_96", "manual": 24, "name": "Gustav-Gull-Platz", "provider": "publibike", "timeStamp": "02/20/2020, 17:37:38", "zip": 8004}, "type": "Feature"}, {"geometry": {"coordinates": [8.5104883, 47.3771535], "type": "Point"}, "properties": {"address": "Zurlindenstrasse 291", "electric": 3, "id": "pb_97", "manual": 2, "name": "Zurlindenstrasse", "provider": "publibike", "timeStamp": "02/20/2020, 17:37:38", "zip": 8003}, "type": "Feature"}, {"geometry": {"coordinates": [8.5333139, 47.3731102], "type": "Point"}, "properties": {"address": "Sihlstrasse 81", "electric": 3, "id": "pb_98", "manual": 5, "name": "Sihlstrasse", "provider": "publibike", "timeStamp": "02/20/2020, 17:37:38", "zip": 8001}, "type": "Feature"}, {"geometry": {"coordinates": [8.520532, 47.374951], "type": "Point"}, "properties": {"address": "Feldstrasse 24", "electric": 0, "id": "pb_99", "manual": 2, "name": "Kalkbreite", "provider": "publibike", "timeStamp": "02/20/2020, 17:37:38", "zip": 8004}, "type": "Feature"}, {"geometry": {"coordinates": [8.539046, 47.368064], "type": "Point"}, "properties": {"address": "Talstrasse 12", "electric": 1, "id": "pb_100", "manual": 5, "name": "Z\u00fcrcher Kantonalbank", "provider": "publibike", "timeStamp": "02/20/2020, 17:37:38", "zip": 8001}, "type": "Feature"}, {"geometry": {"coordinates": [8.5348427, 47.3625938], "type": "Point"}, "properties": {"address": "Breitingerstrasse 5", "electric": 1, "id": "pb_101", "manual": 4, "name": "Rentenanstalt", "provider": "publibike", "timeStamp": "02/20/2020, 17:37:38", "zip": 8002}, "type": "Feature"}, {"geometry": {"coordinates": [8.5166922, 47.3897772], "type": "Point"}, "properties": {"address": "Technoparkstrasse 4", "electric": 9, "id": "pb_102", "manual": 9, "name": "Turbinenplatz", "provider": "publibike", "timeStamp": "02/20/2020, 17:37:38", "zip": 8005}, "type": "Feature"}, {"geometry": {"coordinates": [8.539312, 47.3739964], "type": "Point"}, "properties": {"address": "Oetenbachgasse 14", "electric": 8, "id": "pb_104", "manual": 14, "name": "Rennweg", "provider": "publibike", "timeStamp": "02/20/2020, 17:37:38", "zip": 8001}, "type": "Feature"}, {"geometry": {"coordinates": [8.5360685, 47.3775022], "type": "Point"}, "properties": {"address": "Kasernenstrasse 101", "electric": 16, "id": "pb_105", "manual": 43, "name": "Sihlpost", "provider": "publibike", "timeStamp": "02/20/2020, 17:37:38", "zip": 8004}, "type": "Feature"}, {"geometry": {"coordinates": [8.53545, 47.382798], "type": "Point"}, "properties": {"address": "Ausstellungsstrasse 44", "electric": 1, "id": "pb_106", "manual": 12, "name": "Museum f\u00fcr Gestaltung", "provider": "publibike", "timeStamp": "02/20/2020, 17:37:38", "zip": 8005}, "type": "Feature"}, {"geometry": {"coordinates": [8.5306155, 47.3647902], "type": "Point"}, "properties": {"address": "Gutenbergstrasse 1", "electric": 4, "id": "pb_107", "manual": 0, "name": "Bederbr\u00fccke", "provider": "publibike", "timeStamp": "02/20/2020, 17:37:38", "zip": 8002}, "type": "Feature"}, {"geometry": {"coordinates": [8.518982, 47.386741], "type": "Point"}, "properties": {"address": "Geroldstrasse 4", "electric": 1, "id": "pb_108", "manual": 15, "name": "Bahnhof Hardbr\u00fccke", "provider": "publibike", "timeStamp": "02/20/2020, 17:37:38", "zip": 8005}, "type": "Feature"}, {"geometry": {"coordinates": [8.53001018, 47.37247535], "type": "Point"}, "properties": {"address": "Werdstrasse 21", "electric": 0, "id": "pb_109", "manual": 0, "name": "Tamedia", "provider": "publibike", "timeStamp": "02/20/2020, 17:37:38", "zip": 8004}, "type": "Feature"}, {"geometry": {"coordinates": [8.4860017, 47.396401], "type": "Point"}, "properties": {"address": "Gr\u00fcnauring 37", "electric": 11, "id": "pb_110", "manual": 1, "name": "Gr\u00fcnau", "provider": "publibike", "timeStamp": "02/20/2020, 17:37:38", "zip": 8064}, "type": "Feature"}, {"geometry": {"coordinates": [8.548519, 47.376756], "type": "Point"}, "properties": {"address": "R\u00e4mistrasse 101", "electric": 47, "id": "pb_111", "manual": 3, "name": "ETH Zentrum", "provider": "publibike", "timeStamp": "02/20/2020, 17:37:38", "zip": 8006}, "type": "Feature"}, {"geometry": {"coordinates": [8.520449, 47.388151], "type": "Point"}, "properties": {"address": "Josefstrasse 224", "electric": 0, "id": "pb_112", "manual": 3, "name": "Steinfelsareal", "provider": "publibike", "timeStamp": "02/20/2020, 17:37:38", "zip": 8005}, "type": "Feature"}, {"geometry": {"coordinates": [8.520482, 47.37209], "type": "Point"}, "properties": {"address": "Weststrasse 115", "electric": 0, "id": "pb_124", "manual": 1, "name": "Weststrasse", "provider": "publibike", "timeStamp": "02/20/2020, 17:37:38", "zip": 8003}, "type": "Feature"}, {"geometry": {"coordinates": [8.496727, 47.378521], "type": "Point"}, "properties": {"address": "Albisriederstrasse 200", "electric": 1, "id": "pb_125", "manual": 2, "name": "Utogrund", "provider": "publibike", "timeStamp": "02/20/2020, 17:37:38", "zip": 8047}, "type": "Feature"}, {"geometry": {"coordinates": [8.510418, 47.381356], "type": "Point"}, "properties": {"address": "Bullingerstrasse 73", "electric": 1, "id": "pb_126", "manual": 10, "name": "Hardau", "provider": "publibike", "timeStamp": "02/20/2020, 17:37:38", "zip": 8004}, "type": "Feature"}, {"geometry": {"coordinates": [8.525525, 47.361567], "type": "Point"}, "properties": {"address": "Klopstockstrasse 23", "electric": 4, "id": "pb_127", "manual": 0, "name": "Klopstockwiese", "provider": "publibike", "timeStamp": "02/20/2020, 17:37:38", "zip": 8002}, "type": "Feature"}, {"geometry": {"coordinates": [8.518143, 47.363148], "type": "Point"}, "properties": {"address": "Haldenstrasse 8", "electric": 0, "id": "pb_128", "manual": 0, "name": "Binz", "provider": "publibike", "timeStamp": "02/20/2020, 17:37:38", "zip": 8045}, "type": "Feature"}, {"geometry": {"coordinates": [8.542726, 47.379952], "type": "Point"}, "properties": {"address": "Walchestrasse 11", "electric": 6, "id": "pb_129", "manual": 4, "name": "Stampfenbachplatz", "provider": "publibike", "timeStamp": "02/20/2020, 17:37:38", "zip": 8006}, "type": "Feature"}, {"geometry": {"coordinates": [8.488108, 47.391366], "type": "Point"}, "properties": {"address": "Altstetterplatz 1", "electric": 6, "id": "pb_130", "manual": 6, "name": "Bahnhof Altstetten", "provider": "publibike", "timeStamp": "02/20/2020, 17:37:38", "zip": 8048}, "type": "Feature"}, {"geometry": {"coordinates": [8.554114, 47.365119], "type": "Point"}, "properties": {"address": "Kreuzplatz 2", "electric": 3, "id": "pb_131", "manual": 0, "name": "Kreuzplatz", "provider": "publibike", "timeStamp": "02/20/2020, 17:37:38", "zip": 8032}, "type": "Feature"}, {"geometry": {"coordinates": [8.549852, 47.35594], "type": "Point"}, "properties": {"address": "H\u00f6schgasse 3", "electric": 4, "id": "pb_132", "manual": 0, "name": "Blatterwiese", "provider": "publibike", "timeStamp": "02/20/2020, 17:37:38", "zip": 8008}, "type": "Feature"}, {"geometry": {"coordinates": [8.554501, 47.36162], "type": "Point"}, "properties": {"address": "Feldeggstrasse 80", "electric": 1, "id": "pb_133", "manual": 6, "name": "Villa Bleuler", "provider": "publibike", "timeStamp": "02/20/2020, 17:37:38", "zip": 8008}, "type": "Feature"}, {"geometry": {"coordinates": [8.557088, 47.358557], "type": "Point"}, "properties": {"address": "M\u00fchlebachstrasse 131", "electric": 2, "id": "pb_134", "manual": 1, "name": "M\u00fchlebachstrasse", "provider": "publibike", "timeStamp": "02/20/2020, 17:37:38", "zip": 8008}, "type": "Feature"}, {"geometry": {"coordinates": [8.547639, 47.361266], "type": "Point"}, "properties": {"address": "Utoquai 50", "electric": 5, "id": "pb_135", "manual": 9, "name": "Seebad Utoquai", "provider": "publibike", "timeStamp": "02/20/2020, 17:37:38", "zip": 8008}, "type": "Feature"}, {"geometry": {"coordinates": [8.548045, 47.370869], "type": "Point"}, "properties": {"address": "Heimplatz 1", "electric": 12, "id": "pb_137", "manual": 6, "name": "Kunsthaus", "provider": "publibike", "timeStamp": "02/20/2020, 17:37:38", "zip": 8001}, "type": "Feature"}, {"geometry": {"coordinates": [8.543447, 47.375933], "type": "Point"}, "properties": {"address": "Limmatquai 138", "electric": 0, "id": "pb_138", "manual": 4, "name": "Central", "provider": "publibike", "timeStamp": "02/20/2020, 17:37:38", "zip": 8001}, "type": "Feature"}, {"geometry": {"coordinates": [8.549356, 47.408827], "type": "Point"}, "properties": {"address": "Tramstrasse 35", "electric": 0, "id": "pb_139", "manual": 1, "name": "ewz Tramstrasse", "provider": "publibike", "timeStamp": "02/20/2020, 17:37:38", "zip": 8050}, "type": "Feature"}, {"geometry": {"coordinates": [8.533736, 47.366904], "type": "Point"}, "properties": {"address": "Bleicherweg 33", "electric": 7, "id": "pb_140", "manual": 17, "name": "Bleicherweg", "provider": "publibike", "timeStamp": "02/20/2020, 17:37:38", "zip": 8002}, "type": "Feature"}, {"geometry": {"coordinates": [8.544935, 47.366752], "type": "Point"}, "properties": {"address": "Bellevueplatz 2", "electric": 21, "id": "pb_141", "manual": 33, "name": "Bellevue", "provider": "publibike", "timeStamp": "02/20/2020, 17:37:38", "zip": 8001}, "type": "Feature"}, {"geometry": {"coordinates": [8.5285533, 47.3742296], "type": "Point"}, "properties": {"address": "Stauffacherstrasse 41", "electric": 1, "id": "pb_142", "manual": 3, "name": "Stauffacher", "provider": "publibike", "timeStamp": "02/20/2020, 17:37:38", "zip": 8004}, "type": "Feature"}, {"geometry": {"coordinates": [8.523722, 47.3899], "type": "Point"}, "properties": {"address": "Limmatstrasse 310", "electric": 3, "id": "pb_143", "manual": 6, "name": "Escher-Wyss-Platz", "provider": "publibike", "timeStamp": "02/20/2020, 17:37:38", "zip": 8005}, "type": "Feature"}, {"geometry": {"coordinates": [8.491061, 47.392336], "type": "Point"}, "properties": {"address": "Vulkanplatz 1", "electric": 9, "id": "pb_149", "manual": 11, "name": "Vulkanplatz", "provider": "publibike", "timeStamp": "02/20/2020, 17:37:38", "zip": 8048}, "type": "Feature"}, {"geometry": {"coordinates": [8.52306, 47.359872], "type": "Point"}, "properties": {"address": "Giessh\u00fcbelstrasse 15", "electric": 0, "id": "pb_150", "manual": 0, "name": "Utoplatz", "provider": "publibike", "timeStamp": "02/20/2020, 17:37:38", "zip": 8045}, "type": "Feature"}, {"geometry": {"coordinates": [8.486284, 47.387685], "type": "Point"}, "properties": {"address": "Lindenplatz 1", "electric": 3, "id": "pb_151", "manual": 7, "name": "Lindenplatz", "provider": "publibike", "timeStamp": "02/20/2020, 17:37:38", "zip": 8048}, "type": "Feature"}, {"geometry": {"coordinates": [8.49163, 47.389823], "type": "Point"}, "properties": {"address": "Hohlstrasse 563", "electric": 5, "id": "pb_152", "manual": 2, "name": "Luggweg", "provider": "publibike", "timeStamp": "02/20/2020, 17:37:38", "zip": 8048}, "type": "Feature"}, {"geometry": {"coordinates": [8.52174, 47.365272], "type": "Point"}, "properties": {"address": "Manessestrasse 87", "electric": 1, "id": "pb_153", "manual": 0, "name": "Manesseplatz", "provider": "publibike", "timeStamp": "02/20/2020, 17:37:38", "zip": 8045}, "type": "Feature"}, {"geometry": {"coordinates": [8.52714, 47.372329], "type": "Point"}, "properties": {"address": "Werdstrasse 75", "electric": 1, "id": "pb_154", "manual": 2, "name": "Werd", "provider": "publibike", "timeStamp": "02/20/2020, 17:37:38", "zip": 8004}, "type": "Feature"}, {"geometry": {"coordinates": [8.543042, 47.374711], "type": "Point"}, "properties": {"address": "Limmatquai 100", "electric": 0, "id": "pb_155", "manual": 0, "name": "Rudolf-Brun-Br\u00fccke", "provider": "publibike", "timeStamp": "02/20/2020, 17:37:38", "zip": 8001}, "type": "Feature"}, {"geometry": {"coordinates": [8.490837, 47.386596], "type": "Point"}, "properties": {"address": "Badenerstrasse 627", "electric": 5, "id": "pb_156", "manual": 4, "name": "Luggwegstrasse VBZ", "provider": "publibike", "timeStamp": "02/20/2020, 17:37:38", "zip": 8048}, "type": "Feature"}, {"geometry": {"coordinates": [8.535119, 47.355189], "type": "Point"}, "properties": {"address": "Mythenquai 95", "electric": 4, "id": "pb_157", "manual": 9, "name": "Strandbad Mythenquai", "provider": "publibike", "timeStamp": "02/20/2020, 17:37:38", "zip": 8002}, "type": "Feature"}, {"geometry": {"coordinates": [8.545505, 47.373675], "type": "Point"}, "properties": {"address": "Predigerpatz 21", "electric": 0, "id": "pb_158", "manual": 8, "name": "Predigerplatz", "provider": "publibike", "timeStamp": "02/20/2020, 17:37:38", "zip": 8001}, "type": "Feature"}, {"geometry": {"coordinates": [8.515558, 47.371868], "type": "Point"}, "properties": {"address": "Aemtlerstrasse 23", "electric": 1, "id": "pb_159", "manual": 3, "name": "Zwinglihaus", "provider": "publibike", "timeStamp": "02/20/2020, 17:37:38", "zip": 8003}, "type": "Feature"}, {"geometry": {"coordinates": [8.524629, 47.386072], "type": "Point"}, "properties": {"address": "Josefstrasse 188", "electric": 0, "id": "pb_160", "manual": 0, "name": "Josefwiese", "provider": "publibike", "timeStamp": "02/20/2020, 17:37:38", "zip": 8005}, "type": "Feature"}, {"geometry": {"coordinates": [8.527138, 47.387531], "type": "Point"}, "properties": {"address": "R\u00f6ntgenstrasse 87", "electric": 5, "id": "pb_164", "manual": 7, "name": "Markthalle", "provider": "publibike", "timeStamp": "02/20/2020, 17:37:38", "zip": 8005}, "type": "Feature"}, {"geometry": {"coordinates": [8.552717, 47.359978], "type": "Point"}, "properties": {"address": "Seefeldstrasse 96", "electric": 6, "id": "pb_263", "manual": 6, "name": "Feldeggstrasse", "provider": "publibike", "timeStamp": "02/20/2020, 17:37:38", "zip": 8008}, "type": "Feature"}, {"geometry": {"coordinates": [8.553189, 47.353198], "type": "Point"}, "properties": {"address": "Bellerivestrasse 170", "electric": 4, "id": "pb_264", "manual": 3, "name": "Lake Side", "provider": "publibike", "timeStamp": "02/20/2020, 17:37:38", "zip": 8008}, "type": "Feature"}, {"geometry": {"coordinates": [8.543437, 47.369256], "type": "Point"}, "properties": {"address": "Limmatquai 18", "electric": 0, "id": "pb_265", "manual": 0, "name": "Helmhaus", "provider": "publibike", "timeStamp": "02/20/2020, 17:37:38", "zip": 8032}, "type": "Feature"}, {"geometry": {"coordinates": [8.516676, 47.375819], "type": "Point"}, "properties": {"address": "Badenerstrasse 246", "electric": 2, "id": "pb_266", "manual": 2, "name": "Lochergut", "provider": "publibike", "timeStamp": "02/20/2020, 17:37:38", "zip": 8004}, "type": "Feature"}, {"geometry": {"coordinates": [8.514605, 47.389862], "type": "Point"}, "properties": {"address": "Pfingstweidstrasse 60", "electric": 1, "id": "pb_273", "manual": 1, "name": "Westpark", "provider": "publibike", "timeStamp": "02/20/2020, 17:37:38", "zip": 8005}, "type": "Feature"}, {"geometry": {"coordinates": [8.541239126, 47.375991201], "type": "Point"}, "properties": {"address": "Beatenplatz 1", "electric": 1, "id": "pb_274", "manual": 5, "name": "Beatenplatz", "provider": "publibike", "timeStamp": "02/20/2020, 17:37:38", "zip": 8001}, "type": "Feature"}, {"geometry": {"coordinates": [8.5417135, 47.3942197], "type": "Point"}, "properties": {"address": "Scheuchzerstrasse 181", "electric": 1, "id": "pb_275", "manual": 0, "name": "Pauluskirche", "provider": "publibike", "timeStamp": "02/20/2020, 17:37:38", "zip": 8057}, "type": "Feature"}, {"geometry": {"coordinates": [8.5528182, 47.414558], "type": "Point"}, "properties": {"address": "Hagenholzstrasse 51", "electric": 2, "id": "pb_276", "manual": 4, "name": "Airgate", "provider": "publibike", "timeStamp": "02/20/2020, 17:37:38", "zip": 8050}, "type": "Feature"}, {"geometry": {"coordinates": [8.537816, 47.413514], "type": "Point"}, "properties": {"address": "Birchstrasse 183", "electric": 2, "id": "pb_277", "manual": 3, "name": "Lamprechtweg", "provider": "publibike", "timeStamp": "02/20/2020, 17:37:38", "zip": 8050}, "type": "Feature"}, {"geometry": {"coordinates": [8.545602, 47.417701], "type": "Point"}, "properties": {"address": "Felsenrainstrasse 2", "electric": 7, "id": "pb_278", "manual": 6, "name": "Emil-Oberh\u00e4nsli", "provider": "publibike", "timeStamp": "02/20/2020, 17:37:38", "zip": 8050}, "type": "Feature"}, {"geometry": {"coordinates": [8.533647, 47.39808], "type": "Point"}, "properties": {"address": "Bucheggplatz 2", "electric": 1, "id": "pb_279", "manual": 1, "name": "Bucheggplatz", "provider": "publibike", "timeStamp": "02/20/2020, 17:37:38", "zip": 8057}, "type": "Feature"}, {"geometry": {"coordinates": [8.523549, 47.392347], "type": "Point"}, "properties": {"address": "Wipkingerplatz 4", "electric": 9, "id": "pb_280", "manual": 3, "name": "Wipkingerplatz", "provider": "publibike", "timeStamp": "02/20/2020, 17:37:38", "zip": 8037}, "type": "Feature"}, {"geometry": {"coordinates": [8.548562, 47.36691], "type": "Point"}, "properties": {"address": "Galerie \u00fcber Gleis 2/3", "electric": 16, "id": "pb_285", "manual": 1, "name": "Bahnhof Stadelhofen", "provider": "publibike", "timeStamp": "02/20/2020, 17:37:38", "zip": 8001}, "type": "Feature"}, {"geometry": {"coordinates": [8.493822, 47.3985553], "type": "Point"}, "properties": {"address": "Meierwiesenstrasse 12-4", "electric": 10, "id": "pb_286", "manual": 2, "name": "T\u00fcffenwies", "provider": "publibike", "timeStamp": "02/20/2020, 17:37:38", "zip": 8064}, "type": "Feature"}, {"geometry": {"coordinates": [8.552432, 47.3801757], "type": "Point"}, "properties": {"address": "Hochstrasse 34", "electric": 2, "id": "pb_356", "manual": 0, "name": "Siriuswiese", "provider": "publibike", "timeStamp": "02/20/2020, 17:37:38", "zip": 8044}, "type": "Feature"}, {"geometry": {"coordinates": [8.527298, 47.370141], "type": "Point"}, "properties": {"address": "Hallwylstrasse 71", "electric": 1, "id": "pb_357", "manual": 1, "name": "Hallwylstrasse", "provider": "publibike", "timeStamp": "02/20/2020, 17:37:38", "zip": 8004}, "type": "Feature"}, {"geometry": {"coordinates": [8.5414185, 47.3972455], "type": "Point"}, "properties": {"address": "Schaffhauserstrasse 137", "electric": 3, "id": "pb_358", "manual": 0, "name": "Milchbuck", "provider": "publibike", "timeStamp": "02/20/2020, 17:37:38", "zip": 8057}, "type": "Feature"}, {"geometry": {"coordinates": [8.512381, 47.393409], "type": "Point"}, "properties": {"address": "Hardturmstrasse 161", "electric": 3, "id": "pb_359", "manual": 5, "name": "Fischerweg", "provider": "publibike", "timeStamp": "02/20/2020, 17:37:38", "zip": 8005}, "type": "Feature"}, {"geometry": {"coordinates": [8.5421457, 47.3876979], "type": "Point"}, "properties": {"address": "Turnerstrasse 47", "electric": 3, "id": "pb_360", "manual": 1, "name": "Kirche Unterstrass", "provider": "publibike", "timeStamp": "02/20/2020, 17:37:38", "zip": 8006}, "type": "Feature"}, {"geometry": {"coordinates": [8.522117, 47.394554], "type": "Point"}, "properties": {"address": "Dorfstrasse 40", "electric": 2, "id": "pb_361", "manual": 1, "name": "Dorfstrasse", "provider": "publibike", "timeStamp": "02/20/2020, 17:37:38", "zip": 8037}, "type": "Feature"}, {"geometry": {"coordinates": [8.530437, 47.37271], "type": "Point"}, "properties": {"address": "Werdstrasse 25", "electric": 0, "id": "pb_362", "manual": 3, "name": "Stauffachertor", "provider": "publibike", "timeStamp": "02/20/2020, 17:37:38", "zip": 8004}, "type": "Feature"}, {"geometry": {"coordinates": [8.541712, 47.416155], "type": "Point"}, "properties": {"address": "Eggb\u00fchlstrasse 21", "electric": 2, "id": "pb_363", "manual": 1, "name": "Wahlenpark", "provider": "publibike", "timeStamp": "02/20/2020, 17:37:38", "zip": 8050}, "type": "Feature"}, {"geometry": {"coordinates": [8.5595335, 47.3708387], "type": "Point"}, "properties": {"address": "Dolderstrasse 32", "electric": 0, "id": "pb_364", "manual": 0, "name": "Kinderspital", "provider": "publibike", "timeStamp": "02/20/2020, 17:37:38", "zip": 8032}, "type": "Feature"}, {"geometry": {"coordinates": [8.536433, 47.388689], "type": "Point"}, "properties": {"address": "Kornhausstrasse 30", "electric": 4, "id": "pb_365", "manual": 5, "name": "Kornhausstrasse", "provider": "publibike", "timeStamp": "02/20/2020, 17:37:38", "zip": 8006}, "type": "Feature"}, {"geometry": {"coordinates": [8.55033, 47.407098], "type": "Point"}, "properties": {"address": "Schwamendingenstrasse 41", "electric": 1, "id": "pb_366", "manual": 1, "name": "Dorflinde", "provider": "publibike", "timeStamp": "02/20/2020, 17:37:38", "zip": 8050}, "type": "Feature"}, {"geometry": {"coordinates": [8.560476, 47.368199], "type": "Point"}, "properties": {"address": "R\u00f6merhofplatz 5", "electric": 2, "id": "pb_367", "manual": 3, "name": "R\u00f6merhof", "provider": "publibike", "timeStamp": "02/20/2020, 17:37:38", "zip": 8032}, "type": "Feature"}, {"geometry": {"coordinates": [8.5609218, 47.3619068], "type": "Point"}, "properties": {"address": "Forchstrasse 99", "electric": 3, "id": "pb_368", "manual": 2, "name": "Hegibachplatz", "provider": "publibike", "timeStamp": "02/20/2020, 17:37:38", "zip": 8032}, "type": "Feature"}, {"geometry": {"coordinates": [8.5721264, 47.4039985], "type": "Point"}, "properties": {"address": "Winterthurerstrasse 519", "electric": 5, "id": "pb_370", "manual": 4, "name": "Schwamendingerplatz", "provider": "publibike", "timeStamp": "02/20/2020, 17:37:38", "zip": 8051}, "type": "Feature"}, {"geometry": {"coordinates": [8.520168, 47.378556], "type": "Point"}, "properties": {"address": "Herman-Greulich-Strasse 56", "electric": 3, "id": "pb_384", "manual": 5, "name": "Hermann-Greulich-Weg", "provider": "publibike", "timeStamp": "02/20/2020, 17:37:38", "zip": 8004}, "type": "Feature"}, {"geometry": {"coordinates": [8.547912, 47.384923], "type": "Point"}, "properties": {"address": "Culmannstrasse", "electric": 1, "id": "pb_386", "manual": 0, "name": "Rigiplatz", "provider": "publibike", "timeStamp": "02/20/2020, 17:37:38", "zip": 8006}, "type": "Feature"}, {"geometry": {"coordinates": [8.543768, 47.411057], "type": "Point"}, "properties": {"address": "Hofwiesenstrasse 369", "electric": 2, "id": "pb_387", "manual": 9, "name": "Bahnhof Oerlikon S\u00fcd", "provider": "publibike", "timeStamp": "02/20/2020, 17:37:38", "zip": 8050}, "type": "Feature"}, {"geometry": {"coordinates": [8.544185, 47.412732], "type": "Point"}, "properties": {"address": "Jungholzstrasse 6", "electric": 9, "id": "pb_388", "manual": 0, "name": "Max-Frisch-Platz", "provider": "publibike", "timeStamp": "02/20/2020, 17:37:38", "zip": 8050}, "type": "Feature"}, {"geometry": {"coordinates": [8.558096, 47.413032], "type": "Point"}, "properties": {"address": "Andreasstrasse", "electric": 5, "id": "pb_389", "manual": 1, "name": "Hunziker-Areal", "provider": "publibike", "timeStamp": "02/20/2020, 17:37:38", "zip": 8050}, "type": "Feature"}, {"geometry": {"coordinates": [8.533265, 47.412873], "type": "Point"}, "properties": {"address": "Regina-K\u00e4gi-Strasse 1", "electric": 2, "id": "pb_390", "manual": 6, "name": "Luis-H\u00e4fliger-Park", "provider": "publibike", "timeStamp": "02/20/2020, 17:37:38", "zip": 8050}, "type": "Feature"}, {"geometry": {"coordinates": [8.499265, 47.401852], "type": "Point"}, "properties": {"address": "Limmattalstrasse 177", "electric": 1, "id": "pb_391", "manual": 0, "name": "Meierhofplatz", "provider": "publibike", "timeStamp": "02/20/2020, 17:37:38", "zip": 8049}, "type": "Feature"}, {"geometry": {"coordinates": [8.528356, 47.393255], "type": "Point"}, "properties": {"address": "R\u00f6schibachstrasse 73", "electric": 2, "id": "pb_392", "manual": 1, "name": "R\u00f6schibachplatz", "provider": "publibike", "timeStamp": "02/20/2020, 17:37:38", "zip": 8037}, "type": "Feature"}, {"geometry": {"coordinates": [8.538067, 47.415721], "type": "Point"}, "properties": {"address": "Birchstrasse 191", "electric": 4, "id": "pb_393", "manual": 1, "name": "Oerliker Park", "provider": "publibike", "timeStamp": "02/20/2020, 17:37:38", "zip": 8050}, "type": "Feature"}, {"geometry": {"coordinates": [8.5420304, 47.3669233], "type": "Point"}, "properties": {"address": "Stadthausquai 1", "electric": 0, "id": "pb_395", "manual": 9, "name": "B\u00fcrkliplatz", "provider": "publibike", "timeStamp": "02/20/2020, 17:37:38", "zip": 8001}, "type": "Feature"}, {"geometry": {"coordinates": [8.535767, 47.409881], "type": "Point"}, "properties": {"address": "Regensbergstrasse 195", "electric": 5, "id": "pb_396", "manual": 1, "name": "Holunderhof", "provider": "publibike", "timeStamp": "02/20/2020, 17:37:38", "zip": 8050}, "type": "Feature"}, {"geometry": {"coordinates": [8.5116245, 47.3616199], "type": "Point"}, "properties": {"address": "Grubenstrasse 42", "electric": 0, "id": "pb_431", "manual": 0, "name": "Binz Center", "provider": "publibike", "timeStamp": "02/20/2020, 17:37:38", "zip": 8045}, "type": "Feature"}, {"geometry": {"coordinates": [8.547195, 47.382089], "type": "Point"}, "properties": {"address": "Nelkenstrasse 24", "electric": 1, "id": "pb_430", "manual": 0, "name": "Stapferstube", "provider": "publibike", "timeStamp": "02/20/2020, 17:37:38", "zip": 8006}, "type": "Feature"}, {"geometry": {"coordinates": [8.5787183, 47.4039845], "type": "Point"}, "properties": {"address": "Kronwiesenstrasse 35", "electric": 1, "id": "pb_426", "manual": 3, "name": "Kronwiesen", "provider": "publibike", "timeStamp": "02/20/2020, 17:37:38", "zip": 8051}, "type": "Feature"}, {"geometry": {"coordinates": [8.508131, 47.420757], "type": "Point"}, "properties": {"address": "Riedenhaldenstrasse 20-18", "electric": 7, "id": "pb_425", "manual": 0, "name": "Bahnhof Affoltern", "provider": "publibike", "timeStamp": "02/20/2020, 17:37:38", "zip": 8046}, "type": "Feature"}, {"geometry": {"coordinates": [8.532464, 47.406988], "type": "Point"}, "properties": {"address": "K\u00fcnzlistrasse 41", "electric": 2, "id": "pb_424", "manual": 2, "name": "Birchd\u00f6rfli", "provider": "publibike", "timeStamp": "02/20/2020, 17:37:38", "zip": 8057}, "type": "Feature"}, {"geometry": {"coordinates": [8.5777038, 47.4080095], "type": "Point"}, "properties": {"address": "Luegislandstrasse 412", "electric": 2, "id": "pb_429", "manual": 1, "name": "Luegisland", "provider": "publibike", "timeStamp": "02/20/2020, 17:37:38", "zip": 8051}, "type": "Feature"}, {"geometry": {"coordinates": [8.58841, 47.40158], "type": "Point"}, "properties": {"address": "Hirzenbachstrasse 2-4", "electric": 4, "id": "pb_428", "manual": 1, "name": "Hirzenbachstrasse", "provider": "publibike", "timeStamp": "02/20/2020, 17:37:38", "zip": 8051}, "type": "Feature"}, {"geometry": {"coordinates": [8.5563463, 47.4095467], "type": "Point"}, "properties": {"address": "K\u00fchriedweg", "electric": 0, "id": "pb_445", "manual": 5, "name": "Hallenbad Oerlikon", "provider": "publibike", "timeStamp": "02/20/2020, 17:37:38", "zip": 8050}, "type": "Feature"}, {"geometry": {"coordinates": [8.537971, 47.364871], "type": "Point"}, "properties": {"address": "General-Guisan-Quai 17", "electric": 1, "id": "pb_454", "manual": 6, "name": "General-Guisan-Quai", "provider": "publibike", "timeStamp": "02/20/2020, 17:37:38", "zip": 8002}, "type": "Feature"}, {"geometry": {"coordinates": [8.560587, 47.350578], "type": "Point"}, "properties": {"address": "Bellerivestrasse 245", "electric": 8, "id": "pb_450", "manual": 4, "name": "Bahnhof Tiefenbrunnen", "provider": "publibike", "timeStamp": "02/20/2020, 17:37:38", "zip": 8008}, "type": "Feature"}, {"geometry": {"coordinates": [8.5269416, 47.3563719], "type": "Point"}, "properties": {"address": "Waffenplatzstrasse 89", "electric": 0, "id": "pb_452", "manual": 1, "name": "Rieterplatz", "provider": "publibike", "timeStamp": "02/20/2020, 17:37:38", "zip": 8002}, "type": "Feature"}, {"geometry": {"coordinates": [8.514176, 47.3663708], "type": "Point"}, "properties": {"address": "Talwiesenstrasse 92", "electric": 4, "id": "pb_446", "manual": 1, "name": "Binzallee", "provider": "publibike", "timeStamp": "02/20/2020, 17:37:38", "zip": 8055}, "type": "Feature"}, {"geometry": {"coordinates": [8.5070564, 47.371455], "type": "Point"}, "properties": {"address": "Gutstrasse 87", "electric": 5, "id": "pb_447", "manual": 1, "name": "Gutstrasse", "provider": "publibike", "timeStamp": "02/20/2020, 17:37:38", "zip": 8055}, "type": "Feature"}, {"geometry": {"coordinates": [8.4941268, 47.3836391], "type": "Point"}, "properties": {"address": "Flurstrasse 62", "electric": 2, "id": "pb_453", "manual": 4, "name": "Flurpark", "provider": "publibike", "timeStamp": "02/20/2020, 17:37:38", "zip": 8048}, "type": "Feature"}, {"geometry": {"coordinates": [8.500343, 47.380778], "type": "Point"}, "properties": {"address": "Edelweissstrasse 32", "electric": 5, "id": "pb_448", "manual": 3, "name": "Bl\u00fcemliquartier", "provider": "publibike", "timeStamp": "02/20/2020, 17:37:38", "zip": 8048}, "type": "Feature"}, {"geometry": {"coordinates": [8.528796, 47.383858], "type": "Point"}, "properties": {"address": "Gasometerstrasse 24", "electric": 2, "id": "pb_449", "manual": 1, "name": "Gasometerstrasse", "provider": "publibike", "timeStamp": "02/20/2020, 17:37:38", "zip": 8005}, "type": "Feature"}, {"geometry": {"coordinates": [8.4981964, 47.3859194], "type": "Point"}, "properties": {"address": "Baslerstrasse 57", "electric": 1, "id": "pb_455", "manual": 13, "name": "Letzipark", "provider": "publibike", "timeStamp": "02/20/2020, 17:37:38", "zip": 8048}, "type": "Feature"}, {"geometry": {"coordinates": [8.515252, 47.381915], "type": "Point"}, "properties": {"address": "Sihlfeldstrasse 175", "electric": 2, "id": "pb_451", "manual": 3, "name": "Hardplatz", "provider": "publibike", "timeStamp": "02/20/2020, 17:37:38", "zip": 8004}, "type": "Feature"}, {"geometry": {"coordinates": [8.5064743, 47.4188324], "type": "Point"}, "properties": {"address": "Wehntalerstrasse 541", "electric": 0, "id": "pb_427", "manual": 1, "name": "Zehntenhausplatz", "provider": "publibike", "timeStamp": "02/20/2020, 17:37:38", "zip": 8046}, "type": "Feature"}, {"geometry": {"coordinates": [8.537729, 47.379719], "type": "Point"}, "properties": {"address": "Sihlquai/HB", "electric": 4, "id": "pb_513", "manual": 10, "name": "Sihlquai", "provider": "publibike", "timeStamp": "02/20/2020, 17:37:38", "zip": 8005}, "type": "Feature"}, {"geometry": {"coordinates": [8.596202, 47.397885], "type": "Point"}, "properties": {"address": "Bahnhof Stettbach", "electric": 1, "id": "pb_514", "manual": 0, "name": "Bahnhof Stettbach", "provider": "publibike", "timeStamp": "02/20/2020, 17:37:38", "zip": 8051}, "type": "Feature"}, {"geometry": {"coordinates": [8.5543974, 47.3690153], "type": "Point"}, "properties": {"address": "Kasinostrasse 10", "electric": 4, "id": "pb_515", "manual": 1, "name": "Hottingerplatz", "provider": "publibike", "timeStamp": "02/20/2020, 17:37:38", "zip": 8032}, "type": "Feature"}, {"geometry": {"coordinates": [8.534444, 47.351525], "type": "Point"}, "properties": {"address": "Mobile Station Z\u00fcrich 1", "electric": 0, "id": "pb_282", "manual": 0, "name": "Theaterspektakel", "provider": "publibike", "timeStamp": "02/20/2020, 17:37:38", "zip": 8002}, "type": "Feature"}, {"geometry": {"coordinates": [8.516257, 47.367656], "type": "Point"}, "properties": {"address": "Goldbrunnenstrasse 54", "electric": 5, "id": "pb_538", "manual": 2, "name": "Kirche B\u00fchl", "provider": "publibike", "timeStamp": "02/20/2020, 17:37:38", "zip": 8055}, "type": "Feature"}, {"geometry": {"coordinates": [8.555639, 47.416873], "type": "Point"}, "properties": {"address": "Leutschenbachstrasse 50", "electric": 1, "id": "pb_537", "manual": 5, "name": "Leutschenpark", "provider": "publibike", "timeStamp": "02/20/2020, 17:37:38", "zip": 8050}, "type": "Feature"}, {"geometry": {"coordinates": [8.546464, 47.403822], "type": "Point"}, "properties": {"address": "Berninastrasse 45", "electric": 4, "id": "pb_540", "manual": 1, "name": "Berninaplatz", "provider": "publibike", "timeStamp": "02/20/2020, 17:37:38", "zip": 8057}, "type": "Feature"}, {"geometry": {"coordinates": [8.523134, 47.369004], "type": "Point"}, "properties": {"address": "Erlachstrasse 3", "electric": 0, "id": "pb_385", "manual": 0, "name": "Aegerten", "provider": "publibike", "timeStamp": "02/20/2020, 17:37:38", "zip": 8003}, "type": "Feature"}, {"geometry": {"coordinates": [8.49038, 47.381591], "type": "Point"}, "properties": {"address": "Rautistrasse 60", "electric": 11, "id": "pb_536", "manual": 1, "name": "Freilager", "provider": "publibike", "timeStamp": "02/20/2020, 17:37:38", "zip": 8048}, "type": "Feature"}, {"geometry": {"coordinates": [8.496511, 47.375247], "type": "Point"}, "properties": {"address": "Letzigraben 139", "electric": 4, "id": "pb_444", "manual": 5, "name": "Sackzelg", "provider": "publibike", "timeStamp": "02/20/2020, 17:37:38", "zip": 8047}, "type": "Feature"}, {"geometry": {"coordinates": [8.58131, 47.402801], "type": "Point"}, "properties": {"address": "Altwiesenstrasse 104", "electric": 1, "id": "pb_539", "manual": 1, "name": "Glattwiesen", "provider": "publibike", "timeStamp": "02/20/2020, 17:37:38", "zip": 8051}, "type": "Feature"}, {"geometry": {"coordinates": [8.52689, 47.3767], "type": "Point"}, "properties": {"address": "Molkenstrasse 5", "electric": 3, "id": "pb_560", "manual": 8, "name": "Helvetiaplatz", "provider": "publibike", "timeStamp": "02/20/2020, 17:37:38", "zip": 8004}, "type": "Feature"}, {"geometry": {"coordinates": [8.525602, 47.374241], "type": "Point"}, "properties": {"address": "Badenerstrasse 90", "electric": 6, "id": "pb_559", "manual": 5, "name": "Bezirksgeb\u00e4ude", "provider": "publibike", "timeStamp": "02/20/2020, 17:37:38", "zip": 8004}, "type": "Feature"}, {"geometry": {"coordinates": [8.535082, 47.345248], "type": "Point"}, "properties": {"address": "Bachstrasse 15", "electric": 3, "id": "pb_564", "manual": 8, "name": "GZ Wollishofen", "provider": "publibike", "timeStamp": "02/20/2020, 17:37:38", "zip": 8038}, "type": "Feature"}, {"geometry": {"coordinates": [8.514841, 47.370238], "type": "Point"}, "properties": {"address": "Schrennengasse 37", "electric": 3, "id": "pb_562", "manual": 1, "name": "Goldbrunnenplatz", "provider": "publibike", "timeStamp": "02/20/2020, 17:37:38", "zip": 8003}, "type": "Feature"}, {"geometry": {"coordinates": [8.514138, 47.374206], "type": "Point"}, "properties": {"address": "Idaplatz 4", "electric": 0, "id": "pb_557", "manual": 7, "name": "Idaplatz", "provider": "publibike", "timeStamp": "02/20/2020, 17:37:38", "zip": 8003}, "type": "Feature"}, {"geometry": {"coordinates": [8.518432, 47.369549], "type": "Point"}, "properties": {"address": "Brinerstrasse 2", "electric": 0, "id": "pb_558", "manual": 2, "name": "Schmiede Wiedikon", "provider": "publibike", "timeStamp": "02/20/2020, 17:37:38", "zip": 8003}, "type": "Feature"}, {"geometry": {"coordinates": [8.537546, 47.391289], "type": "Point"}, "properties": {"address": "Rotbuchstrasse 15", "electric": 5, "id": "pb_556", "manual": 2, "name": "Schaffhauserplatz", "provider": "publibike", "timeStamp": "02/20/2020, 17:37:38", "zip": 8006}, "type": "Feature"}, {"geometry": {"coordinates": [8.541541, 47.413733], "type": "Point"}, "properties": {"address": "Therese-Giehse-Strasse 11", "electric": 7, "id": "pb_561", "manual": 1, "name": "Center Eleven", "provider": "publibike", "timeStamp": "02/20/2020, 17:37:38", "zip": 8050}, "type": "Feature"}, {"geometry": {"coordinates": [8.534227, 47.360004], "type": "Point"}, "properties": {"address": "Alfred Escher-Strasse 76", "electric": 7, "id": "pb_563", "manual": 1, "name": "Mythenschloss", "provider": "publibike", "timeStamp": "02/20/2020, 17:37:38", "zip": 8002}, "type": "Feature"}, {"geometry": {"coordinates": [8.50373, 47.396172], "type": "Point"}, "properties": {"address": "Hardeggstrasse 6", "electric": 4, "id": "pb_566", "manual": 4, "name": "Am Wasser", "provider": "publibike", "timeStamp": "02/20/2020, 17:37:38", "zip": 8049}, "type": "Feature"}, {"geometry": {"coordinates": [8.532432, 47.381174], "type": "Point"}, "properties": {"address": "Klingenstrasse 9", "electric": 0, "id": "pb_565", "manual": 5, "name": "Zollstrasse", "provider": "publibike", "timeStamp": "02/20/2020, 17:37:38", "zip": 8005}, "type": "Feature"}, {"geometry": {"coordinates": [8.497982, 47.381447], "type": "Point"}, "properties": {"address": "Dennlerstrasse 23", "electric": 5, "id": "pb_567", "manual": 2, "name": "Dennlerstrasse", "provider": "publibike", "timeStamp": "02/20/2020, 17:37:38", "zip": 8047}, "type": "Feature"}, {"geometry": {"coordinates": [8.528049, 47.347701], "type": "Point"}, "properties": {"address": "Mutschellenstrasse 114", "electric": 7, "id": "pb_568", "manual": 6, "name": "Jugendherberge", "provider": "publibike", "timeStamp": "02/20/2020, 17:37:38", "zip": 8038}, "type": "Feature"}, {"geometry": {"coordinates": [8.539016, 47.405751], "type": "Point"}, "properties": {"address": "Ringstrasse 82", "electric": 2, "id": "pb_569", "manual": 3, "name": "Freibad Allenmoos", "provider": "publibike", "timeStamp": "02/20/2020, 17:37:38", "zip": 8057}, "type": "Feature"}, {"geometry": {"coordinates": [8.534974, 47.402164], "type": "Point"}, "properties": {"address": "Brache Guggach", "electric": 4, "id": "pb_572", "manual": 2, "name": "Radiostudio", "provider": "publibike", "timeStamp": "02/20/2020, 17:37:38", "zip": 8057}, "type": "Feature"}, {"geometry": {"coordinates": [8.547901, 47.375556], "type": "Point"}, "properties": {"address": "Karl-Schmid-Strasse 4", "electric": 0, "id": "pb_571", "manual": 0, "name": "ETH/Zoologisches Museum", "provider": "publibike", "timeStamp": "02/20/2020, 17:37:38", "zip": 8006}, "type": "Feature"}, {"geometry": {"coordinates": [8.525911, 47.359141], "type": "Point"}, "properties": {"charge": 86, "id": "smide_2880", "name": "ZH267289", "provider": "smide", "range": 43.0, "size": 17, "time": "02/20/2020, 17:39:05"}, "type": "Feature"}, {"geometry": {"coordinates": [8.47683, 47.387093], "type": "Point"}, "properties": {"charge": 31, "id": "smide_2867", "name": "ZH 267090", "provider": "smide", "range": 15.0, "size": 20, "time": "02/20/2020, 17:39:05"}, "type": "Feature"}, {"geometry": {"coordinates": [8.514608, 47.387615], "type": "Point"}, "properties": {"charge": 48, "id": "smide_2861", "name": "ZH 267096", "provider": "smide", "range": 24.0, "size": 17, "time": "02/20/2020, 17:39:05"}, "type": "Feature"}, {"geometry": {"coordinates": [8.538515, 47.37919], "type": "Point"}, "properties": {"charge": 92, "id": "smide_2854", "name": "ZH 267103", "provider": "smide", "range": 46.0, "size": 17, "time": "02/20/2020, 17:39:05"}, "type": "Feature"}, {"geometry": {"coordinates": [8.525835, 47.336968], "type": "Point"}, "properties": {"charge": 79, "id": "smide_2831", "name": "ZH 267180", "provider": "smide", "range": 39.0, "size": 20, "time": "02/20/2020, 17:39:05"}, "type": "Feature"}, {"geometry": {"coordinates": [8.526626, 47.381493], "type": "Point"}, "properties": {"charge": 74, "id": "smide_2795", "name": "ZH 266885", "provider": "smide", "range": 37.0, "size": 17, "time": "02/20/2020, 17:39:05"}, "type": "Feature"}, {"geometry": {"coordinates": [8.544371, 47.416356], "type": "Point"}, "properties": {"charge": 100, "id": "smide_2793", "name": "ZH266883", "provider": "smide", "range": 50.0, "size": 17, "time": "02/20/2020, 17:39:05"}, "type": "Feature"}, {"geometry": {"coordinates": [8.55933, 47.414758], "type": "Point"}, "properties": {"charge": 100, "id": "smide_2785", "name": "ZH266875", "provider": "smide", "range": 50.0, "size": 17, "time": "02/20/2020, 17:39:05"}, "type": "Feature"}, {"geometry": {"coordinates": [8.551746, 47.360951], "type": "Point"}, "properties": {"charge": 81, "id": "smide_2780", "name": "ST1 X #1", "provider": "smide", "range": 40.0, "size": 17, "time": "02/20/2020, 17:39:05"}, "type": "Feature"}, {"geometry": {"coordinates": [8.514357, 47.357348], "type": "Point"}, "properties": {"charge": 100, "id": "smide_2775", "name": "ZH267283", "provider": "smide", "range": 50.0, "size": 20, "time": "02/20/2020, 17:39:05"}, "type": "Feature"}, {"geometry": {"coordinates": [8.550105, 47.39734], "type": "Point"}, "properties": {"charge": 29, "id": "smide_2773", "name": "ZH266561", "provider": "smide", "range": 14.0, "size": 17, "time": "02/20/2020, 17:39:05"}, "type": "Feature"}, {"geometry": {"coordinates": [8.505902, 47.362568], "type": "Point"}, "properties": {"charge": 93, "id": "smide_2763", "name": "ZH266641", "provider": "smide", "range": 46.0, "size": 17, "time": "02/20/2020, 17:39:05"}, "type": "Feature"}, {"geometry": {"coordinates": [8.496565, 47.378321], "type": "Point"}, "properties": {"charge": 81, "id": "smide_2761", "name": "ZH266642", "provider": "smide", "range": 40.0, "size": 20, "time": "02/20/2020, 17:39:05"}, "type": "Feature"}, {"geometry": {"coordinates": [8.560225, 47.381356], "type": "Point"}, "properties": {"charge": 100, "id": "smide_2759", "name": "ZH266639", "provider": "smide", "range": 50.0, "size": 17, "time": "02/20/2020, 17:39:05"}, "type": "Feature"}, {"geometry": {"coordinates": [8.48652, 47.39156], "type": "Point"}, "properties": {"charge": 100, "id": "smide_2751", "name": "BE343857", "provider": "smide", "range": 50.0, "size": 17, "time": "02/20/2020, 17:39:05"}, "type": "Feature"}, {"geometry": {"coordinates": [8.551775, 47.406168], "type": "Point"}, "properties": {"charge": 57, "id": "smide_2749", "name": "BE343867", "provider": "smide", "range": 28.0, "size": 17, "time": "02/20/2020, 17:39:05"}, "type": "Feature"}, {"geometry": {"coordinates": [8.558636, 47.423824], "type": "Point"}, "properties": {"charge": 62, "id": "smide_2746", "name": "BE335817", "provider": "smide", "range": 31.0, "size": 17, "time": "02/20/2020, 17:39:05"}, "type": "Feature"}, {"geometry": {"coordinates": [8.54405, 47.391968], "type": "Point"}, "properties": {"charge": 24, "id": "smide_2747", "name": "BE335820", "provider": "smide", "range": 12.0, "size": 17, "time": "02/20/2020, 17:39:05"}, "type": "Feature"}, {"geometry": {"coordinates": [8.540741, 47.372956], "type": "Point"}, "properties": {"charge": 100, "id": "smide_2743", "name": "BE343864", "provider": "smide", "range": 50.0, "size": 17, "time": "02/20/2020, 17:39:05"}, "type": "Feature"}, {"geometry": {"coordinates": [8.50896, 47.35764], "type": "Point"}, "properties": {"charge": 88, "id": "smide_2742", "name": "BE343866", "provider": "smide", "range": 44.0, "size": 17, "time": "02/20/2020, 17:39:05"}, "type": "Feature"}, {"geometry": {"coordinates": [8.550558, 47.378392], "type": "Point"}, "properties": {"charge": 23, "id": "smide_2741", "name": "BE343874", "provider": "smide", "range": 11.0, "size": 17, "time": "02/20/2020, 17:39:05"}, "type": "Feature"}, {"geometry": {"coordinates": [8.514375, 47.357171], "type": "Point"}, "properties": {"charge": 90, "id": "smide_2738", "name": "BE343865", "provider": "smide", "range": 45.0, "size": 17, "time": "02/20/2020, 17:39:05"}, "type": "Feature"}, {"geometry": {"coordinates": [8.508561, 47.369676], "type": "Point"}, "properties": {"charge": 99, "id": "smide_2737", "name": "BE336149", "provider": "smide", "range": 49.0, "size": 17, "time": "02/20/2020, 17:39:05"}, "type": "Feature"}, {"geometry": {"coordinates": [8.552635, 47.357524], "type": "Point"}, "properties": {"charge": 58, "id": "smide_2734", "name": "BE343876", "provider": "smide", "range": 28.0, "size": 17, "time": "02/20/2020, 17:39:05"}, "type": "Feature"}, {"geometry": {"coordinates": [8.546708, 47.4083], "type": "Point"}, "properties": {"charge": 59, "id": "smide_2733", "name": "BE343873", "provider": "smide", "range": 29.0, "size": 17, "time": "02/20/2020, 17:39:05"}, "type": "Feature"}, {"geometry": {"coordinates": [8.536912, 47.369672], "type": "Point"}, "properties": {"charge": 83, "id": "smide_2732", "name": "BE343870", "provider": "smide", "range": 41.0, "size": 17, "time": "02/20/2020, 17:39:05"}, "type": "Feature"}, {"geometry": {"coordinates": [8.582726, 47.350972], "type": "Point"}, "properties": {"charge": 100, "id": "smide_2729", "name": "BE343878", "provider": "smide", "range": 50.0, "size": 17, "time": "02/20/2020, 17:39:05"}, "type": "Feature"}, {"geometry": {"coordinates": [8.517018, 47.36345], "type": "Point"}, "properties": {"charge": 100, "id": "smide_2725", "name": "ZH261545", "provider": "smide", "range": 50.0, "size": 0, "time": "02/20/2020, 17:39:05"}, "type": "Feature"}, {"geometry": {"coordinates": [8.519, 47.337193], "type": "Point"}, "properties": {"charge": 89, "id": "smide_2718", "name": "ZH259019", "provider": "smide", "range": 44.0, "size": 20, "time": "02/20/2020, 17:39:05"}, "type": "Feature"}, {"geometry": {"coordinates": [8.51815, 47.367716], "type": "Point"}, "properties": {"charge": 94, "id": "smide_2716", "name": "ZH254606", "provider": "smide", "range": 47.0, "size": 17, "time": "02/20/2020, 17:39:05"}, "type": "Feature"}, {"geometry": {"coordinates": [8.511648, 47.391676], "type": "Point"}, "properties": {"charge": 34, "id": "smide_2715", "name": "ZH254605", "provider": "smide", "range": 17.0, "size": 17, "time": "02/20/2020, 17:39:05"}, "type": "Feature"}, {"geometry": {"coordinates": [8.502046, 47.369188], "type": "Point"}, "properties": {"charge": 90, "id": "smide_2714", "name": "ZH256461", "provider": "smide", "range": 45.0, "size": 17, "time": "02/20/2020, 17:39:05"}, "type": "Feature"}, {"geometry": {"coordinates": [8.514466, 47.3575], "type": "Point"}, "properties": {"charge": 79, "id": "smide_2710", "name": "ZH256460", "provider": "smide", "range": 39.0, "size": 17, "time": "02/20/2020, 17:39:05"}, "type": "Feature"}, {"geometry": {"coordinates": [8.518152, 47.338924], "type": "Point"}, "properties": {"charge": 77, "id": "smide_2712", "name": "ZH256462", "provider": "smide", "range": 38.0, "size": 17, "time": "02/20/2020, 17:39:05"}, "type": "Feature"}, {"geometry": {"coordinates": [8.541313, 47.370072], "type": "Point"}, "properties": {"charge": 58, "id": "smide_2711", "name": "ZH256463", "provider": "smide", "range": 28.0, "size": 17, "time": "02/20/2020, 17:39:05"}, "type": "Feature"}, {"geometry": {"coordinates": [8.548265, 47.37775], "type": "Point"}, "properties": {"charge": 20, "id": "smide_2709", "name": "ZH256466", "provider": "smide", "range": 10.0, "size": 20, "time": "02/20/2020, 17:39:05"}, "type": "Feature"}, {"geometry": {"coordinates": [8.525867, 47.341976], "type": "Point"}, "properties": {"charge": 83, "id": "smide_2701", "name": "ZH256468", "provider": "smide", "range": 41.0, "size": 20, "time": "02/20/2020, 17:39:05"}, "type": "Feature"}, {"geometry": {"coordinates": [8.561006, 47.381156], "type": "Point"}, "properties": {"charge": 100, "id": "smide_2700", "name": "ZH256470", "provider": "smide", "range": 50.0, "size": 20, "time": "02/20/2020, 17:39:05"}, "type": "Feature"}, {"geometry": {"coordinates": [8.553937, 47.413188], "type": "Point"}, "properties": {"charge": 98, "id": "smide_2696", "name": "ZH254616", "provider": "smide", "range": 49.0, "size": 20, "time": "02/20/2020, 17:39:05"}, "type": "Feature"}, {"geometry": {"coordinates": [8.536251, 47.377668], "type": "Point"}, "properties": {"charge": 93, "id": "smide_2694", "name": "ZH254610", "provider": "smide", "range": 46.0, "size": 20, "time": "02/20/2020, 17:39:05"}, "type": "Feature"}, {"geometry": {"coordinates": [8.476978, 47.387405], "type": "Point"}, "properties": {"charge": 100, "id": "smide_2690", "name": "ZH254625", "provider": "smide", "range": 50.0, "size": 20, "time": "02/20/2020, 17:39:05"}, "type": "Feature"}, {"geometry": {"coordinates": [8.557329, 47.402872], "type": "Point"}, "properties": {"charge": 91, "id": "smide_2687", "name": "ZH263529", "provider": "smide", "range": 45.0, "size": 20, "time": "02/20/2020, 17:39:05"}, "type": "Feature"}, {"geometry": {"coordinates": [8.548951, 47.379688], "type": "Point"}, "properties": {"charge": 90, "id": "smide_2686", "name": "ZH263288", "provider": "smide", "range": 45.0, "size": 20, "time": "02/20/2020, 17:39:05"}, "type": "Feature"}, {"geometry": {"coordinates": [8.534463, 47.37694], "type": "Point"}, "properties": {"charge": 20, "id": "smide_2684", "name": "ZH254626", "provider": "smide", "range": 10.0, "size": 20, "time": "02/20/2020, 17:39:05"}, "type": "Feature"}, {"geometry": {"coordinates": [8.53434, 47.41681], "type": "Point"}, "properties": {"charge": 91, "id": "smide_2683", "name": "ZH254620", "provider": "smide", "range": 45.0, "size": 20, "time": "02/20/2020, 17:39:05"}, "type": "Feature"}, {"geometry": {"coordinates": [8.573912, 47.352784], "type": "Point"}, "properties": {"charge": 66, "id": "smide_2679", "name": "ZH258489", "provider": "smide", "range": 33.0, "size": 17, "time": "02/20/2020, 17:39:05"}, "type": "Feature"}, {"geometry": {"coordinates": [8.490997, 47.391032], "type": "Point"}, "properties": {"charge": 17, "id": "smide_2674", "name": "ZH258654", "provider": "smide", "range": 8.0, "size": 17, "time": "02/20/2020, 17:39:05"}, "type": "Feature"}, {"geometry": {"coordinates": [8.553141, 47.384356], "type": "Point"}, "properties": {"charge": 87, "id": "smide_2671", "name": "ZH258645", "provider": "smide", "range": 43.0, "size": 17, "time": "02/20/2020, 17:39:05"}, "type": "Feature"}, {"geometry": {"coordinates": [8.521994, 47.358016], "type": "Point"}, "properties": {"charge": 44, "id": "smide_2669", "name": "ZH263294", "provider": "smide", "range": 22.0, "size": 17, "time": "02/20/2020, 17:39:05"}, "type": "Feature"}, {"geometry": {"coordinates": [8.569048, 47.410488], "type": "Point"}, "properties": {"charge": 100, "id": "smide_2666", "name": "ZH258653", "provider": "smide", "range": 50.0, "size": 17, "time": "02/20/2020, 17:39:05"}, "type": "Feature"}, {"geometry": {"coordinates": [8.548842, 47.38582], "type": "Point"}, "properties": {"charge": 81, "id": "smide_2665", "name": "ZH258644", "provider": "smide", "range": 40.0, "size": 17, "time": "02/20/2020, 17:39:05"}, "type": "Feature"}, {"geometry": {"coordinates": [8.53586, 47.361272], "type": "Point"}, "properties": {"charge": 86, "id": "smide_2664", "name": "ZH258652", "provider": "smide", "range": 43.0, "size": 17, "time": "02/20/2020, 17:39:05"}, "type": "Feature"}, {"geometry": {"coordinates": [8.531261, 47.3627], "type": "Point"}, "properties": {"charge": 100, "id": "smide_2663", "name": "ZH258649", "provider": "smide", "range": 50.0, "size": 17, "time": "02/20/2020, 17:39:05"}, "type": "Feature"}, {"geometry": {"coordinates": [8.560801, 47.383044], "type": "Point"}, "properties": {"charge": 63, "id": "smide_2662", "name": "ZH258643", "provider": "smide", "range": 31.0, "size": 17, "time": "02/20/2020, 17:39:05"}, "type": "Feature"}, {"geometry": {"coordinates": [8.519843, 47.388464], "type": "Point"}, "properties": {"charge": 55, "id": "smide_2660", "name": "ZH258647", "provider": "smide", "range": 27.0, "size": 17, "time": "02/20/2020, 17:39:05"}, "type": "Feature"}, {"geometry": {"coordinates": [8.54013, 47.378772], "type": "Point"}, "properties": {"charge": 32, "id": "smide_2648", "name": "ZH257930", "provider": "smide", "range": 16.0, "size": 20, "time": "02/20/2020, 17:39:05"}, "type": "Feature"}, {"geometry": {"coordinates": [8.570266, 47.352076], "type": "Point"}, "properties": {"charge": 47, "id": "smide_2657", "name": "ZH257936", "provider": "smide", "range": 23.0, "size": 17, "time": "02/20/2020, 17:39:05"}, "type": "Feature"}, {"geometry": {"coordinates": [8.550658, 47.381128], "type": "Point"}, "properties": {"charge": 51, "id": "smide_2647", "name": "ZH257932", "provider": "smide", "range": 25.0, "size": 20, "time": "02/20/2020, 17:39:05"}, "type": "Feature"}, {"geometry": {"coordinates": [8.517157, 47.389356], "type": "Point"}, "properties": {"charge": 93, "id": "smide_2645", "name": "ZH257933", "provider": "smide", "range": 46.0, "size": 20, "time": "02/20/2020, 17:39:05"}, "type": "Feature"}, {"geometry": {"coordinates": [8.560721, 47.383021], "type": "Point"}, "properties": {"charge": 77, "id": "smide_3", "name": "ZH253765", "provider": "smide", "range": 38.0, "size": 20, "time": "02/20/2020, 17:39:05"}, "type": "Feature"}, {"geometry": {"coordinates": [8.527293, 47.343318], "type": "Point"}, "properties": {"charge": 68, "id": "smide_105", "name": "ZH253804", "provider": "smide", "range": 34.0, "size": 17, "time": "02/20/2020, 17:39:05"}, "type": "Feature"}, {"geometry": {"coordinates": [8.500871, 47.370076], "type": "Point"}, "properties": {"charge": 100, "id": "smide_197", "name": "ZH253864", "provider": "smide", "range": 50.0, "size": 20, "time": "02/20/2020, 17:39:05"}, "type": "Feature"}, {"geometry": {"coordinates": [8.524445, 47.392216], "type": "Point"}, "properties": {"charge": 100, "id": "smide_8", "name": "ZH253861", "provider": "smide", "range": 50.0, "size": 17, "time": "02/20/2020, 17:39:05"}, "type": "Feature"}, {"geometry": {"coordinates": [8.563193, 47.382153], "type": "Point"}, "properties": {"charge": 86, "id": "smide_201", "name": "ZH253698", "provider": "smide", "range": 43.0, "size": 17, "time": "02/20/2020, 17:39:05"}, "type": "Feature"}, {"geometry": {"coordinates": [8.530138, 47.372488], "type": "Point"}, "properties": {"charge": 100, "id": "smide_71", "name": "ZH253742", "provider": "smide", "range": 50.0, "size": 20, "time": "02/20/2020, 17:39:05"}, "type": "Feature"}, {"geometry": {"coordinates": [8.538273, 47.376872], "type": "Point"}, "properties": {"charge": 76, "id": "smide_101", "name": "ZH253814", "provider": "smide", "range": 38.0, "size": 17, "time": "02/20/2020, 17:39:05"}, "type": "Feature"}, {"geometry": {"coordinates": [8.503847, 47.377528], "type": "Point"}, "properties": {"charge": 64, "id": "smide_9", "name": "ZH253796", "provider": "smide", "range": 32.0, "size": 17, "time": "02/20/2020, 17:39:05"}, "type": "Feature"}, {"geometry": {"coordinates": [8.516026, 47.370512], "type": "Point"}, "properties": {"charge": 100, "id": "smide_143", "name": "ZH253778", "provider": "smide", "range": 50.0, "size": 17, "time": "02/20/2020, 17:39:05"}, "type": "Feature"}, {"geometry": {"coordinates": [8.541635, 47.36929], "type": "Point"}, "properties": {"charge": 85, "id": "smide_180", "name": "ZH253824", "provider": "smide", "range": 42.0, "size": 20, "time": "02/20/2020, 17:39:05"}, "type": "Feature"}, {"geometry": {"coordinates": [8.551955, 47.41446], "type": "Point"}, "properties": {"charge": 93, "id": "smide_20", "name": "ZH253770", "provider": "smide", "range": 46.0, "size": 20, "time": "02/20/2020, 17:39:05"}, "type": "Feature"}, {"geometry": {"coordinates": [8.503414, 47.369148], "type": "Point"}, "properties": {"charge": 86, "id": "smide_50", "name": "ZH253853", "provider": "smide", "range": 43.0, "size": 17, "time": "02/20/2020, 17:39:05"}, "type": "Feature"}, {"geometry": {"coordinates": [8.575878, 47.352931], "type": "Point"}, "properties": {"charge": 100, "id": "smide_30", "name": "ZH253813", "provider": "smide", "range": 50.0, "size": 20, "time": "02/20/2020, 17:39:05"}, "type": "Feature"}, {"geometry": {"coordinates": [8.535603, 47.359416], "type": "Point"}, "properties": {"charge": 57, "id": "smide_10", "name": "ZH253855", "provider": "smide", "range": 28.0, "size": 17, "time": "02/20/2020, 17:39:05"}, "type": "Feature"}, {"geometry": {"coordinates": [8.545314, 47.370892], "type": "Point"}, "properties": {"charge": 78, "id": "smide_84", "name": "ZH253733", "provider": "smide", "range": 39.0, "size": 17, "time": "02/20/2020, 17:39:05"}, "type": "Feature"}, {"geometry": {"coordinates": [8.496633, 47.378448], "type": "Point"}, "properties": {"charge": 71, "id": "smide_165", "name": "ZH253752", "provider": "smide", "range": 35.0, "size": 17, "time": "02/20/2020, 17:39:05"}, "type": "Feature"}, {"geometry": {"coordinates": [8.553303, 47.3736], "type": "Point"}, "properties": {"charge": 50, "id": "smide_35", "name": "ZH253755", "provider": "smide", "range": 25.0, "size": 20, "time": "02/20/2020, 17:39:05"}, "type": "Feature"}, {"geometry": {"coordinates": [8.536658, 47.377992], "type": "Point"}, "properties": {"charge": 72, "id": "smide_119", "name": "ZH253686", "provider": "smide", "range": 36.0, "size": 20, "time": "02/20/2020, 17:39:05"}, "type": "Feature"}, {"geometry": {"coordinates": [8.560705, 47.38312], "type": "Point"}, "properties": {"charge": 66, "id": "smide_76", "name": "ZH253764", "provider": "smide", "range": 33.0, "size": 17, "time": "02/20/2020, 17:39:05"}, "type": "Feature"}, {"geometry": {"coordinates": [8.52089, 47.364436], "type": "Point"}, "properties": {"charge": 20, "id": "smide_129", "name": "ZH261378", "provider": "smide", "range": 10.0, "size": 17, "time": "02/20/2020, 17:39:05"}, "type": "Feature"}, {"geometry": {"coordinates": [8.525921, 47.380871], "type": "Point"}, "properties": {"charge": 52, "id": "smide_49", "name": "ZH253873", "provider": "smide", "range": 26.0, "size": 17, "time": "02/20/2020, 17:39:05"}, "type": "Feature"}, {"geometry": {"coordinates": [8.556167, 47.374724], "type": "Point"}, "properties": {"charge": 47, "id": "smide_94", "name": "ZH253754", "provider": "smide", "range": 23.0, "size": 17, "time": "02/20/2020, 17:39:05"}, "type": "Feature"}, {"geometry": {"coordinates": [8.550878, 47.379544], "type": "Point"}, "properties": {"charge": 80, "id": "smide_37", "name": "ZH261377", "provider": "smide", "range": 40.0, "size": 20, "time": "02/20/2020, 17:39:05"}, "type": "Feature"}, {"geometry": {"coordinates": [8.560868, 47.382925], "type": "Point"}, "properties": {"charge": 91, "id": "smide_191", "name": "ZH253762", "provider": "smide", "range": 45.0, "size": 17, "time": "02/20/2020, 17:39:05"}, "type": "Feature"}, {"geometry": {"coordinates": [8.474563, 47.385751], "type": "Point"}, "properties": {"charge": 60, "id": "smide_202", "name": "ZH253830", "provider": "smide", "range": 30.0, "size": 17, "time": "02/20/2020, 17:39:05"}, "type": "Feature"}, {"geometry": {"coordinates": [8.518171, 47.339046], "type": "Point"}, "properties": {"charge": 62, "id": "smide_47", "name": "ZH253858", "provider": "smide", "range": 31.0, "size": 17, "time": "02/20/2020, 17:39:05"}, "type": "Feature"}, {"geometry": {"coordinates": [8.568221, 47.367864], "type": "Point"}, "properties": {"charge": 99, "id": "smide_66", "name": "ZH253818", "provider": "smide", "range": 49.0, "size": 20, "time": "02/20/2020, 17:39:05"}, "type": "Feature"}, {"geometry": {"coordinates": [8.497025, 47.362896], "type": "Point"}, "properties": {"charge": 48, "id": "smide_17", "name": "ZH253793", "provider": "smide", "range": 24.0, "size": 17, "time": "02/20/2020, 17:39:05"}, "type": "Feature"}, {"geometry": {"coordinates": [8.526013, 47.391613], "type": "Point"}, "properties": {"charge": 100, "id": "smide_145", "name": "ZH253780", "provider": "smide", "range": 50.0, "size": 20, "time": "02/20/2020, 17:39:05"}, "type": "Feature"}, {"geometry": {"coordinates": [8.573546, 47.35262], "type": "Point"}, "properties": {"charge": 42, "id": "smide_203", "name": "ZH261547", "provider": "smide", "range": 21.0, "size": 17, "time": "02/20/2020, 17:39:05"}, "type": "Feature"}, {"geometry": {"coordinates": [8.500793, 47.368892], "type": "Point"}, "properties": {"charge": 24, "id": "smide_21", "name": "ZH253841", "provider": "smide", "range": 12.0, "size": 17, "time": "02/20/2020, 17:39:05"}, "type": "Feature"}, {"geometry": {"coordinates": [8.54568, 47.375112], "type": "Point"}, "properties": {"charge": 22, "id": "smide_164", "name": "ZH253775", "provider": "smide", "range": 11.0, "size": 17, "time": "02/20/2020, 17:39:05"}, "type": "Feature"}, {"geometry": {"coordinates": [8.536425, 47.377916], "type": "Point"}, "properties": {"charge": 42, "id": "smide_189", "name": "ZH253845", "provider": "smide", "range": 21.0, "size": 20, "time": "02/20/2020, 17:39:05"}, "type": "Feature"}, {"geometry": {"coordinates": [8.560158, 47.381412], "type": "Point"}, "properties": {"charge": 100, "id": "smide_81", "name": "ZH253753", "provider": "smide", "range": 50.0, "size": 17, "time": "02/20/2020, 17:39:05"}, "type": "Feature"}, {"geometry": {"coordinates": [8.516896, 47.389872], "type": "Point"}, "properties": {"charge": 53, "id": "smide_171", "name": "ZH253689", "provider": "smide", "range": 26.0, "size": 20, "time": "02/20/2020, 17:39:05"}, "type": "Feature"}, {"geometry": {"coordinates": [8.502728, 47.36534], "type": "Point"}, "properties": {"charge": 95, "id": "smide_93", "name": "ZH253681", "provider": "smide", "range": 47.0, "size": 17, "time": "02/20/2020, 17:39:05"}, "type": "Feature"}, {"geometry": {"coordinates": [8.530248, 47.390308], "type": "Point"}, "properties": {"charge": 100, "id": "smide_67", "name": "ZH253779", "provider": "smide", "range": 50.0, "size": 17, "time": "02/20/2020, 17:39:05"}, "type": "Feature"}, {"geometry": {"coordinates": [8.530699, 47.348368], "type": "Point"}, "properties": {"charge": 97, "id": "smide_142", "name": "ZH258745", "provider": "smide", "range": 48.0, "size": 17, "time": "02/20/2020, 17:39:05"}, "type": "Feature"}, {"geometry": {"coordinates": [8.533248, 47.372341], "type": "Point"}, "properties": {"charge": 66, "id": "smide_166", "name": "ZH253728", "provider": "smide", "range": 33.0, "size": 17, "time": "02/20/2020, 17:39:05"}, "type": "Feature"}, {"geometry": {"coordinates": [8.54086, 47.368948], "type": "Point"}, "properties": {"charge": 71, "id": "smide_126", "name": "ZH268400", "provider": "smide", "range": 35.0, "size": 17, "time": "02/20/2020, 17:39:05"}, "type": "Feature"}, {"geometry": {"coordinates": [8.518155, 47.388261], "type": "Point"}, "properties": {"charge": 100, "id": "smide_44", "name": "ZH253837", "provider": "smide", "range": 50.0, "size": 17, "time": "02/20/2020, 17:39:05"}, "type": "Feature"}, {"geometry": {"coordinates": [8.53505, 47.34512], "type": "Point"}, "properties": {"charge": 97, "id": "smide_57", "name": "ZH253772", "provider": "smide", "range": 48.0, "size": 17, "time": "02/20/2020, 17:39:05"}, "type": "Feature"}, {"geometry": {"coordinates": [8.576404, 47.353136], "type": "Point"}, "properties": {"charge": 84, "id": "smide_154", "name": "ZH253744", "provider": "smide", "range": 42.0, "size": 20, "time": "02/20/2020, 17:39:05"}, "type": "Feature"}, {"geometry": {"coordinates": [8.539358, 47.377436], "type": "Point"}, "properties": {"charge": 38, "id": "smide_92", "name": "ZH253798", "provider": "smide", "range": 19.0, "size": 17, "time": "02/20/2020, 17:39:05"}, "type": "Feature"}, {"geometry": {"coordinates": [8.499608, 47.363264], "type": "Point"}, "properties": {"charge": 13, "id": "smide_111", "name": "ZH253763", "provider": "smide", "range": 6.0, "size": 17, "time": "02/20/2020, 17:39:05"}, "type": "Feature"}, {"geometry": {"coordinates": [8.504556, 47.351828], "type": "Point"}, "properties": {"charge": 90, "id": "smide_40", "name": "ZH253690", "provider": "smide", "range": 45.0, "size": 20, "time": "02/20/2020, 17:39:05"}, "type": "Feature"}, {"geometry": {"coordinates": [8.53746, 47.379516], "type": "Point"}, "properties": {"charge": 90, "id": "smide_1", "name": "ZH253776", "provider": "smide", "range": 45.0, "size": 17, "time": "02/20/2020, 17:39:05"}, "type": "Feature"}, {"geometry": {"coordinates": [8.54594, 47.364504], "type": "Point"}, "properties": {"charge": 58, "id": "smide_28", "name": "ZH253831", "provider": "smide", "range": 28.0, "size": 17, "time": "02/20/2020, 17:39:05"}, "type": "Feature"}, {"geometry": {"coordinates": [8.48687, 47.393273], "type": "Point"}, "properties": {"charge": 59, "id": "smide_14", "name": "ZH253749", "provider": "smide", "range": 29.0, "size": 20, "time": "02/20/2020, 17:39:05"}, "type": "Feature"}, {"geometry": {"coordinates": [8.513698, 47.377978], "type": "Point"}, "properties": {"charge": 64, "id": "smide_24", "name": "ZH253696", "provider": "smide", "range": 32.0, "size": 20, "time": "02/20/2020, 17:39:05"}, "type": "Feature"}, {"geometry": {"coordinates": [8.516851, 47.363532], "type": "Point"}, "properties": {"charge": 94, "id": "smide_136", "name": "ZH253682", "provider": "smide", "range": 47.0, "size": 17, "time": "02/20/2020, 17:39:05"}, "type": "Feature"}, {"geometry": {"coordinates": [8.511768, 47.39706], "type": "Point"}, "properties": {"charge": 81, "id": "smide_205", "name": "ZH253805", "provider": "smide", "range": 40.0, "size": 17, "time": "02/20/2020, 17:39:05"}, "type": "Feature"}, {"geometry": {"coordinates": [8.521946, 47.359352], "type": "Point"}, "properties": {"charge": 57, "id": "smide_193", "name": "ZH253738", "provider": "smide", "range": 28.0, "size": 20, "time": "02/20/2020, 17:39:05"}, "type": "Feature"}, {"geometry": {"coordinates": [8.504265, 47.351721], "type": "Point"}, "properties": {"charge": 81, "id": "smide_158", "name": "ZH253870", "provider": "smide", "range": 40.0, "size": 20, "time": "02/20/2020, 17:39:05"}, "type": "Feature"}, {"geometry": {"coordinates": [8.490357, 47.381032], "type": "Point"}, "properties": {"charge": 100, "id": "smide_100", "name": "ZH253862", "provider": "smide", "range": 50.0, "size": 20, "time": "02/20/2020, 17:39:05"}, "type": "Feature"}, {"geometry": {"coordinates": [8.507601, 47.365901], "type": "Point"}, "properties": {"charge": 100, "id": "smide_134", "name": "ZH253741", "provider": "smide", "range": 50.0, "size": 20, "time": "02/20/2020, 17:39:05"}, "type": "Feature"}, {"geometry": {"coordinates": [8.540545, 47.42169], "type": "Point"}, "properties": {"charge": 74, "id": "smide_149", "name": "ZH253743", "provider": "smide", "range": 37.0, "size": 20, "time": "02/20/2020, 17:39:05"}, "type": "Feature"}, {"geometry": {"coordinates": [8.518172, 47.33898], "type": "Point"}, "properties": {"charge": 81, "id": "smide_74", "name": "ZH253693", "provider": "smide", "range": 40.0, "size": 20, "time": "02/20/2020, 17:39:05"}, "type": "Feature"}, {"geometry": {"coordinates": [8.573966, 47.352555], "type": "Point"}, "properties": {"charge": 57, "id": "smide_33", "name": "ZH253782", "provider": "smide", "range": 28.0, "size": 20, "time": "02/20/2020, 17:39:05"}, "type": "Feature"}, {"geometry": {"coordinates": [8.544436, 47.403244], "type": "Point"}, "properties": {"charge": 77, "id": "smide_161", "name": "ZH253691", "provider": "smide", "range": 38.0, "size": 20, "time": "02/20/2020, 17:39:05"}, "type": "Feature"}, {"geometry": {"coordinates": [8.522063, 47.358613], "type": "Point"}, "properties": {"charge": 38, "id": "smide_183", "name": "ZH253868", "provider": "smide", "range": 19.0, "size": 17, "time": "02/20/2020, 17:39:05"}, "type": "Feature"}, {"geometry": {"coordinates": [8.534143, 47.396756], "type": "Point"}, "properties": {"charge": 100, "id": "smide_42", "name": "ZH253846", "provider": "smide", "range": 50.0, "size": 20, "time": "02/20/2020, 17:39:05"}, "type": "Feature"}, {"geometry": {"coordinates": [8.543222, 47.373052], "type": "Point"}, "properties": {"charge": 85, "id": "smide_4", "name": "ZH253740", "provider": "smide", "range": 42.0, "size": 20, "time": "02/20/2020, 17:39:05"}, "type": "Feature"}, {"geometry": {"coordinates": [8.507956, 47.419224], "type": "Point"}, "properties": {"charge": 34, "id": "smide_160", "name": "ZH253722", "provider": "smide", "range": 17.0, "size": 17, "time": "02/20/2020, 17:39:05"}, "type": "Feature"}, {"geometry": {"coordinates": [8.514735, 47.390048], "type": "Point"}, "properties": {"charge": 80, "id": "smide_137", "name": "ZH258502", "provider": "smide", "range": 40.0, "size": 17, "time": "02/20/2020, 17:39:05"}, "type": "Feature"}, {"geometry": {"coordinates": [8.559524, 47.416232], "type": "Point"}, "properties": {"charge": 99, "id": "smide_178", "name": "ZH253803", "provider": "smide", "range": 49.0, "size": 17, "time": "02/20/2020, 17:39:05"}, "type": "Feature"}, {"geometry": {"coordinates": [8.560825, 47.383151], "type": "Point"}, "properties": {"charge": 54, "id": "smide_55", "name": "ZH253875", "provider": "smide", "range": 27.0, "size": 17, "time": "02/20/2020, 17:39:05"}, "type": "Feature"}, {"geometry": {"coordinates": [8.487881, 47.39176], "type": "Point"}, "properties": {"charge": 27, "id": "smide_96", "name": "ZH256146", "provider": "smide", "range": 13.0, "size": 20, "time": "02/20/2020, 17:39:05"}, "type": "Feature"}, {"geometry": {"coordinates": [8.557644, 47.361404], "type": "Point"}, "properties": {"charge": 94, "id": "smide_58", "name": "ZH259246", "provider": "smide", "range": 47.0, "size": 20, "time": "02/20/2020, 17:39:05"}, "type": "Feature"}, {"geometry": {"coordinates": [8.547765, 47.397636], "type": "Point"}, "properties": {"charge": 29, "id": "smide_54", "name": "ZH253874", "provider": "smide", "range": 14.0, "size": 20, "time": "02/20/2020, 17:39:05"}, "type": "Feature"}, {"geometry": {"coordinates": [8.510585, 47.426965], "type": "Point"}, "properties": {"charge": 95, "id": "smide_162", "name": "ZH253760", "provider": "smide", "range": 47.0, "size": 17, "time": "02/20/2020, 17:39:05"}, "type": "Feature"}, {"geometry": {"coordinates": [8.535469, 47.367864], "type": "Point"}, "properties": {"charge": 37, "id": "smide_95", "name": "ZH253773", "provider": "smide", "range": 18.0, "size": 17, "time": "02/20/2020, 17:39:05"}, "type": "Feature"}, {"geometry": {"coordinates": [8.510022, 47.38428], "type": "Point"}, "properties": {"charge": 55, "id": "smide_112", "name": "ZH263530", "provider": "smide", "range": 27.0, "size": 20, "time": "02/20/2020, 17:39:05"}, "type": "Feature"}, {"geometry": {"coordinates": [8.537169, 47.387392], "type": "Point"}, "properties": {"charge": 100, "id": "smide_122", "name": "ZH253850", "provider": "smide", "range": 50.0, "size": 20, "time": "02/20/2020, 17:39:05"}, "type": "Feature"}, {"geometry": {"coordinates": [8.563412, 47.382372], "type": "Point"}, "properties": {"charge": 74, "id": "smide_6", "name": "ZH253787", "provider": "smide", "range": 37.0, "size": 17, "time": "02/20/2020, 17:39:05"}, "type": "Feature"}, {"geometry": {"coordinates": [8.518942, 47.374272], "type": "Point"}, "properties": {"charge": 100, "id": "smide_18", "name": "ZH253859", "provider": "smide", "range": 50.0, "size": 17, "time": "02/20/2020, 17:39:05"}, "type": "Feature"}, {"geometry": {"coordinates": [8.547626, 47.39758], "type": "Point"}, "properties": {"charge": 65, "id": "smide_12", "name": "ZH253685", "provider": "smide", "range": 32.0, "size": 17, "time": "02/20/2020, 17:39:05"}, "type": "Feature"}, {"geometry": {"coordinates": [8.494482, 47.36586], "type": "Point"}, "properties": {"charge": 56, "id": "smide_192", "name": "ZH253706", "provider": "smide", "range": 28.0, "size": 20, "time": "02/20/2020, 17:39:05"}, "type": "Feature"}, {"geometry": {"coordinates": [8.582239, 47.351848], "type": "Point"}, "properties": {"charge": 32, "id": "smide_39", "name": "ZH253714", "provider": "smide", "range": 16.0, "size": 20, "time": "02/20/2020, 17:39:05"}, "type": "Feature"}, {"geometry": {"coordinates": [8.495576, 47.382163], "type": "Point"}, "properties": {"charge": 64, "id": "smide_5", "name": "ZH261443", "provider": "smide", "range": 32.0, "size": 20, "time": "02/20/2020, 17:39:05"}, "type": "Feature"}, {"geometry": {"coordinates": [8.525363, 47.336911], "type": "Point"}, "properties": {"charge": 100, "id": "smide_85", "name": "ZH253729", "provider": "smide", "range": 50.0, "size": 17, "time": "02/20/2020, 17:39:05"}, "type": "Feature"}, {"geometry": {"coordinates": [8.558317, 47.35322], "type": "Point"}, "properties": {"charge": 71, "id": "smide_29", "name": "ZH253723", "provider": "smide", "range": 35.0, "size": 17, "time": "02/20/2020, 17:39:05"}, "type": "Feature"}, {"geometry": {"coordinates": [8.53613, 47.37765], "type": "Point"}, "properties": {"charge": 70, "id": "smide_132", "name": "ZH253857", "provider": "smide", "range": 35.0, "size": 17, "time": "02/20/2020, 17:39:05"}, "type": "Feature"}, {"geometry": {"coordinates": [8.502074, 47.36888], "type": "Point"}, "properties": {"charge": 67, "id": "smide_48", "name": "ZH253849", "provider": "smide", "range": 33.0, "size": 20, "time": "02/20/2020, 17:39:05"}, "type": "Feature"}, {"geometry": {"coordinates": [8.560327, 47.405856], "type": "Point"}, "properties": {"charge": 100, "id": "smide_46", "name": "ZH253843", "provider": "smide", "range": 50.0, "size": 20, "time": "02/20/2020, 17:39:05"}, "type": "Feature"}, {"geometry": {"coordinates": [8.54340833333333, 47.375325], "type": "Point"}, "properties": {"charge": 97, "id": "bird_322e1483-b35f-4ba7-9225-36af90e7038e", "provider": "bird", "timeStamp": "02/20/2020, 17:39:05"}, "type": "Feature"}, {"geometry": {"coordinates": [8.54184666666667, 47.3737], "type": "Point"}, "properties": {"charge": 58, "id": "bird_aef5ad3e-5dc7-4186-be97-7cd077f94965", "provider": "bird", "timeStamp": "02/20/2020, 17:39:05"}, "type": "Feature"}, {"geometry": {"coordinates": [8.54338666666667, 47.3753433333333], "type": "Point"}, "properties": {"charge": 51, "id": "bird_8d70b8fa-a20d-458c-88b2-814bad4eac4a", "provider": "bird", "timeStamp": "02/20/2020, 17:39:05"}, "type": "Feature"}, {"geometry": {"coordinates": [8.52223333333333, 47.3887133333333], "type": "Point"}, "properties": {"charge": 12, "id": "bird_2f4334d6-e9f3-4314-8cad-2ebfa8203258", "provider": "bird", "timeStamp": "02/20/2020, 17:39:05"}, "type": "Feature"}, {"geometry": {"coordinates": [8.54313833333333, 47.3750766666667], "type": "Point"}, "properties": {"charge": 100, "id": "bird_95f88f21-7efe-48a8-9093-87eb4f61585e", "provider": "bird", "timeStamp": "02/20/2020, 17:39:05"}, "type": "Feature"}, {"geometry": {"coordinates": [8.54315166666667, 47.375095], "type": "Point"}, "properties": {"charge": 91, "id": "bird_65b74923-533f-4984-82a0-d207b1275cad", "provider": "bird", "timeStamp": "02/20/2020, 17:39:05"}, "type": "Feature"}, {"geometry": {"coordinates": [8.54344333333333, 47.3754883333333], "type": "Point"}, "properties": {"charge": 98, "id": "bird_3b9cf613-c0aa-4a89-8cf0-0552de3d17da", "provider": "bird", "timeStamp": "02/20/2020, 17:39:05"}, "type": "Feature"}, {"geometry": {"coordinates": [8.5193, 47.3871033333333], "type": "Point"}, "properties": {"charge": 61, "id": "bird_34382fb8-08e1-452f-92f5-a7eccfb9363b", "provider": "bird", "timeStamp": "02/20/2020, 17:39:05"}, "type": "Feature"}, {"geometry": {"coordinates": [8.54314, 47.37513], "type": "Point"}, "properties": {"charge": 100, "id": "bird_c99e71e4-3c0e-4aa7-868b-e36fe14b22aa", "provider": "bird", "timeStamp": "02/20/2020, 17:39:05"}, "type": "Feature"}, {"geometry": {"coordinates": [8.54341166666667, 47.375515], "type": "Point"}, "properties": {"charge": 99, "id": "bird_08fd46f8-0a8c-4213-b0f5-3930c3fe8d1b", "provider": "bird", "timeStamp": "02/20/2020, 17:39:05"}, "type": "Feature"}, {"geometry": {"coordinates": [8.516665, 47.37542], "type": "Point"}, "properties": {"charge": 76, "id": "bird_daaa59e7-aa92-480b-a29d-f9ed3501c8a2", "provider": "bird", "timeStamp": "02/20/2020, 17:39:05"}, "type": "Feature"}, {"geometry": {"coordinates": [8.51774833333333, 47.3858], "type": "Point"}, "properties": {"charge": 31, "id": "bird_367d5cf2-d85b-4525-9b77-786b3129cd26", "provider": "bird", "timeStamp": "02/20/2020, 17:39:05"}, "type": "Feature"}, {"geometry": {"coordinates": [8.517945, 47.3859633333333], "type": "Point"}, "properties": {"charge": 45, "id": "bird_27692397-abdb-47d5-a934-177b3db22c80", "provider": "bird", "timeStamp": "02/20/2020, 17:39:05"}, "type": "Feature"}, {"geometry": {"coordinates": [8.54397166666667, 47.3764533333333], "type": "Point"}, "properties": {"charge": 53, "id": "bird_32c5d92c-9dbc-44df-930b-d0c2c1603ea9", "provider": "bird", "timeStamp": "02/20/2020, 17:39:05"}, "type": "Feature"}, {"geometry": {"coordinates": [8.515525, 47.37756], "type": "Point"}, "properties": {"charge": 65, "id": "bird_872e4663-ec7d-4218-aca3-a0e34a313347", "provider": "bird", "timeStamp": "02/20/2020, 17:39:05"}, "type": "Feature"}, {"geometry": {"coordinates": [8.54394666666667, 47.3764383333333], "type": "Point"}, "properties": {"charge": 71, "id": "bird_0919f7bb-3747-4296-861b-7e8069300332", "provider": "bird", "timeStamp": "02/20/2020, 17:39:05"}, "type": "Feature"}, {"geometry": {"coordinates": [8.53549, 47.3706166666667], "type": "Point"}, "properties": {"charge": 22, "id": "bird_7fdb0f13-009d-4869-a845-77440a7bcb6e", "provider": "bird", "timeStamp": "02/20/2020, 17:39:05"}, "type": "Feature"}, {"geometry": {"coordinates": [8.54475666666667, 47.3814016666667], "type": "Point"}, "properties": {"charge": 55, "id": "bird_27761091-07a5-47d1-a603-dd503b404051", "provider": "bird", "timeStamp": "02/20/2020, 17:39:05"}, "type": "Feature"}, {"geometry": {"coordinates": [8.51664166666667, 47.37555], "type": "Point"}, "properties": {"charge": 91, "id": "bird_86752709-8a4f-4381-b928-9b4375fe4baa", "provider": "bird", "timeStamp": "02/20/2020, 17:39:05"}, "type": "Feature"}, {"geometry": {"coordinates": [8.51815666666667, 47.38609], "type": "Point"}, "properties": {"charge": 75, "id": "bird_392c0c41-2e83-4041-bcf5-69c0f1956d21", "provider": "bird", "timeStamp": "02/20/2020, 17:39:05"}, "type": "Feature"}, {"geometry": {"coordinates": [8.53083833333333, 47.3900533333333], "type": "Point"}, "properties": {"charge": 67, "id": "bird_8593de33-2958-43d2-ab57-b5f18ad7f1f0", "provider": "bird", "timeStamp": "02/20/2020, 17:39:05"}, "type": "Feature"}, {"geometry": {"coordinates": [8.53811666666667, 47.3884283333333], "type": "Point"}, "properties": {"charge": 29, "id": "bird_8978f4b1-89c1-407b-ac91-60a0b4db561c", "provider": "bird", "timeStamp": "02/20/2020, 17:39:05"}, "type": "Feature"}, {"geometry": {"coordinates": [8.54396833333333, 47.3765716666667], "type": "Point"}, "properties": {"charge": 57, "id": "bird_fbefdbd9-b934-4d99-ba04-a26351cd70a1", "provider": "bird", "timeStamp": "02/20/2020, 17:39:05"}, "type": "Feature"}, {"geometry": {"coordinates": [8.53986166666667, 47.3724816666667], "type": "Point"}, "properties": {"charge": 35, "id": "bird_10303746-0947-484a-9582-476bf6c576b1", "provider": "bird", "timeStamp": "02/20/2020, 17:39:05"}, "type": "Feature"}, {"geometry": {"coordinates": [8.53293666666667, 47.389855], "type": "Point"}, "properties": {"charge": 28, "id": "bird_93155b13-6565-48ec-b479-54675a6bece3", "provider": "bird", "timeStamp": "02/20/2020, 17:39:05"}, "type": "Feature"}, {"geometry": {"coordinates": [8.54333333333333, 47.3755983333333], "type": "Point"}, "properties": {"charge": 100, "id": "bird_55617adf-20c7-4b09-bd65-d5a26e7c1ec7", "provider": "bird", "timeStamp": "02/20/2020, 17:39:05"}, "type": "Feature"}, {"geometry": {"coordinates": [8.53527333333333, 47.370625], "type": "Point"}, "properties": {"charge": 73, "id": "bird_e78f9111-8990-447b-8180-d1b192270335", "provider": "bird", "timeStamp": "02/20/2020, 17:39:05"}, "type": "Feature"}, {"geometry": {"coordinates": [8.52358333333333, 47.3709683333333], "type": "Point"}, "properties": {"charge": 89, "id": "bird_c9f9e9a5-6910-416d-b7de-b7ab4dd61d8a", "provider": "bird", "timeStamp": "02/20/2020, 17:39:05"}, "type": "Feature"}, {"geometry": {"coordinates": [8.523545, 47.3710016666667], "type": "Point"}, "properties": {"charge": 87, "id": "bird_c0dd73a2-5d8f-4650-a041-f83de2b30179", "provider": "bird", "timeStamp": "02/20/2020, 17:39:05"}, "type": "Feature"}, {"geometry": {"coordinates": [8.51728166666667, 47.38509], "type": "Point"}, "properties": {"charge": 66, "id": "bird_b6b94703-e063-42ab-8948-98355caa5196", "provider": "bird", "timeStamp": "02/20/2020, 17:39:05"}, "type": "Feature"}, {"geometry": {"coordinates": [8.518165, 47.374015], "type": "Point"}, "properties": {"charge": 56, "id": "bird_33383234-1d0f-4a0f-98ae-d651e8caeca3", "provider": "bird", "timeStamp": "02/20/2020, 17:39:05"}, "type": "Feature"}, {"geometry": {"coordinates": [8.543325, 47.37569], "type": "Point"}, "properties": {"charge": 100, "id": "bird_eadc1c0e-cfef-4dd8-bdaf-51d2bb8014fc", "provider": "bird", "timeStamp": "02/20/2020, 17:39:05"}, "type": "Feature"}, {"geometry": {"coordinates": [8.52315333333333, 47.3711466666667], "type": "Point"}, "properties": {"charge": 71, "id": "bird_cf4e0649-13e5-40f8-b28d-7a1bbbfbf791", "provider": "bird", "timeStamp": "02/20/2020, 17:39:05"}, "type": "Feature"}, {"geometry": {"coordinates": [8.543395, 47.375805], "type": "Point"}, "properties": {"charge": 100, "id": "bird_2dc3a8c4-509d-446e-8a5e-00bfba17b8d1", "provider": "bird", "timeStamp": "02/20/2020, 17:39:05"}, "type": "Feature"}, {"geometry": {"coordinates": [8.51845833333333, 47.3862233333333], "type": "Point"}, "properties": {"charge": 63, "id": "bird_56403218-829f-4187-9a45-a6f03c7f726d", "provider": "bird", "timeStamp": "02/20/2020, 17:39:05"}, "type": "Feature"}, {"geometry": {"coordinates": [8.52319166666667, 47.371155], "type": "Point"}, "properties": {"charge": 84, "id": "bird_acfeb7b3-160a-4d47-878c-b32ca462941a", "provider": "bird", "timeStamp": "02/20/2020, 17:39:05"}, "type": "Feature"}, {"geometry": {"coordinates": [8.52283333333333, 47.3712883333333], "type": "Point"}, "properties": {"charge": 74, "id": "bird_dc9f1ee1-31c0-4511-8ca7-a7dfc12eeab9", "provider": "bird", "timeStamp": "02/20/2020, 17:39:05"}, "type": "Feature"}, {"geometry": {"coordinates": [8.51673, 47.375725], "type": "Point"}, "properties": {"charge": 47, "id": "bird_0b7a73f9-8bc4-482e-b5c8-997cca7513fd", "provider": "bird", "timeStamp": "02/20/2020, 17:39:05"}, "type": "Feature"}, {"geometry": {"coordinates": [8.54334, 47.375885], "type": "Point"}, "properties": {"charge": 99, "id": "bird_dd903932-9807-4d21-a813-82ae7a0a9995", "provider": "bird", "timeStamp": "02/20/2020, 17:39:05"}, "type": "Feature"}, {"geometry": {"coordinates": [8.54392666666667, 47.3769233333333], "type": "Point"}, "properties": {"charge": 64, "id": "bird_28e37c31-7ae1-4f90-8247-cb9d216cb865", "provider": "bird", "timeStamp": "02/20/2020, 17:39:05"}, "type": "Feature"}, {"geometry": {"coordinates": [8.52264333333333, 47.3714333333333], "type": "Point"}, "properties": {"charge": 61, "id": "bird_a9c22f8d-7f95-4dbc-8ba3-7763fa495582", "provider": "bird", "timeStamp": "02/20/2020, 17:39:05"}, "type": "Feature"}, {"geometry": {"coordinates": [8.51659833333333, 47.3760916666667], "type": "Point"}, "properties": {"charge": 82, "id": "bird_c073cee8-6f9c-44c3-833e-4e253162d130", "provider": "bird", "timeStamp": "02/20/2020, 17:39:05"}, "type": "Feature"}, {"geometry": {"coordinates": [8.521785, 47.388165], "type": "Point"}, "properties": {"charge": 51, "id": "bird_9dbafdc3-788b-4958-8cc2-e52f8712013d", "provider": "bird", "timeStamp": "02/20/2020, 17:39:05"}, "type": "Feature"}, {"geometry": {"coordinates": [8.52348833333333, 47.3711783333333], "type": "Point"}, "properties": {"charge": 80, "id": "bird_5c6c14e5-5800-42dc-bd33-ce040cc1f467", "provider": "bird", "timeStamp": "02/20/2020, 17:39:05"}, "type": "Feature"}, {"geometry": {"coordinates": [8.51854333333333, 47.3860633333333], "type": "Point"}, "properties": {"charge": 87, "id": "bird_e69f8a97-02b7-4e8a-9d9e-fd2a422ff23d", "provider": "bird", "timeStamp": "02/20/2020, 17:39:05"}, "type": "Feature"}, {"geometry": {"coordinates": [8.51862166666667, 47.386085], "type": "Point"}, "properties": {"charge": 82, "id": "bird_feb96ab7-01bc-49e4-8505-1d57d1da7a52", "provider": "bird", "timeStamp": "02/20/2020, 17:39:05"}, "type": "Feature"}, {"geometry": {"coordinates": [8.53560333333333, 47.3889233333333], "type": "Point"}, "properties": {"charge": 57, "id": "bird_1a6ea321-8d84-4031-a6a1-f9f111f2853a", "provider": "bird", "timeStamp": "02/20/2020, 17:39:05"}, "type": "Feature"}, {"geometry": {"coordinates": [8.52414833333333, 47.3711733333333], "type": "Point"}, "properties": {"charge": 91, "id": "bird_59141ef4-95de-4935-994d-3278a812b6f9", "provider": "bird", "timeStamp": "02/20/2020, 17:39:05"}, "type": "Feature"}, {"geometry": {"coordinates": [8.52091833333333, 47.37254], "type": "Point"}, "properties": {"charge": 82, "id": "bird_24f73dc5-3670-438b-9c60-d59ece1acb2a", "provider": "bird", "timeStamp": "02/20/2020, 17:39:05"}, "type": "Feature"}, {"geometry": {"coordinates": [8.53634, 47.3713983333333], "type": "Point"}, "properties": {"charge": 100, "id": "bird_5c7d6684-44ac-48fc-b44c-06933f488b0f", "provider": "bird", "timeStamp": "02/20/2020, 17:39:05"}, "type": "Feature"}, {"geometry": {"coordinates": [8.53632, 47.3713983333333], "type": "Point"}, "properties": {"charge": 99, "id": "bird_932484dd-6a74-4ac2-ada3-4cafdb5053a0", "provider": "bird", "timeStamp": "02/20/2020, 17:39:05"}, "type": "Feature"}, {"geometry": {"coordinates": [8.522045, 47.3878333333333], "type": "Point"}, "properties": {"charge": 57, "id": "bird_ace7b007-af2a-4985-a6a2-674d8422050d", "provider": "bird", "timeStamp": "02/20/2020, 17:39:05"}, "type": "Feature"}, {"geometry": {"coordinates": [8.52379833333333, 47.388435], "type": "Point"}, "properties": {"charge": 83, "id": "bird_1e9008ef-e310-46c6-9a82-838eefaa8041", "provider": "bird", "timeStamp": "02/20/2020, 17:39:05"}, "type": "Feature"}, {"geometry": {"coordinates": [8.53603333333333, 47.3715166666667], "type": "Point"}, "properties": {"charge": 100, "id": "bird_df5263a5-e9b1-43f3-841f-665b99a8672e", "provider": "bird", "timeStamp": "02/20/2020, 17:39:05"}, "type": "Feature"}, {"geometry": {"coordinates": [8.54054833333333, 47.3738666666667], "type": "Point"}, "properties": {"charge": 100, "id": "bird_1e204c5a-5197-4490-9a4f-11270463bbc4", "provider": "bird", "timeStamp": "02/20/2020, 17:39:05"}, "type": "Feature"}, {"geometry": {"coordinates": [8.540555, 47.373905], "type": "Point"}, "properties": {"charge": 100, "id": "bird_e445569c-968c-461d-b75b-57c0173a966d", "provider": "bird", "timeStamp": "02/20/2020, 17:39:05"}, "type": "Feature"}, {"geometry": {"coordinates": [8.53605627525718, 47.3715959865025], "type": "Point"}, "properties": {"charge": 98, "id": "bird_6349e1cf-4252-481b-92c5-0c6f0d294625", "provider": "bird", "timeStamp": "02/20/2020, 17:39:05"}, "type": "Feature"}, {"geometry": {"coordinates": [8.54320166666667, 47.3772666666667], "type": "Point"}, "properties": {"charge": 39, "id": "bird_ef4c5035-5cd6-4fe7-b5fd-184dec2adbfa", "provider": "bird", "timeStamp": "02/20/2020, 17:39:05"}, "type": "Feature"}, {"geometry": {"coordinates": [8.537615, 47.3722916666667], "type": "Point"}, "properties": {"charge": 11, "id": "bird_14b3fe1d-e837-4a09-b247-b632bb06ba1c", "provider": "bird", "timeStamp": "02/20/2020, 17:39:05"}, "type": "Feature"}, {"geometry": {"coordinates": [8.51656666666667, 47.3800666666667], "type": "Point"}, "properties": {"charge": 66, "id": "bird_5a436cf4-695b-4037-9e6d-1f56dacd1f60", "provider": "bird", "timeStamp": "02/20/2020, 17:39:05"}, "type": "Feature"}, {"geometry": {"coordinates": [8.53918, 47.3735283333333], "type": "Point"}, "properties": {"charge": 40, "id": "bird_d5634954-57ef-47c5-b309-0b19b5d010df", "provider": "bird", "timeStamp": "02/20/2020, 17:39:05"}, "type": "Feature"}, {"geometry": {"coordinates": [8.53927166666667, 47.3738516666667], "type": "Point"}, "properties": {"charge": 56, "id": "bird_b298199b-e840-42ac-90d4-ee74e61711c6", "provider": "bird", "timeStamp": "02/20/2020, 17:39:05"}, "type": "Feature"}, {"geometry": {"coordinates": [8.54294333333333, 47.3801466666667], "type": "Point"}, "properties": {"charge": 71, "id": "bird_6a9ffb69-9b89-480a-803e-30dc1a732398", "provider": "bird", "timeStamp": "02/20/2020, 17:39:05"}, "type": "Feature"}, {"geometry": {"coordinates": [8.537575, 47.37291], "type": "Point"}, "properties": {"charge": 57, "id": "bird_26ebbf0e-214e-40a2-a040-28d7e507cd65", "provider": "bird", "timeStamp": "02/20/2020, 17:39:05"}, "type": "Feature"}, {"geometry": {"coordinates": [8.53995166666667, 47.3744433333333], "type": "Point"}, "properties": {"charge": 13, "id": "bird_b624cf60-0087-42f8-89d4-a3d0e9891b8e", "provider": "bird", "timeStamp": "02/20/2020, 17:39:05"}, "type": "Feature"}, {"geometry": {"coordinates": [8.54289333333333, 47.3800816666667], "type": "Point"}, "properties": {"charge": 73, "id": "bird_32bf8d08-086a-4410-b462-62147b24be92", "provider": "bird", "timeStamp": "02/20/2020, 17:39:05"}, "type": "Feature"}, {"geometry": {"coordinates": [8.53785666666667, 47.373085], "type": "Point"}, "properties": {"charge": 40, "id": "bird_f0b8644d-eda6-4152-b900-808d8a524b18", "provider": "bird", "timeStamp": "02/20/2020, 17:39:05"}, "type": "Feature"}, {"geometry": {"coordinates": [8.53598, 47.3876683333333], "type": "Point"}, "properties": {"charge": 33, "id": "bird_4521e07e-eca7-4a92-b90f-d5899b28b4ca", "provider": "bird", "timeStamp": "02/20/2020, 17:39:05"}, "type": "Feature"}, {"geometry": {"coordinates": [8.52469666666667, 47.3878783333333], "type": "Point"}, "properties": {"charge": 79, "id": "bird_a8ed157d-a323-4d93-ab35-e7fca5f4c5ad", "provider": "bird", "timeStamp": "02/20/2020, 17:39:05"}, "type": "Feature"}, {"geometry": {"coordinates": [8.54133833333333, 47.376], "type": "Point"}, "properties": {"charge": 99, "id": "bird_7ba460d8-00c5-4fc3-9bc1-7cafdf6ed317", "provider": "bird", "timeStamp": "02/20/2020, 17:39:05"}, "type": "Feature"}, {"geometry": {"coordinates": [8.54187666666667, 47.376835], "type": "Point"}, "properties": {"charge": 76, "id": "bird_34121410-3b6c-4ccf-9fe1-6c0ca0eb48a8", "provider": "bird", "timeStamp": "02/20/2020, 17:39:05"}, "type": "Feature"}, {"geometry": {"coordinates": [8.53742833333333, 47.3730316666667], "type": "Point"}, "properties": {"charge": 97, "id": "bird_518e43aa-3db9-4550-bb1a-8b757493ec3c", "provider": "bird", "timeStamp": "02/20/2020, 17:39:05"}, "type": "Feature"}, {"geometry": {"coordinates": [8.52612833333333, 47.38818], "type": "Point"}, "properties": {"charge": 30, "id": "bird_7e9f51e8-ea01-4bfd-a28f-61c1c657b7c0", "provider": "bird", "timeStamp": "02/20/2020, 17:39:05"}, "type": "Feature"}, {"geometry": {"coordinates": [8.54123666666667, 47.3760683333333], "type": "Point"}, "properties": {"charge": 100, "id": "bird_f6c8b9dc-e658-4c48-bd62-22c3b1a33070", "provider": "bird", "timeStamp": "02/20/2020, 17:39:05"}, "type": "Feature"}, {"geometry": {"coordinates": [8.52393666666667, 47.372585], "type": "Point"}, "properties": {"charge": 96, "id": "bird_556073f7-45b4-4ca8-aa0b-88cc311798b6", "provider": "bird", "timeStamp": "02/20/2020, 17:39:05"}, "type": "Feature"}, {"geometry": {"coordinates": [8.53680333333333, 47.37291], "type": "Point"}, "properties": {"charge": 63, "id": "bird_6e904d69-d055-4fc1-8329-b9f472e2b146", "provider": "bird", "timeStamp": "02/20/2020, 17:39:05"}, "type": "Feature"}, {"geometry": {"coordinates": [8.53471333333333, 47.38781], "type": "Point"}, "properties": {"charge": 43, "id": "bird_ed895076-f5dc-496b-91e7-f50679cb4c92", "provider": "bird", "timeStamp": "02/20/2020, 17:39:05"}, "type": "Feature"}, {"geometry": {"coordinates": [8.54235, 47.3809133333333], "type": "Point"}, "properties": {"charge": 18, "id": "bird_55fc36e4-9115-49ae-91f0-f60b2341054f", "provider": "bird", "timeStamp": "02/20/2020, 17:39:05"}, "type": "Feature"}, {"geometry": {"coordinates": [8.539915, 47.37497], "type": "Point"}, "properties": {"charge": 99, "id": "bird_0f450bee-15b9-459e-9dd3-5e81fc5aca7f", "provider": "bird", "timeStamp": "02/20/2020, 17:39:05"}, "type": "Feature"}, {"geometry": {"coordinates": [8.539955, 47.3750266666667], "type": "Point"}, "properties": {"charge": 100, "id": "bird_ed8f9365-9856-4382-a94b-20fff895e399", "provider": "bird", "timeStamp": "02/20/2020, 17:39:05"}, "type": "Feature"}, {"geometry": {"coordinates": [8.53572166666667, 47.3874166666667], "type": "Point"}, "properties": {"charge": 30, "id": "bird_00e3db06-79a2-413f-980c-5a0138273cd8", "provider": "bird", "timeStamp": "02/20/2020, 17:39:05"}, "type": "Feature"}, {"geometry": {"coordinates": [8.52863833333333, 47.3881566666667], "type": "Point"}, "properties": {"charge": 75, "id": "bird_d65e56b4-ac5d-4941-a540-6f286433d981", "provider": "bird", "timeStamp": "02/20/2020, 17:39:05"}, "type": "Feature"}, {"geometry": {"coordinates": [8.52564, 47.3876383333333], "type": "Point"}, "properties": {"charge": 87, "id": "bird_ce4eec1c-9047-4dd1-8e3a-8a1831aa3f70", "provider": "bird", "timeStamp": "02/20/2020, 17:39:05"}, "type": "Feature"}, {"geometry": {"coordinates": [8.5412, 47.3770066666667], "type": "Point"}, "properties": {"charge": 10, "id": "bird_9da30476-cb6e-4b17-a1fe-0ed8267eaec6", "provider": "bird", "timeStamp": "02/20/2020, 17:39:05"}, "type": "Feature"}, {"geometry": {"coordinates": [8.522705, 47.3864816666667], "type": "Point"}, "properties": {"charge": 76, "id": "bird_590392fc-6374-4532-8000-e0def0acf39b", "provider": "bird", "timeStamp": "02/20/2020, 17:39:05"}, "type": "Feature"}, {"geometry": {"coordinates": [8.52517666666667, 47.3874366666667], "type": "Point"}, "properties": {"charge": 53, "id": "bird_e5c8e0e9-ec53-44e0-90bf-80fb5edd48b4", "provider": "bird", "timeStamp": "02/20/2020, 17:39:05"}, "type": "Feature"}, {"geometry": {"coordinates": [8.52383166666667, 47.3869483333333], "type": "Point"}, "properties": {"charge": 27, "id": "bird_d89879f0-3528-427c-b36c-265affff4053", "provider": "bird", "timeStamp": "02/20/2020, 17:39:05"}, "type": "Feature"}, {"geometry": {"coordinates": [8.52274833333333, 47.3864283333333], "type": "Point"}, "properties": {"charge": 26, "id": "bird_dba4e506-ea65-4e97-8965-d5249223f180", "provider": "bird", "timeStamp": "02/20/2020, 17:39:05"}, "type": "Feature"}, {"geometry": {"coordinates": [8.52534, 47.372605], "type": "Point"}, "properties": {"charge": 46, "id": "bird_2e4e4459-3b20-40d2-b04f-6e2ebe28cf72", "provider": "bird", "timeStamp": "02/20/2020, 17:39:05"}, "type": "Feature"}, {"geometry": {"coordinates": [8.5402, 47.3758883333333], "type": "Point"}, "properties": {"charge": 21, "id": "bird_4908f69b-1df3-400d-9e35-d8c877f09c7d", "provider": "bird", "timeStamp": "02/20/2020, 17:39:05"}, "type": "Feature"}, {"geometry": {"coordinates": [8.540135, 47.3758233333333], "type": "Point"}, "properties": {"charge": 65, "id": "bird_52bc4d32-c01c-4f20-a6ad-5f61ed8466d1", "provider": "bird", "timeStamp": "02/20/2020, 17:39:05"}, "type": "Feature"}, {"geometry": {"coordinates": [8.52518666666667, 47.3726616666667], "type": "Point"}, "properties": {"charge": 52, "id": "bird_ed05daa2-b849-4d41-9d4b-f9b82a64c55a", "provider": "bird", "timeStamp": "02/20/2020, 17:39:05"}, "type": "Feature"}, {"geometry": {"coordinates": [8.54035, 47.3761933333333], "type": "Point"}, "properties": {"charge": 28, "id": "bird_3131c814-8cda-41f7-a81d-9e7d7ac99ca0", "provider": "bird", "timeStamp": "02/20/2020, 17:39:05"}, "type": "Feature"}, {"geometry": {"coordinates": [8.52343166666667, 47.3866], "type": "Point"}, "properties": {"charge": 31, "id": "bird_f17e2df2-12c2-44cf-9ea9-92c8369cacd4", "provider": "bird", "timeStamp": "02/20/2020, 17:39:05"}, "type": "Feature"}, {"geometry": {"coordinates": [8.54018833333333, 47.3760383333333], "type": "Point"}, "properties": {"charge": 45, "id": "bird_fe65a932-1db0-454b-aed5-6b7f88de7e67", "provider": "bird", "timeStamp": "02/20/2020, 17:39:05"}, "type": "Feature"}, {"geometry": {"coordinates": [8.51826666666667, 47.380135], "type": "Point"},