{"features": [{"geometry": {"coordinates": [8.540062, 47.374392], "type": "Point"}, "properties": {"address": "Uraniastrasse 7", "electric": 2, "id": "pb_60", "manual": 6, "name": "Demo Station Werdm\u00fchleplatz", "provider": "publibike", "timeStamp": "02/13/2020, 19:59:47", "zip": 8001}, "type": "Feature"}, {"geometry": {"coordinates": [8.5452956, 47.4099615], "type": "Point"}, "properties": {"address": "Querstrasse 8", "electric": 2, "id": "pb_61", "manual": 5, "name": "Marktplatz", "provider": "publibike", "timeStamp": "02/13/2020, 19:59:47", "zip": 8050}, "type": "Feature"}, {"geometry": {"coordinates": [8.5156327, 47.3795837], "type": "Point"}, "properties": {"address": "Bullingerstrasse 5", "electric": 3, "id": "pb_80", "manual": 3, "name": "Bullingerplatz", "provider": "publibike", "timeStamp": "02/13/2020, 19:59:47", "zip": 8004}, "type": "Feature"}, {"geometry": {"coordinates": [8.5104051, 47.3899342], "type": "Point"}, "properties": {"address": "Pfingstweidstrasse 96e", "electric": 2, "id": "pb_81", "manual": 2, "name": "Herdern", "provider": "publibike", "timeStamp": "02/13/2020, 19:59:47", "zip": 8001}, "type": "Feature"}, {"geometry": {"coordinates": [8.535718, 47.359675], "type": "Point"}, "properties": {"address": "Mythenquai 50", "electric": 0, "id": "pb_82", "manual": 3, "name": "Hafen Enge", "provider": "publibike", "timeStamp": "02/13/2020, 19:59:47", "zip": 8002}, "type": "Feature"}, {"geometry": {"coordinates": [8.520370505, 47.358663827], "type": "Point"}, "properties": {"address": "Bubenbergstrasse 1", "electric": 9, "id": "pb_83", "manual": 3, "name": "Comerge", "provider": "publibike", "timeStamp": "02/13/2020, 19:59:47", "zip": 8045}, "type": "Feature"}, {"geometry": {"coordinates": [8.5412505, 47.3789825], "type": "Point"}, "properties": {"address": "Museumstrasse 2", "electric": 15, "id": "pb_84", "manual": 22, "name": "Landesmuseum", "provider": "publibike", "timeStamp": "02/13/2020, 19:59:47", "zip": 8001}, "type": "Feature"}, {"geometry": {"coordinates": [8.5235479, 47.3716661], "type": "Point"}, "properties": {"address": "Birmensdorferstrasse 80", "electric": 7, "id": "pb_85", "manual": 1, "name": "Bahnhof Wiedikon", "provider": "publibike", "timeStamp": "02/13/2020, 19:59:47", "zip": 8003}, "type": "Feature"}, {"geometry": {"coordinates": [8.506822854, 47.40781197], "type": "Point"}, "properties": {"address": "Stefano-Franscini-Platz 5", "electric": 8, "id": "pb_86", "manual": 0, "name": "ETH H\u00f6nggerberg", "provider": "publibike", "timeStamp": "02/13/2020, 19:59:47", "zip": 8093}, "type": "Feature"}, {"geometry": {"coordinates": [8.536101, 47.371083], "type": "Point"}, "properties": {"address": "Pelikanplatz 5", "electric": 5, "id": "pb_87", "manual": 10, "name": "Pelikanplatz", "provider": "publibike", "timeStamp": "02/13/2020, 19:59:47", "zip": 8001}, "type": "Feature"}, {"geometry": {"coordinates": [8.5257822, 47.3651936], "type": "Point"}, "properties": {"address": "H\u00fcrlimannplatz 90", "electric": 3, "id": "pb_88", "manual": 14, "name": "H\u00fcrlimannplatz", "provider": "publibike", "timeStamp": "02/13/2020, 19:59:47", "zip": 8002}, "type": "Feature"}, {"geometry": {"coordinates": [8.5313344, 47.3713591], "type": "Point"}, "properties": {"address": "Selnaustrasse 32", "electric": 0, "id": "pb_89", "manual": 3, "name": "Stauffacherbr\u00fccke", "provider": "publibike", "timeStamp": "02/13/2020, 19:59:47", "zip": 8001}, "type": "Feature"}, {"geometry": {"coordinates": [8.5056978, 47.3917964], "type": "Point"}, "properties": {"address": "Sportweg 25", "electric": 0, "id": "pb_90", "manual": 7, "name": "Sportweg", "provider": "publibike", "timeStamp": "02/13/2020, 19:59:47", "zip": 8005}, "type": "Feature"}, {"geometry": {"coordinates": [8.5181701, 47.3917837], "type": "Point"}, "properties": {"address": "Hardturmstrasse 11", "electric": 3, "id": "pb_91", "manual": 2, "name": "Puls 5", "provider": "publibike", "timeStamp": "02/13/2020, 19:59:47", "zip": 8005}, "type": "Feature"}, {"geometry": {"coordinates": [8.5286468, 47.3820827], "type": "Point"}, "properties": {"address": "R\u00f6ntgenstrasse 6", "electric": 6, "id": "pb_92", "manual": 7, "name": "R\u00f6ntgenstrasse", "provider": "publibike", "timeStamp": "02/13/2020, 19:59:47", "zip": 8005}, "type": "Feature"}, {"geometry": {"coordinates": [8.531935, 47.384918], "type": "Point"}, "properties": {"address": "Kornhausbr\u00fccke 1", "electric": 5, "id": "pb_93", "manual": 9, "name": "Limmatplatz", "provider": "publibike", "timeStamp": "02/13/2020, 19:59:47", "zip": 8005}, "type": "Feature"}, {"geometry": {"coordinates": [8.5354006, 47.3758639], "type": "Point"}, "properties": {"address": "Gessnerallee 15", "electric": 1, "id": "pb_94", "manual": 3, "name": "Gessnerallee", "provider": "publibike", "timeStamp": "02/13/2020, 19:59:47", "zip": 8001}, "type": "Feature"}, {"geometry": {"coordinates": [8.523818, 47.377148], "type": "Point"}, "properties": {"address": "Stauffacherstrasse 127", "electric": 7, "id": "pb_95", "manual": 5, "name": "B\u00e4ckeranlage", "provider": "publibike", "timeStamp": "02/13/2020, 19:59:47", "zip": 8004}, "type": "Feature"}, {"geometry": {"coordinates": [8.531836, 47.378548], "type": "Point"}, "properties": {"address": "Lagerstrasse 44", "electric": 2, "id": "pb_96", "manual": 6, "name": "Gustav-Gull-Platz", "provider": "publibike", "timeStamp": "02/13/2020, 19:59:47", "zip": 8004}, "type": "Feature"}, {"geometry": {"coordinates": [8.5104883, 47.3771535], "type": "Point"}, "properties": {"address": "Zurlindenstrasse 291", "electric": 0, "id": "pb_97", "manual": 6, "name": "Zurlindenstrasse", "provider": "publibike", "timeStamp": "02/13/2020, 19:59:47", "zip": 8003}, "type": "Feature"}, {"geometry": {"coordinates": [8.5333139, 47.3731102], "type": "Point"}, "properties": {"address": "Sihlstrasse 81", "electric": 5, "id": "pb_98", "manual": 9, "name": "Sihlstrasse", "provider": "publibike", "timeStamp": "02/13/2020, 19:59:47", "zip": 8001}, "type": "Feature"}, {"geometry": {"coordinates": [8.520532, 47.374951], "type": "Point"}, "properties": {"address": "Feldstrasse 24", "electric": 2, "id": "pb_99", "manual": 4, "name": "Kalkbreite", "provider": "publibike", "timeStamp": "02/13/2020, 19:59:47", "zip": 8004}, "type": "Feature"}, {"geometry": {"coordinates": [8.539046, 47.368064], "type": "Point"}, "properties": {"address": "Talstrasse 12", "electric": 1, "id": "pb_100", "manual": 4, "name": "Z\u00fcrcher Kantonalbank", "provider": "publibike", "timeStamp": "02/13/2020, 19:59:47", "zip": 8001}, "type": "Feature"}, {"geometry": {"coordinates": [8.5348427, 47.3625938], "type": "Point"}, "properties": {"address": "Breitingerstrasse 5", "electric": 3, "id": "pb_101", "manual": 2, "name": "Rentenanstalt", "provider": "publibike", "timeStamp": "02/13/2020, 19:59:47", "zip": 8002}, "type": "Feature"}, {"geometry": {"coordinates": [8.5166922, 47.3897772], "type": "Point"}, "properties": {"address": "Technoparkstrasse 4", "electric": 3, "id": "pb_102", "manual": 4, "name": "Turbinenplatz", "provider": "publibike", "timeStamp": "02/13/2020, 19:59:47", "zip": 8005}, "type": "Feature"}, {"geometry": {"coordinates": [8.539312, 47.3739964], "type": "Point"}, "properties": {"address": "Oetenbachgasse 14", "electric": 1, "id": "pb_104", "manual": 5, "name": "Rennweg", "provider": "publibike", "timeStamp": "02/13/2020, 19:59:47", "zip": 8001}, "type": "Feature"}, {"geometry": {"coordinates": [8.5360685, 47.3775022], "type": "Point"}, "properties": {"address": "Kasernenstrasse 101", "electric": 32, "id": "pb_105", "manual": 37, "name": "Sihlpost", "provider": "publibike", "timeStamp": "02/13/2020, 19:59:47", "zip": 8004}, "type": "Feature"}, {"geometry": {"coordinates": [8.53545, 47.382798], "type": "Point"}, "properties": {"address": "Ausstellungsstrasse 44", "electric": 4, "id": "pb_106", "manual": 13, "name": "Museum f\u00fcr Gestaltung", "provider": "publibike", "timeStamp": "02/13/2020, 19:59:47", "zip": 8005}, "type": "Feature"}, {"geometry": {"coordinates": [8.5306155, 47.3647902], "type": "Point"}, "properties": {"address": "Gutenbergstrasse 1", "electric": 7, "id": "pb_107", "manual": 7, "name": "Bederbr\u00fccke", "provider": "publibike", "timeStamp": "02/13/2020, 19:59:47", "zip": 8002}, "type": "Feature"}, {"geometry": {"coordinates": [8.518982, 47.386741], "type": "Point"}, "properties": {"address": "Geroldstrasse 4", "electric": 1, "id": "pb_108", "manual": 6, "name": "Bahnhof Hardbr\u00fccke", "provider": "publibike", "timeStamp": "02/13/2020, 19:59:47", "zip": 8005}, "type": "Feature"}, {"geometry": {"coordinates": [8.53001018, 47.37247535], "type": "Point"}, "properties": {"address": "Werdstrasse 21", "electric": 0, "id": "pb_109", "manual": 0, "name": "Tamedia", "provider": "publibike", "timeStamp": "02/13/2020, 19:59:47", "zip": 8004}, "type": "Feature"}, {"geometry": {"coordinates": [8.4860017, 47.396401], "type": "Point"}, "properties": {"address": "Gr\u00fcnauring 37", "electric": 9, "id": "pb_110", "manual": 1, "name": "Gr\u00fcnau", "provider": "publibike", "timeStamp": "02/13/2020, 19:59:47", "zip": 8064}, "type": "Feature"}, {"geometry": {"coordinates": [8.548519, 47.376756], "type": "Point"}, "properties": {"address": "R\u00e4mistrasse 101", "electric": 1, "id": "pb_111", "manual": 0, "name": "ETH Zentrum", "provider": "publibike", "timeStamp": "02/13/2020, 19:59:47", "zip": 8006}, "type": "Feature"}, {"geometry": {"coordinates": [8.520449, 47.388151], "type": "Point"}, "properties": {"address": "Josefstrasse 224", "electric": 1, "id": "pb_112", "manual": 2, "name": "Steinfelsareal", "provider": "publibike", "timeStamp": "02/13/2020, 19:59:47", "zip": 8005}, "type": "Feature"}, {"geometry": {"coordinates": [8.520482, 47.37209], "type": "Point"}, "properties": {"address": "Weststrasse 115", "electric": 0, "id": "pb_124", "manual": 3, "name": "Weststrasse", "provider": "publibike", "timeStamp": "02/13/2020, 19:59:47", "zip": 8003}, "type": "Feature"}, {"geometry": {"coordinates": [8.496727, 47.378521], "type": "Point"}, "properties": {"address": "Albisriederstrasse 200", "electric": 4, "id": "pb_125", "manual": 1, "name": "Utogrund", "provider": "publibike", "timeStamp": "02/13/2020, 19:59:47", "zip": 8047}, "type": "Feature"}, {"geometry": {"coordinates": [8.510418, 47.381356], "type": "Point"}, "properties": {"address": "Bullingerstrasse 73", "electric": 3, "id": "pb_126", "manual": 8, "name": "Hardau", "provider": "publibike", "timeStamp": "02/13/2020, 19:59:47", "zip": 8004}, "type": "Feature"}, {"geometry": {"coordinates": [8.525525, 47.361567], "type": "Point"}, "properties": {"address": "Klopstockstrasse 23", "electric": 2, "id": "pb_127", "manual": 4, "name": "Klopstockwiese", "provider": "publibike", "timeStamp": "02/13/2020, 19:59:47", "zip": 8002}, "type": "Feature"}, {"geometry": {"coordinates": [8.518143, 47.363148], "type": "Point"}, "properties": {"address": "Haldenstrasse 8", "electric": 2, "id": "pb_128", "manual": 0, "name": "Binz", "provider": "publibike", "timeStamp": "02/13/2020, 19:59:47", "zip": 8045}, "type": "Feature"}, {"geometry": {"coordinates": [8.542726, 47.379952], "type": "Point"}, "properties": {"address": "Walchestrasse 11", "electric": 2, "id": "pb_129", "manual": 0, "name": "Stampfenbachplatz", "provider": "publibike", "timeStamp": "02/13/2020, 19:59:47", "zip": 8006}, "type": "Feature"}, {"geometry": {"coordinates": [8.488108, 47.391366], "type": "Point"}, "properties": {"address": "Altstetterplatz 1", "electric": 15, "id": "pb_130", "manual": 6, "name": "Bahnhof Altstetten", "provider": "publibike", "timeStamp": "02/13/2020, 19:59:47", "zip": 8048}, "type": "Feature"}, {"geometry": {"coordinates": [8.554114, 47.365119], "type": "Point"}, "properties": {"address": "Kreuzplatz 2", "electric": 5, "id": "pb_131", "manual": 3, "name": "Kreuzplatz", "provider": "publibike", "timeStamp": "02/13/2020, 19:59:47", "zip": 8032}, "type": "Feature"}, {"geometry": {"coordinates": [8.549852, 47.35594], "type": "Point"}, "properties": {"address": "H\u00f6schgasse 3", "electric": 4, "id": "pb_132", "manual": 9, "name": "Blatterwiese", "provider": "publibike", "timeStamp": "02/13/2020, 19:59:47", "zip": 8008}, "type": "Feature"}, {"geometry": {"coordinates": [8.554501, 47.36162], "type": "Point"}, "properties": {"address": "Feldeggstrasse 80", "electric": 2, "id": "pb_133", "manual": 2, "name": "Villa Bleuler", "provider": "publibike", "timeStamp": "02/13/2020, 19:59:47", "zip": 8008}, "type": "Feature"}, {"geometry": {"coordinates": [8.557088, 47.358557], "type": "Point"}, "properties": {"address": "M\u00fchlebachstrasse 131", "electric": 4, "id": "pb_134", "manual": 0, "name": "M\u00fchlebachstrasse", "provider": "publibike", "timeStamp": "02/13/2020, 19:59:47", "zip": 8008}, "type": "Feature"}, {"geometry": {"coordinates": [8.547639, 47.361266], "type": "Point"}, "properties": {"address": "Utoquai 50", "electric": 2, "id": "pb_135", "manual": 8, "name": "Seebad Utoquai", "provider": "publibike", "timeStamp": "02/13/2020, 19:59:47", "zip": 8008}, "type": "Feature"}, {"geometry": {"coordinates": [8.548045, 47.370869], "type": "Point"}, "properties": {"address": "Heimplatz 1", "electric": 4, "id": "pb_137", "manual": 2, "name": "Kunsthaus", "provider": "publibike", "timeStamp": "02/13/2020, 19:59:47", "zip": 8001}, "type": "Feature"}, {"geometry": {"coordinates": [8.543447, 47.375933], "type": "Point"}, "properties": {"address": "Limmatquai 138", "electric": 8, "id": "pb_138", "manual": 4, "name": "Central", "provider": "publibike", "timeStamp": "02/13/2020, 19:59:47", "zip": 8001}, "type": "Feature"}, {"geometry": {"coordinates": [8.549356, 47.408827], "type": "Point"}, "properties": {"address": "Tramstrasse 35", "electric": 2, "id": "pb_139", "manual": 4, "name": "ewz Tramstrasse", "provider": "publibike", "timeStamp": "02/13/2020, 19:59:47", "zip": 8050}, "type": "Feature"}, {"geometry": {"coordinates": [8.533736, 47.366904], "type": "Point"}, "properties": {"address": "Bleicherweg 33", "electric": 4, "id": "pb_140", "manual": 9, "name": "Bleicherweg", "provider": "publibike", "timeStamp": "02/13/2020, 19:59:47", "zip": 8002}, "type": "Feature"}, {"geometry": {"coordinates": [8.544935, 47.366752], "type": "Point"}, "properties": {"address": "Bellevueplatz 2", "electric": 26, "id": "pb_141", "manual": 30, "name": "Bellevue", "provider": "publibike", "timeStamp": "02/13/2020, 19:59:47", "zip": 8001}, "type": "Feature"}, {"geometry": {"coordinates": [8.5285533, 47.3742296], "type": "Point"}, "properties": {"address": "Stauffacherstrasse 41", "electric": 3, "id": "pb_142", "manual": 1, "name": "Stauffacher", "provider": "publibike", "timeStamp": "02/13/2020, 19:59:47", "zip": 8004}, "type": "Feature"}, {"geometry": {"coordinates": [8.523722, 47.3899], "type": "Point"}, "properties": {"address": "Limmatstrasse 310", "electric": 2, "id": "pb_143", "manual": 3, "name": "Escher-Wyss-Platz", "provider": "publibike", "timeStamp": "02/13/2020, 19:59:47", "zip": 8005}, "type": "Feature"}, {"geometry": {"coordinates": [8.491061, 47.392336], "type": "Point"}, "properties": {"address": "Vulkanplatz 1", "electric": 3, "id": "pb_149", "manual": 4, "name": "Vulkanplatz", "provider": "publibike", "timeStamp": "02/13/2020, 19:59:47", "zip": 8048}, "type": "Feature"}, {"geometry": {"coordinates": [8.52306, 47.359872], "type": "Point"}, "properties": {"address": "Giessh\u00fcbelstrasse 15", "electric": 0, "id": "pb_150", "manual": 0, "name": "Utoplatz", "provider": "publibike", "timeStamp": "02/13/2020, 19:59:47", "zip": 8045}, "type": "Feature"}, {"geometry": {"coordinates": [8.486284, 47.387685], "type": "Point"}, "properties": {"address": "Lindenplatz 1", "electric": 9, "id": "pb_151", "manual": 6, "name": "Lindenplatz", "provider": "publibike", "timeStamp": "02/13/2020, 19:59:47", "zip": 8048}, "type": "Feature"}, {"geometry": {"coordinates": [8.49163, 47.389823], "type": "Point"}, "properties": {"address": "Hohlstrasse 563", "electric": 3, "id": "pb_152", "manual": 3, "name": "Luggweg", "provider": "publibike", "timeStamp": "02/13/2020, 19:59:47", "zip": 8048}, "type": "Feature"}, {"geometry": {"coordinates": [8.52174, 47.365272], "type": "Point"}, "properties": {"address": "Manessestrasse 87", "electric": 2, "id": "pb_153", "manual": 3, "name": "Manesseplatz", "provider": "publibike", "timeStamp": "02/13/2020, 19:59:47", "zip": 8045}, "type": "Feature"}, {"geometry": {"coordinates": [8.52714, 47.372329], "type": "Point"}, "properties": {"address": "Werdstrasse 75", "electric": 3, "id": "pb_154", "manual": 8, "name": "Werd", "provider": "publibike", "timeStamp": "02/13/2020, 19:59:47", "zip": 8004}, "type": "Feature"}, {"geometry": {"coordinates": [8.543042, 47.374711], "type": "Point"}, "properties": {"address": "Limmatquai 100", "electric": 0, "id": "pb_155", "manual": 0, "name": "Rudolf-Brun-Br\u00fccke", "provider": "publibike", "timeStamp": "02/13/2020, 19:59:47", "zip": 8001}, "type": "Feature"}, {"geometry": {"coordinates": [8.490837, 47.386596], "type": "Point"}, "properties": {"address": "Badenerstrasse 627", "electric": 7, "id": "pb_156", "manual": 0, "name": "Luggwegstrasse VBZ", "provider": "publibike", "timeStamp": "02/13/2020, 19:59:47", "zip": 8048}, "type": "Feature"}, {"geometry": {"coordinates": [8.535119, 47.355189], "type": "Point"}, "properties": {"address": "Mythenquai 95", "electric": 0, "id": "pb_157", "manual": 2, "name": "Strandbad Mythenquai", "provider": "publibike", "timeStamp": "02/13/2020, 19:59:47", "zip": 8002}, "type": "Feature"}, {"geometry": {"coordinates": [8.545505, 47.373675], "type": "Point"}, "properties": {"address": "Predigerpatz 21", "electric": 5, "id": "pb_158", "manual": 5, "name": "Predigerplatz", "provider": "publibike", "timeStamp": "02/13/2020, 19:59:47", "zip": 8001}, "type": "Feature"}, {"geometry": {"coordinates": [8.515558, 47.371868], "type": "Point"}, "properties": {"address": "Aemtlerstrasse 23", "electric": 1, "id": "pb_159", "manual": 4, "name": "Zwinglihaus", "provider": "publibike", "timeStamp": "02/13/2020, 19:59:47", "zip": 8003}, "type": "Feature"}, {"geometry": {"coordinates": [8.524629, 47.386072], "type": "Point"}, "properties": {"address": "Josefstrasse 188", "electric": 2, "id": "pb_160", "manual": 4, "name": "Josefwiese", "provider": "publibike", "timeStamp": "02/13/2020, 19:59:47", "zip": 8005}, "type": "Feature"}, {"geometry": {"coordinates": [8.527138, 47.387531], "type": "Point"}, "properties": {"address": "R\u00f6ntgenstrasse 87", "electric": 6, "id": "pb_164", "manual": 6, "name": "Markthalle", "provider": "publibike", "timeStamp": "02/13/2020, 19:59:47", "zip": 8005}, "type": "Feature"}, {"geometry": {"coordinates": [8.552717, 47.359978], "type": "Point"}, "properties": {"address": "Seefeldstrasse 96", "electric": 8, "id": "pb_263", "manual": 11, "name": "Feldeggstrasse", "provider": "publibike", "timeStamp": "02/13/2020, 19:59:47", "zip": 8008}, "type": "Feature"}, {"geometry": {"coordinates": [8.553189, 47.353198], "type": "Point"}, "properties": {"address": "Bellerivestrasse 170", "electric": 6, "id": "pb_264", "manual": 0, "name": "Lake Side", "provider": "publibike", "timeStamp": "02/13/2020, 19:59:47", "zip": 8008}, "type": "Feature"}, {"geometry": {"coordinates": [8.543437, 47.369256], "type": "Point"}, "properties": {"address": "Limmatquai 18", "electric": 0, "id": "pb_265", "manual": 0, "name": "Helmhaus", "provider": "publibike", "timeStamp": "02/13/2020, 19:59:47", "zip": 8032}, "type": "Feature"}, {"geometry": {"coordinates": [8.516676, 47.375819], "type": "Point"}, "properties": {"address": "Badenerstrasse 246", "electric": 5, "id": "pb_266", "manual": 2, "name": "Lochergut", "provider": "publibike", "timeStamp": "02/13/2020, 19:59:47", "zip": 8004}, "type": "Feature"}, {"geometry": {"coordinates": [8.514605, 47.389862], "type": "Point"}, "properties": {"address": "Pfingstweidstrasse 60", "electric": 0, "id": "pb_273", "manual": 0, "name": "Westpark", "provider": "publibike", "timeStamp": "02/13/2020, 19:59:47", "zip": 8005}, "type": "Feature"}, {"geometry": {"coordinates": [8.541239126, 47.375991201], "type": "Point"}, "properties": {"address": "Beatenplatz 1", "electric": 7, "id": "pb_274", "manual": 9, "name": "Beatenplatz", "provider": "publibike", "timeStamp": "02/13/2020, 19:59:47", "zip": 8001}, "type": "Feature"}, {"geometry": {"coordinates": [8.5417135, 47.3942197], "type": "Point"}, "properties": {"address": "Scheuchzerstrasse 181", "electric": 9, "id": "pb_275", "manual": 0, "name": "Pauluskirche", "provider": "publibike", "timeStamp": "02/13/2020, 19:59:47", "zip": 8057}, "type": "Feature"}, {"geometry": {"coordinates": [8.5528182, 47.414558], "type": "Point"}, "properties": {"address": "Hagenholzstrasse 51", "electric": 8, "id": "pb_276", "manual": 10, "name": "Airgate", "provider": "publibike", "timeStamp": "02/13/2020, 19:59:47", "zip": 8050}, "type": "Feature"}, {"geometry": {"coordinates": [8.537816, 47.413514], "type": "Point"}, "properties": {"address": "Birchstrasse 183", "electric": 5, "id": "pb_277", "manual": 1, "name": "Lamprechtweg", "provider": "publibike", "timeStamp": "02/13/2020, 19:59:47", "zip": 8050}, "type": "Feature"}, {"geometry": {"coordinates": [8.545602, 47.417701], "type": "Point"}, "properties": {"address": "Felsenrainstrasse 2", "electric": 1, "id": "pb_278", "manual": 3, "name": "Emil-Oberh\u00e4nsli", "provider": "publibike", "timeStamp": "02/13/2020, 19:59:47", "zip": 8050}, "type": "Feature"}, {"geometry": {"coordinates": [8.533647, 47.39808], "type": "Point"}, "properties": {"address": "Bucheggplatz 2", "electric": 7, "id": "pb_279", "manual": 2, "name": "Bucheggplatz", "provider": "publibike", "timeStamp": "02/13/2020, 19:59:47", "zip": 8057}, "type": "Feature"}, {"geometry": {"coordinates": [8.523549, 47.392347], "type": "Point"}, "properties": {"address": "Wipkingerplatz 4", "electric": 8, "id": "pb_280", "manual": 7, "name": "Wipkingerplatz", "provider": "publibike", "timeStamp": "02/13/2020, 19:59:47", "zip": 8037}, "type": "Feature"}, {"geometry": {"coordinates": [8.548562, 47.36691], "type": "Point"}, "properties": {"address": "Galerie \u00fcber Gleis 2/3", "electric": 9, "id": "pb_285", "manual": 14, "name": "Bahnhof Stadelhofen", "provider": "publibike", "timeStamp": "02/13/2020, 19:59:47", "zip": 8001}, "type": "Feature"}, {"geometry": {"coordinates": [8.493822, 47.3985553], "type": "Point"}, "properties": {"address": "Meierwiesenstrasse 12-4", "electric": 4, "id": "pb_286", "manual": 5, "name": "T\u00fcffenwies", "provider": "publibike", "timeStamp": "02/13/2020, 19:59:47", "zip": 8064}, "type": "Feature"}, {"geometry": {"coordinates": [8.552432, 47.3801757], "type": "Point"}, "properties": {"address": "Hochstrasse 34", "electric": 1, "id": "pb_356", "manual": 0, "name": "Siriuswiese", "provider": "publibike", "timeStamp": "02/13/2020, 19:59:47", "zip": 8044}, "type": "Feature"}, {"geometry": {"coordinates": [8.527298, 47.370141], "type": "Point"}, "properties": {"address": "Hallwylstrasse 71", "electric": 0, "id": "pb_357", "manual": 2, "name": "Hallwylstrasse", "provider": "publibike", "timeStamp": "02/13/2020, 19:59:47", "zip": 8004}, "type": "Feature"}, {"geometry": {"coordinates": [8.5414185, 47.3972455], "type": "Point"}, "properties": {"address": "Schaffhauserstrasse 137", "electric": 1, "id": "pb_358", "manual": 1, "name": "Milchbuck", "provider": "publibike", "timeStamp": "02/13/2020, 19:59:47", "zip": 8057}, "type": "Feature"}, {"geometry": {"coordinates": [8.512381, 47.393409], "type": "Point"}, "properties": {"address": "Hardturmstrasse 161", "electric": 3, "id": "pb_359", "manual": 3, "name": "Fischerweg", "provider": "publibike", "timeStamp": "02/13/2020, 19:59:47", "zip": 8005}, "type": "Feature"}, {"geometry": {"coordinates": [8.5421457, 47.3876979], "type": "Point"}, "properties": {"address": "Turnerstrasse 47", "electric": 2, "id": "pb_360", "manual": 0, "name": "Kirche Unterstrass", "provider": "publibike", "timeStamp": "02/13/2020, 19:59:47", "zip": 8006}, "type": "Feature"}, {"geometry": {"coordinates": [8.522117, 47.394554], "type": "Point"}, "properties": {"address": "Dorfstrasse 40", "electric": 4, "id": "pb_361", "manual": 4, "name": "Dorfstrasse", "provider": "publibike", "timeStamp": "02/13/2020, 19:59:47", "zip": 8037}, "type": "Feature"}, {"geometry": {"coordinates": [8.530437, 47.37271], "type": "Point"}, "properties": {"address": "Werdstrasse 25", "electric": 2, "id": "pb_362", "manual": 6, "name": "Stauffachertor", "provider": "publibike", "timeStamp": "02/13/2020, 19:59:47", "zip": 8004}, "type": "Feature"}, {"geometry": {"coordinates": [8.541712, 47.416155], "type": "Point"}, "properties": {"address": "Eggb\u00fchlstrasse 21", "electric": 9, "id": "pb_363", "manual": 1, "name": "Wahlenpark", "provider": "publibike", "timeStamp": "02/13/2020, 19:59:47", "zip": 8050}, "type": "Feature"}, {"geometry": {"coordinates": [8.5595335, 47.3708387], "type": "Point"}, "properties": {"address": "Dolderstrasse 32", "electric": 2, "id": "pb_364", "manual": 0, "name": "Kinderspital", "provider": "publibike", "timeStamp": "02/13/2020, 19:59:47", "zip": 8032}, "type": "Feature"}, {"geometry": {"coordinates": [8.536433, 47.388689], "type": "Point"}, "properties": {"address": "Kornhausstrasse 30", "electric": 4, "id": "pb_365", "manual": 2, "name": "Kornhausstrasse", "provider": "publibike", "timeStamp": "02/13/2020, 19:59:47", "zip": 8006}, "type": "Feature"}, {"geometry": {"coordinates": [8.55033, 47.407098], "type": "Point"}, "properties": {"address": "Schwamendingenstrasse 41", "electric": 3, "id": "pb_366", "manual": 10, "name": "Dorflinde", "provider": "publibike", "timeStamp": "02/13/2020, 19:59:47", "zip": 8050}, "type": "Feature"}, {"geometry": {"coordinates": [8.560476, 47.368199], "type": "Point"}, "properties": {"address": "R\u00f6merhofplatz 5", "electric": 5, "id": "pb_367", "manual": 1, "name": "R\u00f6merhof", "provider": "publibike", "timeStamp": "02/13/2020, 19:59:47", "zip": 8032}, "type": "Feature"}, {"geometry": {"coordinates": [8.5609218, 47.3619068], "type": "Point"}, "properties": {"address": "Forchstrasse 99", "electric": 3, "id": "pb_368", "manual": 2, "name": "Hegibachplatz", "provider": "publibike", "timeStamp": "02/13/2020, 19:59:47", "zip": 8032}, "type": "Feature"}, {"geometry": {"coordinates": [8.5721264, 47.4039985], "type": "Point"}, "properties": {"address": "Winterthurerstrasse 519", "electric": 3, "id": "pb_370", "manual": 5, "name": "Schwamendingerplatz", "provider": "publibike", "timeStamp": "02/13/2020, 19:59:47", "zip": 8051}, "type": "Feature"}, {"geometry": {"coordinates": [8.520168, 47.378556], "type": "Point"}, "properties": {"address": "Herman-Greulich-Strasse 56", "electric": 2, "id": "pb_384", "manual": 3, "name": "Hermann-Greulich-Weg", "provider": "publibike", "timeStamp": "02/13/2020, 19:59:47", "zip": 8004}, "type": "Feature"}, {"geometry": {"coordinates": [8.547912, 47.384923], "type": "Point"}, "properties": {"address": "Culmannstrasse", "electric": 3, "id": "pb_386", "manual": 4, "name": "Rigiplatz", "provider": "publibike", "timeStamp": "02/13/2020, 19:59:47", "zip": 8006}, "type": "Feature"}, {"geometry": {"coordinates": [8.543768, 47.411057], "type": "Point"}, "properties": {"address": "Hofwiesenstrasse 369", "electric": 6, "id": "pb_387", "manual": 2, "name": "Bahnhof Oerlikon S\u00fcd", "provider": "publibike", "timeStamp": "02/13/2020, 19:59:47", "zip": 8050}, "type": "Feature"}, {"geometry": {"coordinates": [8.544185, 47.412732], "type": "Point"}, "properties": {"address": "Jungholzstrasse 6", "electric": 2, "id": "pb_388", "manual": 7, "name": "Max-Frisch-Platz", "provider": "publibike", "timeStamp": "02/13/2020, 19:59:47", "zip": 8050}, "type": "Feature"}, {"geometry": {"coordinates": [8.558096, 47.413032], "type": "Point"}, "properties": {"address": "Andreasstrasse", "electric": 11, "id": "pb_389", "manual": 8, "name": "Hunziker-Areal", "provider": "publibike", "timeStamp": "02/13/2020, 19:59:47", "zip": 8050}, "type": "Feature"}, {"geometry": {"coordinates": [8.533265, 47.412873], "type": "Point"}, "properties": {"address": "Regina-K\u00e4gi-Strasse 1", "electric": 1, "id": "pb_390", "manual": 6, "name": "Luis-H\u00e4fliger-Park", "provider": "publibike", "timeStamp": "02/13/2020, 19:59:47", "zip": 8050}, "type": "Feature"}, {"geometry": {"coordinates": [8.499265, 47.401852], "type": "Point"}, "properties": {"address": "Limmattalstrasse 177", "electric": 2, "id": "pb_391", "manual": 0, "name": "Meierhofplatz", "provider": "publibike", "timeStamp": "02/13/2020, 19:59:47", "zip": 8049}, "type": "Feature"}, {"geometry": {"coordinates": [8.528356, 47.393255], "type": "Point"}, "properties": {"address": "R\u00f6schibachstrasse 73", "electric": 0, "id": "pb_392", "manual": 5, "name": "R\u00f6schibachplatz", "provider": "publibike", "timeStamp": "02/13/2020, 19:59:47", "zip": 8037}, "type": "Feature"}, {"geometry": {"coordinates": [8.538067, 47.415721], "type": "Point"}, "properties": {"address": "Birchstrasse 191", "electric": 3, "id": "pb_393", "manual": 1, "name": "Oerliker Park", "provider": "publibike", "timeStamp": "02/13/2020, 19:59:47", "zip": 8050}, "type": "Feature"}, {"geometry": {"coordinates": [8.5420304, 47.3669233], "type": "Point"}, "properties": {"address": "Stadthausquai 1", "electric": 2, "id": "pb_395", "manual": 1, "name": "B\u00fcrkliplatz", "provider": "publibike", "timeStamp": "02/13/2020, 19:59:47", "zip": 8001}, "type": "Feature"}, {"geometry": {"coordinates": [8.535767, 47.409881], "type": "Point"}, "properties": {"address": "Regensbergstrasse 195", "electric": 3, "id": "pb_396", "manual": 2, "name": "Holunderhof", "provider": "publibike", "timeStamp": "02/13/2020, 19:59:47", "zip": 8050}, "type": "Feature"}, {"geometry": {"coordinates": [8.5116245, 47.3616199], "type": "Point"}, "properties": {"address": "Grubenstrasse 42", "electric": 2, "id": "pb_431", "manual": 0, "name": "Binz Center", "provider": "publibike", "timeStamp": "02/13/2020, 19:59:47", "zip": 8045}, "type": "Feature"}, {"geometry": {"coordinates": [8.547195, 47.382089], "type": "Point"}, "properties": {"address": "Nelkenstrasse 24", "electric": 5, "id": "pb_430", "manual": 1, "name": "Stapferstube", "provider": "publibike", "timeStamp": "02/13/2020, 19:59:47", "zip": 8006}, "type": "Feature"}, {"geometry": {"coordinates": [8.5787183, 47.4039845], "type": "Point"}, "properties": {"address": "Kronwiesenstrasse 35", "electric": 2, "id": "pb_426", "manual": 3, "name": "Kronwiesen", "provider": "publibike", "timeStamp": "02/13/2020, 19:59:47", "zip": 8051}, "type": "Feature"}, {"geometry": {"coordinates": [8.508131, 47.420757], "type": "Point"}, "properties": {"address": "Riedenhaldenstrasse 20-18", "electric": 6, "id": "pb_425", "manual": 5, "name": "Bahnhof Affoltern", "provider": "publibike", "timeStamp": "02/13/2020, 19:59:47", "zip": 8046}, "type": "Feature"}, {"geometry": {"coordinates": [8.532464, 47.406988], "type": "Point"}, "properties": {"address": "K\u00fcnzlistrasse 41", "electric": 3, "id": "pb_424", "manual": 1, "name": "Birchd\u00f6rfli", "provider": "publibike", "timeStamp": "02/13/2020, 19:59:47", "zip": 8057}, "type": "Feature"}, {"geometry": {"coordinates": [8.5777038, 47.4080095], "type": "Point"}, "properties": {"address": "Luegislandstrasse 412", "electric": 8, "id": "pb_429", "manual": 2, "name": "Luegisland", "provider": "publibike", "timeStamp": "02/13/2020, 19:59:47", "zip": 8051}, "type": "Feature"}, {"geometry": {"coordinates": [8.58841, 47.40158], "type": "Point"}, "properties": {"address": "Hirzenbachstrasse 2-4", "electric": 3, "id": "pb_428", "manual": 0, "name": "Hirzenbachstrasse", "provider": "publibike", "timeStamp": "02/13/2020, 19:59:47", "zip": 8051}, "type": "Feature"}, {"geometry": {"coordinates": [8.5563463, 47.4095467], "type": "Point"}, "properties": {"address": "K\u00fchriedweg", "electric": 1, "id": "pb_445", "manual": 6, "name": "Hallenbad Oerlikon", "provider": "publibike", "timeStamp": "02/13/2020, 19:59:47", "zip": 8050}, "type": "Feature"}, {"geometry": {"coordinates": [8.537971, 47.364871], "type": "Point"}, "properties": {"address": "General-Guisan-Quai 17", "electric": 1, "id": "pb_454", "manual": 2, "name": "General-Guisan-Quai", "provider": "publibike", "timeStamp": "02/13/2020, 19:59:47", "zip": 8002}, "type": "Feature"}, {"geometry": {"coordinates": [8.560587, 47.350578], "type": "Point"}, "properties": {"address": "Bellerivestrasse 245", "electric": 8, "id": "pb_450", "manual": 10, "name": "Bahnhof Tiefenbrunnen", "provider": "publibike", "timeStamp": "02/13/2020, 19:59:47", "zip": 8008}, "type": "Feature"}, {"geometry": {"coordinates": [8.5269416, 47.3563719], "type": "Point"}, "properties": {"address": "Waffenplatzstrasse 89", "electric": 3, "id": "pb_452", "manual": 2, "name": "Rieterplatz", "provider": "publibike", "timeStamp": "02/13/2020, 19:59:47", "zip": 8002}, "type": "Feature"}, {"geometry": {"coordinates": [8.514176, 47.3663708], "type": "Point"}, "properties": {"address": "Talwiesenstrasse 92", "electric": 8, "id": "pb_446", "manual": 0, "name": "Binzallee", "provider": "publibike", "timeStamp": "02/13/2020, 19:59:47", "zip": 8055}, "type": "Feature"}, {"geometry": {"coordinates": [8.5070564, 47.371455], "type": "Point"}, "properties": {"address": "Gutstrasse 87", "electric": 8, "id": "pb_447", "manual": 0, "name": "Gutstrasse", "provider": "publibike", "timeStamp": "02/13/2020, 19:59:47", "zip": 8055}, "type": "Feature"}, {"geometry": {"coordinates": [8.4941268, 47.3836391], "type": "Point"}, "properties": {"address": "Flurstrasse 62", "electric": 3, "id": "pb_453", "manual": 4, "name": "Flurpark", "provider": "publibike", "timeStamp": "02/13/2020, 19:59:47", "zip": 8048}, "type": "Feature"}, {"geometry": {"coordinates": [8.500343, 47.380778], "type": "Point"}, "properties": {"address": "Edelweissstrasse 32", "electric": 5, "id": "pb_448", "manual": 4, "name": "Bl\u00fcemliquartier", "provider": "publibike", "timeStamp": "02/13/2020, 19:59:47", "zip": 8048}, "type": "Feature"}, {"geometry": {"coordinates": [8.528796, 47.383858], "type": "Point"}, "properties": {"address": "Gasometerstrasse 24", "electric": 2, "id": "pb_449", "manual": 6, "name": "Gasometerstrasse", "provider": "publibike", "timeStamp": "02/13/2020, 19:59:47", "zip": 8005}, "type": "Feature"}, {"geometry": {"coordinates": [8.4981964, 47.3859194], "type": "Point"}, "properties": {"address": "Baslerstrasse 57", "electric": 6, "id": "pb_455", "manual": 5, "name": "Letzipark", "provider": "publibike", "timeStamp": "02/13/2020, 19:59:47", "zip": 8048}, "type": "Feature"}, {"geometry": {"coordinates": [8.515252, 47.381915], "type": "Point"}, "properties": {"address": "Sihlfeldstrasse 175", "electric": 1, "id": "pb_451", "manual": 3, "name": "Hardplatz", "provider": "publibike", "timeStamp": "02/13/2020, 19:59:47", "zip": 8004}, "type": "Feature"}, {"geometry": {"coordinates": [8.5064743, 47.4188324], "type": "Point"}, "properties": {"address": "Wehntalerstrasse 541", "electric": 3, "id": "pb_427", "manual": 7, "name": "Zehntenhausplatz", "provider": "publibike", "timeStamp": "02/13/2020, 19:59:47", "zip": 8046}, "type": "Feature"}, {"geometry": {"coordinates": [8.537729, 47.379719], "type": "Point"}, "properties": {"address": "Sihlquai/HB", "electric": 4, "id": "pb_513", "manual": 8, "name": "Sihlquai", "provider": "publibike", "timeStamp": "02/13/2020, 19:59:47", "zip": 8005}, "type": "Feature"}, {"geometry": {"coordinates": [8.596202, 47.397885], "type": "Point"}, "properties": {"address": "Bahnhof Stettbach", "electric": 11, "id": "pb_514", "manual": 0, "name": "Bahnhof Stettbach", "provider": "publibike", "timeStamp": "02/13/2020, 19:59:47", "zip": 8051}, "type": "Feature"}, {"geometry": {"coordinates": [8.5543974, 47.3690153], "type": "Point"}, "properties": {"address": "Kasinostrasse 10", "electric": 0, "id": "pb_515", "manual": 4, "name": "Hottingerplatz", "provider": "publibike", "timeStamp": "02/13/2020, 19:59:47", "zip": 8032}, "type": "Feature"}, {"geometry": {"coordinates": [8.534444, 47.351525], "type": "Point"}, "properties": {"address": "Mobile Station Z\u00fcrich 1", "electric": 0, "id": "pb_282", "manual": 0, "name": "Theaterspektakel", "provider": "publibike", "timeStamp": "02/13/2020, 19:59:47", "zip": 8002}, "type": "Feature"}, {"geometry": {"coordinates": [8.516257, 47.367656], "type": "Point"}, "properties": {"address": "Goldbrunnenstrasse 54", "electric": 1, "id": "pb_538", "manual": 1, "name": "Kirche B\u00fchl", "provider": "publibike", "timeStamp": "02/13/2020, 19:59:47", "zip": 8055}, "type": "Feature"}, {"geometry": {"coordinates": [8.555639, 47.416873], "type": "Point"}, "properties": {"address": "Leutschenbachstrasse 50", "electric": 5, "id": "pb_537", "manual": 7, "name": "Leutschenpark", "provider": "publibike", "timeStamp": "02/13/2020, 19:59:47", "zip": 8050}, "type": "Feature"}, {"geometry": {"coordinates": [8.546464, 47.403822], "type": "Point"}, "properties": {"address": "Berninastrasse 45", "electric": 3, "id": "pb_540", "manual": 2, "name": "Berninaplatz", "provider": "publibike", "timeStamp": "02/13/2020, 19:59:47", "zip": 8057}, "type": "Feature"}, {"geometry": {"coordinates": [8.523134, 47.369004], "type": "Point"}, "properties": {"address": "Erlachstrasse 3", "electric": 4, "id": "pb_385", "manual": 3, "name": "Aegerten", "provider": "publibike", "timeStamp": "02/13/2020, 19:59:47", "zip": 8003}, "type": "Feature"}, {"geometry": {"coordinates": [8.49038, 47.381591], "type": "Point"}, "properties": {"address": "Rautistrasse 60", "electric": 8, "id": "pb_536", "manual": 4, "name": "Freilager", "provider": "publibike", "timeStamp": "02/13/2020, 19:59:47", "zip": 8048}, "type": "Feature"}, {"geometry": {"coordinates": [8.496511, 47.375247], "type": "Point"}, "properties": {"address": "Letzigraben 139", "electric": 7, "id": "pb_444", "manual": 5, "name": "Sackzelg", "provider": "publibike", "timeStamp": "02/13/2020, 19:59:47", "zip": 8047}, "type": "Feature"}, {"geometry": {"coordinates": [8.58131, 47.402801], "type": "Point"}, "properties": {"address": "Altwiesenstrasse 104", "electric": 2, "id": "pb_539", "manual": 3, "name": "Glattwiesen", "provider": "publibike", "timeStamp": "02/13/2020, 19:59:47", "zip": 8051}, "type": "Feature"}, {"geometry": {"coordinates": [8.52689, 47.3767], "type": "Point"}, "properties": {"address": "Molkenstrasse 5", "electric": 4, "id": "pb_560", "manual": 4, "name": "Helvetiaplatz", "provider": "publibike", "timeStamp": "02/13/2020, 19:59:47", "zip": 8004}, "type": "Feature"}, {"geometry": {"coordinates": [8.525602, 47.374241], "type": "Point"}, "properties": {"address": "Badenerstrasse 90", "electric": 1, "id": "pb_559", "manual": 3, "name": "Bezirksgeb\u00e4ude", "provider": "publibike", "timeStamp": "02/13/2020, 19:59:47", "zip": 8004}, "type": "Feature"}, {"geometry": {"coordinates": [8.535082, 47.345248], "type": "Point"}, "properties": {"address": "Bachstrasse 15", "electric": 6, "id": "pb_564", "manual": 5, "name": "GZ Wollishofen", "provider": "publibike", "timeStamp": "02/13/2020, 19:59:47", "zip": 8038}, "type": "Feature"}, {"geometry": {"coordinates": [8.514841, 47.370238], "type": "Point"}, "properties": {"address": "Schrennengasse 37", "electric": 3, "id": "pb_562", "manual": 1, "name": "Goldbrunnenplatz", "provider": "publibike", "timeStamp": "02/13/2020, 19:59:47", "zip": 8003}, "type": "Feature"}, {"geometry": {"coordinates": [8.514138, 47.374206], "type": "Point"}, "properties": {"address": "Idaplatz 4", "electric": 3, "id": "pb_557", "manual": 8, "name": "Idaplatz", "provider": "publibike", "timeStamp": "02/13/2020, 19:59:47", "zip": 8003}, "type": "Feature"}, {"geometry": {"coordinates": [8.518432, 47.369549], "type": "Point"}, "properties": {"address": "Brinerstrasse 2", "electric": 0, "id": "pb_558", "manual": 4, "name": "Schmiede Wiedikon", "provider": "publibike", "timeStamp": "02/13/2020, 19:59:47", "zip": 8003}, "type": "Feature"}, {"geometry": {"coordinates": [8.537546, 47.391289], "type": "Point"}, "properties": {"address": "Rotbuchstrasse 15", "electric": 2, "id": "pb_556", "manual": 0, "name": "Schaffhauserplatz", "provider": "publibike", "timeStamp": "02/13/2020, 19:59:47", "zip": 8006}, "type": "Feature"}, {"geometry": {"coordinates": [8.541541, 47.413733], "type": "Point"}, "properties": {"address": "Therese-Giehse-Strasse 11", "electric": 8, "id": "pb_561", "manual": 1, "name": "Center Eleven", "provider": "publibike", "timeStamp": "02/13/2020, 19:59:47", "zip": 8050}, "type": "Feature"}, {"geometry": {"coordinates": [8.534227, 47.360004], "type": "Point"}, "properties": {"address": "Alfred Escher-Strasse 76", "electric": 1, "id": "pb_563", "manual": 0, "name": "Mythenschloss", "provider": "publibike", "timeStamp": "02/13/2020, 19:59:47", "zip": 8002}, "type": "Feature"}, {"geometry": {"coordinates": [8.50373, 47.396172], "type": "Point"}, "properties": {"address": "Hardeggstrasse 6", "electric": 8, "id": "pb_566", "manual": 6, "name": "Am Wasser", "provider": "publibike", "timeStamp": "02/13/2020, 19:59:47", "zip": 8049}, "type": "Feature"}, {"geometry": {"coordinates": [8.532432, 47.381174], "type": "Point"}, "properties": {"address": "Klingenstrasse 9", "electric": 3, "id": "pb_565", "manual": 8, "name": "Zollstrasse", "provider": "publibike", "timeStamp": "02/13/2020, 19:59:47", "zip": 8005}, "type": "Feature"}, {"geometry": {"coordinates": [8.497982, 47.381447], "type": "Point"}, "properties": {"address": "Dennlerstrasse 23", "electric": 5, "id": "pb_567", "manual": 3, "name": "Dennlerstrasse", "provider": "publibike", "timeStamp": "02/13/2020, 19:59:47", "zip": 8047}, "type": "Feature"}, {"geometry": {"coordinates": [8.528049, 47.347701], "type": "Point"}, "properties": {"address": "Mutschellenstrasse 114", "electric": 2, "id": "pb_568", "manual": 2, "name": "Jugendherberge", "provider": "publibike", "timeStamp": "02/13/2020, 19:59:47", "zip": 8038}, "type": "Feature"}, {"geometry": {"coordinates": [8.539016, 47.405751], "type": "Point"}, "properties": {"address": "Ringstrasse 82", "electric": 2, "id": "pb_569", "manual": 3, "name": "Freibad Allenmoos", "provider": "publibike", "timeStamp": "02/13/2020, 19:59:47", "zip": 8057}, "type": "Feature"}, {"geometry": {"coordinates": [8.534974, 47.402164], "type": "Point"}, "properties": {"address": "Brache Guggach", "electric": 5, "id": "pb_572", "manual": 1, "name": "Radiostudio", "provider": "publibike", "timeStamp": "02/13/2020, 19:59:47", "zip": 8057}, "type": "Feature"}, {"geometry": {"coordinates": [8.547901, 47.375556], "type": "Point"}, "properties": {"address": "Karl-Schmid-Strasse 4", "electric": 6, "id": "pb_571", "manual": 1, "name": "ETH/Zoologisches Museum", "provider": "publibike", "timeStamp": "02/13/2020, 19:59:47", "zip": 8006}, "type": "Feature"}, {"geometry": {"coordinates": [8.569228, 47.373053], "type": "Point"}, "properties": {"charge": 48, "id": "smide_2901", "name": "ZH 267278", "provider": "smide", "range": 24.0, "size": 20, "time": "02/13/2020, 19:59:19"}, "type": "Feature"}, {"geometry": {"coordinates": [8.565536, 47.348938], "type": "Point"}, "properties": {"charge": 69, "id": "smide_2871", "name": "ZH 267086", "provider": "smide", "range": 34.0, "size": 20, "time": "02/13/2020, 19:59:19"}, "type": "Feature"}, {"geometry": {"coordinates": [8.516013, 47.428538], "type": "Point"}, "properties": {"charge": 92, "id": "smide_2867", "name": "ZH 267090", "provider": "smide", "range": 46.0, "size": 20, "time": "02/13/2020, 19:59:19"}, "type": "Feature"}, {"geometry": {"coordinates": [8.488401, 47.37905], "type": "Point"}, "properties": {"charge": 37, "id": "smide_2861", "name": "ZH 267096", "provider": "smide", "range": 18.0, "size": 17, "time": "02/13/2020, 19:59:19"}, "type": "Feature"}, {"geometry": {"coordinates": [8.51341, 47.375225], "type": "Point"}, "properties": {"charge": 100, "id": "smide_2856", "name": "ZH 267101", "provider": "smide", "range": 50.0, "size": 17, "time": "02/13/2020, 19:59:19"}, "type": "Feature"}, {"geometry": {"coordinates": [8.569561, 47.373198], "type": "Point"}, "properties": {"charge": 81, "id": "smide_2854", "name": "ZH 267103", "provider": "smide", "range": 40.0, "size": 17, "time": "02/13/2020, 19:59:19"}, "type": "Feature"}, {"geometry": {"coordinates": [8.565921, 47.405395], "type": "Point"}, "properties": {"charge": 100, "id": "smide_2833", "name": "ZH 267182", "provider": "smide", "range": 50.0, "size": 20, "time": "02/13/2020, 19:59:19"}, "type": "Feature"}, {"geometry": {"coordinates": [8.543043, 47.37463], "type": "Point"}, "properties": {"charge": 69, "id": "smide_2831", "name": "ZH 267180", "provider": "smide", "range": 34.0, "size": 20, "time": "02/13/2020, 19:59:19"}, "type": "Feature"}, {"geometry": {"coordinates": [8.574371, 47.348243], "type": "Point"}, "properties": {"charge": 98, "id": "smide_2804", "name": "ZH266903", "provider": "smide", "range": 49.0, "size": 20, "time": "02/13/2020, 19:59:19"}, "type": "Feature"}, {"geometry": {"coordinates": [8.54066, 47.378993], "type": "Point"}, "properties": {"charge": 100, "id": "smide_2795", "name": "ZH 266885", "provider": "smide", "range": 50.0, "size": 17, "time": "02/13/2020, 19:59:19"}, "type": "Feature"}, {"geometry": {"coordinates": [8.496221, 47.367485], "type": "Point"}, "properties": {"charge": 65, "id": "smide_2793", "name": "ZH266883", "provider": "smide", "range": 32.0, "size": 17, "time": "02/13/2020, 19:59:19"}, "type": "Feature"}, {"geometry": {"coordinates": [8.487283, 47.391335], "type": "Point"}, "properties": {"charge": 85, "id": "smide_2790", "name": "ZH266880", "provider": "smide", "range": 42.0, "size": 17, "time": "02/13/2020, 19:59:19"}, "type": "Feature"}, {"geometry": {"coordinates": [8.541471, 47.397548], "type": "Point"}, "properties": {"charge": 66, "id": "smide_2785", "name": "ZH266875", "provider": "smide", "range": 33.0, "size": 17, "time": "02/13/2020, 19:59:19"}, "type": "Feature"}, {"geometry": {"coordinates": [8.530246, 47.365631], "type": "Point"}, "properties": {"charge": 38, "id": "smide_2780", "name": "ST1 X #1", "provider": "smide", "range": 19.0, "size": 17, "time": "02/13/2020, 19:59:19"}, "type": "Feature"}, {"geometry": {"coordinates": [8.483227, 47.388368], "type": "Point"}, "properties": {"charge": 87, "id": "smide_2775", "name": "ZH267283", "provider": "smide", "range": 43.0, "size": 20, "time": "02/13/2020, 19:59:19"}, "type": "Feature"}, {"geometry": {"coordinates": [8.535996, 47.371448], "type": "Point"}, "properties": {"charge": 100, "id": "smide_2773", "name": "ZH266561", "provider": "smide", "range": 50.0, "size": 17, "time": "02/13/2020, 19:59:19"}, "type": "Feature"}, {"geometry": {"coordinates": [8.503855, 47.399092], "type": "Point"}, "properties": {"charge": 91, "id": "smide_2771", "name": "ZH266559", "provider": "smide", "range": 45.0, "size": 17, "time": "02/13/2020, 19:59:19"}, "type": "Feature"}, {"geometry": {"coordinates": [8.501919, 47.398036], "type": "Point"}, "properties": {"charge": 93, "id": "smide_2763", "name": "ZH266641", "provider": "smide", "range": 46.0, "size": 17, "time": "02/13/2020, 19:59:19"}, "type": "Feature"}, {"geometry": {"coordinates": [8.551361, 47.401108], "type": "Point"}, "properties": {"charge": 90, "id": "smide_2761", "name": "ZH266642", "provider": "smide", "range": 45.0, "size": 20, "time": "02/13/2020, 19:59:19"}, "type": "Feature"}, {"geometry": {"coordinates": [8.507051, 47.379416], "type": "Point"}, "properties": {"charge": 47, "id": "smide_2759", "name": "ZH266639", "provider": "smide", "range": 23.0, "size": 17, "time": "02/13/2020, 19:59:19"}, "type": "Feature"}, {"geometry": {"coordinates": [8.574169, 47.348232], "type": "Point"}, "properties": {"charge": 98, "id": "smide_2758", "name": "ZH266638 M", "provider": "smide", "range": 49.0, "size": 17, "time": "02/13/2020, 19:59:19"}, "type": "Feature"}, {"geometry": {"coordinates": [8.548384, 47.360872], "type": "Point"}, "properties": {"charge": 75, "id": "smide_2752", "name": "BE343856", "provider": "smide", "range": 37.0, "size": 17, "time": "02/13/2020, 19:59:19"}, "type": "Feature"}, {"geometry": {"coordinates": [8.503419, 47.396692], "type": "Point"}, "properties": {"charge": 89, "id": "smide_2751", "name": "BE343857", "provider": "smide", "range": 44.0, "size": 17, "time": "02/13/2020, 19:59:19"}, "type": "Feature"}, {"geometry": {"coordinates": [8.515192, 47.373536], "type": "Point"}, "properties": {"charge": 69, "id": "smide_2749", "name": "BE343867", "provider": "smide", "range": 34.0, "size": 17, "time": "02/13/2020, 19:59:19"}, "type": "Feature"}, {"geometry": {"coordinates": [8.536115, 47.365652], "type": "Point"}, "properties": {"charge": 37, "id": "smide_2748", "name": "BE335758", "provider": "smide", "range": 18.0, "size": 17, "time": "02/13/2020, 19:59:19"}, "type": "Feature"}, {"geometry": {"coordinates": [8.567109, 47.382768], "type": "Point"}, "properties": {"charge": 100, "id": "smide_2746", "name": "BE335817", "provider": "smide", "range": 50.0, "size": 17, "time": "02/13/2020, 19:59:19"}, "type": "Feature"}, {"geometry": {"coordinates": [8.482591, 47.384644], "type": "Point"}, "properties": {"charge": 70, "id": "smide_2747", "name": "BE335820", "provider": "smide", "range": 35.0, "size": 17, "time": "02/13/2020, 19:59:19"}, "type": "Feature"}, {"geometry": {"coordinates": [8.573161, 47.357172], "type": "Point"}, "properties": {"charge": 100, "id": "smide_2745", "name": "BE335818", "provider": "smide", "range": 50.0, "size": 17, "time": "02/13/2020, 19:59:19"}, "type": "Feature"}, {"geometry": {"coordinates": [8.512743, 47.398892], "type": "Point"}, "properties": {"charge": 100, "id": "smide_2743", "name": "BE343864", "provider": "smide", "range": 50.0, "size": 17, "time": "02/13/2020, 19:59:19"}, "type": "Feature"}, {"geometry": {"coordinates": [8.572546, 47.380772], "type": "Point"}, "properties": {"charge": 65, "id": "smide_2742", "name": "BE343866", "provider": "smide", "range": 32.0, "size": 17, "time": "02/13/2020, 19:59:19"}, "type": "Feature"}, {"geometry": {"coordinates": [8.547626, 47.364964], "type": "Point"}, "properties": {"charge": 95, "id": "smide_2741", "name": "BE343874", "provider": "smide", "range": 47.0, "size": 17, "time": "02/13/2020, 19:59:19"}, "type": "Feature"}, {"geometry": {"coordinates": [8.511196, 47.370796], "type": "Point"}, "properties": {"charge": 42, "id": "smide_2740", "name": "BE343875", "provider": "smide", "range": 21.0, "size": 17, "time": "02/13/2020, 19:59:19"}, "type": "Feature"}, {"geometry": {"coordinates": [8.535473, 47.37065], "type": "Point"}, "properties": {"charge": 100, "id": "smide_2738", "name": "BE343865", "provider": "smide", "range": 50.0, "size": 17, "time": "02/13/2020, 19:59:19"}, "type": "Feature"}, {"geometry": {"coordinates": [8.530968, 47.383872], "type": "Point"}, "properties": {"charge": 75, "id": "smide_2737", "name": "BE336149", "provider": "smide", "range": 37.0, "size": 17, "time": "02/13/2020, 19:59:19"}, "type": "Feature"}, {"geometry": {"coordinates": [8.479705, 47.390472], "type": "Point"}, "properties": {"charge": 100, "id": "smide_2734", "name": "BE343876", "provider": "smide", "range": 50.0, "size": 17, "time": "02/13/2020, 19:59:19"}, "type": "Feature"}, {"geometry": {"coordinates": [8.534575, 47.367376], "type": "Point"}, "properties": {"charge": 35, "id": "smide_2733", "name": "BE343873", "provider": "smide", "range": 17.0, "size": 17, "time": "02/13/2020, 19:59:19"}, "type": "Feature"}, {"geometry": {"coordinates": [8.502093, 47.369232], "type": "Point"}, "properties": {"charge": 100, "id": "smide_2732", "name": "BE343870", "provider": "smide", "range": 50.0, "size": 17, "time": "02/13/2020, 19:59:19"}, "type": "Feature"}, {"geometry": {"coordinates": [8.574691, 47.352428], "type": "Point"}, "properties": {"charge": 61, "id": "smide_2729", "name": "BE343878", "provider": "smide", "range": 30.0, "size": 17, "time": "02/13/2020, 19:59:19"}, "type": "Feature"}, {"geometry": {"coordinates": [8.554836, 47.357668], "type": "Point"}, "properties": {"charge": 73, "id": "smide_2725", "name": "ZH261545", "provider": "smide", "range": 36.0, "size": 0, "time": "02/13/2020, 19:59:19"}, "type": "Feature"}, {"geometry": {"coordinates": [8.500038, 47.38278], "type": "Point"}, "properties": {"charge": 45, "id": "smide_2717", "name": "ZH263287", "provider": "smide", "range": 22.0, "size": 17, "time": "02/13/2020, 19:59:19"}, "type": "Feature"}, {"geometry": {"coordinates": [8.549511, 47.421955], "type": "Point"}, "properties": {"charge": 29, "id": "smide_2716", "name": "ZH254606", "provider": "smide", "range": 14.0, "size": 17, "time": "02/13/2020, 19:59:19"}, "type": "Feature"}, {"geometry": {"coordinates": [8.525303, 47.373324], "type": "Point"}, "properties": {"charge": 60, "id": "smide_2715", "name": "ZH254605", "provider": "smide", "range": 30.0, "size": 17, "time": "02/13/2020, 19:59:19"}, "type": "Feature"}, {"geometry": {"coordinates": [8.562105, 47.410508], "type": "Point"}, "properties": {"charge": 58, "id": "smide_2714", "name": "ZH256461", "provider": "smide", "range": 28.0, "size": 17, "time": "02/13/2020, 19:59:19"}, "type": "Feature"}, {"geometry": {"coordinates": [8.546532, 47.370864], "type": "Point"}, "properties": {"charge": 100, "id": "smide_2710", "name": "ZH256460", "provider": "smide", "range": 50.0, "size": 17, "time": "02/13/2020, 19:59:19"}, "type": "Feature"}, {"geometry": {"coordinates": [8.514343, 47.357264], "type": "Point"}, "properties": {"charge": 46, "id": "smide_2712", "name": "ZH256462", "provider": "smide", "range": 23.0, "size": 17, "time": "02/13/2020, 19:59:19"}, "type": "Feature"}, {"geometry": {"coordinates": [8.498384, 47.388156], "type": "Point"}, "properties": {"charge": 100, "id": "smide_2711", "name": "ZH256463", "provider": "smide", "range": 50.0, "size": 17, "time": "02/13/2020, 19:59:19"}, "type": "Feature"}, {"geometry": {"coordinates": [8.496971, 47.368498], "type": "Point"}, "properties": {"charge": 95, "id": "smide_2709", "name": "ZH256466", "provider": "smide", "range": 47.0, "size": 20, "time": "02/13/2020, 19:59:19"}, "type": "Feature"}, {"geometry": {"coordinates": [8.547066, 47.370568], "type": "Point"}, "properties": {"charge": 46, "id": "smide_2707", "name": "ZH256467", "provider": "smide", "range": 23.0, "size": 20, "time": "02/13/2020, 19:59:19"}, "type": "Feature"}, {"geometry": {"coordinates": [8.483481, 47.374356], "type": "Point"}, "properties": {"charge": 51, "id": "smide_2708", "name": "ZH256464", "provider": "smide", "range": 25.0, "size": 17, "time": "02/13/2020, 19:59:19"}, "type": "Feature"}, {"geometry": {"coordinates": [8.506598, 47.360344], "type": "Point"}, "properties": {"charge": 100, "id": "smide_2706", "name": "ZH256322", "provider": "smide", "range": 50.0, "size": 20, "time": "02/13/2020, 19:59:19"}, "type": "Feature"}, {"geometry": {"coordinates": [8.495245, 47.384628], "type": "Point"}, "properties": {"charge": 94, "id": "smide_2701", "name": "ZH256468", "provider": "smide", "range": 47.0, "size": 20, "time": "02/13/2020, 19:59:19"}, "type": "Feature"}, {"geometry": {"coordinates": [8.509572, 47.392168], "type": "Point"}, "properties": {"charge": 43, "id": "smide_2699", "name": "ZH254611", "provider": "smide", "range": 21.0, "size": 20, "time": "02/13/2020, 19:59:19"}, "type": "Feature"}, {"geometry": {"coordinates": [8.54821, 47.383396], "type": "Point"}, "properties": {"charge": 100, "id": "smide_2697", "name": "ZH254629", "provider": "smide", "range": 50.0, "size": 20, "time": "02/13/2020, 19:59:19"}, "type": "Feature"}, {"geometry": {"coordinates": [8.544893, 47.418968], "type": "Point"}, "properties": {"charge": 91, "id": "smide_2696", "name": "ZH254616", "provider": "smide", "range": 45.0, "size": 20, "time": "02/13/2020, 19:59:19"}, "type": "Feature"}, {"geometry": {"coordinates": [8.576599, 47.351156], "type": "Point"}, "properties": {"charge": 84, "id": "smide_2694", "name": "ZH254610", "provider": "smide", "range": 42.0, "size": 20, "time": "02/13/2020, 19:59:19"}, "type": "Feature"}, {"geometry": {"coordinates": [8.572546, 47.380753], "type": "Point"}, "properties": {"charge": 100, "id": "smide_2691", "name": "ZH254622", "provider": "smide", "range": 50.0, "size": 20, "time": "02/13/2020, 19:59:19"}, "type": "Feature"}, {"geometry": {"coordinates": [8.54339, 47.378735], "type": "Point"}, "properties": {"charge": 55, "id": "smide_2690", "name": "ZH254625", "provider": "smide", "range": 27.0, "size": 20, "time": "02/13/2020, 19:59:19"}, "type": "Feature"}, {"geometry": {"coordinates": [8.529242, 47.37244], "type": "Point"}, "properties": {"charge": 55, "id": "smide_2687", "name": "ZH263529", "provider": "smide", "range": 27.0, "size": 20, "time": "02/13/2020, 19:59:19"}, "type": "Feature"}, {"geometry": {"coordinates": [8.542061, 47.424544], "type": "Point"}, "properties": {"charge": 87, "id": "smide_2686", "name": "ZH263288", "provider": "smide", "range": 43.0, "size": 20, "time": "02/13/2020, 19:59:19"}, "type": "Feature"}, {"geometry": {"coordinates": [8.533617, 47.384704], "type": "Point"}, "properties": {"charge": 100, "id": "smide_2684", "name": "ZH254626", "provider": "smide", "range": 50.0, "size": 20, "time": "02/13/2020, 19:59:19"}, "type": "Feature"}, {"geometry": {"coordinates": [8.548371, 47.383383], "type": "Point"}, "properties": {"charge": 67, "id": "smide_2683", "name": "ZH254620", "provider": "smide", "range": 33.0, "size": 20, "time": "02/13/2020, 19:59:19"}, "type": "Feature"}, {"geometry": {"coordinates": [8.540058, 47.378992], "type": "Point"}, "properties": {"charge": 44, "id": "smide_2680", "name": "ZH254619", "provider": "smide", "range": 22.0, "size": 20, "time": "02/13/2020, 19:59:19"}, "type": "Feature"}, {"geometry": {"coordinates": [8.569544, 47.352068], "type": "Point"}, "properties": {"charge": 81, "id": "smide_2679", "name": "ZH258489", "provider": "smide", "range": 40.0, "size": 17, "time": "02/13/2020, 19:59:19"}, "type": "Feature"}, {"geometry": {"coordinates": [8.518372, 47.386028], "type": "Point"}, "properties": {"charge": 90, "id": "smide_2674", "name": "ZH258654", "provider": "smide", "range": 45.0, "size": 17, "time": "02/13/2020, 19:59:19"}, "type": "Feature"}, {"geometry": {"coordinates": [8.566843, 47.36028], "type": "Point"}, "properties": {"charge": 37, "id": "smide_2671", "name": "ZH258645", "provider": "smide", "range": 18.0, "size": 17, "time": "02/13/2020, 19:59:19"}, "type": "Feature"}, {"geometry": {"coordinates": [8.482569, 47.384616], "type": "Point"}, "properties": {"charge": 76, "id": "smide_2669", "name": "ZH263294", "provider": "smide", "range": 38.0, "size": 17, "time": "02/13/2020, 19:59:19"}, "type": "Feature"}, {"geometry": {"coordinates": [8.543401, 47.3765], "type": "Point"}, "properties": {"charge": 65, "id": "smide_2666", "name": "ZH258653", "provider": "smide", "range": 32.0, "size": 17, "time": "02/13/2020, 19:59:19"}, "type": "Feature"}, {"geometry": {"coordinates": [8.582792, 47.350984], "type": "Point"}, "properties": {"charge": 100, "id": "smide_2665", "name": "ZH258644", "provider": "smide", "range": 50.0, "size": 17, "time": "02/13/2020, 19:59:19"}, "type": "Feature"}, {"geometry": {"coordinates": [8.531294, 47.364348], "type": "Point"}, "properties": {"charge": 47, "id": "smide_2664", "name": "ZH258652", "provider": "smide", "range": 23.0, "size": 17, "time": "02/13/2020, 19:59:19"}, "type": "Feature"}, {"geometry": {"coordinates": [8.518095, 47.367632], "type": "Point"}, "properties": {"charge": 100, "id": "smide_2663", "name": "ZH258649", "provider": "smide", "range": 50.0, "size": 17, "time": "02/13/2020, 19:59:19"}, "type": "Feature"}, {"geometry": {"coordinates": [8.521957, 47.374764], "type": "Point"}, "properties": {"charge": 17, "id": "smide_2662", "name": "ZH258643", "provider": "smide", "range": 8.0, "size": 17, "time": "02/13/2020, 19:59:19"}, "type": "Feature"}, {"geometry": {"coordinates": [8.527172, 47.363844], "type": "Point"}, "properties": {"charge": 97, "id": "smide_2648", "name": "ZH257930", "provider": "smide", "range": 48.0, "size": 20, "time": "02/13/2020, 19:59:19"}, "type": "Feature"}, {"geometry": {"coordinates": [8.533237, 47.377548], "type": "Point"}, "properties": {"charge": 16, "id": "smide_2647", "name": "ZH257932", "provider": "smide", "range": 8.0, "size": 20, "time": "02/13/2020, 19:59:19"}, "type": "Feature"}, {"geometry": {"coordinates": [8.52855, 47.375644], "type": "Point"}, "properties": {"charge": 23, "id": "smide_2645", "name": "ZH257933", "provider": "smide", "range": 11.0, "size": 20, "time": "02/13/2020, 19:59:19"}, "type": "Feature"}, {"geometry": {"coordinates": [8.538066, 47.36616], "type": "Point"}, "properties": {"charge": 95, "id": "smide_3", "name": "ZH253765", "provider": "smide", "range": 47.0, "size": 20, "time": "02/13/2020, 19:59:19"}, "type": "Feature"}, {"geometry": {"coordinates": [8.510701, 47.392278], "type": "Point"}, "properties": {"charge": 79, "id": "smide_105", "name": "ZH253804", "provider": "smide", "range": 39.0, "size": 17, "time": "02/13/2020, 19:59:19"}, "type": "Feature"}, {"geometry": {"coordinates": [8.501938, 47.39786], "type": "Point"}, "properties": {"charge": 21, "id": "smide_186", "name": "ZH253751", "provider": "smide", "range": 10.0, "size": 20, "time": "02/13/2020, 19:59:19"}, "type": "Feature"}, {"geometry": {"coordinates": [8.559232, 47.40596], "type": "Point"}, "properties": {"charge": 89, "id": "smide_77", "name": "ZH261548", "provider": "smide", "range": 44.0, "size": 20, "time": "02/13/2020, 19:59:19"}, "type": "Feature"}, {"geometry": {"coordinates": [8.500823, 47.369583], "type": "Point"}, "properties": {"charge": 100, "id": "smide_197", "name": "ZH253864", "provider": "smide", "range": 50.0, "size": 20, "time": "02/13/2020, 19:59:19"}, "type": "Feature"}, {"geometry": {"coordinates": [8.486571, 47.386964], "type": "Point"}, "properties": {"charge": 75, "id": "smide_8", "name": "ZH253861", "provider": "smide", "range": 37.0, "size": 17, "time": "02/13/2020, 19:59:19"}, "type": "Feature"}, {"geometry": {"coordinates": [8.50981, 47.38236], "type": "Point"}, "properties": {"charge": 99, "id": "smide_71", "name": "ZH253742", "provider": "smide", "range": 49.0, "size": 20, "time": "02/13/2020, 19:59:19"}, "type": "Feature"}, {"geometry": {"coordinates": [8.544932, 47.374024], "type": "Point"}, "properties": {"charge": 67, "id": "smide_101", "name": "ZH253814", "provider": "smide", "range": 33.0, "size": 17, "time": "02/13/2020, 19:59:19"}, "type": "Feature"}, {"geometry": {"coordinates": [8.523467, 47.371176], "type": "Point"}, "properties": {"charge": 27, "id": "smide_143", "name": "ZH253778", "provider": "smide", "range": 13.0, "size": 17, "time": "02/13/2020, 19:59:19"}, "type": "Feature"}, {"geometry": {"coordinates": [8.531941, 47.344326], "type": "Point"}, "properties": {"charge": 44, "id": "smide_180", "name": "ZH253824", "provider": "smide", "range": 22.0, "size": 20, "time": "02/13/2020, 19:59:19"}, "type": "Feature"}, {"geometry": {"coordinates": [8.582209, 47.351856], "type": "Point"}, "properties": {"charge": 59, "id": "smide_20", "name": "ZH253770", "provider": "smide", "range": 29.0, "size": 20, "time": "02/13/2020, 19:59:19"}, "type": "Feature"}, {"geometry": {"coordinates": [8.526506, 47.36417], "type": "Point"}, "properties": {"charge": 89, "id": "smide_30", "name": "ZH253813", "provider": "smide", "range": 44.0, "size": 20, "time": "02/13/2020, 19:59:19"}, "type": "Feature"}, {"geometry": {"coordinates": [8.507908, 47.398228], "type": "Point"}, "properties": {"charge": 100, "id": "smide_179", "name": "ZH253687", "provider": "smide", "range": 50.0, "size": 20, "time": "02/13/2020, 19:59:19"}, "type": "Feature"}, {"geometry": {"coordinates": [8.559077, 47.37714], "type": "Point"}, "properties": {"charge": 93, "id": "smide_84", "name": "ZH253733", "provider": "smide", "range": 46.0, "size": 17, "time": "02/13/2020, 19:59:19"}, "type": "Feature"}, {"geometry": {"coordinates": [8.526416, 47.361776], "type": "Point"}, "properties": {"charge": 34, "id": "smide_35", "name": "ZH253755", "provider": "smide", "range": 17.0, "size": 20, "time": "02/13/2020, 19:59:19"}, "type": "Feature"}, {"geometry": {"coordinates": [8.546336, 47.374288], "type": "Point"}, "properties": {"charge": 92, "id": "smide_119", "name": "ZH253686", "provider": "smide", "range": 46.0, "size": 20, "time": "02/13/2020, 19:59:19"}, "type": "Feature"}, {"geometry": {"coordinates": [8.54739, 47.382144], "type": "Point"}, "properties": {"charge": 42, "id": "smide_76", "name": "ZH253764", "provider": "smide", "range": 21.0, "size": 17, "time": "02/13/2020, 19:59:19"}, "type": "Feature"}, {"geometry": {"coordinates": [8.488381, 47.389308], "type": "Point"}, "properties": {"charge": 100, "id": "smide_129", "name": "ZH261378", "provider": "smide", "range": 50.0, "size": 17, "time": "02/13/2020, 19:59:19"}, "type": "Feature"}, {"geometry": {"coordinates": [8.568311, 47.367763], "type": "Point"}, "properties": {"charge": 92, "id": "smide_49", "name": "ZH253873", "provider": "smide", "range": 46.0, "size": 17, "time": "02/13/2020, 19:59:19"}, "type": "Feature"}, {"geometry": {"coordinates": [8.502227, 47.36908], "type": "Point"}, "properties": {"charge": 100, "id": "smide_94", "name": "ZH253754", "provider": "smide", "range": 50.0, "size": 17, "time": "02/13/2020, 19:59:19"}, "type": "Feature"}, {"geometry": {"coordinates": [8.507226, 47.4212], "type": "Point"}, "properties": {"charge": 95, "id": "smide_37", "name": "ZH261377", "provider": "smide", "range": 47.0, "size": 20, "time": "02/13/2020, 19:59:19"}, "type": "Feature"}, {"geometry": {"coordinates": [8.545796, 47.37477], "type": "Point"}, "properties": {"charge": 58, "id": "smide_191", "name": "ZH253762", "provider": "smide", "range": 28.0, "size": 17, "time": "02/13/2020, 19:59:19"}, "type": "Feature"}, {"geometry": {"coordinates": [8.492236, 47.38605], "type": "Point"}, "properties": {"charge": 100, "id": "smide_202", "name": "ZH253830", "provider": "smide", "range": 50.0, "size": 17, "time": "02/13/2020, 19:59:19"}, "type": "Feature"}, {"geometry": {"coordinates": [8.48167, 47.389532], "type": "Point"}, "properties": {"charge": 99, "id": "smide_66", "name": "ZH253818", "provider": "smide", "range": 49.0, "size": 20, "time": "02/13/2020, 19:59:19"}, "type": "Feature"}, {"geometry": {"coordinates": [8.497025, 47.362753], "type": "Point"}, "properties": {"charge": 79, "id": "smide_17", "name": "ZH253793", "provider": "smide", "range": 39.0, "size": 17, "time": "02/13/2020, 19:59:19"}, "type": "Feature"}, {"geometry": {"coordinates": [8.542355, 47.385903], "type": "Point"}, "properties": {"charge": 78, "id": "smide_145", "name": "ZH253780", "provider": "smide", "range": 39.0, "size": 20, "time": "02/13/2020, 19:59:19"}, "type": "Feature"}, {"geometry": {"coordinates": [8.515299, 47.391568], "type": "Point"}, "properties": {"charge": 94, "id": "smide_114", "name": "ZH253878", "provider": "smide", "range": 47.0, "size": 20, "time": "02/13/2020, 19:59:19"}, "type": "Feature"}, {"geometry": {"coordinates": [8.533244, 47.41728], "type": "Point"}, "properties": {"charge": 100, "id": "smide_203", "name": "ZH261547", "provider": "smide", "range": 50.0, "size": 17, "time": "02/13/2020, 19:59:19"}, "type": "Feature"}, {"geometry": {"coordinates": [8.497737, 47.384024], "type": "Point"}, "properties": {"charge": 56, "id": "smide_21", "name": "ZH253841", "provider": "smide", "range": 28.0, "size": 17, "time": "02/13/2020, 19:59:19"}, "type": "Feature"}, {"geometry": {"coordinates": [8.47683, 47.387344], "type": "Point"}, "properties": {"charge": 87, "id": "smide_164", "name": "ZH253775", "provider": "smide", "range": 43.0, "size": 17, "time": "02/13/2020, 19:59:19"}, "type": "Feature"}, {"geometry": {"coordinates": [8.518033, 47.378864], "type": "Point"}, "properties": {"charge": 33, "id": "smide_189", "name": "ZH253845", "provider": "smide", "range": 16.0, "size": 20, "time": "02/13/2020, 19:59:19"}, "type": "Feature"}, {"geometry": {"coordinates": [8.520902, 47.388424], "type": "Point"}, "properties": {"charge": 29, "id": "smide_81", "name": "ZH253753", "provider": "smide", "range": 14.0, "size": 17, "time": "02/13/2020, 19:59:19"}, "type": "Feature"}, {"geometry": {"coordinates": [8.501366, 47.366508], "type": "Point"}, "properties": {"charge": 58, "id": "smide_93", "name": "ZH253681", "provider": "smide", "range": 28.0, "size": 17, "time": "02/13/2020, 19:59:19"}, "type": "Feature"}, {"geometry": {"coordinates": [8.529346, 47.377932], "type": "Point"}, "properties": {"charge": 91, "id": "smide_67", "name": "ZH253779", "provider": "smide", "range": 45.0, "size": 17, "time": "02/13/2020, 19:59:19"}, "type": "Feature"}, {"geometry": {"coordinates": [8.548617, 47.36206], "type": "Point"}, "properties": {"charge": 95, "id": "smide_133", "name": "ZH253848", "provider": "smide", "range": 47.0, "size": 20, "time": "02/13/2020, 19:59:19"}, "type": "Feature"}, {"geometry": {"coordinates": [8.487451, 47.384245], "type": "Point"}, "properties": {"charge": 69, "id": "smide_118", "name": "ZH253759", "provider": "smide", "range": 34.0, "size": 20, "time": "02/13/2020, 19:59:19"}, "type": "Feature"}, {"geometry": {"coordinates": [8.553801, 47.381812], "type": "Point"}, "properties": {"charge": 80, "id": "smide_142", "name": "ZH258745", "provider": "smide", "range": 40.0, "size": 17, "time": "02/13/2020, 19:59:19"}, "type": "Feature"}, {"geometry": {"coordinates": [8.537723, 47.407488], "type": "Point"}, "properties": {"charge": 62, "id": "smide_166", "name": "ZH253728", "provider": "smide", "range": 31.0, "size": 17, "time": "02/13/2020, 19:59:19"}, "type": "Feature"}, {"geometry": {"coordinates": [8.532751, 47.361536], "type": "Point"}, "properties": {"charge": 42, "id": "smide_126", "name": "ZH268400", "provider": "smide", "range": 21.0, "size": 17, "time": "02/13/2020, 19:59:19"}, "type": "Feature"}, {"geometry": {"coordinates": [8.487305, 47.367648], "type": "Point"}, "properties": {"charge": 76, "id": "smide_44", "name": "ZH253837", "provider": "smide", "range": 38.0, "size": 17, "time": "02/13/2020, 19:59:19"}, "type": "Feature"}, {"geometry": {"coordinates": [8.517806, 47.377996], "type": "Point"}, "properties": {"charge": 92, "id": "smide_98", "name": "ZH256321", "provider": "smide", "range": 46.0, "size": 17, "time": "02/13/2020, 19:59:19"}, "type": "Feature"}, {"geometry": {"coordinates": [8.542471, 47.372408], "type": "Point"}, "properties": {"charge": 69, "id": "smide_154", "name": "ZH253744", "provider": "smide", "range": 34.0, "size": 20, "time": "02/13/2020, 19:59:19"}, "type": "Feature"}, {"geometry": {"coordinates": [8.517213, 47.385044], "type": "Point"}, "properties": {"charge": 77, "id": "smide_7", "name": "ZH256289", "provider": "smide", "range": 38.0, "size": 20, "time": "02/13/2020, 19:59:19"}, "type": "Feature"}, {"geometry": {"coordinates": [8.524311, 47.398044], "type": "Point"}, "properties": {"charge": 78, "id": "smide_92", "name": "ZH253798", "provider": "smide", "range": 39.0, "size": 17, "time": "02/13/2020, 19:59:19"}, "type": "Feature"}, {"geometry": {"coordinates": [8.553565, 47.397624], "type": "Point"}, "properties": {"charge": 46, "id": "smide_65", "name": "ZH253810", "provider": "smide", "range": 23.0, "size": 17, "time": "02/13/2020, 19:59:19"}, "type": "Feature"}, {"geometry": {"coordinates": [8.547598, 47.364008], "type": "Point"}, "properties": {"charge": 70, "id": "smide_111", "name": "ZH253763", "provider": "smide", "range": 35.0, "size": 17, "time": "02/13/2020, 19:59:19"}, "type": "Feature"}, {"geometry": {"coordinates": [8.576229, 47.34888], "type": "Point"}, "properties": {"charge": 100, "id": "smide_40", "name": "ZH253690", "provider": "smide", "range": 50.0, "size": 20, "time": "02/13/2020, 19:59:19"}, "type": "Feature"}, {"geometry": {"coordinates": [8.518119, 47.388328], "type": "Point"}, "properties": {"charge": 100, "id": "smide_1", "name": "ZH253776", "provider": "smide", "range": 50.0, "size": 17, "time": "02/13/2020, 19:59:19"}, "type": "Feature"}, {"geometry": {"coordinates": [8.512938, 47.366384], "type": "Point"}, "properties": {"charge": 100, "id": "smide_28", "name": "ZH253831", "provider": "smide", "range": 50.0, "size": 17, "time": "02/13/2020, 19:59:19"}, "type": "Feature"}, {"geometry": {"coordinates": [8.519996, 47.34017], "type": "Point"}, "properties": {"charge": 77, "id": "smide_14", "name": "ZH253749", "provider": "smide", "range": 38.0, "size": 20, "time": "02/13/2020, 19:59:19"}, "type": "Feature"}, {"geometry": {"coordinates": [8.499887, 47.370512], "type": "Point"}, "properties": {"charge": 72, "id": "smide_130", "name": "ZH253847", "provider": "smide", "range": 36.0, "size": 20, "time": "02/13/2020, 19:59:19"}, "type": "Feature"}, {"geometry": {"coordinates": [8.502225, 47.368831], "type": "Point"}, "properties": {"charge": 100, "id": "smide_24", "name": "ZH253696", "provider": "smide", "range": 50.0, "size": 20, "time": "02/13/2020, 19:59:19"}, "type": "Feature"}, {"geometry": {"coordinates": [8.547903, 47.366296], "type": "Point"}, "properties": {"charge": 37, "id": "smide_107", "name": "ZH253819", "provider": "smide", "range": 18.0, "size": 17, "time": "02/13/2020, 19:59:19"}, "type": "Feature"}, {"geometry": {"coordinates": [8.529833, 47.398408], "type": "Point"}, "properties": {"charge": 32, "id": "smide_136", "name": "ZH253682", "provider": "smide", "range": 16.0, "size": 17, "time": "02/13/2020, 19:59:19"}, "type": "Feature"}, {"geometry": {"coordinates": [8.569479, 47.352048], "type": "Point"}, "properties": {"charge": 65, "id": "smide_83", "name": "ZH253869", "provider": "smide", "range": 32.0, "size": 20, "time": "02/13/2020, 19:59:19"}, "type": "Feature"}, {"geometry": {"coordinates": [8.569518, 47.352052], "type": "Point"}, "properties": {"charge": 48, "id": "smide_205", "name": "ZH253805", "provider": "smide", "range": 24.0, "size": 17, "time": "02/13/2020, 19:59:19"}, "type": "Feature"}, {"geometry": {"coordinates": [8.564561, 47.371636], "type": "Point"}, "properties": {"charge": 100, "id": "smide_158", "name": "ZH253870", "provider": "smide", "range": 50.0, "size": 20, "time": "02/13/2020, 19:59:19"}, "type": "Feature"}, {"geometry": {"coordinates": [8.522844, 47.371008], "type": "Point"}, "properties": {"charge": 92, "id": "smide_100", "name": "ZH253862", "provider": "smide", "range": 46.0, "size": 20, "time": "02/13/2020, 19:59:19"}, "type": "Feature"}, {"geometry": {"coordinates": [8.538068, 47.367755], "type": "Point"}, "properties": {"charge": 38, "id": "smide_134", "name": "ZH253741", "provider": "smide", "range": 19.0, "size": 20, "time": "02/13/2020, 19:59:19"}, "type": "Feature"}, {"geometry": {"coordinates": [8.54153, 47.378825], "type": "Point"}, "properties": {"charge": 97, "id": "smide_141", "name": "ZH253800", "provider": "smide", "range": 48.0, "size": 20, "time": "02/13/2020, 19:59:19"}, "type": "Feature"}, {"geometry": {"coordinates": [8.572886, 47.35144], "type": "Point"}, "properties": {"charge": 59, "id": "smide_16", "name": "ZH253713", "provider": "smide", "range": 29.0, "size": 20, "time": "02/13/2020, 19:59:19"}, "type": "Feature"}, {"geometry": {"coordinates": [8.545766, 47.397136], "type": "Point"}, "properties": {"charge": 63, "id": "smide_74", "name": "ZH253693", "provider": "smide", "range": 31.0, "size": 20, "time": "02/13/2020, 19:59:19"}, "type": "Feature"}, {"geometry": {"coordinates": [8.544246, 47.416528], "type": "Point"}, "properties": {"charge": 66, "id": "smide_161", "name": "ZH253691", "provider": "smide", "range": 33.0, "size": 20, "time": "02/13/2020, 19:59:19"}, "type": "Feature"}, {"geometry": {"coordinates": [8.545675, 47.371124], "type": "Point"}, "properties": {"charge": 100, "id": "smide_42", "name": "ZH253846", "provider": "smide", "range": 50.0, "size": 20, "time": "02/13/2020, 19:59:19"}, "type": "Feature"}, {"geometry": {"coordinates": [8.536628, 47.387776], "type": "Point"}, "properties": {"charge": 90, "id": "smide_4", "name": "ZH253740", "provider": "smide", "range": 45.0, "size": 20, "time": "02/13/2020, 19:59:19"}, "type": "Feature"}, {"geometry": {"coordinates": [8.49699, 47.392216], "type": "Point"}, "properties": {"charge": 92, "id": "smide_160", "name": "ZH253722", "provider": "smide", "range": 46.0, "size": 17, "time": "02/13/2020, 19:59:19"}, "type": "Feature"}, {"geometry": {"coordinates": [8.52723, 47.37217], "type": "Point"}, "properties": {"charge": 64, "id": "smide_137", "name": "ZH258502", "provider": "smide", "range": 32.0, "size": 17, "time": "02/13/2020, 19:59:19"}, "type": "Feature"}, {"geometry": {"coordinates": [8.542004, 47.424652], "type": "Point"}, "properties": {"charge": 59, "id": "smide_178", "name": "ZH253803", "provider": "smide", "range": 29.0, "size": 17, "time": "02/13/2020, 19:59:19"}, "type": "Feature"}, {"geometry": {"coordinates": [8.553726, 47.397481], "type": "Point"}, "properties": {"charge": 38, "id": "smide_55", "name": "ZH253875", "provider": "smide", "range": 19.0, "size": 17, "time": "02/13/2020, 19:59:19"}, "type": "Feature"}, {"geometry": {"coordinates": [8.557699, 47.40444], "type": "Point"}, "properties": {"charge": 93, "id": "smide_96", "name": "ZH256146", "provider": "smide", "range": 46.0, "size": 20, "time": "02/13/2020, 19:59:19"}, "type": "Feature"}, {"geometry": {"coordinates": [8.520611, 47.384872], "type": "Point"}, "properties": {"charge": 86, "id": "smide_58", "name": "ZH259246", "provider": "smide", "range": 43.0, "size": 20, "time": "02/13/2020, 19:59:19"}, "type": "Feature"}, {"geometry": {"coordinates": [8.537289, 47.38728], "type": "Point"}, "properties": {"charge": 100, "id": "smide_54", "name": "ZH253874", "provider": "smide", "range": 50.0, "size": 20, "time": "02/13/2020, 19:59:19"}, "type": "Feature"}, {"geometry": {"coordinates": [8.525415, 47.391872], "type": "Point"}, "properties": {"charge": 75, "id": "smide_175", "name": "ZH253730", "provider": "smide", "range": 37.0, "size": 17, "time": "02/13/2020, 19:59:19"}, "type": "Feature"}, {"geometry": {"coordinates": [8.51593, 47.428956], "type": "Point"}, "properties": {"charge": 55, "id": "smide_162", "name": "ZH253760", "provider": "smide", "range": 27.0, "size": 17, "time": "02/13/2020, 19:59:19"}, "type": "Feature"}, {"geometry": {"coordinates": [8.548493, 47.377916], "type": "Point"}, "properties": {"charge": 63, "id": "smide_95", "name": "ZH253773", "provider": "smide", "range": 31.0, "size": 17, "time": "02/13/2020, 19:59:19"}, "type": "Feature"}, {"geometry": {"coordinates": [8.582273, 47.35188], "type": "Point"}, "properties": {"charge": 46, "id": "smide_163", "name": "ZH256147", "provider": "smide", "range": 23.0, "size": 20, "time": "02/13/2020, 19:59:19"}, "type": "Feature"}, {"geometry": {"coordinates": [8.509642, 47.393972], "type": "Point"}, "properties": {"charge": 35, "id": "smide_112", "name": "ZH263530", "provider": "smide", "range": 17.0, "size": 20, "time": "02/13/2020, 19:59:19"}, "type": "Feature"}, {"geometry": {"coordinates": [8.564577, 47.369292], "type": "Point"}, "properties": {"charge": 100, "id": "smide_6", "name": "ZH253787", "provider": "smide", "range": 50.0, "size": 17, "time": "02/13/2020, 19:59:19"}, "type": "Feature"}, {"geometry": {"coordinates": [8.550882, 47.384928], "type": "Point"}, "properties": {"charge": 59, "id": "smide_18", "name": "ZH253859", "provider": "smide", "range": 29.0, "size": 17, "time": "02/13/2020, 19:59:19"}, "type": "Feature"}, {"geometry": {"coordinates": [8.498212, 47.358268], "type": "Point"}, "properties": {"charge": 100, "id": "smide_12", "name": "ZH253685", "provider": "smide", "range": 50.0, "size": 17, "time": "02/13/2020, 19:59:19"}, "type": "Feature"}, {"geometry": {"coordinates": [8.545705, 47.375112], "type": "Point"}, "properties": {"charge": 87, "id": "smide_192", "name": "ZH253706", "provider": "smide", "range": 43.0, "size": 20, "time": "02/13/2020, 19:59:19"}, "type": "Feature"}, {"geometry": {"coordinates": [8.545133, 47.390808], "type": "Point"}, "properties": {"charge": 78, "id": "smide_39", "name": "ZH253714", "provider": "smide", "range": 39.0, "size": 20, "time": "02/13/2020, 19:59:19"}, "type": "Feature"}, {"geometry": {"coordinates": [8.551816, 47.41331], "type": "Point"}, "properties": {"charge": 79, "id": "smide_5", "name": "ZH261443", "provider": "smide", "range": 39.0, "size": 20, "time": "02/13/2020, 19:59:19"}, "type": "Feature"}, {"geometry": {"coordinates": [8.556695, 47.368071], "type": "Point"}, "properties": {"charge": 75, "id": "smide_85", "name": "ZH253729", "provider": "smide", "range": 37.0, "size": 17, "time": "02/13/2020, 19:59:19"}, "type": "Feature"}, {"geometry": {"coordinates": [8.528655, 47.382868], "type": "Point"}, "properties": {"charge": 73, "id": "smide_29", "name": "ZH253723", "provider": "smide", "range": 36.0, "size": 17, "time": "02/13/2020, 19:59:19"}, "type": "Feature"}, {"geometry": {"coordinates": [8.544559, 47.376824], "type": "Point"}, "properties": {"charge": 74, "id": "smide_48", "name": "ZH253849", "provider": "smide", "range": 37.0, "size": 20, "time": "02/13/2020, 19:59:19"}, "type": "Feature"}, {"geometry": {"coordinates": [8.5604, 47.405796], "type": "Point"}, "properties": {"charge": 31, "id": "smide_46", "name": "ZH253843", "provider": "smide", "range": 15.0, "size": 20, "time": "02/13/2020, 19:59:19"}, "type": "Feature"}, {"geometry": {"coordinates": [8.51382833333333, 47.387375], "type": "Point"}, "properties": {"charge": 61, "id": "bird_6a3a42a3-33e0-4b8d-b0ae-08e58a27f649", "provider": "bird", "timeStamp": "02/13/2020, 19:59:19"}, "type": "Feature"}, {"geometry": {"coordinates": [8.51077333333333, 47.3778233333333], "type": "Point"}, "properties": {"charge": 39, "id": "bird_0d4f1ace-af6f-4158-bce3-09218c8cfa9d", "provider": 