{"features": [{"geometry": {"coordinates": [8.540062, 47.374392], "type": "Point"}, "properties": {"address": "Uraniastrasse 7", "electric": 7, "id": "pb_60", "manual": 8, "name": "Demo Station Werdm\u00fchleplatz", "provider": "publibike", "timeStamp": "01/27/2020, 21:39:31", "zip": 8001}, "type": "Feature"}, {"geometry": {"coordinates": [8.5452956, 47.4099615], "type": "Point"}, "properties": {"address": "Querstrasse 8", "electric": 1, "id": "pb_61", "manual": 0, "name": "Marktplatz", "provider": "publibike", "timeStamp": "01/27/2020, 21:39:31", "zip": 8050}, "type": "Feature"}, {"geometry": {"coordinates": [8.5156327, 47.3795837], "type": "Point"}, "properties": {"address": "Bullingerstrasse 5", "electric": 5, "id": "pb_80", "manual": 9, "name": "Bullingerplatz", "provider": "publibike", "timeStamp": "01/27/2020, 21:39:31", "zip": 8004}, "type": "Feature"}, {"geometry": {"coordinates": [8.5104051, 47.3899342], "type": "Point"}, "properties": {"address": "Pfingstweidstrasse 96e", "electric": 0, "id": "pb_81", "manual": 2, "name": "Herdern", "provider": "publibike", "timeStamp": "01/27/2020, 21:39:31", "zip": 8001}, "type": "Feature"}, {"geometry": {"coordinates": [8.535718, 47.359675], "type": "Point"}, "properties": {"address": "Mythenquai 50", "electric": 0, "id": "pb_82", "manual": 0, "name": "Hafen Enge", "provider": "publibike", "timeStamp": "01/27/2020, 21:39:31", "zip": 8002}, "type": "Feature"}, {"geometry": {"coordinates": [8.520370505, 47.358663827], "type": "Point"}, "properties": {"address": "Bubenbergstrasse 1", "electric": 3, "id": "pb_83", "manual": 0, "name": "Comerge", "provider": "publibike", "timeStamp": "01/27/2020, 21:39:31", "zip": 8045}, "type": "Feature"}, {"geometry": {"coordinates": [8.5412505, 47.3789825], "type": "Point"}, "properties": {"address": "Museumstrasse 2", "electric": 8, "id": "pb_84", "manual": 33, "name": "Landesmuseum", "provider": "publibike", "timeStamp": "01/27/2020, 21:39:31", "zip": 8001}, "type": "Feature"}, {"geometry": {"coordinates": [8.5235479, 47.3716661], "type": "Point"}, "properties": {"address": "Birmensdorferstrasse 80", "electric": 2, "id": "pb_85", "manual": 6, "name": "Bahnhof Wiedikon", "provider": "publibike", "timeStamp": "01/27/2020, 21:39:31", "zip": 8003}, "type": "Feature"}, {"geometry": {"coordinates": [8.506822854, 47.40781197], "type": "Point"}, "properties": {"address": "Stefano-Franscini-Platz 5", "electric": 1, "id": "pb_86", "manual": 0, "name": "ETH H\u00f6nggerberg", "provider": "publibike", "timeStamp": "01/27/2020, 21:39:31", "zip": 8093}, "type": "Feature"}, {"geometry": {"coordinates": [8.536101, 47.371083], "type": "Point"}, "properties": {"address": "Pelikanplatz 5", "electric": 4, "id": "pb_87", "manual": 0, "name": "Pelikanplatz", "provider": "publibike", "timeStamp": "01/27/2020, 21:39:31", "zip": 8001}, "type": "Feature"}, {"geometry": {"coordinates": [8.5257822, 47.3651936], "type": "Point"}, "properties": {"address": "H\u00fcrlimannplatz 90", "electric": 0, "id": "pb_88", "manual": 3, "name": "H\u00fcrlimannplatz", "provider": "publibike", "timeStamp": "01/27/2020, 21:39:31", "zip": 8002}, "type": "Feature"}, {"geometry": {"coordinates": [8.5313344, 47.3713591], "type": "Point"}, "properties": {"address": "Selnaustrasse 32", "electric": 3, "id": "pb_89", "manual": 1, "name": "Stauffacherbr\u00fccke", "provider": "publibike", "timeStamp": "01/27/2020, 21:39:31", "zip": 8001}, "type": "Feature"}, {"geometry": {"coordinates": [8.5056978, 47.3917964], "type": "Point"}, "properties": {"address": "Sportweg 25", "electric": 9, "id": "pb_90", "manual": 6, "name": "Sportweg", "provider": "publibike", "timeStamp": "01/27/2020, 21:39:31", "zip": 8005}, "type": "Feature"}, {"geometry": {"coordinates": [8.5181701, 47.3917837], "type": "Point"}, "properties": {"address": "Hardturmstrasse 11", "electric": 0, "id": "pb_91", "manual": 7, "name": "Puls 5", "provider": "publibike", "timeStamp": "01/27/2020, 21:39:31", "zip": 8005}, "type": "Feature"}, {"geometry": {"coordinates": [8.5286468, 47.3820827], "type": "Point"}, "properties": {"address": "R\u00f6ntgenstrasse 6", "electric": 3, "id": "pb_92", "manual": 2, "name": "R\u00f6ntgenstrasse", "provider": "publibike", "timeStamp": "01/27/2020, 21:39:31", "zip": 8005}, "type": "Feature"}, {"geometry": {"coordinates": [8.531935, 47.384918], "type": "Point"}, "properties": {"address": "Kornhausbr\u00fccke 1", "electric": 2, "id": "pb_93", "manual": 2, "name": "Limmatplatz", "provider": "publibike", "timeStamp": "01/27/2020, 21:39:31", "zip": 8005}, "type": "Feature"}, {"geometry": {"coordinates": [8.5354006, 47.3758639], "type": "Point"}, "properties": {"address": "Gessnerallee 15", "electric": 4, "id": "pb_94", "manual": 8, "name": "Gessnerallee", "provider": "publibike", "timeStamp": "01/27/2020, 21:39:31", "zip": 8001}, "type": "Feature"}, {"geometry": {"coordinates": [8.523818, 47.377148], "type": "Point"}, "properties": {"address": "Stauffacherstrasse 127", "electric": 7, "id": "pb_95", "manual": 3, "name": "B\u00e4ckeranlage", "provider": "publibike", "timeStamp": "01/27/2020, 21:39:31", "zip": 8004}, "type": "Feature"}, {"geometry": {"coordinates": [8.531836, 47.378548], "type": "Point"}, "properties": {"address": "Lagerstrasse 44", "electric": 3, "id": "pb_96", "manual": 16, "name": "Gustav-Gull-Platz", "provider": "publibike", "timeStamp": "01/27/2020, 21:39:31", "zip": 8004}, "type": "Feature"}, {"geometry": {"coordinates": [8.5104883, 47.3771535], "type": "Point"}, "properties": {"address": "Zurlindenstrasse 291", "electric": 6, "id": "pb_97", "manual": 3, "name": "Zurlindenstrasse", "provider": "publibike", "timeStamp": "01/27/2020, 21:39:31", "zip": 8003}, "type": "Feature"}, {"geometry": {"coordinates": [8.5333139, 47.3731102], "type": "Point"}, "properties": {"address": "Sihlstrasse 81", "electric": 0, "id": "pb_98", "manual": 1, "name": "Sihlstrasse", "provider": "publibike", "timeStamp": "01/27/2020, 21:39:31", "zip": 8001}, "type": "Feature"}, {"geometry": {"coordinates": [8.520532, 47.374951], "type": "Point"}, "properties": {"address": "Feldstrasse 24", "electric": 3, "id": "pb_99", "manual": 3, "name": "Kalkbreite", "provider": "publibike", "timeStamp": "01/27/2020, 21:39:31", "zip": 8004}, "type": "Feature"}, {"geometry": {"coordinates": [8.539046, 47.368064], "type": "Point"}, "properties": {"address": "Talstrasse 12", "electric": 0, "id": "pb_100", "manual": 1, "name": "Z\u00fcrcher Kantonalbank", "provider": "publibike", "timeStamp": "01/27/2020, 21:39:31", "zip": 8001}, "type": "Feature"}, {"geometry": {"coordinates": [8.5348427, 47.3625938], "type": "Point"}, "properties": {"address": "Breitingerstrasse 5", "electric": 0, "id": "pb_101", "manual": 1, "name": "Rentenanstalt", "provider": "publibike", "timeStamp": "01/27/2020, 21:39:31", "zip": 8002}, "type": "Feature"}, {"geometry": {"coordinates": [8.5166922, 47.3897772], "type": "Point"}, "properties": {"address": "Technoparkstrasse 4", "electric": 1, "id": "pb_102", "manual": 0, "name": "Turbinenplatz", "provider": "publibike", "timeStamp": "01/27/2020, 21:39:31", "zip": 8005}, "type": "Feature"}, {"geometry": {"coordinates": [8.539312, 47.3739964], "type": "Point"}, "properties": {"address": "Oetenbachgasse 14", "electric": 6, "id": "pb_104", "manual": 8, "name": "Rennweg", "provider": "publibike", "timeStamp": "01/27/2020, 21:39:31", "zip": 8001}, "type": "Feature"}, {"geometry": {"coordinates": [8.5360685, 47.3775022], "type": "Point"}, "properties": {"address": "Kasernenstrasse 101", "electric": 10, "id": "pb_105", "manual": 25, "name": "Sihlpost", "provider": "publibike", "timeStamp": "01/27/2020, 21:39:31", "zip": 8004}, "type": "Feature"}, {"geometry": {"coordinates": [8.53545, 47.382798], "type": "Point"}, "properties": {"address": "Ausstellungsstrasse 44", "electric": 4, "id": "pb_106", "manual": 9, "name": "Museum f\u00fcr Gestaltung", "provider": "publibike", "timeStamp": "01/27/2020, 21:39:31", "zip": 8005}, "type": "Feature"}, {"geometry": {"coordinates": [8.5306155, 47.3647902], "type": "Point"}, "properties": {"address": "Gutenbergstrasse 1", "electric": 13, "id": "pb_107", "manual": 9, "name": "Bederbr\u00fccke", "provider": "publibike", "timeStamp": "01/27/2020, 21:39:31", "zip": 8002}, "type": "Feature"}, {"geometry": {"coordinates": [8.518982, 47.386741], "type": "Point"}, "properties": {"address": "Geroldstrasse 4", "electric": 4, "id": "pb_108", "manual": 3, "name": "Bahnhof Hardbr\u00fccke", "provider": "publibike", "timeStamp": "01/27/2020, 21:39:31", "zip": 8005}, "type": "Feature"}, {"geometry": {"coordinates": [8.53001018, 47.37247535], "type": "Point"}, "properties": {"address": "Werdstrasse 21", "electric": 0, "id": "pb_109", "manual": 0, "name": "Tamedia", "provider": "publibike", "timeStamp": "01/27/2020, 21:39:31", "zip": 8004}, "type": "Feature"}, {"geometry": {"coordinates": [8.4860017, 47.396401], "type": "Point"}, "properties": {"address": "Gr\u00fcnauring 37", "electric": 5, "id": "pb_110", "manual": 6, "name": "Gr\u00fcnau", "provider": "publibike", "timeStamp": "01/27/2020, 21:39:31", "zip": 8064}, "type": "Feature"}, {"geometry": {"coordinates": [8.548519, 47.376756], "type": "Point"}, "properties": {"address": "R\u00e4mistrasse 101", "electric": 0, "id": "pb_111", "manual": 0, "name": "ETH Zentrum", "provider": "publibike", "timeStamp": "01/27/2020, 21:39:31", "zip": 8006}, "type": "Feature"}, {"geometry": {"coordinates": [8.520449, 47.388151], "type": "Point"}, "properties": {"address": "Josefstrasse 224", "electric": 1, "id": "pb_112", "manual": 2, "name": "Steinfelsareal", "provider": "publibike", "timeStamp": "01/27/2020, 21:39:31", "zip": 8005}, "type": "Feature"}, {"geometry": {"coordinates": [8.520482, 47.37209], "type": "Point"}, "properties": {"address": "Weststrasse 115", "electric": 10, "id": "pb_124", "manual": 6, "name": "Weststrasse", "provider": "publibike", "timeStamp": "01/27/2020, 21:39:31", "zip": 8003}, "type": "Feature"}, {"geometry": {"coordinates": [8.496727, 47.378521], "type": "Point"}, "properties": {"address": "Albisriederstrasse 200", "electric": 4, "id": "pb_125", "manual": 2, "name": "Utogrund", "provider": "publibike", "timeStamp": "01/27/2020, 21:39:31", "zip": 8047}, "type": "Feature"}, {"geometry": {"coordinates": [8.510418, 47.381356], "type": "Point"}, "properties": {"address": "Bullingerstrasse 73", "electric": 6, "id": "pb_126", "manual": 1, "name": "Hardau", "provider": "publibike", "timeStamp": "01/27/2020, 21:39:31", "zip": 8004}, "type": "Feature"}, {"geometry": {"coordinates": [8.525525, 47.361567], "type": "Point"}, "properties": {"address": "Klopstockstrasse 23", "electric": 6, "id": "pb_127", "manual": 2, "name": "Klopstockwiese", "provider": "publibike", "timeStamp": "01/27/2020, 21:39:31", "zip": 8002}, "type": "Feature"}, {"geometry": {"coordinates": [8.518143, 47.363148], "type": "Point"}, "properties": {"address": "Haldenstrasse 8", "electric": 7, "id": "pb_128", "manual": 2, "name": "Binz", "provider": "publibike", "timeStamp": "01/27/2020, 21:39:31", "zip": 8045}, "type": "Feature"}, {"geometry": {"coordinates": [8.542726, 47.379952], "type": "Point"}, "properties": {"address": "Walchestrasse 11", "electric": 3, "id": "pb_129", "manual": 0, "name": "Stampfenbachplatz", "provider": "publibike", "timeStamp": "01/27/2020, 21:39:31", "zip": 8006}, "type": "Feature"}, {"geometry": {"coordinates": [8.488108, 47.391366], "type": "Point"}, "properties": {"address": "Altstetterplatz 1", "electric": 7, "id": "pb_130", "manual": 11, "name": "Bahnhof Altstetten", "provider": "publibike", "timeStamp": "01/27/2020, 21:39:31", "zip": 8048}, "type": "Feature"}, {"geometry": {"coordinates": [8.554114, 47.365119], "type": "Point"}, "properties": {"address": "Kreuzplatz 2", "electric": 3, "id": "pb_131", "manual": 4, "name": "Kreuzplatz", "provider": "publibike", "timeStamp": "01/27/2020, 21:39:31", "zip": 8032}, "type": "Feature"}, {"geometry": {"coordinates": [8.549852, 47.35594], "type": "Point"}, "properties": {"address": "H\u00f6schgasse 3", "electric": 1, "id": "pb_132", "manual": 4, "name": "Blatterwiese", "provider": "publibike", "timeStamp": "01/27/2020, 21:39:31", "zip": 8008}, "type": "Feature"}, {"geometry": {"coordinates": [8.554501, 47.36162], "type": "Point"}, "properties": {"address": "Feldeggstrasse 80", "electric": 3, "id": "pb_133", "manual": 4, "name": "Villa Bleuler", "provider": "publibike", "timeStamp": "01/27/2020, 21:39:31", "zip": 8008}, "type": "Feature"}, {"geometry": {"coordinates": [8.557088, 47.358557], "type": "Point"}, "properties": {"address": "M\u00fchlebachstrasse 131", "electric": 4, "id": "pb_134", "manual": 1, "name": "M\u00fchlebachstrasse", "provider": "publibike", "timeStamp": "01/27/2020, 21:39:31", "zip": 8008}, "type": "Feature"}, {"geometry": {"coordinates": [8.547639, 47.361266], "type": "Point"}, "properties": {"address": "Utoquai 50", "electric": 2, "id": "pb_135", "manual": 7, "name": "Seebad Utoquai", "provider": "publibike", "timeStamp": "01/27/2020, 21:39:31", "zip": 8008}, "type": "Feature"}, {"geometry": {"coordinates": [8.548045, 47.370869], "type": "Point"}, "properties": {"address": "Heimplatz 1", "electric": 0, "id": "pb_137", "manual": 0, "name": "Kunsthaus", "provider": "publibike", "timeStamp": "01/27/2020, 21:39:31", "zip": 8001}, "type": "Feature"}, {"geometry": {"coordinates": [8.543447, 47.375933], "type": "Point"}, "properties": {"address": "Limmatquai 138", "electric": 3, "id": "pb_138", "manual": 20, "name": "Central", "provider": "publibike", "timeStamp": "01/27/2020, 21:39:31", "zip": 8001}, "type": "Feature"}, {"geometry": {"coordinates": [8.549356, 47.408827], "type": "Point"}, "properties": {"address": "Tramstrasse 35", "electric": 2, "id": "pb_139", "manual": 4, "name": "ewz Tramstrasse", "provider": "publibike", "timeStamp": "01/27/2020, 21:39:31", "zip": 8050}, "type": "Feature"}, {"geometry": {"coordinates": [8.533736, 47.366904], "type": "Point"}, "properties": {"address": "Bleicherweg 33", "electric": 2, "id": "pb_140", "manual": 2, "name": "Bleicherweg", "provider": "publibike", "timeStamp": "01/27/2020, 21:39:31", "zip": 8002}, "type": "Feature"}, {"geometry": {"coordinates": [8.544935, 47.366752], "type": "Point"}, "properties": {"address": "Bellevueplatz 2", "electric": 34, "id": "pb_141", "manual": 28, "name": "Bellevue", "provider": "publibike", "timeStamp": "01/27/2020, 21:39:31", "zip": 8001}, "type": "Feature"}, {"geometry": {"coordinates": [8.5285533, 47.3742296], "type": "Point"}, "properties": {"address": "Stauffacherstrasse 41", "electric": 1, "id": "pb_142", "manual": 4, "name": "Stauffacher", "provider": "publibike", "timeStamp": "01/27/2020, 21:39:31", "zip": 8004}, "type": "Feature"}, {"geometry": {"coordinates": [8.523722, 47.3899], "type": "Point"}, "properties": {"address": "Limmatstrasse 310", "electric": 1, "id": "pb_143", "manual": 1, "name": "Escher-Wyss-Platz", "provider": "publibike", "timeStamp": "01/27/2020, 21:39:31", "zip": 8005}, "type": "Feature"}, {"geometry": {"coordinates": [8.491061, 47.392336], "type": "Point"}, "properties": {"address": "Vulkanplatz 1", "electric": 6, "id": "pb_149", "manual": 11, "name": "Vulkanplatz", "provider": "publibike", "timeStamp": "01/27/2020, 21:39:31", "zip": 8048}, "type": "Feature"}, {"geometry": {"coordinates": [8.52306, 47.359872], "type": "Point"}, "properties": {"address": "Giessh\u00fcbelstrasse 15", "electric": 13, "id": "pb_150", "manual": 5, "name": "Utoplatz", "provider": "publibike", "timeStamp": "01/27/2020, 21:39:31", "zip": 8045}, "type": "Feature"}, {"geometry": {"coordinates": [8.486284, 47.387685], "type": "Point"}, "properties": {"address": "Lindenplatz 1", "electric": 18, "id": "pb_151", "manual": 12, "name": "Lindenplatz", "provider": "publibike", "timeStamp": "01/27/2020, 21:39:31", "zip": 8048}, "type": "Feature"}, {"geometry": {"coordinates": [8.49163, 47.389823], "type": "Point"}, "properties": {"address": "Hohlstrasse 563", "electric": 6, "id": "pb_152", "manual": 11, "name": "Luggweg", "provider": "publibike", "timeStamp": "01/27/2020, 21:39:31", "zip": 8048}, "type": "Feature"}, {"geometry": {"coordinates": [8.52174, 47.365272], "type": "Point"}, "properties": {"address": "Manessestrasse 87", "electric": 3, "id": "pb_153", "manual": 4, "name": "Manesseplatz", "provider": "publibike", "timeStamp": "01/27/2020, 21:39:31", "zip": 8045}, "type": "Feature"}, {"geometry": {"coordinates": [8.52714, 47.372329], "type": "Point"}, "properties": {"address": "Werdstrasse 75", "electric": 2, "id": "pb_154", "manual": 0, "name": "Werd", "provider": "publibike", "timeStamp": "01/27/2020, 21:39:31", "zip": 8004}, "type": "Feature"}, {"geometry": {"coordinates": [8.543042, 47.374711], "type": "Point"}, "properties": {"address": "Limmatquai 100", "electric": 0, "id": "pb_155", "manual": 0, "name": "Rudolf-Brun-Br\u00fccke", "provider": "publibike", "timeStamp": "01/27/2020, 21:39:31", "zip": 8001}, "type": "Feature"}, {"geometry": {"coordinates": [8.490837, 47.386596], "type": "Point"}, "properties": {"address": "Badenerstrasse 627", "electric": 3, "id": "pb_156", "manual": 2, "name": "Luggwegstrasse VBZ", "provider": "publibike", "timeStamp": "01/27/2020, 21:39:31", "zip": 8048}, "type": "Feature"}, {"geometry": {"coordinates": [8.535119, 47.355189], "type": "Point"}, "properties": {"address": "Mythenquai 95", "electric": 0, "id": "pb_157", "manual": 0, "name": "Strandbad Mythenquai", "provider": "publibike", "timeStamp": "01/27/2020, 21:39:31", "zip": 8002}, "type": "Feature"}, {"geometry": {"coordinates": [8.545505, 47.373675], "type": "Point"}, "properties": {"address": "Predigerpatz 21", "electric": 9, "id": "pb_158", "manual": 8, "name": "Predigerplatz", "provider": "publibike", "timeStamp": "01/27/2020, 21:39:31", "zip": 8001}, "type": "Feature"}, {"geometry": {"coordinates": [8.515558, 47.371868], "type": "Point"}, "properties": {"address": "Aemtlerstrasse 23", "electric": 3, "id": "pb_159", "manual": 2, "name": "Zwinglihaus", "provider": "publibike", "timeStamp": "01/27/2020, 21:39:31", "zip": 8003}, "type": "Feature"}, {"geometry": {"coordinates": [8.524629, 47.386072], "type": "Point"}, "properties": {"address": "Josefstrasse 188", "electric": 2, "id": "pb_160", "manual": 3, "name": "Josefwiese", "provider": "publibike", "timeStamp": "01/27/2020, 21:39:31", "zip": 8005}, "type": "Feature"}, {"geometry": {"coordinates": [8.527138, 47.387531], "type": "Point"}, "properties": {"address": "R\u00f6ntgenstrasse 87", "electric": 0, "id": "pb_164", "manual": 6, "name": "Markthalle", "provider": "publibike", "timeStamp": "01/27/2020, 21:39:31", "zip": 8005}, "type": "Feature"}, {"geometry": {"coordinates": [8.552717, 47.359978], "type": "Point"}, "properties": {"address": "Seefeldstrasse 96", "electric": 5, "id": "pb_263", "manual": 15, "name": "Feldeggstrasse", "provider": "publibike", "timeStamp": "01/27/2020, 21:39:31", "zip": 8008}, "type": "Feature"}, {"geometry": {"coordinates": [8.553189, 47.353198], "type": "Point"}, "properties": {"address": "Bellerivestrasse 170", "electric": 4, "id": "pb_264", "manual": 2, "name": "Lake Side", "provider": "publibike", "timeStamp": "01/27/2020, 21:39:31", "zip": 8008}, "type": "Feature"}, {"geometry": {"coordinates": [8.543437, 47.369256], "type": "Point"}, "properties": {"address": "Limmatquai 18", "electric": 0, "id": "pb_265", "manual": 0, "name": "Helmhaus", "provider": "publibike", "timeStamp": "01/27/2020, 21:39:31", "zip": 8032}, "type": "Feature"}, {"geometry": {"coordinates": [8.516676, 47.375819], "type": "Point"}, "properties": {"address": "Badenerstrasse 246", "electric": 13, "id": "pb_266", "manual": 4, "name": "Lochergut", "provider": "publibike", "timeStamp": "01/27/2020, 21:39:31", "zip": 8004}, "type": "Feature"}, {"geometry": {"coordinates": [8.514605, 47.389862], "type": "Point"}, "properties": {"address": "Pfingstweidstrasse 60", "electric": 0, "id": "pb_273", "manual": 0, "name": "Westpark", "provider": "publibike", "timeStamp": "01/27/2020, 21:39:31", "zip": 8005}, "type": "Feature"}, {"geometry": {"coordinates": [8.541239126, 47.375991201], "type": "Point"}, "properties": {"address": "Beatenplatz 1", "electric": 9, "id": "pb_274", "manual": 10, "name": "Beatenplatz", "provider": "publibike", "timeStamp": "01/27/2020, 21:39:31", "zip": 8001}, "type": "Feature"}, {"geometry": {"coordinates": [8.5417135, 47.3942197], "type": "Point"}, "properties": {"address": "Scheuchzerstrasse 181", "electric": 5, "id": "pb_275", "manual": 0, "name": "Pauluskirche", "provider": "publibike", "timeStamp": "01/27/2020, 21:39:31", "zip": 8057}, "type": "Feature"}, {"geometry": {"coordinates": [8.5528182, 47.414558], "type": "Point"}, "properties": {"address": "Hagenholzstrasse 51", "electric": 0, "id": "pb_276", "manual": 9, "name": "Airgate", "provider": "publibike", "timeStamp": "01/27/2020, 21:39:31", "zip": 8050}, "type": "Feature"}, {"geometry": {"coordinates": [8.537816, 47.413514], "type": "Point"}, "properties": {"address": "Birchstrasse 183", "electric": 3, "id": "pb_277", "manual": 4, "name": "Lamprechtweg", "provider": "publibike", "timeStamp": "01/27/2020, 21:39:31", "zip": 8050}, "type": "Feature"}, {"geometry": {"coordinates": [8.545602, 47.417701], "type": "Point"}, "properties": {"address": "Felsenrainstrasse 2", "electric": 9, "id": "pb_278", "manual": 9, "name": "Emil-Oberh\u00e4nsli", "provider": "publibike", "timeStamp": "01/27/2020, 21:39:31", "zip": 8050}, "type": "Feature"}, {"geometry": {"coordinates": [8.533647, 47.39808], "type": "Point"}, "properties": {"address": "Bucheggplatz 2", "electric": 2, "id": "pb_279", "manual": 0, "name": "Bucheggplatz", "provider": "publibike", "timeStamp": "01/27/2020, 21:39:31", "zip": 8057}, "type": "Feature"}, {"geometry": {"coordinates": [8.523549, 47.392347], "type": "Point"}, "properties": {"address": "Wipkingerplatz 4", "electric": 4, "id": "pb_280", "manual": 5, "name": "Wipkingerplatz", "provider": "publibike", "timeStamp": "01/27/2020, 21:39:31", "zip": 8037}, "type": "Feature"}, {"geometry": {"coordinates": [8.548562, 47.36691], "type": "Point"}, "properties": {"address": "Galerie \u00fcber Gleis 2/3", "electric": 16, "id": "pb_285", "manual": 1, "name": "Bahnhof Stadelhofen", "provider": "publibike", "timeStamp": "01/27/2020, 21:39:31", "zip": 8001}, "type": "Feature"}, {"geometry": {"coordinates": [8.493822, 47.3985553], "type": "Point"}, "properties": {"address": "Meierwiesenstrasse 12-4", "electric": 3, "id": "pb_286", "manual": 2, "name": "T\u00fcffenwies", "provider": "publibike", "timeStamp": "01/27/2020, 21:39:31", "zip": 8064}, "type": "Feature"}, {"geometry": {"coordinates": [8.552432, 47.3801757], "type": "Point"}, "properties": {"address": "Hochstrasse 34", "electric": 2, "id": "pb_356", "manual": 5, "name": "Siriuswiese", "provider": "publibike", "timeStamp": "01/27/2020, 21:39:31", "zip": 8044}, "type": "Feature"}, {"geometry": {"coordinates": [8.527298, 47.370141], "type": "Point"}, "properties": {"address": "Hallwylstrasse 71", "electric": 1, "id": "pb_357", "manual": 5, "name": "Hallwylstrasse", "provider": "publibike", "timeStamp": "01/27/2020, 21:39:31", "zip": 8004}, "type": "Feature"}, {"geometry": {"coordinates": [8.5414185, 47.3972455], "type": "Point"}, "properties": {"address": "Schaffhauserstrasse 137", "electric": 5, "id": "pb_358", "manual": 0, "name": "Milchbuck", "provider": "publibike", "timeStamp": "01/27/2020, 21:39:31", "zip": 8057}, "type": "Feature"}, {"geometry": {"coordinates": [8.512381, 47.393409], "type": "Point"}, "properties": {"address": "Hardturmstrasse 161", "electric": 4, "id": "pb_359", "manual": 6, "name": "Fischerweg", "provider": "publibike", "timeStamp": "01/27/2020, 21:39:31", "zip": 8005}, "type": "Feature"}, {"geometry": {"coordinates": [8.5421457, 47.3876979], "type": "Point"}, "properties": {"address": "Turnerstrasse 47", "electric": 1, "id": "pb_360", "manual": 6, "name": "Kirche Unterstrass", "provider": "publibike", "timeStamp": "01/27/2020, 21:39:31", "zip": 8006}, "type": "Feature"}, {"geometry": {"coordinates": [8.522117, 47.394554], "type": "Point"}, "properties": {"address": "Dorfstrasse 40", "electric": 3, "id": "pb_361", "manual": 2, "name": "Dorfstrasse", "provider": "publibike", "timeStamp": "01/27/2020, 21:39:31", "zip": 8037}, "type": "Feature"}, {"geometry": {"coordinates": [8.530437, 47.37271], "type": "Point"}, "properties": {"address": "Werdstrasse 25", "electric": 1, "id": "pb_362", "manual": 0, "name": "Stauffachertor", "provider": "publibike", "timeStamp": "01/27/2020, 21:39:31", "zip": 8004}, "type": "Feature"}, {"geometry": {"coordinates": [8.541712, 47.416155], "type": "Point"}, "properties": {"address": "Eggb\u00fchlstrasse 21", "electric": 0, "id": "pb_363", "manual": 4, "name": "Wahlenpark", "provider": "publibike", "timeStamp": "01/27/2020, 21:39:31", "zip": 8050}, "type": "Feature"}, {"geometry": {"coordinates": [8.5595335, 47.3708387], "type": "Point"}, "properties": {"address": "Dolderstrasse 32", "electric": 7, "id": "pb_364", "manual": 1, "name": "Kinderspital", "provider": "publibike", "timeStamp": "01/27/2020, 21:39:31", "zip": 8032}, "type": "Feature"}, {"geometry": {"coordinates": [8.536433, 47.388689], "type": "Point"}, "properties": {"address": "Kornhausstrasse 30", "electric": 3, "id": "pb_365", "manual": 3, "name": "Kornhausstrasse", "provider": "publibike", "timeStamp": "01/27/2020, 21:39:31", "zip": 8006}, "type": "Feature"}, {"geometry": {"coordinates": [8.55033, 47.407098], "type": "Point"}, "properties": {"address": "Schwamendingenstrasse 41", "electric": 3, "id": "pb_366", "manual": 3, "name": "Dorflinde", "provider": "publibike", "timeStamp": "01/27/2020, 21:39:31", "zip": 8050}, "type": "Feature"}, {"geometry": {"coordinates": [8.560476, 47.368199], "type": "Point"}, "properties": {"address": "R\u00f6merhofplatz 5", "electric": 9, "id": "pb_367", "manual": 1, "name": "R\u00f6merhof", "provider": "publibike", "timeStamp": "01/27/2020, 21:39:31", "zip": 8032}, "type": "Feature"}, {"geometry": {"coordinates": [8.5609218, 47.3619068], "type": "Point"}, "properties": {"address": "Forchstrasse 99", "electric": 4, "id": "pb_368", "manual": 1, "name": "Hegibachplatz", "provider": "publibike", "timeStamp": "01/27/2020, 21:39:31", "zip": 8032}, "type": "Feature"}, {"geometry": {"coordinates": [8.5721264, 47.4039985], "type": "Point"}, "properties": {"address": "Winterthurerstrasse 519", "electric": 2, "id": "pb_370", "manual": 6, "name": "Schwamendingerplatz", "provider": "publibike", "timeStamp": "01/27/2020, 21:39:31", "zip": 8051}, "type": "Feature"}, {"geometry": {"coordinates": [8.520168, 47.378556], "type": "Point"}, "properties": {"address": "Herman-Greulich-Strasse 56", "electric": 3, "id": "pb_384", "manual": 9, "name": "Hermann-Greulich-Weg", "provider": "publibike", "timeStamp": "01/27/2020, 21:39:31", "zip": 8004}, "type": "Feature"}, {"geometry": {"coordinates": [8.547912, 47.384923], "type": "Point"}, "properties": {"address": "Culmannstrasse", "electric": 1, "id": "pb_386", "manual": 3, "name": "Rigiplatz", "provider": "publibike", "timeStamp": "01/27/2020, 21:39:31", "zip": 8006}, "type": "Feature"}, {"geometry": {"coordinates": [8.543768, 47.411057], "type": "Point"}, "properties": {"address": "Hofwiesenstrasse 369", "electric": 1, "id": "pb_387", "manual": 2, "name": "Bahnhof Oerlikon S\u00fcd", "provider": "publibike", "timeStamp": "01/27/2020, 21:39:31", "zip": 8050}, "type": "Feature"}, {"geometry": {"coordinates": [8.544185, 47.412732], "type": "Point"}, "properties": {"address": "Jungholzstrasse 6", "electric": 0, "id": "pb_388", "manual": 1, "name": "Max-Frisch-Platz", "provider": "publibike", "timeStamp": "01/27/2020, 21:39:31", "zip": 8050}, "type": "Feature"}, {"geometry": {"coordinates": [8.558096, 47.413032], "type": "Point"}, "properties": {"address": "Andreasstrasse", "electric": 3, "id": "pb_389", "manual": 12, "name": "Hunziker-Areal", "provider": "publibike", "timeStamp": "01/27/2020, 21:39:31", "zip": 8050}, "type": "Feature"}, {"geometry": {"coordinates": [8.533265, 47.412873], "type": "Point"}, "properties": {"address": "Regina-K\u00e4gi-Strasse 1", "electric": 2, "id": "pb_390", "manual": 3, "name": "Luis-H\u00e4fliger-Park", "provider": "publibike", "timeStamp": "01/27/2020, 21:39:31", "zip": 8050}, "type": "Feature"}, {"geometry": {"coordinates": [8.499265, 47.401852], "type": "Point"}, "properties": {"address": "Limmattalstrasse 177", "electric": 1, "id": "pb_391", "manual": 0, "name": "Meierhofplatz", "provider": "publibike", "timeStamp": "01/27/2020, 21:39:31", "zip": 8049}, "type": "Feature"}, {"geometry": {"coordinates": [8.528356, 47.393255], "type": "Point"}, "properties": {"address": "R\u00f6schibachstrasse 73", "electric": 11, "id": "pb_392", "manual": 4, "name": "R\u00f6schibachplatz", "provider": "publibike", "timeStamp": "01/27/2020, 21:39:31", "zip": 8037}, "type": "Feature"}, {"geometry": {"coordinates": [8.538067, 47.415721], "type": "Point"}, "properties": {"address": "Birchstrasse 191", "electric": 12, "id": "pb_393", "manual": 2, "name": "Oerliker Park", "provider": "publibike", "timeStamp": "01/27/2020, 21:39:31", "zip": 8050}, "type": "Feature"}, {"geometry": {"coordinates": [8.5420304, 47.3669233], "type": "Point"}, "properties": {"address": "Stadthausquai 1", "electric": 1, "id": "pb_395", "manual": 14, "name": "B\u00fcrkliplatz", "provider": "publibike", "timeStamp": "01/27/2020, 21:39:31", "zip": 8001}, "type": "Feature"}, {"geometry": {"coordinates": [8.535767, 47.409881], "type": "Point"}, "properties": {"address": "Regensbergstrasse 195", "electric": 1, "id": "pb_396", "manual": 2, "name": "Holunderhof", "provider": "publibike", "timeStamp": "01/27/2020, 21:39:31", "zip": 8050}, "type": "Feature"}, {"geometry": {"coordinates": [8.5116245, 47.3616199], "type": "Point"}, "properties": {"address": "Grubenstrasse 42", "electric": 2, "id": "pb_431", "manual": 0, "name": "Binz Center", "provider": "publibike", "timeStamp": "01/27/2020, 21:39:31", "zip": 8045}, "type": "Feature"}, {"geometry": {"coordinates": [8.547195, 47.382089], "type": "Point"}, "properties": {"address": "Nelkenstrasse 24", "electric": 0, "id": "pb_430", "manual": 3, "name": "Stapferstube", "provider": "publibike", "timeStamp": "01/27/2020, 21:39:31", "zip": 8006}, "type": "Feature"}, {"geometry": {"coordinates": [8.5787183, 47.4039845], "type": "Point"}, "properties": {"address": "Kronwiesenstrasse 35", "electric": 1, "id": "pb_426", "manual": 3, "name": "Kronwiesen", "provider": "publibike", "timeStamp": "01/27/2020, 21:39:31", "zip": 8051}, "type": "Feature"}, {"geometry": {"coordinates": [8.508131, 47.420757], "type": "Point"}, "properties": {"address": "Riedenhaldenstrasse 20-18", "electric": 8, "id": "pb_425", "manual": 3, "name": "Bahnhof Affoltern", "provider": "publibike", "timeStamp": "01/27/2020, 21:39:31", "zip": 8046}, "type": "Feature"}, {"geometry": {"coordinates": [8.532464, 47.406988], "type": "Point"}, "properties": {"address": "K\u00fcnzlistrasse 41", "electric": 4, "id": "pb_424", "manual": 4, "name": "Birchd\u00f6rfli", "provider": "publibike", "timeStamp": "01/27/2020, 21:39:31", "zip": 8057}, "type": "Feature"}, {"geometry": {"coordinates": [8.5777038, 47.4080095], "type": "Point"}, "properties": {"address": "Luegislandstrasse 412", "electric": 3, "id": "pb_429", "manual": 4, "name": "Luegisland", "provider": "publibike", "timeStamp": "01/27/2020, 21:39:31", "zip": 8051}, "type": "Feature"}, {"geometry": {"coordinates": [8.58841, 47.40158], "type": "Point"}, "properties": {"address": "Hirzenbachstrasse 2-4", "electric": 3, "id": "pb_428", "manual": 2, "name": "Hirzenbachstrasse", "provider": "publibike", "timeStamp": "01/27/2020, 21:39:31", "zip": 8051}, "type": "Feature"}, {"geometry": {"coordinates": [8.5563463, 47.4095467], "type": "Point"}, "properties": {"address": "K\u00fchriedweg", "electric": 4, "id": "pb_445", "manual": 10, "name": "Hallenbad Oerlikon", "provider": "publibike", "timeStamp": "01/27/2020, 21:39:31", "zip": 8050}, "type": "Feature"}, {"geometry": {"coordinates": [8.537971, 47.364871], "type": "Point"}, "properties": {"address": "General-Guisan-Quai 17", "electric": 0, "id": "pb_454", "manual": 2, "name": "General-Guisan-Quai", "provider": "publibike", "timeStamp": "01/27/2020, 21:39:31", "zip": 8002}, "type": "Feature"}, {"geometry": {"coordinates": [8.560587, 47.350578], "type": "Point"}, "properties": {"address": "Bellerivestrasse 245", "electric": 5, "id": "pb_450", "manual": 7, "name": "Bahnhof Tiefenbrunnen", "provider": "publibike", "timeStamp": "01/27/2020, 21:39:31", "zip": 8008}, "type": "Feature"}, {"geometry": {"coordinates": [8.5269416, 47.3563719], "type": "Point"}, "properties": {"address": "Waffenplatzstrasse 89", "electric": 5, "id": "pb_452", "manual": 6, "name": "Rieterplatz", "provider": "publibike", "timeStamp": "01/27/2020, 21:39:31", "zip": 8002}, "type": "Feature"}, {"geometry": {"coordinates": [8.514176, 47.3663708], "type": "Point"}, "properties": {"address": "Talwiesenstrasse 92", "electric": 8, "id": "pb_446", "manual": 1, "name": "Binzallee", "provider": "publibike", "timeStamp": "01/27/2020, 21:39:31", "zip": 8055}, "type": "Feature"}, {"geometry": {"coordinates": [8.5070564, 47.371455], "type": "Point"}, "properties": {"address": "Gutstrasse 87", "electric": 5, "id": "pb_447", "manual": 9, "name": "Gutstrasse", "provider": "publibike", "timeStamp": "01/27/2020, 21:39:31", "zip": 8055}, "type": "Feature"}, {"geometry": {"coordinates": [8.4941268, 47.3836391], "type": "Point"}, "properties": {"address": "Flurstrasse 62", "electric": 2, "id": "pb_453", "manual": 3, "name": "Flurpark", "provider": "publibike", "timeStamp": "01/27/2020, 21:39:31", "zip": 8048}, "type": "Feature"}, {"geometry": {"coordinates": [8.500343, 47.380778], "type": "Point"}, "properties": {"address": "Edelweissstrasse 32", "electric": 2, "id": "pb_448", "manual": 2, "name": "Bl\u00fcemliquartier", "provider": "publibike", "timeStamp": "01/27/2020, 21:39:31", "zip": 8048}, "type": "Feature"}, {"geometry": {"coordinates": [8.528796, 47.383858], "type": "Point"}, "properties": {"address": "Gasometerstrasse 24", "electric": 2, "id": "pb_449", "manual": 6, "name": "Gasometerstrasse", "provider": "publibike", "timeStamp": "01/27/2020, 21:39:31", "zip": 8005}, "type": "Feature"}, {"geometry": {"coordinates": [8.4981964, 47.3859194], "type": "Point"}, "properties": {"address": "Baslerstrasse 57", "electric": 9, "id": "pb_455", "manual": 3, "name": "Letzipark", "provider": "publibike", "timeStamp": "01/27/2020, 21:39:31", "zip": 8048}, "type": "Feature"}, {"geometry": {"coordinates": [8.515252, 47.381915], "type": "Point"}, "properties": {"address": "Sihlfeldstrasse 175", "electric": 2, "id": "pb_451", "manual": 4, "name": "Hardplatz", "provider": "publibike", "timeStamp": "01/27/2020, 21:39:31", "zip": 8004}, "type": "Feature"}, {"geometry": {"coordinates": [8.5064743, 47.4188324], "type": "Point"}, "properties": {"address": "Wehntalerstrasse 541", "electric": 6, "id": "pb_427", "manual": 5, "name": "Zehntenhausplatz", "provider": "publibike", "timeStamp": "01/27/2020, 21:39:31", "zip": 8046}, "type": "Feature"}, {"geometry": {"coordinates": [8.537729, 47.379719], "type": "Point"}, "properties": {"address": "Sihlquai/HB", "electric": 8, "id": "pb_513", "manual": 10, "name": "Sihlquai", "provider": "publibike", "timeStamp": "01/27/2020, 21:39:31", "zip": 8005}, "type": "Feature"}, {"geometry": {"coordinates": [8.596202, 47.397885], "type": "Point"}, "properties": {"address": "Bahnhof Stettbach", "electric": 0, "id": "pb_514", "manual": 1, "name": "Bahnhof Stettbach", "provider": "publibike", "timeStamp": "01/27/2020, 21:39:31", "zip": 8051}, "type": "Feature"}, {"geometry": {"coordinates": [8.5543974, 47.3690153], "type": "Point"}, "properties": {"address": "Kasinostrasse 10", "electric": 2, "id": "pb_515", "manual": 0, "name": "Hottingerplatz", "provider": "publibike", "timeStamp": "01/27/2020, 21:39:31", "zip": 8032}, "type": "Feature"}, {"geometry": {"coordinates": [8.534444, 47.351525], "type": "Point"}, "properties": {"address": "Mobile Station Z\u00fcrich 1", "electric": 0, "id": "pb_282", "manual": 0, "name": "Theaterspektakel", "provider": "publibike", "timeStamp": "01/27/2020, 21:39:31", "zip": 8002}, "type": "Feature"}, {"geometry": {"coordinates": [8.516257, 47.367656], "type": "Point"}, "properties": {"address": "Goldbrunnenstrasse 54", "electric": 6, "id": "pb_538", "manual": 0, "name": "Kirche B\u00fchl", "provider": "publibike", "timeStamp": "01/27/2020, 21:39:31", "zip": 8055}, "type": "Feature"}, {"geometry": {"coordinates": [8.555639, 47.416873], "type": "Point"}, "properties": {"address": "Leutschenbachstrasse 50", "electric": 0, "id": "pb_537", "manual": 4, "name": "Leutschenpark", "provider": "publibike", "timeStamp": "01/27/2020, 21:39:31", "zip": 8050}, "type": "Feature"}, {"geometry": {"coordinates": [8.546464, 47.403822], "type": "Point"}, "properties": {"address": "Berninastrasse 45", "electric": 9, "id": "pb_540", "manual": 1, "name": "Berninaplatz", "provider": "publibike", "timeStamp": "01/27/2020, 21:39:31", "zip": 8057}, "type": "Feature"}, {"geometry": {"coordinates": [8.523134, 47.369004], "type": "Point"}, "properties": {"address": "Erlachstrasse 3", "electric": 5, "id": "pb_385", "manual": 2, "name": "Aegerten", "provider": "publibike", "timeStamp": "01/27/2020, 21:39:31", "zip": 8003}, "type": "Feature"}, {"geometry": {"coordinates": [8.49038, 47.381591], "type": "Point"}, "properties": {"address": "Rautistrasse 60", "electric": 7, "id": "pb_536", "manual": 7, "name": "Freilager", "provider": "publibike", "timeStamp": "01/27/2020, 21:39:31", "zip": 8048}, "type": "Feature"}, {"geometry": {"coordinates": [8.496511, 47.375247], "type": "Point"}, "properties": {"address": "Letzigraben 139", "electric": 0, "id": "pb_444", "manual": 4, "name": "Sackzelg", "provider": "publibike", "timeStamp": "01/27/2020, 21:39:31", "zip": 8047}, "type": "Feature"}, {"geometry": {"coordinates": [8.58131, 47.402801], "type": "Point"}, "properties": {"address": "Altwiesenstrasse 104", "electric": 3, "id": "pb_539", "manual": 5, "name": "Glattwiesen", "provider": "publibike", "timeStamp": "01/27/2020, 21:39:31", "zip": 8051}, "type": "Feature"}, {"geometry": {"coordinates": [8.52689, 47.3767], "type": "Point"}, "properties": {"address": "Molkenstrasse 5", "electric": 3, "id": "pb_560", "manual": 1, "name": "Helvetiaplatz", "provider": "publibike", "timeStamp": "01/27/2020, 21:39:31", "zip": 8004}, "type": "Feature"}, {"geometry": {"coordinates": [8.525602, 47.374241], "type": "Point"}, "properties": {"address": "Badenerstrasse 90", "electric": 2, "id": "pb_559", "manual": 2, "name": "Bezirksgeb\u00e4ude", "provider": "publibike", "timeStamp": "01/27/2020, 21:39:31", "zip": 8004}, "type": "Feature"}, {"geometry": {"coordinates": [8.535082, 47.345248], "type": "Point"}, "properties": {"address": "Bachstrasse 15", "electric": 6, "id": "pb_564", "manual": 1, "name": "GZ Wollishofen", "provider": "publibike", "timeStamp": "01/27/2020, 21:39:31", "zip": 8038}, "type": "Feature"}, {"geometry": {"coordinates": [8.514841, 47.370238], "type": "Point"}, "properties": {"address": "Schrennengasse 37", "electric": 5, "id": "pb_562", "manual": 3, "name": "Goldbrunnenplatz", "provider": "publibike", "timeStamp": "01/27/2020, 21:39:31", "zip": 8003}, "type": "Feature"}, {"geometry": {"coordinates": [8.514138, 47.374206], "type": "Point"}, "properties": {"address": "Idaplatz 4", "electric": 2, "id": "pb_557", "manual": 1, "name": "Idaplatz", "provider": "publibike", "timeStamp": "01/27/2020, 21:39:31", "zip": 8003}, "type": "Feature"}, {"geometry": {"coordinates": [8.518432, 47.369549], "type": "Point"}, "properties": {"address": "Brinerstrasse 2", "electric": 3, "id": "pb_558", "manual": 8, "name": "Schmiede Wiedikon", "provider": "publibike", "timeStamp": "01/27/2020, 21:39:31", "zip": 8003}, "type": "Feature"}, {"geometry": {"coordinates": [8.537546, 47.391289], "type": "Point"}, "properties": {"address": "Rotbuchstrasse 15", "electric": 4, "id": "pb_556", "manual": 2, "name": "Schaffhauserplatz", "provider": "publibike", "timeStamp": "01/27/2020, 21:39:31", "zip": 8006}, "type": "Feature"}, {"geometry": {"coordinates": [8.541541, 47.413733], "type": "Point"}, "properties": {"address": "Therese-Giehse-Strasse 11", "electric": 1, "id": "pb_561", "manual": 0, "name": "Center Eleven", "provider": "publibike", "timeStamp": "01/27/2020, 21:39:31", "zip": 8050}, "type": "Feature"}, {"geometry": {"coordinates": [8.534227, 47.360004], "type": "Point"}, "properties": {"address": "Alfred Escher-Strasse 76", "electric": 0, "id": "pb_563", "manual": 0, "name": "Mythenschloss", "provider": "publibike", "timeStamp": "01/27/2020, 21:39:31", "zip": 8002}, "type": "Feature"}, {"geometry": {"coordinates": [8.50373, 47.396172], "type": "Point"}, "properties": {"address": "Hardeggstrasse 6", "electric": 2, "id": "pb_566", "manual": 5, "name": "Am Wasser", "provider": "publibike", "timeStamp": "01/27/2020, 21:39:31", "zip": 8049}, "type": "Feature"}, {"geometry": {"coordinates": [8.532432, 47.381174], "type": "Point"}, "properties": {"address": "Klingenstrasse 9", "electric": 2, "id": "pb_565", "manual": 4, "name": "Zollstrasse", "provider": "publibike", "timeStamp": "01/27/2020, 21:39:31", "zip": 8005}, "type": "Feature"}, {"geometry": {"coordinates": [8.497982, 47.381447], "type": "Point"}, "properties": {"address": "Dennlerstrasse 23", "electric": 2, "id": "pb_567", "manual": 6, "name": "Dennlerstrasse", "provider": "publibike", "timeStamp": "01/27/2020, 21:39:31", "zip": 8047}, "type": "Feature"}, {"geometry": {"coordinates": [8.528049, 47.347701], "type": "Point"}, "properties": {"address": "Mutschellenstrasse 114", "electric": 7, "id": "pb_568", "manual": 4, "name": "Jugendherberge", "provider": "publibike", "timeStamp": "01/27/2020, 21:39:31", "zip": 8038}, "type": "Feature"}, {"geometry": {"coordinates": [8.539016, 47.405751], "type": "Point"}, "properties": {"address": "Ringstrasse 82", "electric": 5, "id": "pb_569", "manual": 2, "name": "Freibad Allenmoos", "provider": "publibike", "timeStamp": "01/27/2020, 21:39:31", "zip": 8057}, "type": "Feature"}, {"geometry": {"coordinates": [8.534974, 47.402164], "type": "Point"}, "properties": {"address": "Brache Guggach", "electric": 3, "id": "pb_572", "manual": 2, "name": "Radiostudio", "provider": "publibike", "timeStamp": "01/27/2020, 21:39:31", "zip": 8057}, "type": "Feature"}, {"geometry": {"coordinates": [8.547901, 47.375556], "type": "Point"}, "properties": {"address": "Karl-Schmid-Strasse 4", "electric": 0, "id": "pb_571", "manual": 0, "name": "ETH/Zoologisches Museum", "provider": "publibike", "timeStamp": "01/27/2020, 21:39:31", "zip": 8006}, "type": "Feature"}, {"geometry": {"coordinates": [8.531371, 47.364083], "type": "Point"}, "properties": {"charge": 48, "id": "smide_2901", "name": "ZH 267278", "provider": "smide", "range": 24.0, "size": 20, "time": "01/27/2020, 21:39:06"}, "type": "Feature"}, {"geometry": {"coordinates": [8.561823, 47.350431], "type": "Point"}, "properties": {"charge": 26, "id": "smide_2895", "name": "ZH 267279", "provider": "smide", "range": 13.0, "size": 20, "time": "01/27/2020, 21:39:06"}, "type": "Feature"}, {"geometry": {"coordinates": [8.496381, 47.368376], "type": "Point"}, "properties": {"charge": 100, "id": "smide_2883", "name": "ZH 267272", "provider": "smide", "range": 50.0, "size": 20, "time": "01/27/2020, 21:39:06"}, "type": "Feature"}, {"geometry": {"coordinates": [8.538221, 47.390653], "type": "Point"}, "properties": {"charge": 58, "id": "smide_2880", "name": "ZH267289", "provider": "smide", "range": 28.0, "size": 17, "time": "01/27/2020, 21:39:06"}, "type": "Feature"}, {"geometry": {"coordinates": [8.560383, 47.351591], "type": "Point"}, "properties": {"charge": 80, "id": "smide_2874", "name": "ZH 267288", "provider": "smide", "range": 40.0, "size": 17, "time": "01/27/2020, 21:39:06"}, "type": "Feature"}, {"geometry": {"coordinates": [8.494998, 47.398381], "type": "Point"}, "properties": {"charge": 76, "id": "smide_2871", "name": "ZH 267086", "provider": "smide", "range": 38.0, "size": 20, "time": "01/27/2020, 21:39:06"}, "type": "Feature"}, {"geometry": {"coordinates": [8.557445, 47.419073], "type": "Point"}, "properties": {"charge": 81, "id": "smide_2867", "name": "ZH 267090", "provider": "smide", "range": 40.0, "size": 20, "time": "01/27/2020, 21:39:06"}, "type": "Feature"}, {"geometry": {"coordinates": [8.554958, 47.377241], "type": "Point"}, "properties": {"charge": 100, "id": "smide_2861", "name": "ZH 267096", "provider": "smide", "range": 50.0, "size": 17, "time": "01/27/2020, 21:39:06"}, "type": "Feature"}, {"geometry": {"coordinates": [8.483646, 47.397328], "type": "Point"}, "properties": {"charge": 65, "id": "smide_2860", "name": "ZH 267097", "provider": "smide", "range": 32.0, "size": 17, "time": "01/27/2020, 21:39:06"}, "type": "Feature"}, {"geometry": {"coordinates": [8.517111, 47.377448], "type": "Point"}, "properties": {"charge": 34, "id": "smide_2859", "name": "ZH 267098", "provider": "smide", "range": 17.0, "size": 17, "time": "01/27/2020, 21:39:06"}, "type": "Feature"}, {"geometry": {"coordinates": [8.579968, 47.350723], "type": "Point"}, "properties": {"charge": 28, "id": "smide_2856", "name": "ZH 267101", "provider": "smide", "range": 14.0, "size": 17, "time": "01/27/2020, 21:39:06"}, "type": "Feature"}, {"geometry": {"coordinates": [8.510793, 47.407491], "type": "Point"}, "properties": {"charge": 100, "id": "smide_2855", "name": "ZH 267102", "provider": "smide", "range": 50.0, "size": 17, "time": "01/27/2020, 21:39:06"}, "type": "Feature"}, {"geometry": {"coordinates": [8.510481, 47.398455], "type": "Point"}, "properties": {"charge": 100, "id": "smide_2854", "name": "ZH 267103", "provider": "smide", "range": 50.0, "size": 17, "time": "01/27/2020, 21:39:06"}, "type": "Feature"}, {"geometry": {"coordinates": [8.564296, 47.369316], "type": "Point"}, "properties": {"charge": 72, "id": "smide_2833", "name": "ZH 267182", "provider": "smide", "range": 36.0, "size": 20, "time": "01/27/2020, 21:39:06"}, "type": "Feature"}, {"geometry": {"coordinates": [8.57016, 47.352305], "type": "Point"}, "properties": {"charge": 85, "id": "smide_2831", "name": "ZH 267180", "provider": "smide", "range": 42.0, "size": 20, "time": "01/27/2020, 21:39:06"}, "type": "Feature"}, {"geometry": {"coordinates": [8.540771, 47.376375], "type": "Point"}, "properties": {"charge": 18, "id": "smide_2829", "name": "ZH 267049", "provider": "smide", "range": 9.0, "size": 20, "time": "01/27/2020, 21:39:06"}, "type": "Feature"}, {"geometry": {"coordinates": [8.553375, 47.398385], "type": "Point"}, "properties": {"charge": 97, "id": "smide_2798", "name": "ZH266888", "provider": "smide", "range": 48.0, "size": 17, "time": "01/27/2020, 21:39:06"}, "type": "Feature"}, {"geometry": {"coordinates": [8.521985, 47.395278], "type": "Point"}, "properties": {"charge": 100, "id": "smide_2793", "name": "ZH266883", "provider": "smide", "range": 50.0, "size": 17, "time": "01/27/2020, 21:39:06"}, "type": "Feature"}, {"geometry": {"coordinates": [8.497253, 47.401831], "type": "Point"}, "properties": {"charge": 84, "id": "smide_2790", "name": "ZH266880", "provider": "smide", "range": 42.0, "size": 17, "time": "01/27/2020, 21:39:06"}, "type": "Feature"}, {"geometry": {"coordinates": [8.560428, 47.372288], "type": "Point"}, "properties": {"charge": 100, "id": "smide_2781", "name": "ZH 266871", "provider": "smide", "range": 50.0, "size": 17, "time": "01/27/2020, 21:39:06"}, "type": "Feature"}, {"geometry": {"coordinates": [8.491521, 47.392011], "type": "Point"}, "properties": {"charge": 83, "id": "smide_2780", "name": "ST1 X #1", "provider": "smide", "range": 41.0, "size": 17, "time": "01/27/2020, 21:39:06"}, "type": "Feature"}, {"geometry": {"coordinates": [8.547201, 47.423136], "type": "Point"}, "properties": {"charge": 38, "id": "smide_2773", "name": "ZH266561", "provider": "smide", "range": 19.0, "size": 17, "time": "01/27/2020, 21:39:06"}, "type": "Feature"}, {"geometry": {"coordinates": [8.505611, 47.407192], "type": "Point"}, "properties": {"charge": 65, "id": "smide_2763", "name": "ZH266641", "provider": "smide", "range": 32.0, "size": 17, "time": "01/27/2020, 21:39:06"}, "type": "Feature"}, {"geometry": {"coordinates": [8.51389, 47.365173], "type": "Point"}, "properties": {"charge": 80, "id": "smide_2761", "name": "ZH266642", "provider": "smide", "range": 40.0, "size": 20, "time": "01/27/2020, 21:39:06"}, "type": "Feature"}, {"geometry": {"coordinates": [8.546543, 47.37658], "type": "Point"}, "properties": {"charge": 64, "id": "smide_2758", "name": "ZH266638 M", "provider": "smide", "range": 32.0, "size": 17, "time": "01/27/2020, 21:39:06"}, "type": "Feature"}, {"geometry": {"coordinates": [8.552613, 47.3887], "type": "Point"}, "properties": {"charge": 31, "id": "smide_2751", "name": "BE343857", "provider": "smide", "range": 15.0, "size": 17, "time": "01/27/2020, 21:39:06"}, "type": "Feature"}, {"geometry": {"coordinates": [8.489847, 47.38152], "type": "Point"}, "properties": {"charge": 77, "id": "smide_2749", "name": "BE343867", "provider": "smide", "range": 38.0, "size": 17, "time": "01/27/2020, 21:39:06"}, "type": "Feature"}, {"geometry": {"coordinates": [8.53621, 47.389864], "type": "Point"}, "properties": {"charge": 87, "id": "smide_2748", "name": "BE335758", "provider": "smide", "range": 43.0, "size": 17, "time": "01/27/2020, 21:39:06"}, "type": "Feature"}, {"geometry": {"coordinates": [8.549901, 47.421016], "type": "Point"}, "properties": {"charge": 70, "id": "smide_2747", "name": "BE335820", "provider": "smide", "range": 35.0, "size": 17, "time": "01/27/2020, 21:39:06"}, "type": "Feature"}, {"geometry": {"coordinates": [8.490753, 47.376424], "type": "Point"}, "properties": {"charge": 62, "id": "smide_2745", "name": "BE335818", "provider": "smide", "range": 31.0, "size": 17, "time": "01/27/2020, 21:39:06"}, "type": "Feature"}, {"geometry": {"coordinates": [8.55382, 47.381964], "type": "Point"}, "properties": {"charge": 63, "id": "smide_2743", "name": "BE343864", "provider": "smide", "range": 31.0, "size": 17, "time": "01/27/2020, 21:39:06"}, "type": "Feature"}, {"geometry": {"coordinates": [8.574558, 47.352484], "type": "Point"}, "properties": {"charge": 72, "id": "smide_2742", "name": "BE343866", "provider": "smide", "range": 36.0, "size": 17, "time": "01/27/2020, 21:39:06"}, "type": "Feature"}, {"geometry": {"coordinates": [8.553053, 47.377016], "type": "Point"}, "properties": {"charge": 52, "id": "smide_2740", "name": "BE343875", "provider": "smide", "range": 26.0, "size": 17, "time": "01/27/2020, 21:39:06"}, "type": "Feature"}, {"geometry": {"coordinates": [8.542061, 47.42442], "type": "Point"}, "properties": {"charge": 100, "id": "smide_2738", "name": "BE343865", "provider": "smide", "range": 50.0, "size": 17, "time": "01/27/2020, 21:39:06"}, "type": "Feature"}, {"geometry": {"coordinates": [8.565419, 47.37694], "type": "Point"}, "properties": {"charge": 100, "id": "smide_2737", "name": "BE336149", "provider": "smide", "range": 50.0, "size": 17, "time": "01/27/2020, 21:39:06"}, "type": "Feature"}, {"geometry": {"coordinates": [8.563124, 47.382564], "type": "Point"}, "properties": {"charge": 77, "id": "smide_2733", "name": "BE343873", "provider": "smide", "range": 38.0, "size": 17, "time": "01/27/2020, 21:39:06"}, "type": "Feature"}, {"geometry": {"coordinates": [8.539043, 47.374424], "type": "Point"}, "properties": {"charge": 51, "id": "smide_2732", "name": "BE343870", "provider": "smide", "range": 25.0, "size": 17, "time": "01/27/2020, 21:39:06"}, "type": "Feature"}, {"geometry": {"coordinates": [8.545156, 47.372516], "type": "Point"}, "properties": {"charge": 89, "id": "smide_2729", "name": "BE343878", "provider": "smide", "range": 44.0, "size": 17, "time": "01/27/2020, 21:39:06"}, "type": "Feature"}, {"geometry": {"coordinates": [8.54648, 47.367268], "type": "Point"}, "properties": {"charge": 90, "id": "smide_2725", "name": "ZH261545", "provider": "smide", "range": 45.0, "size": 0, "time": "01/27/2020, 21:39:06"}, "type": "Feature"}, {"geometry": {"coordinates": [8.569638, 47.37318], "type": "Point"}, "properties": {"charge": 22, "id": "smide_2718", "name": "ZH259019", "provider": "smide", "range": 11.0, "size": 20, "time": "01/27/2020, 21:39:06"}, "type": "Feature"}, {"geometry": {"coordinates": [8.508401, 47.384324], "type": "Point"}, "properties": {"charge": 93, "id": "smide_2717", "name": "ZH263287", "provider": "smide", "range": 46.0, "size": 17, "time": "01/27/2020, 21:39:06"}, "type": "Feature"}, {"geometry": {"coordinates": [8.537427, 47.340596], "type": "Point"}, "properties": {"charge": 88, "id": "smide_2715", "name": "ZH254605", "provider": "smide", "range": 44.0, "size": 17, "time": "01/27/2020, 21:39:06"}, "type": "Feature"}, {"geometry": {"coordinates": [8.563033, 47.365096], "type": "Point"}, "properties": {"charge": 24, "id": "smide_2714", "name": "ZH256461", "provider": "smide", "range": 12.0, "size": 17, "time": "01/27/2020, 21:39:06"}, "type": "Feature"}, {"geometry": {"coordinates": [8.553441, 47.402132], "type": "Point"}, "properties": {"charge": 60, "id": "smide_2710", "name": "ZH256460", "provider": "smide", "range": 30.0, "size": 17, "time": "01/27/2020, 21:39:06"}, "type": "Feature"}, {"geometry": {"coordinates": [8.555716, 47.384344], "type": "Point"}, "properties": {"charge": 61, "id": "smide_2712", "name": "ZH256462", "provider": "smide", "range": 30.0, "size": 17, "time": "01/27/2020, 21:39:06"}, "type": "Feature"}, {"geometry": {"coordinates": [8.564181, 47.361548], "type": "Point"}, "properties": {"charge": 35, "id": "smide_2711", "name": "ZH256463", "provider": "smide", "range": 17.0, "size": 17, "time": "01/27/2020, 21:39:06"}, "type": "Feature"}, {"geometry": {"coordinates": [8.561968, 47.350333], "type": "Point"}, "properties": {"charge": 27, "id": "smide_2709", "name": "ZH256466", "provider": "smide", "range": 13.0, "size": 20, "time": "01/27/2020, 21:39:06"}, "type": "Feature"}, {"geometry": {"coordinates": [8.516455, 47.39818], "type": "Point"}, "properties": {"charge": 76, "id": "smide_2707", "name": "ZH256467", "provider": "smide", "range": 38.0, "size": 20, "time": "01/27/2020, 21:39:06"}, "type": "Feature"}, {"geometry": {"coordinates": [8.551708, 47.4062], "type": "Point"}, "properties": {"charge": 81, "id": "smide_2708", "name": "ZH256464", "provider": "smide", "range": 40.0, "size": 17, "time": "01/27/2020, 21:39:06"}, "type": "Feature"}, {"geometry": {"coordinates": [8.554488, 47.402928], "type": "Point"}, "properties": {"charge": 100, "id": "smide_2705", "name": "ZH256471", "provider": "smide", "range": 50.0, "size": 20, "time": "01/27/2020, 21:39:06"}, "type": "Feature"}, {"geometry": {"coordinates": [8.55661, 47.41992], "type": "Point"}, "properties": {"charge": 89, "id": "smide_2701", "name": "ZH256468", "provider": "smide", "range": 44.0, "size": 20, "time": "01/27/2020, 21:39:06"}, "type": "Feature"}, {"geometry": {"coordinates": [8.516947, 47.398264], "type": "Point"}, "properties": {"charge": 31, "id": "smide_2700", "name": "ZH256470", "provider": "smide", "range": 15.0, "size": 20, "time": "01/27/2020, 21:39:06"}, "type": "Feature"}, {"geometry": {"coordinates": [8.517104, 47.37528], "type": "Point"}, "properties": {"charge": 92, "id": "smide_2699", "name": "ZH254611", "provider": "smide", "range": 46.0, "size": 20, "time": "01/27/2020, 21:39:06"}, "type": "Feature"}, {"geometry": {"coordinates": [8.515065, 47.414572], "type": "Point"}, "properties": {"charge": 69, "id": "smide_2697", "name": "ZH254629", "provider": "smide", "range": 34.0, "size": 20, "time": "01/27/2020, 21:39:06"}, "type": "Feature"}, {"geometry": {"coordinates": [8.52881, 47.372492], "type": "Point"}, "properties": {"charge": 99, "id": "smide_2696", "name": "ZH254616", "provider": "smide", "range": 49.0, "size": 20, "time": "01/27/2020, 21:39:06"}, "type": "Feature"}, {"geometry": {"coordinates": [8.538834, 47.379208], "type": "Point"}, "properties": {"charge": 100, "id": "smide_2694", "name": "ZH254610", "provider": "smide", "range": 50.0, "size": 20, "time": "01/27/2020, 21:39:06"}, "type": "Feature"}, {"geometry": {"coordinates": [8.559096, 47.418333], "type": "Point"}, "properties": {"charge": 61, "id": "smide_2691", "name": "ZH254622", "provider": "smide", "range": 30.0, "size": 20, "time": "01/27/2020, 21:39:06"}, "type": "Feature"}, {"geometry": {"coordinates": [8.565341, 47.358115], "type": "Point"}, "properties": {"charge": 76, "id": "smide_2690", "name": "ZH254625", "provider": "smide", "range": 38.0, "size": 20, "time": "01/27/2020, 21:39:06"}, "type": "Feature"}, {"geometry": {"coordinates": [8.495337, 47.423956], "type": "Point"}, "properties": {"charge": 100, "id": "smide_2689", "name": "ZH254623", "provider": "smide", "range": 50.0, "size": 20, "time": "01/27/2020, 21:39:06"}, "type": "Feature"}, {"geometry": {"coordinates": [8.53937, 47.41582], "type": "Point"}, "properties": {"charge": 100, "id": "smide_2687", "name": "ZH263529", "provider": "smide", "range": 50.0, "size": 20, "time": "01/27/2020, 21:39:06"}, "type": "Feature"}, {"geometry": {"coordinates": [8.572581, 47.352612], "type": "Point"}, "properties": {"charge": 100, "id": "smide_2684", "name": "ZH254626", "provider": "smide", "range": 50.0, "size": 20, "time": "01/27/2020, 21:39:06"}, "type": "Feature"}, {"geometry": {"coordinates": [8.553276, 47.364303], "type": "Point"}, "properties": {"charge": 20, "id": "smide_2683", "name": "ZH254620", "provider": "smide", "range": 10.0, "size": 20, "time": "01/27/2020, 21:39:06"}, "type": "Feature"}, {"geometry": {"coordinates": [8.572288, 47.40418], "type": "Point"}, "properties": {"charge": 89, "id": "smide_2680", "name": "ZH254619", "provider": "smide", "range": 44.0, "size": 20, "time": "01/27/2020, 21:39:06"}, "type": "Feature"}, {"geometry": {"coordinates": [8.576465, 47.35124], "type": "Point"}, "properties": {"charge": 89, "id": "smide_2679", "name": "ZH258489", "provider": "smide", "range": 44.0, "size": 17, "time": "01/27/2020, 21:39:06"}, "type": "Feature"}, {"geometry": {"coordinates": [8.512905, 47.366268], "type": "Point"}, "properties": {"charge": 99, "id": "smide_2671", "name": "ZH258645", "provider": "smide", "range": 49.0, "size": 17, "time": "01/27/2020, 21:39:06"}, "type": "Feature"}, {"geometry": {"coordinates": [8.476661, 47.387372], "type": "Point"}, "properties": {"charge": 83, "id": "smide_2669", "name": "ZH263294", "provider": "smide", "range": 41.0, "size": 17, "time": "01/27/2020, 21:39:06"}, "type": "Feature"}, {"geometry": {"coordinates": [8.503524, 47.37154], "type": "Point"}, "properties": {"charge": 34, "id": "smide_2668", "name": "ZH258640", "provider": "smide", "range": 17.0, "size": 17, "time": "01/27/2020, 21:39:06"}, "type": "Feature"}, {"geometry": {"coordinates": [8.56381, 47.372036], "type": "Point"}, "properties": {"charge": 56, "id": "smide_2666", "name": "ZH258653", "provider": "smide", "range": 28.0, "size": 17, "time": "01/27/2020, 21:39:06"}, "type": "Feature"}, {"geometry": {"coordinates": [8.521582, 47.361608], "type": "Point"}, "properties": {"charge": 100, "id": "smide_2665", "name": "ZH258644", "provider": "smide", "range": 50.0, "size": 17, "time": "01/27/2020, 21:39:06"}, "type": "Feature"}, {"geometry": {"coordinates": [8.531466, 47.395652], "type": "Point"}, "properties": {"charge": 76, "id": "smide_2664", "name": "ZH258652", "provider": "smide", "range": 38.0, "size": 17, "time": "01/27/2020, 21:39:06"}, "type": "Feature"}, {"geometry": {"coordinates": [8.483095, 47.3781], "type": "Point"}, "properties": {"charge": 63, "id": "smide_2662", "name": "ZH258643", "provider": "smide", "range": 31.0, "size": 17, "time": "01/27/2020, 21:39:06"}, "type": "Feature"}, {"geometry": {"coordinates": [8.57179, 47.35822], "type": "Point"}, "properties": {"charge": 50, "id": "smide_2648", "name": "ZH257930", "provider": "smide", "range": 25.0, "size": 20, "time": "01/27/2020, 21:39:06"}, "type": "Feature"}, {"geometry": {"coordinates": [8.576171, 47.353028], "type": "Point"}, "properties": {"charge": 94, "id": "smide_2657", "name": "ZH257936", "provider": "smide", "range": 47.0, "size": 17, "time": "01/27/2020, 21:39:06"}, "type": "Feature"}, {"geometry": {"coordinates": [8.52883, 47.375372], "type": "Point"}, "properties": {"charge": 85, "id": "smide_2647", "name": "ZH257932", "provider": "smide", "range": 42.0, "size": 20, "time": "01/27/2020, 21:39:06"}, "type": "Feature"}, {"geometry": {"coordinates": [8.53576, 47.357428], "type": "Point"}, "properties": {"charge": 98, "id": "smide_2645", "name": "ZH257933", "provider": "smide", "range": 49.0, "size": 20, "time": "01/27/2020, 21:39:06"}, "type": "Feature"}, {"geometry": {"coordinates": [8.510311, 47.371253], "type": "Point"}, "properties": {"charge": 67, "id": "smide_105", "name": "ZH253804", "provider": "smide", "range": 33.0, "size": 17, "time": "01/27/2020, 21:39:06"}, "type": "Feature"}, {"geometry": {"coordinates": [8.483539, 47.381648], "type": "Point"}, "properties": {"charge": 63, "id": "smide_186", "name": "ZH253751", "provider": "smide", "range": 31.0, "size": 20, "time": "01/27/2020, 21:39:06"}, "type": "Feature"}, {"geometry": {"coordinates": [8.571788, 47.35824], "type": "Point"}, "properties": {"charge": 100, "id": "smide_173", "name": "ZH258501", "provider": "smide", "range": 50.0, "size": 17, "time": "01/27/2020, 21:39:06"}, "type": "Feature"}, {"geometry": {"coordinates": [8.559241, 47.406], "type": "Point"}, "properties": {"charge": 84, "id": "smide_77", "name": "ZH261548", "provider": "smide", "range": 42.0, "size": 20, "time": "01/27/2020, 21:39:06"}, "type": "Feature"}, {"geometry": {"coordinates": [8.508351, 47.400564], "type": "Point"}, "properties": {"charge": 32, "id": "smide_200", "name": "ZH253801", "provider": "smide", "range": 16.0, "size": 20, "time": "01/27/2020, 21:39:06"}, "type": "Feature"}, {"geometry": {"coordinates": [8.538936, 47.337965], "type": "Point"}, "properties": {"charge": 100, "id": "smide_197", "name": "ZH253864", "provider": "smide", "range": 50.0, "size": 20, "time": "01/27/2020, 21:39:06"}, "type": "Feature"}, {"geometry": {"coordinates": [8.550402, 47.356216], "type": "Point"}, "properties": {"charge": 94, "id": "smide_199", "name": "ZH253766", "provider": "smide", "range": 47.0, "size": 20, "time": "01/27/2020, 21:39:06"}, "type": "Feature"}, {"geometry": {"coordinates": [8.54406, 47.4103], "type": "Point"}, "properties": {"charge": 100, "id": "smide_8", "name": "ZH253861", "provider": "smide", "range": 50.0, "size": 17, "time": "01/27/2020, 21:39:06"}, "type": "Feature"}, {"geometry": {"coordinates": [8.52729, 47.354091], "type": "Point"}, "properties": {"charge": 26, "id": "smide_45", "name": "ZH253716", "provider": "smide", "range": 13.0, "size": 17, "time": "01/27/2020, 21:39:06"}, "type": "Feature"}, {"geometry": {"coordinates": [8.504663, 47.399772], "type": "Point"}, "properties": {"charge": 100, "id": "smide_188", "name": "ZH261543", "provider": "smide", "range": 50.0, "size": 20, "time": "01/27/2020, 21:39:06"}, "type": "Feature"}, {"geometry": {"coordinates": [8.574972, 47.372056], "type": "Point"}, "properties": {"charge": 100, "id": "smide_71", "name": "ZH253742", "provider": "smide", "range": 50.0, "size": 20, "time": "01/27/2020, 21:39:06"}, "type": "Feature"}, {"geometry": {"coordinates": [8.509145, 47.38484], "type": "Point"}, "properties": {"charge": 58, "id": "smide_101", "name": "ZH253814", "provider": "smide", "range": 28.0, "size": 17, "time": "01/27/2020, 21:39:06"}, "type": "Feature"}, {"geometry": {"coordinates": [8.532109, 47.399844], "type": "Point"}, "properties": {"charge": 100, "id": "smide_9", "name": "ZH253796", "provider": "smide", "range": 50.0, "size": 17, "time": "01/27/2020, 21:39:06"}, "type": "Feature"}, {"geometry": {"coordinates": [8.506036, 47.381444], "type": "Point"}, "properties": {"charge": 65, "id": "smide_143", "name": "ZH253778", "provider": "smide", "range": 32.0, "size": 17, "time": "01/27/2020, 21:39:06"}, "type": "Feature"}, {"geometry": {"coordinates": [8.572231, 47.357966], "type": "Point"}, "properties": {"charge": 73, "id": "smide_180", "name": "ZH253824", "provider": "smide", "range": 36.0, "size": 20, "time": "01/27/2020, 21:39:06"}, "type": "Feature"}, {"geometry": {"coordinates": [8.550143, 47.398324], "type": "Point"}, "properties": {"charge": 58, "id": "smide_20", "name": "ZH253770", "provider": "smide", "range": 28.0, "size": 20, "time": "01/27/2020, 21:39:06"}, "type": "Feature"}, {"geometry": {"coordinates": [8.509362, 47.35494], "type": "Point"}, "properties": {"charge": 91, "id": "smide_50", "name": "ZH253853", "provider": "smide", "range": 45.0, "size": 17, "time": "01/27/2020, 21:39:06"}, "type": "Feature"}, {"geometry": {"coordinates": [8.537155, 47.386853], "type": "Point"}, "properties": {"charge": 87, "id": "smide_10", "name": "ZH253855", "provider": "smide", "range": 43.0, "size": 17, "time": "01/27/2020, 21:39:06"}, "type": "Feature"}, {"geometry": {"coordinates": [8.519049, 47.397084], "type": "Point"}, "properties": {"charge": 85, "id": "smide_165", "name": "ZH253752", "provider": "smide", "range": 42.0, "size": 17, "time": "01/27/2020, 21:39:06"}, "type": "Feature"}, {"geometry": {"coordinates": [8.552239, 47.414248], "type": "Point"}, "properties": {"charge": 77, "id": "smide_119", "name": "ZH253686", "provider": "smide", "range": 38.0, "size": 20, "time": "01/27/2020, 21:39:06"}, "type": "Feature"}, {"geometry": {"coordinates": [8.555143, 47.383872], "type": "Point"}, "properties": {"charge": 63, "id": "smide_76", "name": "ZH253764", "provider": "smide", "range": 31.0, "size": 17, "time": "01/27/2020, 21:39:06"}, "type": "Feature"}, {"geometry": {"coordinates": [8.562522, 47.371292], "type": "Point"}, "properties": {"charge": 64, "id": "smide_129", "name": "ZH261378", "provider": "smide", "range": 32.0, "size": 17, "time": "01/27/2020, 21:39:06"}, "type": "Feature"}, {"geometry": {"coordinates": [8.519385, 47.337251], "type": "Point"}, "properties": {"charge": 62, "id": "smide_49", "name": "ZH253873", "provider": "smide", "range": 31.0, "size": 17, "time": "01/27/2020, 21:39:06"}, "type": "Feature"}, {"geometry": {"coordinates": [8.550015, 47.39774], "type": "Point"}, "properties": {"charge": 83, "id": "smide_94", "name": "ZH253754", "provider": "smide", "range": 41.0, "size": 17, "time": "01/27/2020, 21:39:06"}, "type": "Feature"}, {"geometry": {"coordinates": [8.560179, 47.381364], "type": "Point"}, "properties": {"charge": 60, "id": "smide_37", "name": "ZH261377", "provider": "smide", "range": 30.0, "size": 20, "time": "01/27/2020, 21:39:06"}, "type": "Feature"}, {"geometry": {"coordinates": [8.47846, 47.38956], "type": "Point"}, "properties": {"charge": 70, "id": "smide_191", "name": "ZH253762", "provider": "smide", "range": 35.0, "size": 17, "time": "01/27/2020, 21:39:06"}, "type": "Feature"}, {"geometry": {"coordinates": [8.532483, 47.373245], "type": "Point"}, "properties": {"charge": 95, "id": "smide_202", "name": "ZH253830", "provider": "smide", "range": 47.0, "size": 17, "time": "01/27/2020, 21:39:06"}, "type": "Feature"}, {"geometry": {"coordinates": [8.57491, 47.37328], "type": "Point"}, "properties": {"charge": 85, "id": "smide_56", "name": "ZH261442", "provider": "smide", "range": 42.0, "size": 20, "time": "01/27/2020, 21:39:06"}, "type": "Feature"}, {"geometry": {"coordinates": [8.567006, 47.36124], "type": "Point"}, "properties": {"charge": 61, "id": "smide_47", "name": "ZH253858", "provider": "smide", "range": 30.0, "size": 17, "time": "01/27/2020, 21:39:06"}, "type": "Feature"}, {"geometry": {"coordinates": [8.549073, 47.361908], "type": "Point"}, "properties": {"charge": 94, "id": "smide_150", "name": "ZH253703", "provider": "smide", "range": 47.0, "size": 20, "time": "01/27/2020, 21:39:06"}, "type": "Feature"}, {"geometry": {"coordinates": [8.511868, 47.368512], "type": "Point"}, "properties": {"charge": 88, "id": "smide_181", "name": "ZH253815", "provider": "smide", "range": 44.0, "size": 17, "time": "01/27/2020, 21:39:06"}, "type": "Feature"}, {"geometry": {"coordinates": [8.4983, 47.366636], "type": "Point"}, "properties": {"charge": 76, "id": "smide_17", "name": "ZH253793", "provider": "smide", "range": 38.0, "size": 17, "time": "01/27/2020, 21:39:06"}, "type": "Feature"}, {"geometry": {"coordinates": [8.561873, 47.362905], "type": "Point"}, "properties": {"charge": 89, "id": "smide_145", "name": "ZH253780", "provider": "smide", "range": 44.0, "size": 20, "time": "01/27/2020, 21:39:06"}, "type": "Feature"}, {"geometry": {"coordinates": [8.563105, 47.382568], "type": "Point"}, "properties": {"charge": 76, "id": "smide_114", "name": "ZH253878", "provider": "smide", "range": 38.0, "size": 20, "time": "01/27/2020, 21:39:06"}, "type": "Feature"}, {"geometry": {"coordinates": [8.517122, 47.385596], "type": "Point"}, "properties": {"charge": 63, "id": "smide_203", "name": "ZH261547", "provider": "smide", "range": 31.0, "size": 17, "time": "01/27/2020, 21:39:06"}, "type": "Feature"}, {"geometry": {"coordinates": [8.543544, 47.411024], "type": "Point"}, "properties": {"charge": 29, "id": "smide_164", "name": "ZH253775", "provider": "smide", "range": 14.0, "size": 17, "time": "01/27/2020, 21:39:06"}, "type": "Feature"}, {"geometry": {"coordinates": [8.519517, 47.371736], "type": "Point"}, "properties": {"charge": 91, "id": "smide_189", "name": "ZH253845", "provider": "smide", "range": 45.0, "size": 20, "time": "01/27/2020, 21:39:06"}, "type": "Feature"}, {"geometry": {"coordinates": [8.554271, 47.379544], "type": "Point"}, "properties": {"charge": 69, "id": "smide_81", "name": "ZH253753", "provider": "smide", "range": 34.0, "size": 17, "time": "01/27/2020, 21:39:06"}, "type": "Feature"}, {"geometry": {"coordinates": [8.498619, 47.402196], "type": "Point"}, "properties": {"charge": 13, "id": "smide_148", "name": "ZH253844", "provider": "smide", "range": 6.0, "size": 20, "time": "01/27/2020, 21:39:06"}, "type": "Feature"}, {"geometry": {"coordinates": [8.55259, 47.381736], "type": "Point"}, "properties": {"charge": 37, "id": "smide_171", "name": "ZH253689", "provider": "smide", "range": 18.0, "size": 20, "time": "01/27/2020, 21:39:06"}, "type": "Feature"}, {"geometry": {"coordinates": [8.524361, 47.395824], "type": "Point"}, "properties": {"charge": 32, "id": "smide_93", "name": "ZH253681", "provider": "smide", "range": 16.0, "size": 17, "time": "01/27/2020, 21:39:06"}, "type": "Feature"}, {"geometry": {"coordinates": [8.570059, 47.352312], "type": "Point"}, "properties": {"charge": 91, "id": "smide_67", "name": "ZH253779", "provider": "smide", "range": 45.0, "size": 17, "time": "01/27/2020, 21:39:06"}, "type": "Feature"}, {"geometry": {"coordinates": [8.542052, 47.424632], "type": "Point"}, "properties": {"charge": 92, "id": "smide_133", "name": "ZH253848", "provider": "smide", "range": 46.0, "size": 20, "time": "01/27/2020, 21:39:06"}, "type": "Feature"}, {"geometry": {"coordinates": [8.480203, 47.38551], "type": "Point"}, "properties": {"charge": 80, "id": "smide_118", "name": "ZH253759", "provider": "smide", "range": 40.0, "size": 20, "time": "01/27/2020, 21:39:06"}, "type": "Feature"}, {"geometry": {"coordinates": [8.52416, 47.378676], "type": "Point"}, "properties": {"charge": 73, "id": "smide_142", "name": "ZH258745", "provider": "smide", "range": 36.0, "size": 17, "time": "01/27/2020, 21:39:06"}, "type": "Feature"}, {"geometry": {"coordinates": [8.521555, 47.41068], "type": "Point"}, "properties": {"charge": 100, "id": "smide_166", "name": "ZH253728", "provider": "smide", "range": 50.0, "size": 17, "time": "01/27/2020, 21:39:06"}, "type": "Feature"}, {"geometry": {"coordinates": [8.478437, 47.389604], "type": "Point"}, "properties": {"charge": 31, "id": "smide_126", "name": "ZH268400", "provider": "smide", "range": 15.0, "size": 17, "time": "01/27/2020, 21:39:06"}, "type": "Feature"}, {"geometry": {"coordinates": [8.515531, 47.395911], "type": "Point"}, "properties": {"charge": 62, "id": "smide_98", "name": "ZH256321", "provider": "smide", "range": 31.0, "size": 17, "time": "01/27/2020, 21:39:06"}, "type": "Feature"}, {"geometry": {"coordinates": [8.582206, 47.35188], "type": "Point"}, "properties": {"charge": 26, "id": "smide_154", "name": "ZH253744", "provider": "smide", "range": 13.0, "size": 20, "time": "01/27/2020, 21:39:06"}, "type": "Feature"}, {"geometry": {"coordinates": [8.516129, 47.396928], "type": "Point"}, "properties": {"charge": 49, "id": "smide_92", "name": "ZH253798", "provider": "smide", "range": 24.0, "size": 17, "time": "01/27/2020, 21:39:06"}, "type": "Feature"}, {"geometry": {"coordinates": [8.487073, 47.383413], "type": "Point"}, "properties": {"charge": 40, "id": "smide_167", "name": "ZH253854", "provider": "smide", "range": 20.0, "size": 17, "time": "01/27/2020, 21:39:06"}, "type": "Feature"}, {"geometry": {"coordinates": [8.543664, 47.39262], "type": "Point"}, "properties": {"charge": 59, "id": "smide_65", "name": "ZH253810", "provider": "smide", "range": 29.0, "size": 17, "time": "01/27/2020, 21:39:06"}, "type": "Feature"}, {"geometry": {"coordinates": [8.521564, 47.410728], "type": "Point"}, "properties": {"charge": 99, "id": "smide_111", "name": "ZH253763", "provider": "smide", "range": 49.0, "size": 17, "time": "01/27/2020, 21:39:06"}, "type": "Feature"}, {"geometry": {"coordinates": [8.510041, 47.425536], "type": "Point"}, "properties": {"charge": 83, "id": "smide_40", "name": "ZH253690", "provider": "smide", "range": 41.0, "size": 20, "time": "01/27/2020, 21:39:06"}, "type": "Feature"}, {"geometry": {"coordinates": [8.558925, 47.352352], "type": "Point"}, "properties": {"charge": 57, "id": "smide_1", "name": "ZH253776", "provider": "smide", "range": 28.0, "size": 17, "time": "01/27/2020, 21:39:06"}, "type": "Feature"}, {"geometry": {"coordinates": [8.556598, 47.353576], "type": "Point"}, "properties": {"charge": 74, "id": "smide_28", "name": "ZH253831", "provider": "smide", "range": 37.0, "size": 17, "time": "01/27/2020, 21:39:06"}, "type": "Feature"}, {"geometry": {"coordinates": [8.567361, 47.376193], "type": "Point"}, "properties": {"charge": 100, "id": "smide_14", "name": "ZH253749", "provider": "smide", "range": 50.0, "size": 20, "time": "01/27/2020, 21:39:06"}, "type": "Feature"}, {"geometry": {"coordinates": [8.557041, 47.40534], "type": "Point"}, "properties": {"charge": 70, "id": "smide_130", "name": "ZH253847", "provider": "smide", "range": 35.0, "size": 20, "time": "01/27/2020, 21:39:06"}, "type": "Feature"}, {"geometry": {"coordinates": [8.535447, 47.398216], "type": "Point"}, "properties": {"charge": 100, "id": "smide_24", "name": "ZH253696", "provider": "smide", "range": 50.0, "size": 20, "time": "01/27/2020, 21:39:06"}, "type": "Feature"}, {"geometry": {"coordinates": [8.534358, 47.416792], "type": "Point"}, "properties": {"charge": 21, "id": "smide_193", "name": "ZH253738", "provider": "smide", "range": 10.0, "size": 20, "time": "01/27/2020, 21:39:06"}, "type": "Feature"}, {"geometry": {"coordinates": [8.563665, 47.407871], "type": "Point"}, "properties": {"charge": 100, "id": "smide_73", "name": "ZH261379", "provider": "smide", "range": 50.0, "size": 20, "time": "01/27/2020, 21:39:06"}, "type": "Feature"}, {"geometry": {"coordinates": [8.549391, 47.421996], "type": "Point"}, "properties": {"charge": 100, "id": "smide_158", "name": "ZH253870", "provider": "smide", "range": 50.0, "size": 20, "time": "01/27/2020, 21:39:06"}, "type": "Feature"}, {"geometry": {"coordinates": [8.494246, 47.424244], "type": "Point"}, "properties": {"charge": 27, "id": "smide_100", "name": "ZH253862", "provider": "smide", "range": 13.0, "size": 20, "time": "01/27/2020, 21:39:06"}, "type": "Feature"}, {"geometry": {"coordinates": [8.551971, 47.389198], "type": "Point"}, "properties": {"charge": 90, "id": "smide_134", "name": "ZH253741", "provider": "smide", "range": 45.0, "size": 20, "time": "01/27/2020, 21:39:06"}, "type": "Feature"}, {"geometry": {"coordinates": [8.527785, 47.353478], "type": "Point"}, "properties": {"charge": 13, "id": "smide_141", "name": "ZH253800", "provider": "smide", "range": 6.0, "size": 20, "time": "01/27/2020, 21:39:06"}, "type": "Feature"}, {"geometry": {"coordinates": [8.544051, 47.408468], "type": "Point"}, "properties": {"charge": 93, "id": "smide_149", "name": "ZH253743", "provider": "smide", "range": 46.0, "size": 20, "time": "01/27/2020, 21:39:06"}, "type": "Feature"}, {"geometry": {"coordinates": [8.509362, 47.395272], "type": "Point"}, "properties": {"charge": 74, "id": "smide_16", "name": "ZH253713", "provider": "smide", "range": 37.0, "size": 20, "time": "01/27/2020, 21:39:06"}, "type": "Feature"}, {"geometry": {"coordinates": [8.547135, 47.38742], "type": "Point"}, "properties": {"charge": 42, "id": "smide_74", "name": "ZH253693", "provider": "smide", "range": 21.0, "size": 20, "time": "01/27/2020, 21:39:06"}, "type": "Feature"}, {"geometry": {"coordinates": [8.497493, 47.391141], "type": "Point"}, "properties": {"charge": 100, "id": "smide_33", "name": "ZH253782", "provider": "smide", "range": 50.0, "size": 20, "time": "01/27/2020, 21:39:06"}, "type": "Feature"}, {"geometry": {"coordinates": [8.561811, 47.350372], "type": "Point"}, "properties": {"charge": 29, "id": "smide_161", "name": "ZH253691", "provider": "smide", "range": 14.0, "size": 20, "time": "01/27/2020, 21:39:06"}, "type": "Feature"}, {"geometry": {"coordinates": [8.51088, 47.372018], "type": "Point"}, "properties": {"charge": 100, "id": "smide_183", "name": "ZH253868", "provider": "smide", "range": 50.0, "size": 17, "time": "01/27/2020, 21:39:06"}, "type": "Feature"}, {"geometry": {"coordinates": [8.483365, 47.374632], "type": "Point"}, "properties": {"charge": 100, "id": "smide_42", "name": "ZH253846", "provider": "smide", "range": 50.0, "size": 20, "time": "01/27/2020, 21:39:06"}, "type": "Feature"}, {"geometry": {"coordinates": [8.510046, 47.425528], "type": "Point"}, "properties": {"charge": 100, "id": "smide_4", "name": "ZH253740", "provider": "smide", "range": 50.0, "size": 20, "time": "01/27/2020, 21:39:06"}, "type": "Feature"}, {"geometry": {"coordinates": [8.53957, 47.399732], "type": "Point"}, "properties": {"charge": 28, "id": "smide_160", "name": "ZH253722", "provider": "smide", "range": 14.0, "size": 17, "time": "01/27/2020, 21:39:06"}, "type": "Feature"}, {"geometry": {"coordinates": [8.52366, 47.37555], "type": "Point"}, "properties": {"charge": 86, "id": "smide_137", "name": "ZH258502", "provider": "smide", "range": 43.0, "size": 17, "time": "01/27/2020, 21:39:06"}, "type": "Feature"}, {"geometry": {"coordinates": [8.47653, 47.38744], "type": "Point"}, "properties": {"charge": 88, "id": "smide_55", "name": "ZH253875", "provider": "smide", "range": 44.0, "size": 17, "time": "01/27/2020, 21:39:06"}, "type": "Feature"}, {"geometry": {"coordinates": [8.541423, 47.38272], "type": "Point"}, "properties": {"charge": 80, "id": "smide_96", "name": "ZH256146", "provider": "smide", "range": 40.0, "size": 20, "time": "01/27/2020, 21:39:06"}, "type": "Feature"}, {"geometry": {"coordinates": [8.535757, 47.357436], "type": "Point"}, "properties": {"charge": 100, "id": "smide_58", "name": "ZH259246", "provider": "smide", "range": 50.0, "size": 20, "time": "01/27/2020, 21:39:06"}, "type": "Feature"}, {"geometry": {"coordinates": [8.560288, 47.382164], "type": "Point"}, "properties": {"charge": 29, "id": "smide_54", "name": "ZH253874", "provider": "smide", "range": 14.0, "size": 20, "time": "01/27/2020, 21:39:06"}, "type": "Feature"}, {"geometry": {"coordinates": [8.493224, 47.39444], "type": "Point"}, "properties": {"charge": 86, "id": "smide_175", "name": "ZH253730", "provider": "smide", "range": 43.0, "size": 17, "time": "01/27/2020, 21:39:06"}, "type": "Feature"}, {"geometry": {"coordinates": [8.574843, 47.372112], "type": "Point"}, "properties": {"charge": 29, "id": "smide_163", "name": "ZH256147", "provider": "smide", "range": 14.0, "size": 20, "time": "01/27/2020, 21:39:06"}, "type": "Feature"}, {"geometry": {"coordinates": [8.540401, 47.393848], "type": "Point"}, "properties": {"charge": 59, "id": "smide_112", "name": "ZH263530", "provider": "smide", "range": 29.0, "size": 20, "time": "01/27/2020, 21:39:06"}, "type": "Feature"}, {"geometry": {"coordinates": [8.531931, 47.368816], "type": "Point"}, "properties": {"charge": 38, "id": "smide_122", "name": "ZH253850", "provider": "smide", "range": 19.0, "size": 20, "time": "01/27/2020, 21:39:06"}, "type": "Feature"}, {"geometry": {"coordinates": [8.561533, 47.349888], "type": "Point"}, "properties": {"charge": 51, "id": "smide_38", "name": "ZH253851", "provider": "smide", "range": 25.0, "size": 20, "time": "01/27/2020, 21:39:06"}, "type": "Feature"}, {"geometry": {"coordinates": [8.559247, 47.40598], "type": "Point"}, "properties": {"charge": 90, "id": "smide_18", "name": "ZH253859", "provider": "smide", "range": 45.0, "size": 17, "time": "01/27/2020, 21:39:06"}, "type": "Feature"}, {"geometry": {"coordinates": [8.556305, 47.410624], "type": "Point"}, "properties": {"charge": 78, "id": "smide_12", "name": "ZH253685", "provider": "smide", "range": 39.0, "size": 17, "time": "01/27/2020, 21:39:06"}, "type": "Feature"}, {"geometry": {"coordinates": [8.559333, 47.353024], "type": "Point"}, "properties": {"charge": 51, "id": "smide_192", "name": "ZH253706", "provider": "smide", "range": 25.0, "size": 20, "time": "01/27/2020, 21:39:06"}, "type": "Feature"}, {"geometry": {"coordinates": [8.554274, 47.417852], "type": "Point"}, "properties": {"charge": 100, "id": "smide_39", "name": "ZH253714", "provider": "smide", "range": 50.0, "size": 20, "time": "01/27/2020, 21:39:06"}, "type": "Feature"}, {"geometry": {"coordinates": [8.557928, 47.352643], "type": "Point"}, "properties": {"charge": 100, "id": "smide_5", "name": "ZH261443", "provider": "smide", "range": 50.0, "size": 20, "time": "01/27/2020, 21:39:06"}, "type": "Feature"}, {"geometry": {"coordinates": [8.56255, 47.3778], "type": "Point"}, "properties": {"charge": 37, "id": "smide_85", "name": "ZH253729", "provider": "smide", "range": 18.0, "size": 17, "time": "01/27/2020, 21:39:06"}, "type": "Feature"}, {"geometry": {"coordinates": [8.558179, 47.404452], "type": "Point"}, "properties": {"charge": 100, "id": "smide_29", "name": "ZH253723", "provider": "smide", "range": 50.0, "size": 17, "time": "01/27/2020, 21:39:06"}, "type": "Feature"}, {"geometry": {"coordinates": [8.553681, 47.369052], "type": "Point"}, "properties": {"charge": 100, "id": "smide_48", "name": "ZH253849", "provider": "smide", "range": 50.0, "size": 20, "time": "01/27/2020, 21:39:06"}, "type": "Feature"}, {"geometry": {"coordinates": [8.524934, 47.33778], "type": "Point"}, "properties": {"charge": 93, "id": "smide_46", "name": "ZH253843", "provider": "smide", "range": 46.0, "size": 20, "time": "01/27/2020, 21:39:06"}, "type": "Feature"}, {"geometry": {"coordinates": [8.54747666666667, 47.3649366666667], "type": "Point"}, "properties": {"charge": 100, "id": "bird_dead46ba-8263-498b-9c6f-69de19e4d48b", "provider": "bird", "timeStamp": "01/27/2020, 21:39:05"}, "type": "Feature"}, {"geometry": {"coordinates": [8.50905166666667, 47.3671683333333], "type": "Point"}, "properties": {"charge": 34, "id": "bird_e8334a21-83ab-4ffd-8d0e-63173b0a7ae5", "provider": "bird", "timeStamp": "01/27/2020, 21:39:05"}, "type": "Feature"}, {"geometry": {"coordinates": [8.55487, 47.3710283333333], "type": "Point"}, "properties": {"charge": 45, "id": "bird_8fc708a3-bf9e-4491-a4f5-84e7c24b6439", "provider": "bird", "timeStamp": "01/27/2020, 21:39:05"}, "type": "Feature"}, {"geometry": {"coordinates": [8.541475, 47.3974033333333], "type": "Point"}, "properties": {"charge": 99, "id": "bird_8ac46b68-a394-4f65-b658-9fe30f4c9a3d", "provider": "bird", "timeStamp": "01/27/2020, 21:39:05"}, "type": "Feature"}, {"geometry": {"coordinates": [8.54141333333333, 47.3973766666667], "type": "Point"}, "properties": {"charge": 100, "id": "bird_827e5265-5daa-4de3-b30f-a14ed6bca6c4", "provider": "bird", "timeStamp": "01/27/2020, 21:39:05"}, "type": "Feature"}, {"geometry": {"coordinates": [8.50817833333333, 47.3680566666667], "type": "Point"}, "properties": {"charge": 40, "id": "bird_8e670ec4-9cb6-4ff2-b6fb-046970be910b", "provider": "bird", "timeStamp": "01/27/2020, 21:39:05"}, "type": "Feature"}, {"geometry": {"coordinates": [8.50818166666667, 47.3680916666667], "type": "Point"}, "properties": {"charge": 82, "id": "bird_1996f3a4-a963-4472-bf39-f119e997bdcc", "provider": "bird", "timeStamp": "01/27/2020, 21:39:05"}, "type": "Feature"}, {"geometry": {"coordinates": [8.50781333333333, 47.3914183333333], "type": "Point"}, "properties": {"charge": 25, "id": "bird_6209ff63-b412-424a-8ad3-1f3f192e3520", "provider": "bird", "timeStamp": "01/27/2020, 21:39:05"}, "type": "Feature"}, {"geometry": {"coordinates": [8.51396333333333, 47.3954233333333], "type": "Point"}, "properties": {"charge": 26, "id": "bird_419f0f39-c90b-49da-8034-70883924c4f9", "provider": "bird", "timeStamp": "01/27/2020, 21:39:05"}, "type": "Feature"}, {"geometry": {"coordinates": [8.54139833333333, 47.3972016666667], "type": "Point"}, "properties": {"charge": 44, "id": "bird_aca7a4ce-e306-4c9c-ae0f-888868a11a70", "provider": "bird", "timeStamp": "01/27/2020, 21:39:05"}, "type": "Feature"}, {"geometry": {"coordinates": [8.50697, 47.3694383333333], "type": "Point"}, "properties": {"charge": 47, "id": "bird_2d72148a-33d1-4f7e-b45e-998613a2969e", "provider": "bird", "timeStamp": "01/27/2020, 21:39:05"}, "type": "Feature"}, {"geometry": {"coordinates": [8.50744833333333, 47.3910066666667], "type": "Point"}, "properties": {"charge": 52, "id": "bird_b196189e-e074-4f2d-8846-35f7691fa905", "provider": "bird", "timeStamp": "01/27/2020, 21:39:05"}, "type": "Feature"}, {"geometry": {"coordinates": [8.52553, 47.3615], "type": "Point"}, "properties": {"charge": 56, "id": "bird_49df8b36-4d13-4cdc-a62c-96a30369e8d2", "provider": "bird", "timeStamp": "01/27/2020, 21:39:05"}, "type": "Feature"}, {"geometry": {"coordinates": [8.51896333333333, 47.397095], "type": "Point"}, "properties": {"charge": 48, "id": "bird_7b48a89f-9414-4777-a7bd-8367af8fa8e9", "provider": "bird", "timeStamp": "01/27/2020, 21:39:05"}, "type": "Feature"}, {"geometry": {"coordinates": [8.50788166666667, 47.39095], "type": "Point"}, "properties": {"charge": 82, "id": "bird_b4d0c5a4-e1ab-4a57-901c-670483fb5f0f", "provider": "bird", "timeStamp": "01/27/2020, 21:39:05"}, "type": "Feature"}, {"geometry": {"coordinates": [8.54683333333333, 47.3654283333333], "type": "Point"}, "properties": {"charge": 92, "id": "bird_b871dd1f-88f1-4ad7-a04e-c475dd547925", "provider": "bird", "timeStamp": "01/27/2020, 21:39:05"}, "type": "Feature"}, {"geometry": {"coordinates": [8.55566, 47.374], "type": "Point"}, "properties": {"charge": 65, "id": "bird_88987b5e-64b9-402c-b4e5-3cbc8e35f69f", "provider": "bird", "timeStamp": "01/27/2020, 21:39:05"}, "type": "Feature"}, {"geometry": {"coordinates": [8.51551333333333, 47.364505], "type": "Point"}, "properties": {"charge": 47, "id": "bird_c8614e1f-3570-454f-ac8f-dc9e8c1bc100", "provider": "bird", "timeStamp": "01/27/2020, 21:39:05"}, "type": "Feature"}, {"geometry": {"coordinates": [8.53295333333333, 47.3982016666667], "type": "Point"}, "properties": {"charge": 100, "id": "bird_a08d652f-d035-446c-aca0-5559039ee9dc", "provider": "bird", "timeStamp": "01/27/2020, 21:39:05"}, "type": "Feature"}, {"geometry": {"coordinates": [8.54785666666667, 47.366295], "type": "Point"}, "properties": {"charge": 89, "id": "bird_ab0f609b-a7fe-40a5-9dc7-f8a5683959f8", "provider": "bird", "timeStamp": "01/27/2020, 21:39:05"}, "type": "Feature"}, {"geometry": {"coordinates": [8.54807666666667, 47.366505], "type": "Point"}, "properties": {"charge": 72, "id": "bird_06ecccd2-1064-4171-adbd-905f6468c4f8", "provider": "bird", "timeStamp": "01/27/2020, 21:39:05"}, "type": "Feature"}, {"geometry": {"coordinates": [8.54778333333333, 47.3663483333333], "type": "Point"}, "properties": {"charge": 93, "id": "bird_55a13891-ebf6-4dd9-a351-dcc07a6a658a", "provider": "bird", "timeStamp": "01/27/2020, 21:39:05"}, "type": "Feature"}, {"geometry": {"coordinates": [8.54785333333333, 47.3663933333333], "type": "Point"}, "properties": {"charge": 81, "id": "bird_ab69c6fc-aba0-464f-8adb-ee5fa201358c", "provider": "bird", "timeStamp": "01/27/2020, 21:39:05"}, "type": "Feature"}, {"geometry": {"coordinates": [8.54083166666667, 47.3966516666667], "type": "Point"}, "properties": {"charge": 25, "id": "bird_5d485547-0643-4fe9-a526-caf9fb52bfbf", "provider": "bird", "timeStamp": "01/27/2020, 21:39:05"}, "type": "Feature"}, {"geometry": {"coordinates": [8.54777333333333, 47.36639], "type": "Point"}, "properties": {"charge": 91, "id": "bird_b75015be-00b8-43b7-a571-026e5a977916", "provider": "bird", "timeStamp": "01/27/2020, 21:39:05"}, "type": "Feature"}, {"geometry": {"coordinates": [8.54803666666667, 47.36655], "type": "Point"}, "properties": {"charge": 79, "id": "bird_15957986-4bc6-4bf2-953a-32a85bf4b2a4", "provider": "bird", "timeStamp": "01/27/2020, 21:39:05"}, "type": "Feature"}, {"geometry": {"coordinates": [8.54809, 47.3665883333333], "type": "Point"}, "properties": {"charge": 64, "id": "bird_df2aaf53-ea27-40d4-92dc-ecc70fcc1304", "provider": "bird", "timeStamp": "01/27/2020, 21:39:05"}, "type": "Feature"}, {"geometry": {"coordinates": [8.5047, 47.3858866666667], "type": "Point"}, "properties": {"charge": 63, "id": "bird_e972ae19-0bfa-4f1c-88f3-000d184f3da0", "provider": "bird", "timeStamp": "01/27/2020, 21:39:05"}, "type": "Feature"}, {"geometry": {"coordinates": [8.54758833333333, 47.366715], "type": "Point"}, "properties": {"charge": 78, "id": "bird_3b0b8ae1-6a7f-4df0-8c1c-aba5350dd03b", "provider": "bird", "timeStamp": "01/27/2020, 21:39:05"}, "type": "Feature"}, {"geometry": {"coordinates": [8.54500166666667, 47.3657333333333], "type": "Point"}, "properties": {"charge": 60, "id": "bird_9c782d1b-b66c-4bf0-8aa6-dd260690967e", "provider": "bird", "timeStamp": "01/27/2020, 21:39:05"}, "type": "Feature"}, {"geometry": {"coordinates": [8.54724166666667, 47.36718], "type": "Point"}, "properties": {"charge": 96, "id": "bird_f748a8b4-42c2-4ac5-b384-6d8b4f21fb90", "provider": "bird", "timeStamp": "01/27/2020, 21:39:05"}, "type": "Feature"}, {"geometry": {"coordinates": [8.52336333333333, 47.396725], "type": "Point"}, "properties": {"charge": 93, "id": "bird_fa44017e-5c99-429d-92d6-bab170ce2c9a", "provider": "bird", "timeStamp": "01/27/2020, 21:39:05"}, "type": "Feature"}, {"geometry": {"coordinates": [8.53250666666667, 47.3627733333333], "type": "Point"}, "properties": {"charge": 91, "id": "bird_165ae50a-7d95-40f2-bba2-04005ced9cbd", "provider": "bird", "timeStamp": "01/27/2020, 21:39:05"}, "type": "Feature"}, {"geometry": {"coordinates": [8.51412666666667, 47.3934933333333], "type": "Point"}, "properties": {"charge": 40, "id": "bird_aa47cbd4-dcf4-4ad1-b361-bd9a78e0d102", "provider": "bird", "timeStamp": "01/27/2020, 21:39:05"}, "type": "Feature"}, {"geometry": {"coordinates": [8.545375, 47.3663066666667], "type": "Point"}, "properties": {"charge": 98, "id": "bird_6d550503-da36-42d1-9b89-995315082b02", "provider": "bird", "timeStamp": "01/27/2020, 21:39:05"}, "type": "Feature"}, {"geometry": {"coordinates": [8.50492833333333, 47.3817366666667], "type": "Point"}, "properties": {"charge": 26, "id": "bird_b11c5338-f283-4281-ba93-c598cb20b150", "provider": "bird", "timeStamp": "01/27/2020, 21:39:05"}, "type": "Feature"}, {"geometry": {"coordinates": [8.51055, 47.3691983333333], "type": "Point"}, "properties": {"charge": 30, "id": "bird_13c09e56-4a41-46b4-acd9-f413c9f5deb8", "provider": "bird", "timeStamp": "01/27/2020, 21:39:05"}, "type": "Feature"}, {"geometry": {"coordinates": [8.544855, 47.36628], "type": "Point"}, "properties": {"charge": 96, "id": "bird_88773f9e-2b27-43c5-a4fe-4438d30236fe", "provider": "bird", "timeStamp": "01/27/2020, 21:39:05"}, "type": "Feature"}, {"geometry": {"coordinates": [8.553355, 47.3740533333333], "type": "Point"}, "properties": {"charge": 29, "id": "bird_e2d694bf-a04d-4257-a6f5-d13b1c767c07", "provider": "bird", "timeStamp": "01/27/2020, 21:39:05"}, "type": "Feature"}, {"geometry": {"coordinates": [8.55296, 47.3734783333333], "type": "Point"}, "properties": {"charge": 80, "id": "bird_c7c154c1-9e0d-47f4-a144-a649bc6c2de4", "provider": "bird", "timeStamp": "01/27/2020, 21:39:05"}, "type": "Feature"}, {"geometry": {"coordinates": [8.52545333333333, 47.3639833333333], "type": "Point"}, "properties": {"charge": 31, "id": "bird_621e80c1-8348-4cf5-a0e7-a2fa975c5555", "provider": "bird", "timeStamp": "01/27/2020, 21:39:05"}, "type": "Feature"}, {"geometry": {"coordinates": [8.54854333333333, 47.3903966666667], "type": "Point"}, "properties": {"charge": 36, "id": "bird_4cd7d7c5-8084-4399-b911-eb320af13c36", "provider": "bird", "timeStamp": "01/27/2020, 21:39:05"}, "type": "Feature"}, {"geometry": {"coordinates": [8.52450833333333, 47.39581], "type": "Point"}, "properties": {"charge": 60, "id": "bird_d1a55704-1c08-4c2e-a075-329c6c1f2bf9", "provider": "bird", "timeStamp": "01/27/2020, 21:39:05"}, "type": "Feature"}, {"geometry": {"coordinates": [8.53154333333333, 47.3639483333333], "type": "Point"}, "properties": {"charge": 98, "id": "bird_c61862f4-6a99-4eed-9de3-3b969c6ed684", "provider": "bird", "timeStamp": "01/27/2020, 21:39:05"}, "type": "Feature"}, {"geometry": {"coordinates": [8.53157, 47.3639566666667], "type": "Point"}, "properties": {"charge": 54, "id": "bird_c1eb8881-98e5-4d34-afdb-d49b206f7462", "provider": "bird", "timeStamp": "01/27/2020, 21:39:05"}, "type": "Feature"}, {"geometry": {"coordinates": [8.533205, 47.3641083333333], "type": "Point"}, "properties": {"charge": 70, "id": "bird_44286087-3b07-49ab-8e72-c53681af0dac", "provider": "bird", "timeStamp": "01/27/2020, 21:39:05"}, "type": "Feature"}, {"geometry": {"coordinates": [8.53153833333333, 47.3640283333333], "type": "Point"}, "properties": {"charge": 96, "id": "bird_3ca1c68d-734e-4659-a692-26a1136c0cd7", "provider": "bird", "timeStamp": "01/27/2020, 21:39:05"}, "type": "Feature"}, {"geometry": {"coordinates": [8.54496, 47.367675], "type": "Point"}, "properties": {"charge": 72, "id": "bird_1df065f6-93c6-4267-99c1-317f2a1c9ac5", "provider": "bird", "timeStamp": "01/27/2020, 21:39:05"}, "type": "Feature"}, {"geometry": {"coordinates": [8.53148333333333, 47.3640783333333], "type": "Point"}, "properties": {"charge": 91, "id": "bird_8034e203-521e-4ffa-865a-f3b7bb69d8b5", "provider": "bird", "timeStamp": "01/27/2020, 21:39:05"}, "type": "Feature"}, {"geometry": {"coordinates": [8.53143, 47.36409], "type": "Point"}, "properties": {"charge": 91, "id": "bird_94545041-8c09-473b-b033-476b877965f2", "provider": "bird", "timeStamp": "01/27/2020, 21:39:05"}, "type": "Feature"}, {"geometry": {"coordinates": [8.54487666666667, 47.3676483333333], "type": "Point"}, "properties": {"charge": 79, "id": "bird_a56801ec-207d-4bbe-9daa-36679cc482a8", "provider": "bird", "timeStamp": "01/27/2020, 21:39:05"}, "type": "Feature"}, {"geometry": {"coordinates": [8.51484333333333, 47.3679283333333], "type": "Point"}, "properties": {"charge": 40, "id": "bird_49fb1c6d-9a53-4492-a584-5f68759c123c", "provider": "bird", "timeStamp": "01/27/2020, 21:39:05"}, "type": "Feature"}, {"geometry": {"coordinates": [8.52156333333333, 47.3652533333333], "type": "Point"}, "properties": {"charge": 82, "id": "bird_2c091cd6-f85e-4cdf-bd0c-5e272aa13883", "provider": "bird", "timeStamp": "01/27/2020, 21:39:05"}, "type": "Feature"}, {"geometry": {"coordinates": [8.53925166666667, 47.3654816666667], "type": "Point"}, "properties": {"charge": 98, "id": "bird_5fd0556d-b16f-404b-b550-2b3cc14bd300", "provider": "bird", "timeStamp": "01/27/2020, 21:39:05"}, "type": "Feature"}, {"geometry": {"coordinates": [8.53942666666667, 47.3655616666667], "type": "Point"}, "properties": {"charge": 100, "id": "bird_cd3a3286-afc8-420f-85e5-034086d01fff", "provider": "bird", "timeStamp": "01/27/2020, 21:39:05"}, "type": "Feature"}, {"geometry": {"coordinates": [8.53959833333333, 47.3656616666667], "type": "Point"}, "properties": {"charge": 98, "id": "bird_7bf04543-ebcd-43f4-8a9f-d9068ce4a996", "provider": "bird", "timeStamp": "01/27/2020, 21:39:05"}, "type": "Feature"}, {"geometry": {"coordinates": [8.53895666666667, 47.3655433333333], "type": "Point"}, "properties": {"charge": 75, "id": "bird_0dae2de2-566b-4727-9550-7a07d94b4694", "provider": "bird", "timeStamp": "01/27/2020, 21:39:05"}, "type": "Feature"}, {"geometry": {"coordinates": [8.53134, 47.3644033333333], "type": "Point"}, "properties": {"charge": 49, "id": "bird_538acba8-7fa7-4afb-8749-01b64eee2808", "provider": "bird", "timeStamp": "01/27/2020, 21:39:05"}, "type": "Feature"}, {"geometry": {"coordinates": [8.54104833333333, 47.3662916666667], "type": "Point"}, "properties": {"charge": 94, "id": "bird_5a09278a-7833-4e06-aab3-c014cfc2bfc9", "provider": "bird", "timeStamp": "01/27/2020, 21:39:05"}, "type": "Feature"}, {"geometry": {"coordinates": [8.54081333333333, 47.3662333333333], "type": "Point"}, "properties": {"charge": 98, "id": "bird_8debb2d5-a9be-461c-a601-fc13d240eaa7", "provider": "bird", "timeStamp": "01/27/2020, 21:39:05"}, "type": "Feature"}, {"geometry": {"coordinates": [8.53268333333333, 47.3645166666667], "type": "Point"}, "properties": {"charge": 51, "id": "bird_2d993c0d-9aed-4ee4-b5bf-a5f20814dfc9", "provider": "bird", "timeStamp": "01/27/2020, 21:39:05"}, "type": "Feature"}, {"geometry": {"coordinates": [8.54082333333333, 47.3662416666667], "type": "Point"}, "properties": {"charge": 98, "id": "bird_a1e3cdcb-e228-45b7-95bf-25e326bd1966", "provider": "bird", "timeStamp": "01/27/2020, 21:39:05"}, "type": "Feature"}, {"geometry": {"coordinates": [8.5317, 47.36446], "type": "Point"}, "properties": {"charge": 96, "id": "bird_36b3f47c-3eb5-42ff-904a-c664850cdffc", "provider": "bird", "timeStamp": "01/27/2020, 21:39:05"}, "type": "Feature"}, {"geometry": {"coordinates": [8.53161166666667, 47.3644983333333], "type": "Point"}, "properties": {"charge": 84, "id": "bird_da6c18c9-ba0a-44cf-97ad-7ba9dee9c37c", "provider": "bird", "timeStamp": "01/27/2020, 21:39:05"}, "type": "Feature"}, {"geometry": {"coordinates": [8.51804, 47.3668216666667], "type": "Point"}, "properties": {"charge": 16, "id": "bird_623cbcb4-460c-405a-90de-7969e161fef3", "provider": "bird", "timeStamp": "01/27/2020, 21:39:05"}, "type": "Feature"}, {"geometry": {"coordinates": [8.51036, 47.372215], "type": "Point"}, "properties": {"charge": 22, "id": "bird_a3209747-527f-4b35-8163-aedf49f9585a", "provider": "bird", "timeStamp": "01/27/2020, 21:39:05"}, "type": "Feature"}, {"geometry": {"coordinates": [8.544185, 47.3679816666667], "type": "Point"}, "properties": {"charge": 96, "id": "bird_100b7201-74c8-451d-a6a1-8f46bc1ce3f1", "provider": "bird", "timeStamp": "01/27/2020, 21:39:05"}, "type": "Feature"}, {"geometry": {"coordinates": [8.530575, 47.3647583333333], "type": "Point"}, "properties": {"charge": 74, "id": "bird_a71278ea-cccb-4115-9068-f377e9dc4d8a", "provider": "bird", "timeStamp": "01/27/2020, 21:39:05"}, "type": "Feature"}, {"geometry": {"coordinates": [8.53041666666667, 47.3647616666667], "type": "Point"}, "properties": {"charge": 28, "id": "bird_37350909-5a54-4635-a042-26b5c65c9b2e", "provider": "bird", "timeStamp": "01/27/2020, 21:39:05"}, "type": "Feature"}, {"geometry": {"coordinates": [8.53085, 47.3648533333333], "type": "Point"}, "properties": {"charge": 61, "id": "bird_d50bd51c-2d7c-4761-9490-f71a0034c264", "provider": "bird", "timeStamp": "01/27/2020, 21:39:05"}, "type": "Feature"}, {"geometry": {"coordinates": [8.533895, 47.3651966666667], "type": "Point"}, "properties": {"charge": 21, "id": "bird_6265dbf3-fd84-4b8b-a2d3-2e269fee9570", "provider": "bird", "timeStamp": "01/27/2020, 21:39:05"}, "type": "Feature"}, {"geometry": {"coordinates": [8.51454666666667, 47.3907433333333], "type": "Point"},