{"features": [{"geometry": {"coordinates": [8.540062, 47.374392], "type": "Point"}, "properties": {"address": "Uraniastrasse 7", "electric": 5, "id": "pb_60", "manual": 10, "name": "Demo Station Werdm\u00fchleplatz", "provider": "publibike", "timeStamp": "02/16/2020, 04:18:17", "zip": 8001}, "type": "Feature"}, {"geometry": {"coordinates": [8.5452956, 47.4099615], "type": "Point"}, "properties": {"address": "Querstrasse 8", "electric": 2, "id": "pb_61", "manual": 8, "name": "Marktplatz", "provider": "publibike", "timeStamp": "02/16/2020, 04:18:17", "zip": 8050}, "type": "Feature"}, {"geometry": {"coordinates": [8.5156327, 47.3795837], "type": "Point"}, "properties": {"address": "Bullingerstrasse 5", "electric": 4, "id": "pb_80", "manual": 10, "name": "Bullingerplatz", "provider": "publibike", "timeStamp": "02/16/2020, 04:18:17", "zip": 8004}, "type": "Feature"}, {"geometry": {"coordinates": [8.5104051, 47.3899342], "type": "Point"}, "properties": {"address": "Pfingstweidstrasse 96e", "electric": 2, "id": "pb_81", "manual": 4, "name": "Herdern", "provider": "publibike", "timeStamp": "02/16/2020, 04:18:17", "zip": 8001}, "type": "Feature"}, {"geometry": {"coordinates": [8.535718, 47.359675], "type": "Point"}, "properties": {"address": "Mythenquai 50", "electric": 1, "id": "pb_82", "manual": 4, "name": "Hafen Enge", "provider": "publibike", "timeStamp": "02/16/2020, 04:18:17", "zip": 8002}, "type": "Feature"}, {"geometry": {"coordinates": [8.520370505, 47.358663827], "type": "Point"}, "properties": {"address": "Bubenbergstrasse 1", "electric": 10, "id": "pb_83", "manual": 8, "name": "Comerge", "provider": "publibike", "timeStamp": "02/16/2020, 04:18:17", "zip": 8045}, "type": "Feature"}, {"geometry": {"coordinates": [8.5412505, 47.3789825], "type": "Point"}, "properties": {"address": "Museumstrasse 2", "electric": 2, "id": "pb_84", "manual": 11, "name": "Landesmuseum", "provider": "publibike", "timeStamp": "02/16/2020, 04:18:17", "zip": 8001}, "type": "Feature"}, {"geometry": {"coordinates": [8.5235479, 47.3716661], "type": "Point"}, "properties": {"address": "Birmensdorferstrasse 80", "electric": 5, "id": "pb_85", "manual": 5, "name": "Bahnhof Wiedikon", "provider": "publibike", "timeStamp": "02/16/2020, 04:18:17", "zip": 8003}, "type": "Feature"}, {"geometry": {"coordinates": [8.506822854, 47.40781197], "type": "Point"}, "properties": {"address": "Stefano-Franscini-Platz 5", "electric": 5, "id": "pb_86", "manual": 0, "name": "ETH H\u00f6nggerberg", "provider": "publibike", "timeStamp": "02/16/2020, 04:18:17", "zip": 8093}, "type": "Feature"}, {"geometry": {"coordinates": [8.536101, 47.371083], "type": "Point"}, "properties": {"address": "Pelikanplatz 5", "electric": 1, "id": "pb_87", "manual": 2, "name": "Pelikanplatz", "provider": "publibike", "timeStamp": "02/16/2020, 04:18:17", "zip": 8001}, "type": "Feature"}, {"geometry": {"coordinates": [8.5257822, 47.3651936], "type": "Point"}, "properties": {"address": "H\u00fcrlimannplatz 90", "electric": 0, "id": "pb_88", "manual": 0, "name": "H\u00fcrlimannplatz", "provider": "publibike", "timeStamp": "02/16/2020, 04:18:17", "zip": 8002}, "type": "Feature"}, {"geometry": {"coordinates": [8.5313344, 47.3713591], "type": "Point"}, "properties": {"address": "Selnaustrasse 32", "electric": 0, "id": "pb_89", "manual": 1, "name": "Stauffacherbr\u00fccke", "provider": "publibike", "timeStamp": "02/16/2020, 04:18:17", "zip": 8001}, "type": "Feature"}, {"geometry": {"coordinates": [8.5056978, 47.3917964], "type": "Point"}, "properties": {"address": "Sportweg 25", "electric": 1, "id": "pb_90", "manual": 5, "name": "Sportweg", "provider": "publibike", "timeStamp": "02/16/2020, 04:18:17", "zip": 8005}, "type": "Feature"}, {"geometry": {"coordinates": [8.5181701, 47.3917837], "type": "Point"}, "properties": {"address": "Hardturmstrasse 11", "electric": 1, "id": "pb_91", "manual": 1, "name": "Puls 5", "provider": "publibike", "timeStamp": "02/16/2020, 04:18:17", "zip": 8005}, "type": "Feature"}, {"geometry": {"coordinates": [8.5286468, 47.3820827], "type": "Point"}, "properties": {"address": "R\u00f6ntgenstrasse 6", "electric": 1, "id": "pb_92", "manual": 1, "name": "R\u00f6ntgenstrasse", "provider": "publibike", "timeStamp": "02/16/2020, 04:18:17", "zip": 8005}, "type": "Feature"}, {"geometry": {"coordinates": [8.531935, 47.384918], "type": "Point"}, "properties": {"address": "Kornhausbr\u00fccke 1", "electric": 5, "id": "pb_93", "manual": 2, "name": "Limmatplatz", "provider": "publibike", "timeStamp": "02/16/2020, 04:18:17", "zip": 8005}, "type": "Feature"}, {"geometry": {"coordinates": [8.5354006, 47.3758639], "type": "Point"}, "properties": {"address": "Gessnerallee 15", "electric": 1, "id": "pb_94", "manual": 0, "name": "Gessnerallee", "provider": "publibike", "timeStamp": "02/16/2020, 04:18:17", "zip": 8001}, "type": "Feature"}, {"geometry": {"coordinates": [8.523818, 47.377148], "type": "Point"}, "properties": {"address": "Stauffacherstrasse 127", "electric": 6, "id": "pb_95", "manual": 9, "name": "B\u00e4ckeranlage", "provider": "publibike", "timeStamp": "02/16/2020, 04:18:17", "zip": 8004}, "type": "Feature"}, {"geometry": {"coordinates": [8.531836, 47.378548], "type": "Point"}, "properties": {"address": "Lagerstrasse 44", "electric": 3, "id": "pb_96", "manual": 2, "name": "Gustav-Gull-Platz", "provider": "publibike", "timeStamp": "02/16/2020, 04:18:17", "zip": 8004}, "type": "Feature"}, {"geometry": {"coordinates": [8.5104883, 47.3771535], "type": "Point"}, "properties": {"address": "Zurlindenstrasse 291", "electric": 0, "id": "pb_97", "manual": 7, "name": "Zurlindenstrasse", "provider": "publibike", "timeStamp": "02/16/2020, 04:18:17", "zip": 8003}, "type": "Feature"}, {"geometry": {"coordinates": [8.5333139, 47.3731102], "type": "Point"}, "properties": {"address": "Sihlstrasse 81", "electric": 0, "id": "pb_98", "manual": 0, "name": "Sihlstrasse", "provider": "publibike", "timeStamp": "02/16/2020, 04:18:17", "zip": 8001}, "type": "Feature"}, {"geometry": {"coordinates": [8.520532, 47.374951], "type": "Point"}, "properties": {"address": "Feldstrasse 24", "electric": 5, "id": "pb_99", "manual": 1, "name": "Kalkbreite", "provider": "publibike", "timeStamp": "02/16/2020, 04:18:17", "zip": 8004}, "type": "Feature"}, {"geometry": {"coordinates": [8.539046, 47.368064], "type": "Point"}, "properties": {"address": "Talstrasse 12", "electric": 1, "id": "pb_100", "manual": 0, "name": "Z\u00fcrcher Kantonalbank", "provider": "publibike", "timeStamp": "02/16/2020, 04:18:17", "zip": 8001}, "type": "Feature"}, {"geometry": {"coordinates": [8.5348427, 47.3625938], "type": "Point"}, "properties": {"address": "Breitingerstrasse 5", "electric": 3, "id": "pb_101", "manual": 7, "name": "Rentenanstalt", "provider": "publibike", "timeStamp": "02/16/2020, 04:18:17", "zip": 8002}, "type": "Feature"}, {"geometry": {"coordinates": [8.5166922, 47.3897772], "type": "Point"}, "properties": {"address": "Technoparkstrasse 4", "electric": 0, "id": "pb_102", "manual": 7, "name": "Turbinenplatz", "provider": "publibike", "timeStamp": "02/16/2020, 04:18:17", "zip": 8005}, "type": "Feature"}, {"geometry": {"coordinates": [8.539312, 47.3739964], "type": "Point"}, "properties": {"address": "Oetenbachgasse 14", "electric": 3, "id": "pb_104", "manual": 4, "name": "Rennweg", "provider": "publibike", "timeStamp": "02/16/2020, 04:18:17", "zip": 8001}, "type": "Feature"}, {"geometry": {"coordinates": [8.5360685, 47.3775022], "type": "Point"}, "properties": {"address": "Kasernenstrasse 101", "electric": 14, "id": "pb_105", "manual": 48, "name": "Sihlpost", "provider": "publibike", "timeStamp": "02/16/2020, 04:18:17", "zip": 8004}, "type": "Feature"}, {"geometry": {"coordinates": [8.53545, 47.382798], "type": "Point"}, "properties": {"address": "Ausstellungsstrasse 44", "electric": 4, "id": "pb_106", "manual": 18, "name": "Museum f\u00fcr Gestaltung", "provider": "publibike", "timeStamp": "02/16/2020, 04:18:17", "zip": 8005}, "type": "Feature"}, {"geometry": {"coordinates": [8.5306155, 47.3647902], "type": "Point"}, "properties": {"address": "Gutenbergstrasse 1", "electric": 7, "id": "pb_107", "manual": 12, "name": "Bederbr\u00fccke", "provider": "publibike", "timeStamp": "02/16/2020, 04:18:17", "zip": 8002}, "type": "Feature"}, {"geometry": {"coordinates": [8.518982, 47.386741], "type": "Point"}, "properties": {"address": "Geroldstrasse 4", "electric": 1, "id": "pb_108", "manual": 16, "name": "Bahnhof Hardbr\u00fccke", "provider": "publibike", "timeStamp": "02/16/2020, 04:18:17", "zip": 8005}, "type": "Feature"}, {"geometry": {"coordinates": [8.53001018, 47.37247535], "type": "Point"}, "properties": {"address": "Werdstrasse 21", "electric": 1, "id": "pb_109", "manual": 0, "name": "Tamedia", "provider": "publibike", "timeStamp": "02/16/2020, 04:18:17", "zip": 8004}, "type": "Feature"}, {"geometry": {"coordinates": [8.4860017, 47.396401], "type": "Point"}, "properties": {"address": "Gr\u00fcnauring 37", "electric": 11, "id": "pb_110", "manual": 2, "name": "Gr\u00fcnau", "provider": "publibike", "timeStamp": "02/16/2020, 04:18:17", "zip": 8064}, "type": "Feature"}, {"geometry": {"coordinates": [8.548519, 47.376756], "type": "Point"}, "properties": {"address": "R\u00e4mistrasse 101", "electric": 0, "id": "pb_111", "manual": 0, "name": "ETH Zentrum", "provider": "publibike", "timeStamp": "02/16/2020, 04:18:17", "zip": 8006}, "type": "Feature"}, {"geometry": {"coordinates": [8.520449, 47.388151], "type": "Point"}, "properties": {"address": "Josefstrasse 224", "electric": 1, "id": "pb_112", "manual": 0, "name": "Steinfelsareal", "provider": "publibike", "timeStamp": "02/16/2020, 04:18:17", "zip": 8005}, "type": "Feature"}, {"geometry": {"coordinates": [8.520482, 47.37209], "type": "Point"}, "properties": {"address": "Weststrasse 115", "electric": 7, "id": "pb_124", "manual": 3, "name": "Weststrasse", "provider": "publibike", "timeStamp": "02/16/2020, 04:18:17", "zip": 8003}, "type": "Feature"}, {"geometry": {"coordinates": [8.496727, 47.378521], "type": "Point"}, "properties": {"address": "Albisriederstrasse 200", "electric": 3, "id": "pb_125", "manual": 2, "name": "Utogrund", "provider": "publibike", "timeStamp": "02/16/2020, 04:18:17", "zip": 8047}, "type": "Feature"}, {"geometry": {"coordinates": [8.510418, 47.381356], "type": "Point"}, "properties": {"address": "Bullingerstrasse 73", "electric": 6, "id": "pb_126", "manual": 11, "name": "Hardau", "provider": "publibike", "timeStamp": "02/16/2020, 04:18:17", "zip": 8004}, "type": "Feature"}, {"geometry": {"coordinates": [8.525525, 47.361567], "type": "Point"}, "properties": {"address": "Klopstockstrasse 23", "electric": 12, "id": "pb_127", "manual": 3, "name": "Klopstockwiese", "provider": "publibike", "timeStamp": "02/16/2020, 04:18:17", "zip": 8002}, "type": "Feature"}, {"geometry": {"coordinates": [8.518143, 47.363148], "type": "Point"}, "properties": {"address": "Haldenstrasse 8", "electric": 8, "id": "pb_128", "manual": 3, "name": "Binz", "provider": "publibike", "timeStamp": "02/16/2020, 04:18:17", "zip": 8045}, "type": "Feature"}, {"geometry": {"coordinates": [8.542726, 47.379952], "type": "Point"}, "properties": {"address": "Walchestrasse 11", "electric": 1, "id": "pb_129", "manual": 0, "name": "Stampfenbachplatz", "provider": "publibike", "timeStamp": "02/16/2020, 04:18:17", "zip": 8006}, "type": "Feature"}, {"geometry": {"coordinates": [8.488108, 47.391366], "type": "Point"}, "properties": {"address": "Altstetterplatz 1", "electric": 11, "id": "pb_130", "manual": 5, "name": "Bahnhof Altstetten", "provider": "publibike", "timeStamp": "02/16/2020, 04:18:17", "zip": 8048}, "type": "Feature"}, {"geometry": {"coordinates": [8.554114, 47.365119], "type": "Point"}, "properties": {"address": "Kreuzplatz 2", "electric": 5, "id": "pb_131", "manual": 5, "name": "Kreuzplatz", "provider": "publibike", "timeStamp": "02/16/2020, 04:18:17", "zip": 8032}, "type": "Feature"}, {"geometry": {"coordinates": [8.549852, 47.35594], "type": "Point"}, "properties": {"address": "H\u00f6schgasse 3", "electric": 0, "id": "pb_132", "manual": 8, "name": "Blatterwiese", "provider": "publibike", "timeStamp": "02/16/2020, 04:18:17", "zip": 8008}, "type": "Feature"}, {"geometry": {"coordinates": [8.554501, 47.36162], "type": "Point"}, "properties": {"address": "Feldeggstrasse 80", "electric": 1, "id": "pb_133", "manual": 0, "name": "Villa Bleuler", "provider": "publibike", "timeStamp": "02/16/2020, 04:18:17", "zip": 8008}, "type": "Feature"}, {"geometry": {"coordinates": [8.557088, 47.358557], "type": "Point"}, "properties": {"address": "M\u00fchlebachstrasse 131", "electric": 5, "id": "pb_134", "manual": 1, "name": "M\u00fchlebachstrasse", "provider": "publibike", "timeStamp": "02/16/2020, 04:18:17", "zip": 8008}, "type": "Feature"}, {"geometry": {"coordinates": [8.547639, 47.361266], "type": "Point"}, "properties": {"address": "Utoquai 50", "electric": 3, "id": "pb_135", "manual": 11, "name": "Seebad Utoquai", "provider": "publibike", "timeStamp": "02/16/2020, 04:18:17", "zip": 8008}, "type": "Feature"}, {"geometry": {"coordinates": [8.548045, 47.370869], "type": "Point"}, "properties": {"address": "Heimplatz 1", "electric": 6, "id": "pb_137", "manual": 4, "name": "Kunsthaus", "provider": "publibike", "timeStamp": "02/16/2020, 04:18:17", "zip": 8001}, "type": "Feature"}, {"geometry": {"coordinates": [8.543447, 47.375933], "type": "Point"}, "properties": {"address": "Limmatquai 138", "electric": 3, "id": "pb_138", "manual": 11, "name": "Central", "provider": "publibike", "timeStamp": "02/16/2020, 04:18:17", "zip": 8001}, "type": "Feature"}, {"geometry": {"coordinates": [8.549356, 47.408827], "type": "Point"}, "properties": {"address": "Tramstrasse 35", "electric": 3, "id": "pb_139", "manual": 5, "name": "ewz Tramstrasse", "provider": "publibike", "timeStamp": "02/16/2020, 04:18:17", "zip": 8050}, "type": "Feature"}, {"geometry": {"coordinates": [8.533736, 47.366904], "type": "Point"}, "properties": {"address": "Bleicherweg 33", "electric": 1, "id": "pb_140", "manual": 8, "name": "Bleicherweg", "provider": "publibike", "timeStamp": "02/16/2020, 04:18:17", "zip": 8002}, "type": "Feature"}, {"geometry": {"coordinates": [8.544935, 47.366752], "type": "Point"}, "properties": {"address": "Bellevueplatz 2", "electric": 45, "id": "pb_141", "manual": 45, "name": "Bellevue", "provider": "publibike", "timeStamp": "02/16/2020, 04:18:17", "zip": 8001}, "type": "Feature"}, {"geometry": {"coordinates": [8.5285533, 47.3742296], "type": "Point"}, "properties": {"address": "Stauffacherstrasse 41", "electric": 0, "id": "pb_142", "manual": 7, "name": "Stauffacher", "provider": "publibike", "timeStamp": "02/16/2020, 04:18:17", "zip": 8004}, "type": "Feature"}, {"geometry": {"coordinates": [8.523722, 47.3899], "type": "Point"}, "properties": {"address": "Limmatstrasse 310", "electric": 0, "id": "pb_143", "manual": 1, "name": "Escher-Wyss-Platz", "provider": "publibike", "timeStamp": "02/16/2020, 04:18:17", "zip": 8005}, "type": "Feature"}, {"geometry": {"coordinates": [8.491061, 47.392336], "type": "Point"}, "properties": {"address": "Vulkanplatz 1", "electric": 4, "id": "pb_149", "manual": 6, "name": "Vulkanplatz", "provider": "publibike", "timeStamp": "02/16/2020, 04:18:17", "zip": 8048}, "type": "Feature"}, {"geometry": {"coordinates": [8.52306, 47.359872], "type": "Point"}, "properties": {"address": "Giessh\u00fcbelstrasse 15", "electric": 0, "id": "pb_150", "manual": 0, "name": "Utoplatz", "provider": "publibike", "timeStamp": "02/16/2020, 04:18:17", "zip": 8045}, "type": "Feature"}, {"geometry": {"coordinates": [8.486284, 47.387685], "type": "Point"}, "properties": {"address": "Lindenplatz 1", "electric": 7, "id": "pb_151", "manual": 5, "name": "Lindenplatz", "provider": "publibike", "timeStamp": "02/16/2020, 04:18:17", "zip": 8048}, "type": "Feature"}, {"geometry": {"coordinates": [8.49163, 47.389823], "type": "Point"}, "properties": {"address": "Hohlstrasse 563", "electric": 11, "id": "pb_152", "manual": 1, "name": "Luggweg", "provider": "publibike", "timeStamp": "02/16/2020, 04:18:17", "zip": 8048}, "type": "Feature"}, {"geometry": {"coordinates": [8.52174, 47.365272], "type": "Point"}, "properties": {"address": "Manessestrasse 87", "electric": 1, "id": "pb_153", "manual": 3, "name": "Manesseplatz", "provider": "publibike", "timeStamp": "02/16/2020, 04:18:17", "zip": 8045}, "type": "Feature"}, {"geometry": {"coordinates": [8.52714, 47.372329], "type": "Point"}, "properties": {"address": "Werdstrasse 75", "electric": 4, "id": "pb_154", "manual": 9, "name": "Werd", "provider": "publibike", "timeStamp": "02/16/2020, 04:18:17", "zip": 8004}, "type": "Feature"}, {"geometry": {"coordinates": [8.543042, 47.374711], "type": "Point"}, "properties": {"address": "Limmatquai 100", "electric": 0, "id": "pb_155", "manual": 0, "name": "Rudolf-Brun-Br\u00fccke", "provider": "publibike", "timeStamp": "02/16/2020, 04:18:17", "zip": 8001}, "type": "Feature"}, {"geometry": {"coordinates": [8.490837, 47.386596], "type": "Point"}, "properties": {"address": "Badenerstrasse 627", "electric": 8, "id": "pb_156", "manual": 1, "name": "Luggwegstrasse VBZ", "provider": "publibike", "timeStamp": "02/16/2020, 04:18:17", "zip": 8048}, "type": "Feature"}, {"geometry": {"coordinates": [8.535119, 47.355189], "type": "Point"}, "properties": {"address": "Mythenquai 95", "electric": 4, "id": "pb_157", "manual": 5, "name": "Strandbad Mythenquai", "provider": "publibike", "timeStamp": "02/16/2020, 04:18:17", "zip": 8002}, "type": "Feature"}, {"geometry": {"coordinates": [8.545505, 47.373675], "type": "Point"}, "properties": {"address": "Predigerpatz 21", "electric": 2, "id": "pb_158", "manual": 13, "name": "Predigerplatz", "provider": "publibike", "timeStamp": "02/16/2020, 04:18:17", "zip": 8001}, "type": "Feature"}, {"geometry": {"coordinates": [8.515558, 47.371868], "type": "Point"}, "properties": {"address": "Aemtlerstrasse 23", "electric": 6, "id": "pb_159", "manual": 3, "name": "Zwinglihaus", "provider": "publibike", "timeStamp": "02/16/2020, 04:18:17", "zip": 8003}, "type": "Feature"}, {"geometry": {"coordinates": [8.524629, 47.386072], "type": "Point"}, "properties": {"address": "Josefstrasse 188", "electric": 2, "id": "pb_160", "manual": 2, "name": "Josefwiese", "provider": "publibike", "timeStamp": "02/16/2020, 04:18:17", "zip": 8005}, "type": "Feature"}, {"geometry": {"coordinates": [8.527138, 47.387531], "type": "Point"}, "properties": {"address": "R\u00f6ntgenstrasse 87", "electric": 0, "id": "pb_164", "manual": 0, "name": "Markthalle", "provider": "publibike", "timeStamp": "02/16/2020, 04:18:17", "zip": 8005}, "type": "Feature"}, {"geometry": {"coordinates": [8.552717, 47.359978], "type": "Point"}, "properties": {"address": "Seefeldstrasse 96", "electric": 5, "id": "pb_263", "manual": 8, "name": "Feldeggstrasse", "provider": "publibike", "timeStamp": "02/16/2020, 04:18:17", "zip": 8008}, "type": "Feature"}, {"geometry": {"coordinates": [8.553189, 47.353198], "type": "Point"}, "properties": {"address": "Bellerivestrasse 170", "electric": 1, "id": "pb_264", "manual": 0, "name": "Lake Side", "provider": "publibike", "timeStamp": "02/16/2020, 04:18:17", "zip": 8008}, "type": "Feature"}, {"geometry": {"coordinates": [8.543437, 47.369256], "type": "Point"}, "properties": {"address": "Limmatquai 18", "electric": 0, "id": "pb_265", "manual": 0, "name": "Helmhaus", "provider": "publibike", "timeStamp": "02/16/2020, 04:18:17", "zip": 8032}, "type": "Feature"}, {"geometry": {"coordinates": [8.516676, 47.375819], "type": "Point"}, "properties": {"address": "Badenerstrasse 246", "electric": 1, "id": "pb_266", "manual": 1, "name": "Lochergut", "provider": "publibike", "timeStamp": "02/16/2020, 04:18:17", "zip": 8004}, "type": "Feature"}, {"geometry": {"coordinates": [8.514605, 47.389862], "type": "Point"}, "properties": {"address": "Pfingstweidstrasse 60", "electric": 1, "id": "pb_273", "manual": 2, "name": "Westpark", "provider": "publibike", "timeStamp": "02/16/2020, 04:18:17", "zip": 8005}, "type": "Feature"}, {"geometry": {"coordinates": [8.541239126, 47.375991201], "type": "Point"}, "properties": {"address": "Beatenplatz 1", "electric": 0, "id": "pb_274", "manual": 2, "name": "Beatenplatz", "provider": "publibike", "timeStamp": "02/16/2020, 04:18:17", "zip": 8001}, "type": "Feature"}, {"geometry": {"coordinates": [8.5417135, 47.3942197], "type": "Point"}, "properties": {"address": "Scheuchzerstrasse 181", "electric": 4, "id": "pb_275", "manual": 1, "name": "Pauluskirche", "provider": "publibike", "timeStamp": "02/16/2020, 04:18:17", "zip": 8057}, "type": "Feature"}, {"geometry": {"coordinates": [8.5528182, 47.414558], "type": "Point"}, "properties": {"address": "Hagenholzstrasse 51", "electric": 7, "id": "pb_276", "manual": 12, "name": "Airgate", "provider": "publibike", "timeStamp": "02/16/2020, 04:18:17", "zip": 8050}, "type": "Feature"}, {"geometry": {"coordinates": [8.537816, 47.413514], "type": "Point"}, "properties": {"address": "Birchstrasse 183", "electric": 6, "id": "pb_277", "manual": 1, "name": "Lamprechtweg", "provider": "publibike", "timeStamp": "02/16/2020, 04:18:17", "zip": 8050}, "type": "Feature"}, {"geometry": {"coordinates": [8.545602, 47.417701], "type": "Point"}, "properties": {"address": "Felsenrainstrasse 2", "electric": 4, "id": "pb_278", "manual": 3, "name": "Emil-Oberh\u00e4nsli", "provider": "publibike", "timeStamp": "02/16/2020, 04:18:17", "zip": 8050}, "type": "Feature"}, {"geometry": {"coordinates": [8.533647, 47.39808], "type": "Point"}, "properties": {"address": "Bucheggplatz 2", "electric": 5, "id": "pb_279", "manual": 1, "name": "Bucheggplatz", "provider": "publibike", "timeStamp": "02/16/2020, 04:18:17", "zip": 8057}, "type": "Feature"}, {"geometry": {"coordinates": [8.523549, 47.392347], "type": "Point"}, "properties": {"address": "Wipkingerplatz 4", "electric": 1, "id": "pb_280", "manual": 6, "name": "Wipkingerplatz", "provider": "publibike", "timeStamp": "02/16/2020, 04:18:17", "zip": 8037}, "type": "Feature"}, {"geometry": {"coordinates": [8.548562, 47.36691], "type": "Point"}, "properties": {"address": "Galerie \u00fcber Gleis 2/3", "electric": 12, "id": "pb_285", "manual": 8, "name": "Bahnhof Stadelhofen", "provider": "publibike", "timeStamp": "02/16/2020, 04:18:17", "zip": 8001}, "type": "Feature"}, {"geometry": {"coordinates": [8.493822, 47.3985553], "type": "Point"}, "properties": {"address": "Meierwiesenstrasse 12-4", "electric": 2, "id": "pb_286", "manual": 1, "name": "T\u00fcffenwies", "provider": "publibike", "timeStamp": "02/16/2020, 04:18:17", "zip": 8064}, "type": "Feature"}, {"geometry": {"coordinates": [8.552432, 47.3801757], "type": "Point"}, "properties": {"address": "Hochstrasse 34", "electric": 2, "id": "pb_356", "manual": 1, "name": "Siriuswiese", "provider": "publibike", "timeStamp": "02/16/2020, 04:18:17", "zip": 8044}, "type": "Feature"}, {"geometry": {"coordinates": [8.527298, 47.370141], "type": "Point"}, "properties": {"address": "Hallwylstrasse 71", "electric": 2, "id": "pb_357", "manual": 4, "name": "Hallwylstrasse", "provider": "publibike", "timeStamp": "02/16/2020, 04:18:17", "zip": 8004}, "type": "Feature"}, {"geometry": {"coordinates": [8.5414185, 47.3972455], "type": "Point"}, "properties": {"address": "Schaffhauserstrasse 137", "electric": 0, "id": "pb_358", "manual": 0, "name": "Milchbuck", "provider": "publibike", "timeStamp": "02/16/2020, 04:18:17", "zip": 8057}, "type": "Feature"}, {"geometry": {"coordinates": [8.512381, 47.393409], "type": "Point"}, "properties": {"address": "Hardturmstrasse 161", "electric": 2, "id": "pb_359", "manual": 3, "name": "Fischerweg", "provider": "publibike", "timeStamp": "02/16/2020, 04:18:17", "zip": 8005}, "type": "Feature"}, {"geometry": {"coordinates": [8.5421457, 47.3876979], "type": "Point"}, "properties": {"address": "Turnerstrasse 47", "electric": 4, "id": "pb_360", "manual": 0, "name": "Kirche Unterstrass", "provider": "publibike", "timeStamp": "02/16/2020, 04:18:17", "zip": 8006}, "type": "Feature"}, {"geometry": {"coordinates": [8.522117, 47.394554], "type": "Point"}, "properties": {"address": "Dorfstrasse 40", "electric": 8, "id": "pb_361", "manual": 4, "name": "Dorfstrasse", "provider": "publibike", "timeStamp": "02/16/2020, 04:18:17", "zip": 8037}, "type": "Feature"}, {"geometry": {"coordinates": [8.530437, 47.37271], "type": "Point"}, "properties": {"address": "Werdstrasse 25", "electric": 1, "id": "pb_362", "manual": 3, "name": "Stauffachertor", "provider": "publibike", "timeStamp": "02/16/2020, 04:18:17", "zip": 8004}, "type": "Feature"}, {"geometry": {"coordinates": [8.541712, 47.416155], "type": "Point"}, "properties": {"address": "Eggb\u00fchlstrasse 21", "electric": 5, "id": "pb_363", "manual": 1, "name": "Wahlenpark", "provider": "publibike", "timeStamp": "02/16/2020, 04:18:17", "zip": 8050}, "type": "Feature"}, {"geometry": {"coordinates": [8.5595335, 47.3708387], "type": "Point"}, "properties": {"address": "Dolderstrasse 32", "electric": 4, "id": "pb_364", "manual": 1, "name": "Kinderspital", "provider": "publibike", "timeStamp": "02/16/2020, 04:18:17", "zip": 8032}, "type": "Feature"}, {"geometry": {"coordinates": [8.536433, 47.388689], "type": "Point"}, "properties": {"address": "Kornhausstrasse 30", "electric": 1, "id": "pb_365", "manual": 3, "name": "Kornhausstrasse", "provider": "publibike", "timeStamp": "02/16/2020, 04:18:17", "zip": 8006}, "type": "Feature"}, {"geometry": {"coordinates": [8.55033, 47.407098], "type": "Point"}, "properties": {"address": "Schwamendingenstrasse 41", "electric": 7, "id": "pb_366", "manual": 6, "name": "Dorflinde", "provider": "publibike", "timeStamp": "02/16/2020, 04:18:17", "zip": 8050}, "type": "Feature"}, {"geometry": {"coordinates": [8.560476, 47.368199], "type": "Point"}, "properties": {"address": "R\u00f6merhofplatz 5", "electric": 9, "id": "pb_367", "manual": 1, "name": "R\u00f6merhof", "provider": "publibike", "timeStamp": "02/16/2020, 04:18:17", "zip": 8032}, "type": "Feature"}, {"geometry": {"coordinates": [8.5609218, 47.3619068], "type": "Point"}, "properties": {"address": "Forchstrasse 99", "electric": 4, "id": "pb_368", "manual": 2, "name": "Hegibachplatz", "provider": "publibike", "timeStamp": "02/16/2020, 04:18:17", "zip": 8032}, "type": "Feature"}, {"geometry": {"coordinates": [8.5721264, 47.4039985], "type": "Point"}, "properties": {"address": "Winterthurerstrasse 519", "electric": 2, "id": "pb_370", "manual": 4, "name": "Schwamendingerplatz", "provider": "publibike", "timeStamp": "02/16/2020, 04:18:17", "zip": 8051}, "type": "Feature"}, {"geometry": {"coordinates": [8.520168, 47.378556], "type": "Point"}, "properties": {"address": "Herman-Greulich-Strasse 56", "electric": 0, "id": "pb_384", "manual": 3, "name": "Hermann-Greulich-Weg", "provider": "publibike", "timeStamp": "02/16/2020, 04:18:17", "zip": 8004}, "type": "Feature"}, {"geometry": {"coordinates": [8.547912, 47.384923], "type": "Point"}, "properties": {"address": "Culmannstrasse", "electric": 10, "id": "pb_386", "manual": 2, "name": "Rigiplatz", "provider": "publibike", "timeStamp": "02/16/2020, 04:18:17", "zip": 8006}, "type": "Feature"}, {"geometry": {"coordinates": [8.543768, 47.411057], "type": "Point"}, "properties": {"address": "Hofwiesenstrasse 369", "electric": 2, "id": "pb_387", "manual": 5, "name": "Bahnhof Oerlikon S\u00fcd", "provider": "publibike", "timeStamp": "02/16/2020, 04:18:17", "zip": 8050}, "type": "Feature"}, {"geometry": {"coordinates": [8.544185, 47.412732], "type": "Point"}, "properties": {"address": "Jungholzstrasse 6", "electric": 0, "id": "pb_388", "manual": 4, "name": "Max-Frisch-Platz", "provider": "publibike", "timeStamp": "02/16/2020, 04:18:17", "zip": 8050}, "type": "Feature"}, {"geometry": {"coordinates": [8.558096, 47.413032], "type": "Point"}, "properties": {"address": "Andreasstrasse", "electric": 8, "id": "pb_389", "manual": 5, "name": "Hunziker-Areal", "provider": "publibike", "timeStamp": "02/16/2020, 04:18:17", "zip": 8050}, "type": "Feature"}, {"geometry": {"coordinates": [8.533265, 47.412873], "type": "Point"}, "properties": {"address": "Regina-K\u00e4gi-Strasse 1", "electric": 5, "id": "pb_390", "manual": 7, "name": "Luis-H\u00e4fliger-Park", "provider": "publibike", "timeStamp": "02/16/2020, 04:18:17", "zip": 8050}, "type": "Feature"}, {"geometry": {"coordinates": [8.499265, 47.401852], "type": "Point"}, "properties": {"address": "Limmattalstrasse 177", "electric": 5, "id": "pb_391", "manual": 0, "name": "Meierhofplatz", "provider": "publibike", "timeStamp": "02/16/2020, 04:18:17", "zip": 8049}, "type": "Feature"}, {"geometry": {"coordinates": [8.528356, 47.393255], "type": "Point"}, "properties": {"address": "R\u00f6schibachstrasse 73", "electric": 8, "id": "pb_392", "manual": 1, "name": "R\u00f6schibachplatz", "provider": "publibike", "timeStamp": "02/16/2020, 04:18:17", "zip": 8037}, "type": "Feature"}, {"geometry": {"coordinates": [8.538067, 47.415721], "type": "Point"}, "properties": {"address": "Birchstrasse 191", "electric": 4, "id": "pb_393", "manual": 1, "name": "Oerliker Park", "provider": "publibike", "timeStamp": "02/16/2020, 04:18:17", "zip": 8050}, "type": "Feature"}, {"geometry": {"coordinates": [8.5420304, 47.3669233], "type": "Point"}, "properties": {"address": "Stadthausquai 1", "electric": 2, "id": "pb_395", "manual": 0, "name": "B\u00fcrkliplatz", "provider": "publibike", "timeStamp": "02/16/2020, 04:18:17", "zip": 8001}, "type": "Feature"}, {"geometry": {"coordinates": [8.535767, 47.409881], "type": "Point"}, "properties": {"address": "Regensbergstrasse 195", "electric": 2, "id": "pb_396", "manual": 0, "name": "Holunderhof", "provider": "publibike", "timeStamp": "02/16/2020, 04:18:17", "zip": 8050}, "type": "Feature"}, {"geometry": {"coordinates": [8.5116245, 47.3616199], "type": "Point"}, "properties": {"address": "Grubenstrasse 42", "electric": 1, "id": "pb_431", "manual": 0, "name": "Binz Center", "provider": "publibike", "timeStamp": "02/16/2020, 04:18:17", "zip": 8045}, "type": "Feature"}, {"geometry": {"coordinates": [8.547195, 47.382089], "type": "Point"}, "properties": {"address": "Nelkenstrasse 24", "electric": 3, "id": "pb_430", "manual": 0, "name": "Stapferstube", "provider": "publibike", "timeStamp": "02/16/2020, 04:18:17", "zip": 8006}, "type": "Feature"}, {"geometry": {"coordinates": [8.5787183, 47.4039845], "type": "Point"}, "properties": {"address": "Kronwiesenstrasse 35", "electric": 4, "id": "pb_426", "manual": 2, "name": "Kronwiesen", "provider": "publibike", "timeStamp": "02/16/2020, 04:18:17", "zip": 8051}, "type": "Feature"}, {"geometry": {"coordinates": [8.508131, 47.420757], "type": "Point"}, "properties": {"address": "Riedenhaldenstrasse 20-18", "electric": 9, "id": "pb_425", "manual": 6, "name": "Bahnhof Affoltern", "provider": "publibike", "timeStamp": "02/16/2020, 04:18:17", "zip": 8046}, "type": "Feature"}, {"geometry": {"coordinates": [8.532464, 47.406988], "type": "Point"}, "properties": {"address": "K\u00fcnzlistrasse 41", "electric": 6, "id": "pb_424", "manual": 2, "name": "Birchd\u00f6rfli", "provider": "publibike", "timeStamp": "02/16/2020, 04:18:17", "zip": 8057}, "type": "Feature"}, {"geometry": {"coordinates": [8.5777038, 47.4080095], "type": "Point"}, "properties": {"address": "Luegislandstrasse 412", "electric": 4, "id": "pb_429", "manual": 1, "name": "Luegisland", "provider": "publibike", "timeStamp": "02/16/2020, 04:18:17", "zip": 8051}, "type": "Feature"}, {"geometry": {"coordinates": [8.58841, 47.40158], "type": "Point"}, "properties": {"address": "Hirzenbachstrasse 2-4", "electric": 11, "id": "pb_428", "manual": 1, "name": "Hirzenbachstrasse", "provider": "publibike", "timeStamp": "02/16/2020, 04:18:17", "zip": 8051}, "type": "Feature"}, {"geometry": {"coordinates": [8.5563463, 47.4095467], "type": "Point"}, "properties": {"address": "K\u00fchriedweg", "electric": 2, "id": "pb_445", "manual": 4, "name": "Hallenbad Oerlikon", "provider": "publibike", "timeStamp": "02/16/2020, 04:18:17", "zip": 8050}, "type": "Feature"}, {"geometry": {"coordinates": [8.537971, 47.364871], "type": "Point"}, "properties": {"address": "General-Guisan-Quai 17", "electric": 3, "id": "pb_454", "manual": 14, "name": "General-Guisan-Quai", "provider": "publibike", "timeStamp": "02/16/2020, 04:18:17", "zip": 8002}, "type": "Feature"}, {"geometry": {"coordinates": [8.560587, 47.350578], "type": "Point"}, "properties": {"address": "Bellerivestrasse 245", "electric": 10, "id": "pb_450", "manual": 11, "name": "Bahnhof Tiefenbrunnen", "provider": "publibike", "timeStamp": "02/16/2020, 04:18:17", "zip": 8008}, "type": "Feature"}, {"geometry": {"coordinates": [8.5269416, 47.3563719], "type": "Point"}, "properties": {"address": "Waffenplatzstrasse 89", "electric": 1, "id": "pb_452", "manual": 1, "name": "Rieterplatz", "provider": "publibike", "timeStamp": "02/16/2020, 04:18:17", "zip": 8002}, "type": "Feature"}, {"geometry": {"coordinates": [8.514176, 47.3663708], "type": "Point"}, "properties": {"address": "Talwiesenstrasse 92", "electric": 4, "id": "pb_446", "manual": 0, "name": "Binzallee", "provider": "publibike", "timeStamp": "02/16/2020, 04:18:17", "zip": 8055}, "type": "Feature"}, {"geometry": {"coordinates": [8.5070564, 47.371455], "type": "Point"}, "properties": {"address": "Gutstrasse 87", "electric": 9, "id": "pb_447", "manual": 7, "name": "Gutstrasse", "provider": "publibike", "timeStamp": "02/16/2020, 04:18:17", "zip": 8055}, "type": "Feature"}, {"geometry": {"coordinates": [8.4941268, 47.3836391], "type": "Point"}, "properties": {"address": "Flurstrasse 62", "electric": 0, "id": "pb_453", "manual": 1, "name": "Flurpark", "provider": "publibike", "timeStamp": "02/16/2020, 04:18:17", "zip": 8048}, "type": "Feature"}, {"geometry": {"coordinates": [8.500343, 47.380778], "type": "Point"}, "properties": {"address": "Edelweissstrasse 32", "electric": 6, "id": "pb_448", "manual": 2, "name": "Bl\u00fcemliquartier", "provider": "publibike", "timeStamp": "02/16/2020, 04:18:17", "zip": 8048}, "type": "Feature"}, {"geometry": {"coordinates": [8.528796, 47.383858], "type": "Point"}, "properties": {"address": "Gasometerstrasse 24", "electric": 3, "id": "pb_449", "manual": 4, "name": "Gasometerstrasse", "provider": "publibike", "timeStamp": "02/16/2020, 04:18:17", "zip": 8005}, "type": "Feature"}, {"geometry": {"coordinates": [8.4981964, 47.3859194], "type": "Point"}, "properties": {"address": "Baslerstrasse 57", "electric": 6, "id": "pb_455", "manual": 10, "name": "Letzipark", "provider": "publibike", "timeStamp": "02/16/2020, 04:18:17", "zip": 8048}, "type": "Feature"}, {"geometry": {"coordinates": [8.515252, 47.381915], "type": "Point"}, "properties": {"address": "Sihlfeldstrasse 175", "electric": 3, "id": "pb_451", "manual": 0, "name": "Hardplatz", "provider": "publibike", "timeStamp": "02/16/2020, 04:18:17", "zip": 8004}, "type": "Feature"}, {"geometry": {"coordinates": [8.5064743, 47.4188324], "type": "Point"}, "properties": {"address": "Wehntalerstrasse 541", "electric": 9, "id": "pb_427", "manual": 7, "name": "Zehntenhausplatz", "provider": "publibike", "timeStamp": "02/16/2020, 04:18:17", "zip": 8046}, "type": "Feature"}, {"geometry": {"coordinates": [8.537729, 47.379719], "type": "Point"}, "properties": {"address": "Sihlquai/HB", "electric": 2, "id": "pb_513", "manual": 12, "name": "Sihlquai", "provider": "publibike", "timeStamp": "02/16/2020, 04:18:17", "zip": 8005}, "type": "Feature"}, {"geometry": {"coordinates": [8.596202, 47.397885], "type": "Point"}, "properties": {"address": "Bahnhof Stettbach", "electric": 1, "id": "pb_514", "manual": 0, "name": "Bahnhof Stettbach", "provider": "publibike", "timeStamp": "02/16/2020, 04:18:17", "zip": 8051}, "type": "Feature"}, {"geometry": {"coordinates": [8.5543974, 47.3690153], "type": "Point"}, "properties": {"address": "Kasinostrasse 10", "electric": 3, "id": "pb_515", "manual": 2, "name": "Hottingerplatz", "provider": "publibike", "timeStamp": "02/16/2020, 04:18:17", "zip": 8032}, "type": "Feature"}, {"geometry": {"coordinates": [8.534444, 47.351525], "type": "Point"}, "properties": {"address": "Mobile Station Z\u00fcrich 1", "electric": 0, "id": "pb_282", "manual": 0, "name": "Theaterspektakel", "provider": "publibike", "timeStamp": "02/16/2020, 04:18:17", "zip": 8002}, "type": "Feature"}, {"geometry": {"coordinates": [8.516257, 47.367656], "type": "Point"}, "properties": {"address": "Goldbrunnenstrasse 54", "electric": 3, "id": "pb_538", "manual": 2, "name": "Kirche B\u00fchl", "provider": "publibike", "timeStamp": "02/16/2020, 04:18:17", "zip": 8055}, "type": "Feature"}, {"geometry": {"coordinates": [8.555639, 47.416873], "type": "Point"}, "properties": {"address": "Leutschenbachstrasse 50", "electric": 5, "id": "pb_537", "manual": 7, "name": "Leutschenpark", "provider": "publibike", "timeStamp": "02/16/2020, 04:18:17", "zip": 8050}, "type": "Feature"}, {"geometry": {"coordinates": [8.546464, 47.403822], "type": "Point"}, "properties": {"address": "Berninastrasse 45", "electric": 7, "id": "pb_540", "manual": 1, "name": "Berninaplatz", "provider": "publibike", "timeStamp": "02/16/2020, 04:18:17", "zip": 8057}, "type": "Feature"}, {"geometry": {"coordinates": [8.523134, 47.369004], "type": "Point"}, "properties": {"address": "Erlachstrasse 3", "electric": 3, "id": "pb_385", "manual": 2, "name": "Aegerten", "provider": "publibike", "timeStamp": "02/16/2020, 04:18:17", "zip": 8003}, "type": "Feature"}, {"geometry": {"coordinates": [8.49038, 47.381591], "type": "Point"}, "properties": {"address": "Rautistrasse 60", "electric": 2, "id": "pb_536", "manual": 1, "name": "Freilager", "provider": "publibike", "timeStamp": "02/16/2020, 04:18:17", "zip": 8048}, "type": "Feature"}, {"geometry": {"coordinates": [8.496511, 47.375247], "type": "Point"}, "properties": {"address": "Letzigraben 139", "electric": 4, "id": "pb_444", "manual": 5, "name": "Sackzelg", "provider": "publibike", "timeStamp": "02/16/2020, 04:18:17", "zip": 8047}, "type": "Feature"}, {"geometry": {"coordinates": [8.58131, 47.402801], "type": "Point"}, "properties": {"address": "Altwiesenstrasse 104", "electric": 1, "id": "pb_539", "manual": 2, "name": "Glattwiesen", "provider": "publibike", "timeStamp": "02/16/2020, 04:18:17", "zip": 8051}, "type": "Feature"}, {"geometry": {"coordinates": [8.52689, 47.3767], "type": "Point"}, "properties": {"address": "Molkenstrasse 5", "electric": 5, "id": "pb_560", "manual": 2, "name": "Helvetiaplatz", "provider": "publibike", "timeStamp": "02/16/2020, 04:18:17", "zip": 8004}, "type": "Feature"}, {"geometry": {"coordinates": [8.525602, 47.374241], "type": "Point"}, "properties": {"address": "Badenerstrasse 90", "electric": 1, "id": "pb_559", "manual": 4, "name": "Bezirksgeb\u00e4ude", "provider": "publibike", "timeStamp": "02/16/2020, 04:18:17", "zip": 8004}, "type": "Feature"}, {"geometry": {"coordinates": [8.535082, 47.345248], "type": "Point"}, "properties": {"address": "Bachstrasse 15", "electric": 2, "id": "pb_564", "manual": 7, "name": "GZ Wollishofen", "provider": "publibike", "timeStamp": "02/16/2020, 04:18:17", "zip": 8038}, "type": "Feature"}, {"geometry": {"coordinates": [8.514841, 47.370238], "type": "Point"}, "properties": {"address": "Schrennengasse 37", "electric": 5, "id": "pb_562", "manual": 2, "name": "Goldbrunnenplatz", "provider": "publibike", "timeStamp": "02/16/2020, 04:18:17", "zip": 8003}, "type": "Feature"}, {"geometry": {"coordinates": [8.514138, 47.374206], "type": "Point"}, "properties": {"address": "Idaplatz 4", "electric": 4, "id": "pb_557", "manual": 5, "name": "Idaplatz", "provider": "publibike", "timeStamp": "02/16/2020, 04:18:17", "zip": 8003}, "type": "Feature"}, {"geometry": {"coordinates": [8.518432, 47.369549], "type": "Point"}, "properties": {"address": "Brinerstrasse 2", "electric": 4, "id": "pb_558", "manual": 3, "name": "Schmiede Wiedikon", "provider": "publibike", "timeStamp": "02/16/2020, 04:18:17", "zip": 8003}, "type": "Feature"}, {"geometry": {"coordinates": [8.537546, 47.391289], "type": "Point"}, "properties": {"address": "Rotbuchstrasse 15", "electric": 5, "id": "pb_556", "manual": 1, "name": "Schaffhauserplatz", "provider": "publibike", "timeStamp": "02/16/2020, 04:18:17", "zip": 8006}, "type": "Feature"}, {"geometry": {"coordinates": [8.541541, 47.413733], "type": "Point"}, "properties": {"address": "Therese-Giehse-Strasse 11", "electric": 7, "id": "pb_561", "manual": 4, "name": "Center Eleven", "provider": "publibike", "timeStamp": "02/16/2020, 04:18:17", "zip": 8050}, "type": "Feature"}, {"geometry": {"coordinates": [8.534227, 47.360004], "type": "Point"}, "properties": {"address": "Alfred Escher-Strasse 76", "electric": 5, "id": "pb_563", "manual": 1, "name": "Mythenschloss", "provider": "publibike", "timeStamp": "02/16/2020, 04:18:17", "zip": 8002}, "type": "Feature"}, {"geometry": {"coordinates": [8.50373, 47.396172], "type": "Point"}, "properties": {"address": "Hardeggstrasse 6", "electric": 4, "id": "pb_566", "manual": 7, "name": "Am Wasser", "provider": "publibike", "timeStamp": "02/16/2020, 04:18:17", "zip": 8049}, "type": "Feature"}, {"geometry": {"coordinates": [8.532432, 47.381174], "type": "Point"}, "properties": {"address": "Klingenstrasse 9", "electric": 4, "id": "pb_565", "manual": 2, "name": "Zollstrasse", "provider": "publibike", "timeStamp": "02/16/2020, 04:18:17", "zip": 8005}, "type": "Feature"}, {"geometry": {"coordinates": [8.497982, 47.381447], "type": "Point"}, "properties": {"address": "Dennlerstrasse 23", "electric": 8, "id": "pb_567", "manual": 1, "name": "Dennlerstrasse", "provider": "publibike", "timeStamp": "02/16/2020, 04:18:17", "zip": 8047}, "type": "Feature"}, {"geometry": {"coordinates": [8.528049, 47.347701], "type": "Point"}, "properties": {"address": "Mutschellenstrasse 114", "electric": 6, "id": "pb_568", "manual": 4, "name": "Jugendherberge", "provider": "publibike", "timeStamp": "02/16/2020, 04:18:17", "zip": 8038}, "type": "Feature"}, {"geometry": {"coordinates": [8.539016, 47.405751], "type": "Point"}, "properties": {"address": "Ringstrasse 82", "electric": 3, "id": "pb_569", "manual": 2, "name": "Freibad Allenmoos", "provider": "publibike", "timeStamp": "02/16/2020, 04:18:17", "zip": 8057}, "type": "Feature"}, {"geometry": {"coordinates": [8.534974, 47.402164], "type": "Point"}, "properties": {"address": "Brache Guggach", "electric": 2, "id": "pb_572", "manual": 0, "name": "Radiostudio", "provider": "publibike", "timeStamp": "02/16/2020, 04:18:17", "zip": 8057}, "type": "Feature"}, {"geometry": {"coordinates": [8.547901, 47.375556], "type": "Point"}, "properties": {"address": "Karl-Schmid-Strasse 4", "electric": 4, "id": "pb_571", "manual": 0, "name": "ETH/Zoologisches Museum", "provider": "publibike", "timeStamp": "02/16/2020, 04:18:17", "zip": 8006}, "type": "Feature"}, {"geometry": {"coordinates": [8.563501, 47.3822], "type": "Point"}, "properties": {"charge": 32, "id": "smide_2901", "name": "ZH 267278", "provider": "smide", "range": 16.0, "size": 20, "time": "02/16/2020, 04:19:54"}, "type": "Feature"}, {"geometry": {"coordinates": [8.489975, 47.367373], "type": "Point"}, "properties": {"charge": 52, "id": "smide_2880", "name": "ZH267289", "provider": "smide", "range": 26.0, "size": 17, "time": "02/16/2020, 04:19:54"}, "type": "Feature"}, {"geometry": {"coordinates": [8.518043, 47.367643], "type": "Point"}, "properties": {"charge": 34, "id": "smide_2871", "name": "ZH 267086", "provider": "smide", "range": 17.0, "size": 20, "time": "02/16/2020, 04:19:54"}, "type": "Feature"}, {"geometry": {"coordinates": [8.511596, 47.430598], "type": "Point"}, "properties": {"charge": 80, "id": "smide_2867", "name": "ZH 267090", "provider": "smide", "range": 40.0, "size": 20, "time": "02/16/2020, 04:19:54"}, "type": "Feature"}, {"geometry": {"coordinates": [8.519066, 47.372111], "type": "Point"}, "properties": {"charge": 97, "id": "smide_2861", "name": "ZH 267096", "provider": "smide", "range": 48.0, "size": 17, "time": "02/16/2020, 04:19:54"}, "type": "Feature"}, {"geometry": {"coordinates": [8.502386, 47.362128], "type": "Point"}, "properties": {"charge": 85, "id": "smide_2856", "name": "ZH 267101", "provider": "smide", "range": 42.0, "size": 17, "time": "02/16/2020, 04:19:54"}, "type": "Feature"}, {"geometry": {"coordinates": [8.532265, 47.398765], "type": "Point"}, "properties": {"charge": 61, "id": "smide_2854", "name": "ZH 267103", "provider": "smide", "range": 30.0, "size": 17, "time": "02/16/2020, 04:19:54"}, "type": "Feature"}, {"geometry": {"coordinates": [8.561016, 47.383461], "type": "Point"}, "properties": {"charge": 29, "id": "smide_2831", "name": "ZH 267180", "provider": "smide", "range": 14.0, "size": 20, "time": "02/16/2020, 04:19:54"}, "type": "Feature"}, {"geometry": {"coordinates": [8.57435, 47.348268], "type": "Point"}, "properties": {"charge": 92, "id": "smide_2804", "name": "ZH266903", "provider": "smide", "range": 46.0, "size": 20, "time": "02/16/2020, 04:19:54"}, "type": "Feature"}, {"geometry": {"coordinates": [8.561495, 47.350176], "type": "Point"}, "properties": {"charge": 88, "id": "smide_2795", "name": "ZH 266885", "provider": "smide", "range": 44.0, "size": 17, "time": "02/16/2020, 04:19:54"}, "type": "Feature"}, {"geometry": {"coordinates": [8.495526, 47.388451], "type": "Point"}, "properties": {"charge": 42, "id": "smide_2793", "name": "ZH266883", "provider": "smide", "range": 21.0, "size": 17, "time": "02/16/2020, 04:19:54"}, "type": "Feature"}, {"geometry": {"coordinates": [8.51272, 47.359978], "type": "Point"}, "properties": {"charge": 23, "id": "smide_2785", "name": "ZH266875", "provider": "smide", "range": 11.0, "size": 17, "time": "02/16/2020, 04:19:54"}, "type": "Feature"}, {"geometry": {"coordinates": [8.521606, 47.36535], "type": "Point"}, "properties": {"charge": 88, "id": "smide_2780", "name": "ST1 X #1", "provider": "smide", "range": 44.0, "size": 17, "time": "02/16/2020, 04:19:54"}, "type": "Feature"}, {"geometry": {"coordinates": [8.483227, 47.388368], "type": "Point"}, "properties": {"charge": 65, "id": "smide_2775", "name": "ZH267283", "provider": "smide", "range": 32.0, "size": 20, "time": "02/16/2020, 04:19:54"}, "type": "Feature"}, {"geometry": {"coordinates": [8.54812, 47.366488], "type": "Point"}, "properties": {"charge": 50, "id": "smide_2773", "name": "ZH266561", "provider": "smide", "range": 25.0, "size": 17, "time": "02/16/2020, 04:19:54"}, "type": "Feature"}, {"geometry": {"coordinates": [8.517084, 47.390732], "type": "Point"}, "properties": {"charge": 38, "id": "smide_2771", "name": "ZH266559", "provider": "smide", "range": 19.0, "size": 17, "time": "02/16/2020, 04:19:54"}, "type": "Feature"}, {"geometry": {"coordinates": [8.549242, 47.370532], "type": "Point"}, "properties": {"charge": 100, "id": "smide_2763", "name": "ZH266641", "provider": "smide", "range": 50.0, "size": 17, "time": "02/16/2020, 04:19:54"}, "type": "Feature"}, {"geometry": {"coordinates": [8.55126, 47.401121], "type": "Point"}, "properties": {"charge": 76, "id": "smide_2761", "name": "ZH266642", "provider": "smide", "range": 38.0, "size": 20, "time": "02/16/2020, 04:19:54"}, "type": "Feature"}, {"geometry": {"coordinates": [8.515364, 47.368416], "type": "Point"}, "properties": {"charge": 71, "id": "smide_2759", "name": "ZH266639", "provider": "smide", "range": 35.0, "size": 17, "time": "02/16/2020, 04:19:54"}, "type": "Feature"}, {"geometry": {"coordinates": [8.57422, 47.348244], "type": "Point"}, "properties": {"charge": 98, "id": "smide_2758", "name": "ZH266638 M", "provider": "smide", "range": 49.0, "size": 17, "time": "02/16/2020, 04:19:54"}, "type": "Feature"}, {"geometry": {"coordinates": [8.505994, 47.407232], "type": "Point"}, "properties": {"charge": 86, "id": "smide_2752", "name": "BE343856", "provider": "smide", "range": 43.0, "size": 17, "time": "02/16/2020, 04:19:54"}, "type": "Feature"}, {"geometry": {"coordinates": [8.50349, 47.377788], "type": "Point"}, "properties": {"charge": 31, "id": "smide_2751", "name": "BE343857", "provider": "smide", "range": 15.0, "size": 17, "time": "02/16/2020, 04:19:54"}, "type": "Feature"}, {"geometry": {"coordinates": [8.527026, 47.397444], "type": "Point"}, "properties": {"charge": 56, "id": "smide_2749", "name": "BE343867", "provider": "smide", "range": 28.0, "size": 17, "time": "02/16/2020, 04:19:54"}, "type": "Feature"}, {"geometry": {"coordinates": [8.522658, 47.367872], "type": "Point"}, "properties": {"charge": 76, "id": "smide_2748", "name": "BE335758", "provider": "smide", "range": 38.0, "size": 17, "time": "02/16/2020, 04:19:54"}, "type": "Feature"}, {"geometry": {"coordinates": [8.567029, 47.38274], "type": "Point"}, "properties": {"charge": 100, "id": "smide_2746", "name": "BE335817", "provider": "smide", "range": 50.0, "size": 17, "time": "02/16/2020, 04:19:54"}, "type": "Feature"}, {"geometry": {"coordinates": [8.482638, 47.384668], "type": "Point"}, "properties": {"charge": 70, "id": "smide_2747", "name": "BE335820", "provider": "smide", "range": 35.0, "size": 17, "time": "02/16/2020, 04:19:54"}, "type": "Feature"}, {"geometry": {"coordinates": [8.573256, 47.357144], "type": "Point"}, "properties": {"charge": 100, "id": "smide_2745", "name": "BE335818", "provider": "smide", "range": 50.0, "size": 17, "time": "02/16/2020, 04:19:54"}, "type": "Feature"}, {"geometry": {"coordinates": [8.512746, 47.398916], "type": "Point"}, "properties": {"charge": 90, "id": "smide_2743", "name": "BE343864", "provider": "smide", "range": 45.0, "size": 17, "time": "02/16/2020, 04:19:54"}, "type": "Feature"}, {"geometry": {"coordinates": [8.536062, 47.344912], "type": "Point"}, "properties": {"charge": 38, "id": "smide_2742", "name": "BE343866", "provider": "smide", "range": 19.0, "size": 17, "time": "02/16/2020, 04:19:54"}, "type": "Feature"}, {"geometry": {"coordinates": [8.563461, 47.38228], "type": "Point"}, "properties": {"charge": 57, "id": "smide_2741", "name": "BE343874", "provider": "smide", "range": 28.0, "size": 17, "time": "02/16/2020, 04:19:54"}, "type": "Feature"}, {"geometry": {"coordinates": [8.5034, 47.396588], "type": "Point"}, "properties": {"charge": 87, "id": "smide_2738", "name": "BE343865", "provider": "smide", "range": 43.0, "size": 17, "time": "02/16/2020, 04:19:54"}, "type": "Feature"}, {"geometry": {"coordinates": [8.514503, 47.364696], "type": "Point"}, "properties": {"charge": 40, "id": "smide_2737", "name": "BE336149", "provider": "smide", "range": 20.0, "size": 17, "time": "02/16/2020, 04:19:54"}, "type": "Feature"}, {"geometry": {"coordinates": [8.515051, 47.414536], "type": "Point"}, "properties": {"charge": 62, "id": "smide_2734", "name": "BE343876", "provider": "smide", "range": 31.0, "size": 17, "time": "02/16/2020, 04:19:54"}, "type": "Feature"}, {"geometry": {"coordinates": [8.531475, 47.369388], "type": "Point"}, "properties": {"charge": 100, "id": "smide_2733", "name": "BE343873", "provider": "smide", "range": 50.0, "size": 17, "time": "02/16/2020, 04:19:54"}, "type": "Feature"}, {"geometry": {"coordinates": [8.518071, 47.36766], "type": "Point"}, "properties": {"charge": 66, "id": "smide_2732", "name": "BE343870", "provider": "smide", "range": 33.0, "size": 17, "time": "02/16/2020, 04:19:54"}, "type": "Feature"}, {"geometry": {"coordinates": [8.574687, 47.352428], "type": "Point"}, "properties": {"charge": 61, "id": "smide_2729", "name": "BE343878", "provider": "smide", "range": 30.0, "size": 17, "time": "02/16/2020, 04:19:54"}, "type": "Feature"}, {"geometry": {"coordinates": [8.513338, 47.39374], "type": "Point"}, "properties": {"charge": 35, "id": "smide_2725", "name": "ZH261545", "provider": "smide", "range": 17.0, "size": 0, "time": "02/16/2020, 04:19:54"}, "type": "Feature"}, {"geometry": {"coordinates": [8.522295, 47.35922], "type": "Point"}, "properties": {"charge": 92, "id": "smide_2718", "name": "ZH259019", "provider": "smide", "range": 46.0, "size": 20, "time": "02/16/2020, 04:19:54"}, "type": "Feature"}, {"geometry": {"coordinates": [8.50549, 47.379228], "type": "Point"}, "properties": {"charge": 100, "id": "smide_2717", "name": "ZH263287", "provider": "smide", "range": 50.0, "size": 17, "time": "02/16/2020, 04:19:54"}, "type": "Feature"}, {"geometry": {"coordinates": [8.497806, 47.424293], "type": "Point"}, "properties": {"charge": 91, "id": "smide_2716", "name": "ZH254606", "provider": "smide", "range": 45.0, "size": 17, "time": "02/16/2020, 04:19:54"}, "type": "Feature"}, {"geometry": {"coordinates": [8.522962, 47.394288], "type": "Point"}, "properties": {"charge": 100, "id": "smide_2715", "name": "ZH254605", "provider": "smide", "range": 50.0, "size": 17, "time": "02/16/2020, 04:19:54"}, "type": "Feature"}, {"geometry": {"coordinates": [8.56474, 47.40716], "type": "Point"}, "properties": {"charge": 56, "id": "smide_2714", "name": "ZH256461", "provider": "smide", "range": 28.0, "size": 17, "time": "02/16/2020, 04:19:54"}, "type": "Feature"}, {"geometry": {"coordinates": [8.506315, 47.360652], "type": "Point"}, "properties": {"charge": 100, "id": "smide_2710", "name": "ZH256460", "provider": "smide", "range": 50.0, "size": 17, "time": "02/16/2020, 04:19:54"}, "type": "Feature"}, {"geometry": {"coordinates": [8.502019, 47.369844], "type": "Point"}, "properties": {"charge": 97, "id": "smide_2712", "name": "ZH256462", "provider": "smide", "range": 48.0, "size": 17, "time": "02/16/2020, 04:19:54"}, "type": "Feature"}, {"geometry": {"coordinates": [8.551577, 47.386392], "type": "Point"}, "properties": {"charge": 79, "id": "smide_2711", "name": "ZH256463", "provider": "smide", "range": 39.0, "size": 17, "time": "02/16/2020, 04:19:54"}, "type": "Feature"}, {"geometry": {"coordinates": [8.496761, 47.36856], "type": "Point"}, "properties": {"charge": 88, "id": "smide_2709", "name": "ZH256466", "provider": "smide", "range": 44.0, "size": 20, "time": "02/16/2020, 04:19:54"}, "type": "Feature"}, {"geometry": {"coordinates": [8.547069, 47.370572], "type": "Point"}, "properties": {"charge": 100, "id": "smide_2707", "name": "ZH256467", "provider": "smide", "range": 50.0, "size": 20, "time": "02/16/2020, 04:19:54"}, "type": "Feature"}, {"geometry": {"coordinates": [8.484756, 47.3745], "type": "Point"}, "properties": {"charge": 26, "id": "smide_2708", "name": "ZH256464", "provider": "smide", "range": 13.0, "size": 17, "time": "02/16/2020, 04:19:54"}, "type": "Feature"}, {"geometry": {"coordinates": [8.506575, 47.360564], "type": "Point"}, "properties": {"charge": 100, "id": "smide_2706", "name": "ZH256322", "provider": "smide", "range": 50.0, "size": 20, "time": "02/16/2020, 04:19:54"}, "type": "Feature"}, {"geometry": {"coordinates": [8.554359, 47.41294], "type": "Point"}, "properties": {"charge": 81, "id": "smide_2696", "name": "ZH254616", "provider": "smide", "range": 40.0, "size": 20, "time": "02/16/2020, 04:19:54"}, "type": "Feature"}, {"geometry": {"coordinates": [8.535746, 47.397636], "type": "Point"}, "properties": {"charge": 44, "id": "smide_2694", "name": "ZH254610", "provider": "smide", "range": 22.0, "size": 20, "time": "02/16/2020, 04:19:54"}, "type": "Feature"}, {"geometry": {"coordinates": [8.533513, 47.334801], "type": "Point"}, "properties": {"charge": 28, "id": "smide_2691", "name": "ZH254622", "provider": "smide", "range": 14.0, "size": 20, "time": "02/16/2020, 04:19:54"}, "type": "Feature"}, {"geometry": {"coordinates": [8.54007, 47.378918], "type": "Point"}, "properties": {"charge": 100, "id": "smide_2690", "name": "ZH254625", "provider": "smide", "range": 50.0, "size": 20, "time": "02/16/2020, 04:19:54"}, "type": "Feature"}, {"geometry": {"coordinates": [8.553501, 47.397492], "type": "Point"}, "properties": {"charge": 31, "id": "smide_2687", "name": "ZH263529", "provider": "smide", "range": 15.0, "size": 20, "time": "02/16/2020, 04:19:54"}, "type": "Feature"}, {"geometry": {"coordinates": [8.541995, 47.424544], "type": "Point"}, "properties": {"charge": 77, "id": "smide_2686", "name": "ZH263288", "provider": "smide", "range": 38.0, "size": 20, "time": "02/16/2020, 04:19:54"}, "type": "Feature"}, {"geometry": {"coordinates": [8.556931, 47.37299], "type": "Point"}, "properties": {"charge": 64, "id": "smide_2683", "name": "ZH254620", "provider": "smide", "range": 32.0, "size": 20, "time": "02/16/2020, 04:19:54"}, "type": "Feature"}, {"geometry": {"coordinates": [8.537252, 47.389176], "type": "Point"}, "properties": {"charge": 91, "id": "smide_2680", "name": "ZH254619", "provider": "smide", "range": 45.0, "size": 20, "time": "02/16/2020, 04:19:54"}, "type": "Feature"}, {"geometry": {"coordinates": [8.573937, 47.352732], "type": "Point"}, "properties": {"charge": 77, "id": "smide_2679", "name": "ZH258489", "provider": "smide", "range": 38.0, "size": 17, "time": "02/16/2020, 04:19:54"}, "type": "Feature"}, {"geometry": {"coordinates": [8.566509, 47.36164], "type": "Point"}, "properties": {"charge": 52, "id": "smide_2669", "name": "ZH263294", "provider": "smide", "range": 26.0, "size": 17, "time": "02/16/2020, 04:19:54"}, "type": "Feature"}, {"geometry": {"coordinates": [8.515821, 47.367712], "type": "Point"}, "properties": {"charge": 89, "id": "smide_2666", "name": "ZH258653", "provider": "smide", "range": 44.0, "size": 17, "time": "02/16/2020, 04:19:54"}, "type": "Feature"}, {"geometry": {"coordinates": [8.582805, 47.35098], "type": "Point"}, "properties": {"charge": 100, "id": "smide_2665", "name": "ZH258644", "provider": "smide", "range": 50.0, "size": 17, "time": "02/16/2020, 04:19:54"}, "type": "Feature"}, {"geometry": {"coordinates": [8.488655, 47.380544], "type": "Point"}, "properties": {"charge": 78, "id": "smide_2664", "name": "ZH258652", "provider": "smide", "range": 39.0, "size": 17, "time": "02/16/2020, 04:19:54"}, "type": "Feature"}, {"geometry": {"coordinates": [8.534027, 47.363644], "type": "Point"}, "properties": {"charge": 91, "id": "smide_2663", "name": "ZH258649", "provider": "smide", "range": 45.0, "size": 17, "time": "02/16/2020, 04:19:54"}, "type": "Feature"}, {"geometry": {"coordinates": [8.506899, 47.360432], "type": "Point"}, "properties": {"charge": 100, "id": "smide_2662", "name": "ZH258643", "provider": "smide", "range": 50.0, "size": 17, "time": "02/16/2020, 04:19:54"}, "type": "Feature"}, {"geometry": {"coordinates": [8.543134, 47.400276], "type": "Point"}, "properties": {"charge": 71, "id": "smide_2648", "name": "ZH257930", "provider": "smide", "range": 35.0, "size": 20, "time": "02/16/2020, 04:19:54"}, "type": "Feature"}, {"geometry": {"coordinates": [8.570476, 47.352173], "type": "Point"}, "properties": {"charge": 66, "id": "smide_2657", "name": "ZH257936", "provider": "smide", "range": 33.0, "size": 17, "time": "02/16/2020, 04:19:54"}, "type": "Feature"}, {"geometry": {"coordinates": [8.570073, 47.352336], "type": "Point"}, "properties": {"charge": 100, "id": "smide_2647", "name": "ZH257932", "provider": "smide", "range": 50.0, "size": 20, "time": "02/16/2020, 04:19:54"}, "type": "Feature"}, {"geometry": {"coordinates": [8.525896, 47.342036], "type": "Point"}, "properties": {"charge": 81, "id": "smide_2645", "name": "ZH257933", "provider": "smide", "range": 40.0, "size": 20, "time": "02/16/2020, 04:19:54"}, "type": "Feature"}, {"geometry": {"coordinates": [8.5523, 47.356891], "type": "Point"}, "properties": {"charge": 56, "id": "smide_3", "name": "ZH253765", "provider": "smide", "range": 28.0, "size": 20, "time": "02/16/2020, 04:19:54"}, "type": "Feature"}, {"geometry": {"coordinates": [8.532165, 47.398541], "type": "Point"}, "properties": {"charge": 53, "id": "smide_105", "name": "ZH253804", "provider": "smide", "range": 26.0, "size": 17, "time": "02/16/2020, 04:19:54"}, "type": "Feature"}, {"geometry": {"coordinates": [8.5281, 47.357748], "type": "Point"}, "properties": {"charge": 62, "id": "smide_77", "name": "ZH261548", "provider": "smide", "range": 31.0, "size": 20, "time": "02/16/2020, 04:19:54"}, "type": "Feature"}, {"geometry": {"coordinates": [8.500758, 47.36958], "type": "Point"}, "properties": {"charge": 100, "id": "smide_197", "name": "ZH253864", "provider": "smide", "range": 50.0, "size": 20, "time": "02/16/2020, 04:19:54"}, "type": "Feature"}, {"geometry": {"coordinates": [8.483091, 47.384692], "type": "Point"}, "properties": {"charge": 59, "id": "smide_8", "name": "ZH253861", "provider": "smide", "range": 29.0, "size": 17, "time": "02/16/2020, 04:19:54"}, "type": "Feature"}, {"geometry": {"coordinates": [8.557723, 47.376933], "type": "Point"}, "properties": {"charge": 66, "id": "smide_201", "name": "ZH253698", "provider": "smide", "range": 33.0, "size": 17, "time": "02/16/2020, 04:19:54"}, "type": "Feature"}, {"geometry": {"coordinates": [8.557668, 47.378124], "type": "Point"}, "properties": {"charge": 59, "id": "smide_71", "name": "ZH253742", "provider": "smide", "range": 29.0, "size": 20, "time": "02/16/2020, 04:19:54"}, "type": "Feature"}, {"geometry": {"coordinates": [8.484762, 47.374576], "type": "Point"}, "properties": {"charge": 88, "id": "smide_101", "name": "ZH253814", "provider": "smide", "range": 44.0, "size": 17, "time": "02/16/2020, 04:19:54"}, "type": "Feature"}, {"geometry": {"coordinates": [8.502093, 47.369148], "type": "Point"}, "properties": {"charge": 62, "id": "smide_9", "name": "ZH253796", "provider": "smide", "range": 31.0, "size": 17, "time": "02/16/2020, 04:19:54"}, "type": "Feature"}, {"geometry": {"coordinates": [8.529248, 47.355864], "type": "Point"}, "properties": {"charge": 91, "id": "smide_143", "name": "ZH253778", "provider": "smide", "range": 45.0, "size": 17, "time": "02/16/2020, 04:19:54"}, "type": "Feature"}, {"geometry": {"coordinates": [8.513391, 47.37462], "type": "Point"}, "properties": {"charge": 74, "id": "smide_180", "name": "ZH253824", "provider": "smide", "range": 37.0, "size": 20, "time": "02/16/2020, 04:19:54"}, "type": "Feature"}, {"geometry": {"coordinates": [8.53703, 47.336832], "type": "Point"}, "properties": {"charge": 44, "id": "smide_20", "name": "ZH253770", "provider": "smide", "range": 22.0, "size": 20, "time": "02/16/2020, 04:19:54"}, "type": "Feature"}, {"geometry": {"coordinates": [8.544583, 47.381566], "type": "Point"}, "properties": {"charge": 45, "id": "smide_30", "name": "ZH253813", "provider": "smide", "range": 22.0, "size": 20, "time": "02/16/2020, 04:19:54"}, "type": "Feature"}, {"geometry": {"coordinates": [8.559336, 47.414991], "type": "Point"}, "properties": {"charge": 90, "id": "smide_10", "name": "ZH253855", "provider": "smide", "range": 45.0, "size": 17, "time": "02/16/2020, 04:19:54"}, "type": "Feature"}, {"geometry": {"coordinates": [8.518513, 47.375684], "type": "Point"}, "properties": {"charge": 80, "id": "smide_179", "name": "ZH253687", "provider": "smide", "range": 40.0, "size": 20, "time": "02/16/2020, 04:19:54"}, "type": "Feature"}, {"geometry": {"coordinates": [8.482978, 47.384605], "type": "Point"}, "properties": {"charge": 86, "id": "smide_79", "name": "ZH253711", "provider": "smide", "range": 43.0, "size": 20, "time": "02/16/2020, 04:19:54"}, "type": "Feature"}, {"geometry": {"coordinates": [8.559237, 47.41486], "type": "Point"}, "properties": {"charge": 100, "id": "smide_35", "name": "ZH253755", "provider": "smide", "range": 50.0, "size": 20, "time": "02/16/2020, 04:19:54"}, "type": "Feature"}, {"geometry": {"coordinates": [8.560772, 47.383024], "type": "Point"}, "properties": {"charge": 62, "id": "smide_119", "name": "ZH253686", "provider": "smide", "range": 31.0, "size": 20, "time": "02/16/2020, 04:19:54"}, "type": "Feature"}, {"geometry": {"coordinates": [8.56458, 47.369244], "type": "Point"}, "properties": {"charge": 100, "id": "smide_76", "name": "ZH253764", "provider": "smide", "range": 50.0, "size": 17, "time": "02/16/2020, 04:19:54"}, "type": "Feature"}, {"geometry": {"coordinates": [8.502501, 47.384644], "type": "Point"}, "properties": {"charge": 91, "id": "smide_129", "name": "ZH261378", "provider": "smide", "range": 45.0, "size": 17, "time": "02/16/2020, 04:19:54"}, "type": "Feature"}, {"geometry": {"coordinates": [8.563453, 47.382103], "type": "Point"}, "properties": {"charge": 80, "id": "smide_49", "name": "ZH253873", "provider": "smide", "range": 40.0, "size": 17, "time": "02/16/2020, 04:19:54"}, "type": "Feature"}, {"geometry": {"coordinates": [8.502041, 47.369112], "type": "Point"}, "properties": {"charge": 85, "id": "smide_94", "name": "ZH253754", "provider": "smide", "range": 42.0, "size": 17, "time": "02/16/2020, 04:19:54"}, "type": "Feature"}, {"geometry": {"coordinates": [8.518918, 47.365972], "type": "Point"}, "properties": {"charge": 95, "id": "smide_37", "name": "ZH261377", "provider": "smide", "range": 47.0, "size": 20, "time": "02/16/2020, 04:19:54"}, "type": "Feature"}, {"geometry": {"coordinates": [8.56073, 47.383065], "type": "Point"}, "properties": {"charge": 24, "id": "smide_191", "name": "ZH253762", "provider": "smide", "range": 12.0, "size": 17, "time": "02/16/2020, 04:19:54"}, "type": "Feature"}, {"geometry": {"coordinates": [8.475, 47.385755], "type": "Point"}, "properties": {"charge": 85, "id": "smide_202", "name": "ZH253830", "provider": "smide", "range": 42.0, "size": 17, "time": "02/16/2020, 04:19:54"}, "type": "Feature"}, {"geometry": {"coordinates": [8.502009, 47.36914], "type": "Point"}, "properties": {"charge": 100, "id": "smide_150", "name": "ZH253703", "provider": "smide", "range": 50.0, "size": 20, "time": "02/16/2020, 04:19:54"}, "type": "Feature"}, {"geometry": {"coordinates": [8.506399, 47.36064], "type": "Point"}, "properties": {"charge": 49, "id": "smide_66", "name": "ZH253818", "provider": "smide", "range": 24.0, "size": 20, "time": "02/16/2020, 04:19:54"}, "type": "Feature"}, {"geometry": {"coordinates": [8.496905, 47.362701], "type": "Point"}, "properties": {"charge": 69, "id": "smide_17", "name": "ZH253793", "provider": "smide", "range": 34.0, "size": 17, "time": "02/16/2020, 04:19:54"}, "type": "Feature"}, {"geometry": {"coordinates": [8.524055, 47.39813], "type": "Point"}, "properties": {"charge": 30, "id": "smide_145", "name": "ZH253780", "provider": "smide", "range": 15.0, "size": 20, "time": "02/16/2020, 04:19:54"}, "type": "Feature"}, {"geometry": {"coordinates": [8.536087, 47.344912], "type": "Point"}, "properties": {"charge": 71, "id": "smide_114", "name": "ZH253878", "provider": "smide", "range": 35.0, "size": 20, "time": "02/16/2020, 04:19:54"}, "type": "Feature"}, {"geometry": {"coordinates": [8.516446, 47.386228], "type": "Point"}, "properties": {"charge": 61, "id": "smide_203", "name": "ZH261547", "provider": "smide", "range": 30.0, "size": 17, "time": "02/16/2020, 04:19:54"}, "type": "Feature"}, {"geometry": {"coordinates": [8.497644, 47.381364], "type": "Point"}, "properties": {"charge": 95, "id": "smide_21", "name": "ZH253841", "provider": "smide", "range": 47.0, "size": 17, "time": "02/16/2020, 04:19:54"}, "type": "Feature"}, {"geometry": {"coordinates": [8.476811, 47.387372], "type": "Point"}, "properties": {"charge": 87, "id": "smide_164", "name": "ZH253775", "provider": "smide", "range": 43.0, "size": 17, "time": "02/16/2020, 04:19:54"}, "type": "Feature"}, {"geometry": {"coordinates": [8.495698, 47.3683], "type": "Point"}, "properties": {"charge": 87, "id": "smide_189", "name": "ZH253845", "provider": "smide", "range": 43.0, "size": 20, "time": "02/16/2020, 04:19:54"}, "type": "Feature"}, {"geometry": {"coordinates": [8.55593, 47.369292], "type": "Point"}, "properties": {"charge": 81, "id": "smide_81", "name": "ZH253753", "provider": "smide", "range": 40.0, "size": 17, "time": "02/16/2020, 04:19:54"}, "type": "Feature"}, {"geometry": {"coordinates": [8.507035, 47.382748], "type": "Point"}, "properties": {"charge": 98, "id": "smide_171", "name": "ZH253689", "provider": "smide", "range": 49.0, "size": 20, "time": "02/16/2020, 04:19:54"}, "type": "Feature"}, {"geometry": {"coordinates": [8.501366, 47.366556], "type": "Point"}, "properties": {"charge": 51, "id": "smide_93", "name": "ZH253681", "provider": "smide", "range": 25.0, "size": 17, "time": "02/16/2020, 04:19:54"}, "type": "Feature"}, {"geometry": {"coordinates": [8.556867, 47.403872], "type": "Point"}, "properties": {"charge": 27, "id": "smide_67", "name": "ZH253779", "provider": "smide", "range": 13.0, "size": 17, "time": "02/16/2020, 04:19:54"}, "type": "Feature"}, {"geometry": {"coordinates": [8.476885, 47.389911], "type": "Point"}, "properties": {"charge": 100, "id": "smide_118", "name": "ZH253759", "provider": "smide", "range": 50.0, "size": 20, "time": "02/16/2020, 04:19:54"}, "type": "Feature"}, {"geometry": {"coordinates": [8.52389, 47.340988], "type": "Point"}, "properties": {"charge": 36, "id": "smide_142", "name": "ZH258745", "provider": "smide", "range": 18.0, "size": 17, "time": "02/16/2020, 04:19:54"}, "type": "Feature"}, {"geometry": {"coordinates": [8.532891, 47.408431], "type": "Point"}, "properties": {"charge": 62, "id": "smide_166", "name": "ZH253728", "provider": "smide", "range": 31.0, "size": 17, "time": "02/16/2020, 04:19:54"}, "type": "Feature"}, {"geometry": {"coordinates": [8.565152, 47.349064], "type": "Point"}, "properties": {"charge": 100, "id": "smide_126", "name": "ZH268400", "provider": "smide", "range": 50.0, "size": 17, "time": "02/16/2020, 04:19:54"}, "type": "Feature"}, {"geometry": {"coordinates": [8.509535, 47.372703], "type": "Point"}, "properties": {"charge": 58, "id": "smide_44", "name": "ZH253837", "provider": "smide", "range": 28.0, "size": 17, "time": "02/16/2020, 04:19:54"}, "type": "Feature"}, {"geometry": {"coordinates": [8.475345, 47.385478], "type": "Point"}, "properties": {"charge": 59, "id": "smide_98", "name": "ZH256321", "provider": "smide", "range": 29.0, "size": 17, "time": "02/16/2020, 04:19:54"}, "type": "Feature"}, {"geometry": {"coordinates": [8.541135, 47.424916], "type": "Point"}, "properties": {"charge": 67, "id": "smide_57", "name": "ZH253772", "provider": "smide", "range": 33.0, "size": 17, "time": "02/16/2020, 04:19:54"}, "type": "Feature"}, {"geometry": {"coordinates": [8.524842, 47.336772], "type": "Point"}, "properties": {"charge": 44, "id": "smide_154", "name": "ZH253744", "provider": "smide", "range": 22.0, "size": 20, "time": "02/16/2020, 04:19:54"}, "type": "Feature"}, {"geometry": {"coordinates": [8.541041, 47.366296], "type": "Point"}, "properties": {"charge": 34, "id": "smide_7", "name": "ZH256289", "provider": "smide", "range": 17.0, "size": 20, "time": "02/16/2020, 04:19:54"}, "type": "Feature"}, {"geometry": {"coordinates": [8.539765, 47.379084], "type": "Point"}, "properties": {"charge": 87, "id": "smide_111", "name": "ZH253763", "provider": "smide", "range": 43.0, "size": 17, "time": "02/16/2020, 04:19:54"}, "type": "Feature"}, {"geometry": {"coordinates": [8.534368, 47.374776], "type": "Point"}, "properties": {"charge": 86, "id": "smide_40", "name": "ZH253690", "provider": "smide", "range": 43.0, "size": 20, "time": "02/16/2020, 04:19:54"}, "type": "Feature"}, {"geometry": {"coordinates": [8.533957, 47.398152], "type": "Point"}, "properties": {"charge": 100, "id": "smide_1", "name": "ZH253776", "provider": "smide", "range": 50.0, "size": 17, "time": "02/16/2020, 04:19:54"}, "type": "Feature"}, {"geometry": {"coordinates": [8.531648, 47.353624], "type": "Point"}, "properties": {"charge": 75, "id": "smide_28", "name": "ZH253831", "provider": "smide", "range": 37.0, "size": 17, "time": "02/16/2020, 04:19:54"}, "type": "Feature"}, {"geometry": {"coordinates": [8.549081, 47.405775], "type": "Point"}, "properties": {"charge": 98, "id": "smide_14", "name": "ZH253749", "provider": "smide", "range": 49.0, "size": 20, "time": "02/16/2020, 04:19:54"}, "type": "Feature"}, {"geometry": {"coordinates": [8.499887, 47.370512], "type": "Point"}, "properties": {"charge": 59, "id": "smide_130", "name": "ZH253847", "provider": "smide", "range": 29.0, "size": 20, "time": "02/16/2020, 04:19:54"}, "type": "Feature"}, {"geometry": {"coordinates": [8.58207, 47.35166], "type": "Point"}, "properties": {"charge": 56, "id": "smide_24", "name": "ZH253696", "provider": "smide", "range": 28.0, "size": 20, "time": "02/16/2020, 04:19:54"}, "type": "Feature"}, {"geometry": {"coordinates": [8.559133, 47.41484], "type": "Point"}, "properties": {"charge": 87, "id": "smide_107", "name": "ZH253819", "provider": "smide", "range": 43.0, "size": 17, "time": "02/16/2020, 04:19:54"}, "type": "Feature"}, {"geometry": {"coordinates": [8.545633, 47.411328], "type": "Point"}, "properties": {"charge": 60, "id": "smide_136", "name": "ZH253682", "provider": "smide", "range": 30.0, "size": 17, "time": "02/16/2020, 04:19:54"}, "type": "Feature"}, {"geometry": {"coordinates": [8.573885, 47.352756], "type": "Point"}, "properties": {"charge": 100, "id": "smide_205", "name": "ZH253805", "provider": "smide", "range": 50.0, "size": 17, "time": "02/16/2020, 04:19:54"}, "type": "Feature"}, {"geometry": {"coordinates": [8.511942, 47.382308], "type": "Point"}, "properties": {"charge": 56, "id": "smide_100", "name": "ZH253862", "provider": "smide", "range": 28.0, "size": 20, "time": "02/16/2020, 04:19:54"}, "type": "Feature"}, {"geometry": {"coordinates": [8.562073, 47.414916], "type": "Point"}, "properties": {"charge": 49, "id": "smide_141", "name": "ZH253800", "provider": "smide", "range": 24.0, "size": 20, "time": "02/16/2020, 04:19:54"}, "type": "Feature"}, {"geometry": {"coordinates": [8.50251, 47.37034], "type": "Point"}, "properties": {"charge": 62, "id": "smide_149", "name": "ZH253743", "provider": "smide", "range": 31.0, "size": 20, "time": "02/16/2020, 04:19:54"}, "type": "Feature"}, {"geometry": {"coordinates": [8.573012, 47.351232], "type": "Point"}, "properties": {"charge": 55, "id": "smide_16", "name": "ZH253713", "provider": "smide", "range": 27.0, "size": 20, "time": "02/16/2020, 04:19:54"}, "type": "Feature"}, {"geometry": {"coordinates": [8.508173, 47.400592], "type": "Point"}, "properties": {"charge": 27, "id": "smide_74", "name": "ZH253693", "provider": "smide", "range": 13.0, "size": 20, "time": "02/16/2020, 04:19:54"}, "type": "Feature"}, {"geometry": {"coordinates": [8.567314, 47.37856], "type": "Point"}, "properties": {"charge": 67, "id": "smide_161", "name": "ZH253691", "provider": "smide", "range": 33.0, "size": 20, "time": "02/16/2020, 04:19:54"}, "type": "Feature"}, {"geometry": {"coordinates": [8.530183, 47.338376], "type": "Point"}, "properties": {"charge": 91, "id": "smide_4", "name": "ZH253740", "provider": "smide", "range": 45.0, "size": 20, "time": "02/16/2020, 04:19:54"}, "type": "Feature"}, {"geometry": {"coordinates": [8.522186, 47.380104], "type": "Point"}, "properties": {"charge": 71, "id": "smide_160", "name": "ZH253722", "provider": "smide", "range": 35.0, "size": 17, "time": "02/16/2020, 04:19:54"}, "type": "Feature"}, {"geometry": {"coordinates": [8.533566, 47.381061], "type": "Point"}, "properties": {"charge": 23, "id": "smide_137", "name": "ZH258502", "provider": "smide", "range": 11.0, "size": 17, "time": "02/16/2020, 04:19:54"}, "type": "Feature"}, {"geometry": {"coordinates": [8.542019, 47.42462], "type": "Point"}, "properties": {"charge": 58, "id": "smide_178", "name": "ZH253803", "provider": "smide", "range": 28.0, "size": 17, "time": "02/16/2020, 04:19:54"}, "type": "Feature"}, {"geometry": {"coordinates": [8.517988, 47.3586], "type": "Point"}, "properties": {"charge": 57, "id": "smide_96", "name": "ZH256146", "provider": "smide", "range": 28.0, "size": 20, "time": "02/16/2020, 04:19:54"}, "type": "Feature"}, {"geometry": {"coordinates": [8.54591, 47.404252], "type": "Point"}, "properties": {"charge": 97, "id": "smide_54", "name": "ZH253874", "provider": "smide", "range": 48.0, "size": 20, "time": "02/16/2020, 04:19:54"}, "type": "Feature"}, {"geometry": {"coordinates": [8.514137, 47.393532], "type": "Point"}, "properties": {"charge": 80, "id": "smide_175", "name": "ZH253730", "provider": "smide", "range": 40.0, "size": 17, "time": "02/16/2020, 04:19:54"}, "type": "Feature"}, {"geometry": {"coordinates": [8.516145, 47.42888], "type": "Point"}, "properties": {"charge": 40, "id": "smide_162", "name": "ZH253760", "provider": "smide", "range": 20.0, "size": 17, "time": "02/16/2020, 04:19:54"}, "type": "Feature"}, {"geometry": {"coordinates": [8.508368, 47.384172], "type": "Point"}, "properties": {"charge": 23, "id": "smide_95", "name": "ZH253773", "provider": "smide", "range": 11.0, "size": 17, "time": "02/16/2020, 04:19:54"}, "type": "Feature"}, {"geometry": {"coordinates": [8.58223, 47.351876], "type": "Point"}, "properties": {"charge": 27, "id": "smide_163", "name": "ZH256147", "provider": "smide", "range": 13.0, "size": 20, "time": "02/16/2020, 04:19:54"}, "type": "Feature"}, {"geometry": {"coordinates": [8.508278, 47.382368], "type": "Point"}, "properties": {"charge": 75, "id": "smide_112", "name": "ZH263530", "provider": "smide", "range": 37.0, "size": 20, "time": "02/16/2020, 04:19:54"}, "type": "Feature"}, {"geometry": {"coordinates": [8.560933, 47.416273], "type": "Point"}, "properties": {"charge": 92, "id": "smide_38", "name": "ZH253851", "provider": "smide", "range": 46.0, "size": 20, "time": "02/16/2020, 04:19:54"}, "type": "Feature"}, {"geometry": {"coordinates": [8.568225, 47.367844], "type": "Point"}, "properties": {"charge": 100, "id": "smide_6", "name": "ZH253787", "provider": "smide", "range": 50.0, "size": 17, "time": "02/16/2020, 04:19:54"}, "type": "Feature"}, {"geometry": {"coordinates": [8.512797, 47.369176], "type": "Point"}, "properties": {"charge": 86, "id": "smide_18", "name": "ZH253859", "provider": "smide", "range": 43.0, "size": 17, "time": "02/16/2020, 04:19:54"}, "type": "Feature"}, {"geometry": {"coordinates": [8.536983, 47.419132], "type": "Point"}, "properties": {"charge": 41, "id": "smide_12", "name": "ZH253685", "provider": "smide", "range": 20.0, "size": 17, "time": "02/16/2020, 04:19:54"}, "type": "Feature"}, {"geometry": {"coordinates": [8.506916, 47.420572], "type": "Point"}, "properties": {"charge": 64, "id": "smide_192", "name": "ZH253706", "provider": "smide", "range": 32.0, "size": 20, "time": "02/16/2020, 04:19:54"}, "type": "Feature"}, {"geometry": {"coordinates": [8.492508, 47.369348], "type": "Point"}, "properties": {"charge": 13, "id": "smide_39", "name": "ZH253714", "provider": "smide", "range": 6.0, "size": 20, "time": "02/16/2020, 04:19:54"}, "type": "Feature"}, {"geometry": {"coordinates": [8.540021, 47.382743], "type": "Point"}, "properties": {"charge": 21, "id": "smide_5", "name": "ZH261443", "provider": "smide", "range": 10.0, "size": 20, "time": "02/16/2020, 04:19:54"}, "type": "Feature"}, {"geometry": {"coordinates": [8.55369, 47.398928], "type": "Point"}, "properties": {"charge": 100, "id": "smide_85", "name": "ZH253729", "provider": "smide", "range": 50.0, "size": 17, "time": "02/16/2020, 04:19:54"}, "type": "Feature"}, {"geometry": {"coordinates": [8.557148, 47.377304], "type": "Point"}, "properties": {"charge": 45, "id": "smide_29", "name": "ZH253723", "provider": "smide", "range": 22.0, "size": 17, "time": "02/16/2020, 04:19:54"}, "type": "Feature"}, {"geometry": {"coordinates": [8.519097, 47.337256], "type": "Point"}, "properties": {"charge": 37, "id": "smide_48", "name": "ZH253849", "provider": "smide", "range": 18.0, "size": 20, "time": "02/16/2020, 04:19:54"}, "type": "Feature"}, {"geometry": {"coordinates": [8.560368, 47.40572], "type": "Point"}, "properties": {"charge": 100, "id": "smide_46", "name": "ZH253843", "provider": "smide", "range": 50.0, "size": 20, "time": "02/16/2020, 04:19:54"}, "type": "Feature"}, {"geometry": {"coordinates": [8.52935193114916, 47.3933752175746], "type": "Point"}, "properties": {"charge": 98, "id": "bird_0d07033d-0a31-4f35-80c9-fa3676a123b0", "provider": "bird", "timeStamp": "02/16/2020, 04:19:53"}, "type": "Feature"}, {"geometry": {"coordinates": [8.53359666666667, 47.3669283333333], "type": "Point"}, "properties": {"charge": 48, "id": "bird_1dfd049e-d386-406e-b066-8fdaca4bd0ee", "provider": "bird", "timeStamp": "02/16/2020, 04:19:53"}, "type": "Feature"}, {"geometry": {"coordinates": [8.52566166666667, 47.3928566666667], "type": "Point"}, "properties": {"charge": 15, "id": "bird_e2a61684-dea4-4dc5-97be-1043a0829c74", "provider": "bird", "timeStamp": "02/16/2020, 04:19:53"}, "type": "Feature"}, {"geometry": {"coordinates": [8.548805, 47.3767466666667], "type": "Point"}, "properties": {"charge": 75, "id": "bird_42b08a8e-3d8b-40d5-8b00-4b4f68113003", "provider": "bird", "timeStamp": "02/16/2020, 04:19:53"}, "type": "Feature"}, {"geometry": {"coordinates": [8.51072, 47.3786766666667], "type": "Point"}, "properties": {"charge": 87, "id": "bird_08d2c9fc-9a49-495e-81e5-e3a54f92fe73", "provider": "bird", "timeStamp": "02/16/2020, 04:19:53"}, "type": "Feature"}, {"geometry": {"coordinates": [8.51112833333333, 47.377365], "type": "Point"}, "properties": {"charge": 54, "id": "bird_7ee0b5dc-0ec1-4d15-a644-4e888ce66650", "provider": "bird", "timeStamp": "02/16/2020, 04:19:53"}, "type": "Feature"}, {"geometry": {"coordinates": [8.53779, 47.3919066666667], "type": "Point"}, "properties": {"charge": 65, "id": "bird_11a4a6c9-9b83-416a-a6c2-c6146b8aa4c5", "provider": "bird", "timeStamp": "02/16/2020, 04:19:53"}, "type": "Feature"}, {"geometry": {"coordinates": [8.52372745273876, 47.3677918108741], "type": "Point"}, "properties": {"charge": 48, "id": "bird_e7745d0d-da88-4de0-ae3c-c48df8e12945", "provider": "bird", "timeStamp": "02/16/2020, 04:19:53"}, "type": "Feature"}, {"geometry": {"coordinates": [8.540555, 47.36929], "type": "Point"}, "properties": {"charge": 43, "id": "bird_28d4266a-39a1-4f9a-92f3-76be45cf70f9", "provider": "bird", "timeStamp": "02/16/2020, 04:19:53"}, "type": "Feature"}, {"geometry": {"coordinates": [8.52556833333333, 47.3925016666667], "type": "Point"}, "properties": {"charge": 69, "id": "bird_564007f6-1d86-475d-91fc-211294bca71f", "provider": "bird", "timeStamp": "02/16/20