{"features": [{"geometry": {"coordinates": [8.540062, 47.374392], "type": "Point"}, "properties": {"address": "Uraniastrasse 7", "electric": 1, "id": "pb_60", "manual": 0, "name": "Demo Station Werdm\u00fchleplatz", "provider": "publibike", "timeStamp": "05/01/2020, 02:58:03", "zip": 8001}, "type": "Feature"}, {"geometry": {"coordinates": [8.5452956, 47.4099615], "type": "Point"}, "properties": {"address": "Querstrasse 8", "electric": 3, "id": "pb_61", "manual": 3, "name": "Marktplatz", "provider": "publibike", "timeStamp": "05/01/2020, 02:58:03", "zip": 8050}, "type": "Feature"}, {"geometry": {"coordinates": [8.5156327, 47.3795837], "type": "Point"}, "properties": {"address": "Bullingerstrasse 5", "electric": 0, "id": "pb_80", "manual": 9, "name": "Bullingerplatz", "provider": "publibike", "timeStamp": "05/01/2020, 02:58:03", "zip": 8004}, "type": "Feature"}, {"geometry": {"coordinates": [8.5104051, 47.3899342], "type": "Point"}, "properties": {"address": "Pfingstweidstrasse 96e", "electric": 5, "id": "pb_81", "manual": 4, "name": "Herdern", "provider": "publibike", "timeStamp": "05/01/2020, 02:58:03", "zip": 8001}, "type": "Feature"}, {"geometry": {"coordinates": [8.535718, 47.359675], "type": "Point"}, "properties": {"address": "Mythenquai 50", "electric": 2, "id": "pb_82", "manual": 8, "name": "Hafen Enge", "provider": "publibike", "timeStamp": "05/01/2020, 02:58:03", "zip": 8002}, "type": "Feature"}, {"geometry": {"coordinates": [8.520370505, 47.358663827], "type": "Point"}, "properties": {"address": "Bubenbergstrasse 1", "electric": 1, "id": "pb_83", "manual": 4, "name": "Comerge", "provider": "publibike", "timeStamp": "05/01/2020, 02:58:03", "zip": 8045}, "type": "Feature"}, {"geometry": {"coordinates": [8.5412505, 47.3789825], "type": "Point"}, "properties": {"address": "Museumstrasse 2", "electric": 0, "id": "pb_84", "manual": 4, "name": "Landesmuseum", "provider": "publibike", "timeStamp": "05/01/2020, 02:58:03", "zip": 8001}, "type": "Feature"}, {"geometry": {"coordinates": [8.5235479, 47.3716661], "type": "Point"}, "properties": {"address": "Birmensdorferstrasse 80", "electric": 9, "id": "pb_85", "manual": 12, "name": "Bahnhof Wiedikon", "provider": "publibike", "timeStamp": "05/01/2020, 02:58:03", "zip": 8003}, "type": "Feature"}, {"geometry": {"coordinates": [8.506822854, 47.40781197], "type": "Point"}, "properties": {"address": "Stefano-Franscini-Platz 5", "electric": 0, "id": "pb_86", "manual": 0, "name": "ETH H\u00f6nggerberg", "provider": "publibike", "timeStamp": "05/01/2020, 02:58:03", "zip": 8093}, "type": "Feature"}, {"geometry": {"coordinates": [8.536101, 47.371083], "type": "Point"}, "properties": {"address": "Pelikanplatz 5", "electric": 1, "id": "pb_87", "manual": 3, "name": "Pelikanplatz", "provider": "publibike", "timeStamp": "05/01/2020, 02:58:03", "zip": 8001}, "type": "Feature"}, {"geometry": {"coordinates": [8.5257822, 47.3651936], "type": "Point"}, "properties": {"address": "H\u00fcrlimannplatz 90", "electric": 4, "id": "pb_88", "manual": 17, "name": "H\u00fcrlimannplatz", "provider": "publibike", "timeStamp": "05/01/2020, 02:58:03", "zip": 8002}, "type": "Feature"}, {"geometry": {"coordinates": [8.5313344, 47.3713591], "type": "Point"}, "properties": {"address": "Selnaustrasse 32", "electric": 0, "id": "pb_89", "manual": 0, "name": "Stauffacherbr\u00fccke", "provider": "publibike", "timeStamp": "05/01/2020, 02:58:03", "zip": 8001}, "type": "Feature"}, {"geometry": {"coordinates": [8.5056978, 47.3917964], "type": "Point"}, "properties": {"address": "Sportweg 25", "electric": 1, "id": "pb_90", "manual": 3, "name": "Sportweg", "provider": "publibike", "timeStamp": "05/01/2020, 02:58:03", "zip": 8005}, "type": "Feature"}, {"geometry": {"coordinates": [8.5181701, 47.3917837], "type": "Point"}, "properties": {"address": "Hardturmstrasse 11", "electric": 1, "id": "pb_91", "manual": 4, "name": "Puls 5", "provider": "publibike", "timeStamp": "05/01/2020, 02:58:03", "zip": 8005}, "type": "Feature"}, {"geometry": {"coordinates": [8.5286468, 47.3820827], "type": "Point"}, "properties": {"address": "R\u00f6ntgenstrasse 6", "electric": 2, "id": "pb_92", "manual": 2, "name": "R\u00f6ntgenstrasse", "provider": "publibike", "timeStamp": "05/01/2020, 02:58:03", "zip": 8005}, "type": "Feature"}, {"geometry": {"coordinates": [8.531935, 47.384918], "type": "Point"}, "properties": {"address": "Kornhausbr\u00fccke 1", "electric": 4, "id": "pb_93", "manual": 8, "name": "Limmatplatz", "provider": "publibike", "timeStamp": "05/01/2020, 02:58:03", "zip": 8005}, "type": "Feature"}, {"geometry": {"coordinates": [8.5354006, 47.3758639], "type": "Point"}, "properties": {"address": "Gessnerallee 15", "electric": 1, "id": "pb_94", "manual": 1, "name": "Gessnerallee", "provider": "publibike", "timeStamp": "05/01/2020, 02:58:03", "zip": 8001}, "type": "Feature"}, {"geometry": {"coordinates": [8.523818, 47.377148], "type": "Point"}, "properties": {"address": "Stauffacherstrasse 127", "electric": 0, "id": "pb_95", "manual": 0, "name": "B\u00e4ckeranlage", "provider": "publibike", "timeStamp": "05/01/2020, 02:58:03", "zip": 8004}, "type": "Feature"}, {"geometry": {"coordinates": [8.531836, 47.378548], "type": "Point"}, "properties": {"address": "Lagerstrasse 44", "electric": 5, "id": "pb_96", "manual": 4, "name": "Gustav-Gull-Platz", "provider": "publibike", "timeStamp": "05/01/2020, 02:58:03", "zip": 8004}, "type": "Feature"}, {"geometry": {"coordinates": [8.5104883, 47.3771535], "type": "Point"}, "properties": {"address": "Zurlindenstrasse 291", "electric": 4, "id": "pb_97", "manual": 3, "name": "Zurlindenstrasse", "provider": "publibike", "timeStamp": "05/01/2020, 02:58:03", "zip": 8003}, "type": "Feature"}, {"geometry": {"coordinates": [8.5333139, 47.3731102], "type": "Point"}, "properties": {"address": "Sihlstrasse 81", "electric": 1, "id": "pb_98", "manual": 1, "name": "Sihlstrasse", "provider": "publibike", "timeStamp": "05/01/2020, 02:58:03", "zip": 8001}, "type": "Feature"}, {"geometry": {"coordinates": [8.520532, 47.374951], "type": "Point"}, "properties": {"address": "Feldstrasse 24", "electric": 4, "id": "pb_99", "manual": 4, "name": "Kalkbreite", "provider": "publibike", "timeStamp": "05/01/2020, 02:58:03", "zip": 8004}, "type": "Feature"}, {"geometry": {"coordinates": [8.539046, 47.368064], "type": "Point"}, "properties": {"address": "Talstrasse 12", "electric": 2, "id": "pb_100", "manual": 0, "name": "Z\u00fcrcher Kantonalbank", "provider": "publibike", "timeStamp": "05/01/2020, 02:58:03", "zip": 8001}, "type": "Feature"}, {"geometry": {"coordinates": [8.5348427, 47.3625938], "type": "Point"}, "properties": {"address": "Breitingerstrasse 5", "electric": 2, "id": "pb_101", "manual": 3, "name": "Rentenanstalt", "provider": "publibike", "timeStamp": "05/01/2020, 02:58:03", "zip": 8002}, "type": "Feature"}, {"geometry": {"coordinates": [8.5166922, 47.3897772], "type": "Point"}, "properties": {"address": "Technoparkstrasse 4", "electric": 1, "id": "pb_102", "manual": 1, "name": "Turbinenplatz", "provider": "publibike", "timeStamp": "05/01/2020, 02:58:03", "zip": 8005}, "type": "Feature"}, {"geometry": {"coordinates": [8.539312, 47.3739964], "type": "Point"}, "properties": {"address": "Oetenbachgasse 14", "electric": 1, "id": "pb_104", "manual": 12, "name": "Rennweg", "provider": "publibike", "timeStamp": "05/01/2020, 02:58:03", "zip": 8001}, "type": "Feature"}, {"geometry": {"coordinates": [8.5360685, 47.3775022], "type": "Point"}, "properties": {"address": "Kasernenstrasse 101", "electric": 4, "id": "pb_105", "manual": 29, "name": "Sihlpost", "provider": "publibike", "timeStamp": "05/01/2020, 02:58:03", "zip": 8004}, "type": "Feature"}, {"geometry": {"coordinates": [8.53545, 47.382798], "type": "Point"}, "properties": {"address": "Ausstellungsstrasse 44", "electric": 3, "id": "pb_106", "manual": 0, "name": "Museum f\u00fcr Gestaltung", "provider": "publibike", "timeStamp": "05/01/2020, 02:58:03", "zip": 8005}, "type": "Feature"}, {"geometry": {"coordinates": [8.5306155, 47.3647902], "type": "Point"}, "properties": {"address": "Gutenbergstrasse 1", "electric": 1, "id": "pb_107", "manual": 2, "name": "Bederbr\u00fccke", "provider": "publibike", "timeStamp": "05/01/2020, 02:58:03", "zip": 8002}, "type": "Feature"}, {"geometry": {"coordinates": [8.518982, 47.386741], "type": "Point"}, "properties": {"address": "Geroldstrasse 4", "electric": 1, "id": "pb_108", "manual": 4, "name": "Bahnhof Hardbr\u00fccke", "provider": "publibike", "timeStamp": "05/01/2020, 02:58:03", "zip": 8005}, "type": "Feature"}, {"geometry": {"coordinates": [8.53001018, 47.37247535], "type": "Point"}, "properties": {"address": "Werdstrasse 21", "electric": 2, "id": "pb_109", "manual": 0, "name": "Tamedia", "provider": "publibike", "timeStamp": "05/01/2020, 02:58:03", "zip": 8004}, "type": "Feature"}, {"geometry": {"coordinates": [8.4860017, 47.396401], "type": "Point"}, "properties": {"address": "Gr\u00fcnauring 37", "electric": 9, "id": "pb_110", "manual": 0, "name": "Gr\u00fcnau", "provider": "publibike", "timeStamp": "05/01/2020, 02:58:03", "zip": 8064}, "type": "Feature"}, {"geometry": {"coordinates": [8.548519, 47.376756], "type": "Point"}, "properties": {"address": "R\u00e4mistrasse 101", "electric": 0, "id": "pb_111", "manual": 0, "name": "ETH Zentrum", "provider": "publibike", "timeStamp": "05/01/2020, 02:58:03", "zip": 8006}, "type": "Feature"}, {"geometry": {"coordinates": [8.520449, 47.388151], "type": "Point"}, "properties": {"address": "Josefstrasse 224", "electric": 0, "id": "pb_112", "manual": 2, "name": "Steinfelsareal", "provider": "publibike", "timeStamp": "05/01/2020, 02:58:03", "zip": 8005}, "type": "Feature"}, {"geometry": {"coordinates": [8.520482, 47.37209], "type": "Point"}, "properties": {"address": "Weststrasse 115", "electric": 3, "id": "pb_124", "manual": 7, "name": "Weststrasse", "provider": "publibike", "timeStamp": "05/01/2020, 02:58:03", "zip": 8003}, "type": "Feature"}, {"geometry": {"coordinates": [8.496727, 47.378521], "type": "Point"}, "properties": {"address": "Albisriederstrasse 200", "electric": 0, "id": "pb_125", "manual": 3, "name": "Utogrund", "provider": "publibike", "timeStamp": "05/01/2020, 02:58:03", "zip": 8047}, "type": "Feature"}, {"geometry": {"coordinates": [8.510418, 47.381356], "type": "Point"}, "properties": {"address": "Bullingerstrasse 73", "electric": 6, "id": "pb_126", "manual": 2, "name": "Hardau", "provider": "publibike", "timeStamp": "05/01/2020, 02:58:03", "zip": 8004}, "type": "Feature"}, {"geometry": {"coordinates": [8.525525, 47.361567], "type": "Point"}, "properties": {"address": "Klopstockstrasse 23", "electric": 4, "id": "pb_127", "manual": 2, "name": "Klopstockwiese", "provider": "publibike", "timeStamp": "05/01/2020, 02:58:03", "zip": 8002}, "type": "Feature"}, {"geometry": {"coordinates": [8.518143, 47.363148], "type": "Point"}, "properties": {"address": "Haldenstrasse 8", "electric": 1, "id": "pb_128", "manual": 4, "name": "Binz", "provider": "publibike", "timeStamp": "05/01/2020, 02:58:03", "zip": 8045}, "type": "Feature"}, {"geometry": {"coordinates": [8.542726, 47.379952], "type": "Point"}, "properties": {"address": "Walchestrasse 11", "electric": 0, "id": "pb_129", "manual": 1, "name": "Stampfenbachplatz", "provider": "publibike", "timeStamp": "05/01/2020, 02:58:03", "zip": 8006}, "type": "Feature"}, {"geometry": {"coordinates": [8.488108, 47.391366], "type": "Point"}, "properties": {"address": "Altstetterplatz 1", "electric": 8, "id": "pb_130", "manual": 7, "name": "Bahnhof Altstetten", "provider": "publibike", "timeStamp": "05/01/2020, 02:58:03", "zip": 8048}, "type": "Feature"}, {"geometry": {"coordinates": [8.554114, 47.365119], "type": "Point"}, "properties": {"address": "Kreuzplatz 2", "electric": 9, "id": "pb_131", "manual": 8, "name": "Kreuzplatz", "provider": "publibike", "timeStamp": "05/01/2020, 02:58:03", "zip": 8032}, "type": "Feature"}, {"geometry": {"coordinates": [8.549852, 47.35594], "type": "Point"}, "properties": {"address": "H\u00f6schgasse 3", "electric": 0, "id": "pb_132", "manual": 0, "name": "Blatterwiese", "provider": "publibike", "timeStamp": "05/01/2020, 02:58:03", "zip": 8008}, "type": "Feature"}, {"geometry": {"coordinates": [8.554501, 47.36162], "type": "Point"}, "properties": {"address": "Feldeggstrasse 80", "electric": 2, "id": "pb_133", "manual": 1, "name": "Villa Bleuler", "provider": "publibike", "timeStamp": "05/01/2020, 02:58:03", "zip": 8008}, "type": "Feature"}, {"geometry": {"coordinates": [8.557088, 47.358557], "type": "Point"}, "properties": {"address": "M\u00fchlebachstrasse 131", "electric": 3, "id": "pb_134", "manual": 6, "name": "M\u00fchlebachstrasse", "provider": "publibike", "timeStamp": "05/01/2020, 02:58:03", "zip": 8008}, "type": "Feature"}, {"geometry": {"coordinates": [8.547639, 47.361266], "type": "Point"}, "properties": {"address": "Utoquai 50", "electric": 0, "id": "pb_135", "manual": 2, "name": "Seebad Utoquai", "provider": "publibike", "timeStamp": "05/01/2020, 02:58:03", "zip": 8008}, "type": "Feature"}, {"geometry": {"coordinates": [8.548045, 47.370869], "type": "Point"}, "properties": {"address": "Heimplatz 1", "electric": 0, "id": "pb_137", "manual": 0, "name": "Kunsthaus", "provider": "publibike", "timeStamp": "05/01/2020, 02:58:03", "zip": 8001}, "type": "Feature"}, {"geometry": {"coordinates": [8.543447, 47.375933], "type": "Point"}, "properties": {"address": "Limmatquai 138", "electric": 2, "id": "pb_138", "manual": 5, "name": "Central", "provider": "publibike", "timeStamp": "05/01/2020, 02:58:03", "zip": 8001}, "type": "Feature"}, {"geometry": {"coordinates": [8.549356, 47.408827], "type": "Point"}, "properties": {"address": "Tramstrasse 35", "electric": 0, "id": "pb_139", "manual": 5, "name": "ewz Tramstrasse", "provider": "publibike", "timeStamp": "05/01/2020, 02:58:03", "zip": 8050}, "type": "Feature"}, {"geometry": {"coordinates": [8.533736, 47.366904], "type": "Point"}, "properties": {"address": "Bleicherweg 33", "electric": 3, "id": "pb_140", "manual": 2, "name": "Bleicherweg", "provider": "publibike", "timeStamp": "05/01/2020, 02:58:03", "zip": 8002}, "type": "Feature"}, {"geometry": {"coordinates": [8.544935, 47.366752], "type": "Point"}, "properties": {"address": "Bellevueplatz 2", "electric": 4, "id": "pb_141", "manual": 33, "name": "Bellevue", "provider": "publibike", "timeStamp": "05/01/2020, 02:58:03", "zip": 8001}, "type": "Feature"}, {"geometry": {"coordinates": [8.5285533, 47.3742296], "type": "Point"}, "properties": {"address": "Stauffacherstrasse 41", "electric": 3, "id": "pb_142", "manual": 11, "name": "Stauffacher", "provider": "publibike", "timeStamp": "05/01/2020, 02:58:03", "zip": 8004}, "type": "Feature"}, {"geometry": {"coordinates": [8.523722, 47.3899], "type": "Point"}, "properties": {"address": "Limmatstrasse 310", "electric": 2, "id": "pb_143", "manual": 3, "name": "Escher-Wyss-Platz", "provider": "publibike", "timeStamp": "05/01/2020, 02:58:03", "zip": 8005}, "type": "Feature"}, {"geometry": {"coordinates": [8.491061, 47.392336], "type": "Point"}, "properties": {"address": "Vulkanplatz 1", "electric": 1, "id": "pb_149", "manual": 4, "name": "Vulkanplatz", "provider": "publibike", "timeStamp": "05/01/2020, 02:58:03", "zip": 8048}, "type": "Feature"}, {"geometry": {"coordinates": [8.52306, 47.359872], "type": "Point"}, "properties": {"address": "Giessh\u00fcbelstrasse 15", "electric": 16, "id": "pb_150", "manual": 8, "name": "Utoplatz", "provider": "publibike", "timeStamp": "05/01/2020, 02:58:03", "zip": 8045}, "type": "Feature"}, {"geometry": {"coordinates": [8.486284, 47.387685], "type": "Point"}, "properties": {"address": "Lindenplatz 1", "electric": 9, "id": "pb_151", "manual": 19, "name": "Lindenplatz", "provider": "publibike", "timeStamp": "05/01/2020, 02:58:03", "zip": 8048}, "type": "Feature"}, {"geometry": {"coordinates": [8.49163, 47.389823], "type": "Point"}, "properties": {"address": "Hohlstrasse 563", "electric": 4, "id": "pb_152", "manual": 2, "name": "Luggweg", "provider": "publibike", "timeStamp": "05/01/2020, 02:58:03", "zip": 8048}, "type": "Feature"}, {"geometry": {"coordinates": [8.52174, 47.365272], "type": "Point"}, "properties": {"address": "Manessestrasse 87", "electric": 7, "id": "pb_153", "manual": 7, "name": "Manesseplatz", "provider": "publibike", "timeStamp": "05/01/2020, 02:58:03", "zip": 8045}, "type": "Feature"}, {"geometry": {"coordinates": [8.52714, 47.372329], "type": "Point"}, "properties": {"address": "Werdstrasse 75", "electric": 4, "id": "pb_154", "manual": 8, "name": "Werd", "provider": "publibike", "timeStamp": "05/01/2020, 02:58:03", "zip": 8004}, "type": "Feature"}, {"geometry": {"coordinates": [8.543042, 47.374711], "type": "Point"}, "properties": {"address": "Limmatquai 100", "electric": 0, "id": "pb_155", "manual": 0, "name": "Rudolf-Brun-Br\u00fccke", "provider": "publibike", "timeStamp": "05/01/2020, 02:58:03", "zip": 8001}, "type": "Feature"}, {"geometry": {"coordinates": [8.490837, 47.386596], "type": "Point"}, "properties": {"address": "Badenerstrasse 627", "electric": 4, "id": "pb_156", "manual": 4, "name": "Luggwegstrasse VBZ", "provider": "publibike", "timeStamp": "05/01/2020, 02:58:03", "zip": 8048}, "type": "Feature"}, {"geometry": {"coordinates": [8.535119, 47.355189], "type": "Point"}, "properties": {"address": "Mythenquai 95", "electric": 0, "id": "pb_157", "manual": 3, "name": "Strandbad Mythenquai", "provider": "publibike", "timeStamp": "05/01/2020, 02:58:03", "zip": 8002}, "type": "Feature"}, {"geometry": {"coordinates": [8.545505, 47.373675], "type": "Point"}, "properties": {"address": "Predigerpatz 21", "electric": 3, "id": "pb_158", "manual": 4, "name": "Predigerplatz", "provider": "publibike", "timeStamp": "05/01/2020, 02:58:03", "zip": 8001}, "type": "Feature"}, {"geometry": {"coordinates": [8.515558, 47.371868], "type": "Point"}, "properties": {"address": "Aemtlerstrasse 23", "electric": 6, "id": "pb_159", "manual": 12, "name": "Zwinglihaus", "provider": "publibike", "timeStamp": "05/01/2020, 02:58:03", "zip": 8003}, "type": "Feature"}, {"geometry": {"coordinates": [8.524629, 47.386072], "type": "Point"}, "properties": {"address": "Josefstrasse 188", "electric": 2, "id": "pb_160", "manual": 1, "name": "Josefwiese", "provider": "publibike", "timeStamp": "05/01/2020, 02:58:03", "zip": 8005}, "type": "Feature"}, {"geometry": {"coordinates": [8.527138, 47.387531], "type": "Point"}, "properties": {"address": "R\u00f6ntgenstrasse 87", "electric": 0, "id": "pb_164", "manual": 5, "name": "Markthalle", "provider": "publibike", "timeStamp": "05/01/2020, 02:58:03", "zip": 8005}, "type": "Feature"}, {"geometry": {"coordinates": [8.552717, 47.359978], "type": "Point"}, "properties": {"address": "Seefeldstrasse 96", "electric": 4, "id": "pb_263", "manual": 4, "name": "Feldeggstrasse", "provider": "publibike", "timeStamp": "05/01/2020, 02:58:03", "zip": 8008}, "type": "Feature"}, {"geometry": {"coordinates": [8.553189, 47.353198], "type": "Point"}, "properties": {"address": "Bellerivestrasse 170", "electric": 2, "id": "pb_264", "manual": 1, "name": "Lake Side", "provider": "publibike", "timeStamp": "05/01/2020, 02:58:03", "zip": 8008}, "type": "Feature"}, {"geometry": {"coordinates": [8.543437, 47.369256], "type": "Point"}, "properties": {"address": "Limmatquai 18", "electric": 0, "id": "pb_265", "manual": 0, "name": "Helmhaus", "provider": "publibike", "timeStamp": "05/01/2020, 02:58:03", "zip": 8032}, "type": "Feature"}, {"geometry": {"coordinates": [8.516676, 47.375819], "type": "Point"}, "properties": {"address": "Badenerstrasse 246", "electric": 7, "id": "pb_266", "manual": 14, "name": "Lochergut", "provider": "publibike", "timeStamp": "05/01/2020, 02:58:03", "zip": 8004}, "type": "Feature"}, {"geometry": {"coordinates": [8.514605, 47.389862], "type": "Point"}, "properties": {"address": "Pfingstweidstrasse 60", "electric": 0, "id": "pb_273", "manual": 1, "name": "Westpark", "provider": "publibike", "timeStamp": "05/01/2020, 02:58:03", "zip": 8005}, "type": "Feature"}, {"geometry": {"coordinates": [8.541239126, 47.375991201], "type": "Point"}, "properties": {"address": "Beatenplatz 1", "electric": 0, "id": "pb_274", "manual": 0, "name": "Beatenplatz", "provider": "publibike", "timeStamp": "05/01/2020, 02:58:03", "zip": 8001}, "type": "Feature"}, {"geometry": {"coordinates": [8.5417135, 47.3942197], "type": "Point"}, "properties": {"address": "Scheuchzerstrasse 181", "electric": 15, "id": "pb_275", "manual": 0, "name": "Pauluskirche", "provider": "publibike", "timeStamp": "05/01/2020, 02:58:03", "zip": 8057}, "type": "Feature"}, {"geometry": {"coordinates": [8.5528182, 47.414558], "type": "Point"}, "properties": {"address": "Hagenholzstrasse 51", "electric": 1, "id": "pb_276", "manual": 5, "name": "Airgate", "provider": "publibike", "timeStamp": "05/01/2020, 02:58:03", "zip": 8050}, "type": "Feature"}, {"geometry": {"coordinates": [8.537816, 47.413514], "type": "Point"}, "properties": {"address": "Birchstrasse 183", "electric": 3, "id": "pb_277", "manual": 6, "name": "Lamprechtweg", "provider": "publibike", "timeStamp": "05/01/2020, 02:58:03", "zip": 8050}, "type": "Feature"}, {"geometry": {"coordinates": [8.545602, 47.417701], "type": "Point"}, "properties": {"address": "Felsenrainstrasse 2", "electric": 8, "id": "pb_278", "manual": 7, "name": "Emil-Oberh\u00e4nsli", "provider": "publibike", "timeStamp": "05/01/2020, 02:58:03", "zip": 8050}, "type": "Feature"}, {"geometry": {"coordinates": [8.533647, 47.39808], "type": "Point"}, "properties": {"address": "Bucheggplatz 2", "electric": 7, "id": "pb_279", "manual": 1, "name": "Bucheggplatz", "provider": "publibike", "timeStamp": "05/01/2020, 02:58:03", "zip": 8057}, "type": "Feature"}, {"geometry": {"coordinates": [8.523549, 47.392347], "type": "Point"}, "properties": {"address": "Wipkingerplatz 4", "electric": 3, "id": "pb_280", "manual": 13, "name": "Wipkingerplatz", "provider": "publibike", "timeStamp": "05/01/2020, 02:58:03", "zip": 8037}, "type": "Feature"}, {"geometry": {"coordinates": [8.548562, 47.36691], "type": "Point"}, "properties": {"address": "Galerie \u00fcber Gleis 2/3", "electric": 3, "id": "pb_285", "manual": 7, "name": "Bahnhof Stadelhofen", "provider": "publibike", "timeStamp": "05/01/2020, 02:58:03", "zip": 8001}, "type": "Feature"}, {"geometry": {"coordinates": [8.493822, 47.3985553], "type": "Point"}, "properties": {"address": "Meierwiesenstrasse 12-4", "electric": 2, "id": "pb_286", "manual": 3, "name": "T\u00fcffenwies", "provider": "publibike", "timeStamp": "05/01/2020, 02:58:03", "zip": 8064}, "type": "Feature"}, {"geometry": {"coordinates": [8.552432, 47.3801757], "type": "Point"}, "properties": {"address": "Hochstrasse 34", "electric": 15, "id": "pb_356", "manual": 0, "name": "Siriuswiese", "provider": "publibike", "timeStamp": "05/01/2020, 02:58:03", "zip": 8044}, "type": "Feature"}, {"geometry": {"coordinates": [8.527298, 47.370141], "type": "Point"}, "properties": {"address": "Hallwylstrasse 71", "electric": 1, "id": "pb_357", "manual": 3, "name": "Hallwylstrasse", "provider": "publibike", "timeStamp": "05/01/2020, 02:58:03", "zip": 8004}, "type": "Feature"}, {"geometry": {"coordinates": [8.5414185, 47.3972455], "type": "Point"}, "properties": {"address": "Schaffhauserstrasse 137", "electric": 3, "id": "pb_358", "manual": 0, "name": "Milchbuck", "provider": "publibike", "timeStamp": "05/01/2020, 02:58:03", "zip": 8057}, "type": "Feature"}, {"geometry": {"coordinates": [8.512381, 47.393409], "type": "Point"}, "properties": {"address": "Hardturmstrasse 161", "electric": 1, "id": "pb_359", "manual": 4, "name": "Fischerweg", "provider": "publibike", "timeStamp": "05/01/2020, 02:58:03", "zip": 8005}, "type": "Feature"}, {"geometry": {"coordinates": [8.5421457, 47.3876979], "type": "Point"}, "properties": {"address": "Turnerstrasse 47", "electric": 3, "id": "pb_360", "manual": 0, "name": "Kirche Unterstrass", "provider": "publibike", "timeStamp": "05/01/2020, 02:58:03", "zip": 8006}, "type": "Feature"}, {"geometry": {"coordinates": [8.522117, 47.394554], "type": "Point"}, "properties": {"address": "Dorfstrasse 40", "electric": 6, "id": "pb_361", "manual": 0, "name": "Dorfstrasse", "provider": "publibike", "timeStamp": "05/01/2020, 02:58:03", "zip": 8037}, "type": "Feature"}, {"geometry": {"coordinates": [8.530437, 47.37271], "type": "Point"}, "properties": {"address": "Werdstrasse 25", "electric": 0, "id": "pb_362", "manual": 0, "name": "Stauffachertor", "provider": "publibike", "timeStamp": "05/01/2020, 02:58:03", "zip": 8004}, "type": "Feature"}, {"geometry": {"coordinates": [8.541712, 47.416155], "type": "Point"}, "properties": {"address": "Eggb\u00fchlstrasse 21", "electric": 9, "id": "pb_363", "manual": 0, "name": "Wahlenpark", "provider": "publibike", "timeStamp": "05/01/2020, 02:58:03", "zip": 8050}, "type": "Feature"}, {"geometry": {"coordinates": [8.5595335, 47.3708387], "type": "Point"}, "properties": {"address": "Dolderstrasse 32", "electric": 0, "id": "pb_364", "manual": 0, "name": "Kinderspital", "provider": "publibike", "timeStamp": "05/01/2020, 02:58:03", "zip": 8032}, "type": "Feature"}, {"geometry": {"coordinates": [8.536433, 47.388689], "type": "Point"}, "properties": {"address": "Kornhausstrasse 30", "electric": 3, "id": "pb_365", "manual": 1, "name": "Kornhausstrasse", "provider": "publibike", "timeStamp": "05/01/2020, 02:58:03", "zip": 8006}, "type": "Feature"}, {"geometry": {"coordinates": [8.55033, 47.407098], "type": "Point"}, "properties": {"address": "Schwamendingenstrasse 41", "electric": 17, "id": "pb_366", "manual": 5, "name": "Dorflinde", "provider": "publibike", "timeStamp": "05/01/2020, 02:58:03", "zip": 8050}, "type": "Feature"}, {"geometry": {"coordinates": [8.560476, 47.368199], "type": "Point"}, "properties": {"address": "R\u00f6merhofplatz 5", "electric": 1, "id": "pb_367", "manual": 0, "name": "R\u00f6merhof", "provider": "publibike", "timeStamp": "05/01/2020, 02:58:03", "zip": 8032}, "type": "Feature"}, {"geometry": {"coordinates": [8.5609218, 47.3619068], "type": "Point"}, "properties": {"address": "Forchstrasse 99", "electric": 13, "id": "pb_368", "manual": 1, "name": "Hegibachplatz", "provider": "publibike", "timeStamp": "05/01/2020, 02:58:03", "zip": 8032}, "type": "Feature"}, {"geometry": {"coordinates": [8.5721264, 47.4039985], "type": "Point"}, "properties": {"address": "Winterthurerstrasse 519", "electric": 7, "id": "pb_370", "manual": 5, "name": "Schwamendingerplatz", "provider": "publibike", "timeStamp": "05/01/2020, 02:58:03", "zip": 8051}, "type": "Feature"}, {"geometry": {"coordinates": [8.520168, 47.378556], "type": "Point"}, "properties": {"address": "Herman-Greulich-Strasse 56", "electric": 2, "id": "pb_384", "manual": 13, "name": "Hermann-Greulich-Weg", "provider": "publibike", "timeStamp": "05/01/2020, 02:58:03", "zip": 8004}, "type": "Feature"}, {"geometry": {"coordinates": [8.547912, 47.384923], "type": "Point"}, "properties": {"address": "Culmannstrasse", "electric": 3, "id": "pb_386", "manual": 0, "name": "Rigiplatz", "provider": "publibike", "timeStamp": "05/01/2020, 02:58:03", "zip": 8006}, "type": "Feature"}, {"geometry": {"coordinates": [8.543768, 47.411057], "type": "Point"}, "properties": {"address": "Hofwiesenstrasse 369", "electric": 4, "id": "pb_387", "manual": 0, "name": "Bahnhof Oerlikon S\u00fcd", "provider": "publibike", "timeStamp": "05/01/2020, 02:58:03", "zip": 8050}, "type": "Feature"}, {"geometry": {"coordinates": [8.544185, 47.412732], "type": "Point"}, "properties": {"address": "Jungholzstrasse 6", "electric": 8, "id": "pb_388", "manual": 1, "name": "Max-Frisch-Platz", "provider": "publibike", "timeStamp": "05/01/2020, 02:58:03", "zip": 8050}, "type": "Feature"}, {"geometry": {"coordinates": [8.558096, 47.413032], "type": "Point"}, "properties": {"address": "Andreasstrasse", "electric": 15, "id": "pb_389", "manual": 4, "name": "Hunziker-Areal", "provider": "publibike", "timeStamp": "05/01/2020, 02:58:03", "zip": 8050}, "type": "Feature"}, {"geometry": {"coordinates": [8.533265, 47.412873], "type": "Point"}, "properties": {"address": "Regina-K\u00e4gi-Strasse 1", "electric": 7, "id": "pb_390", "manual": 0, "name": "Luis-H\u00e4fliger-Park", "provider": "publibike", "timeStamp": "05/01/2020, 02:58:03", "zip": 8050}, "type": "Feature"}, {"geometry": {"coordinates": [8.499265, 47.401852], "type": "Point"}, "properties": {"address": "Limmattalstrasse 177", "electric": 0, "id": "pb_391", "manual": 1, "name": "Meierhofplatz", "provider": "publibike", "timeStamp": "05/01/2020, 02:58:03", "zip": 8049}, "type": "Feature"}, {"geometry": {"coordinates": [8.528356, 47.393255], "type": "Point"}, "properties": {"address": "R\u00f6schibachstrasse 73", "electric": 14, "id": "pb_392", "manual": 1, "name": "R\u00f6schibachplatz", "provider": "publibike", "timeStamp": "05/01/2020, 02:58:03", "zip": 8037}, "type": "Feature"}, {"geometry": {"coordinates": [8.538067, 47.415721], "type": "Point"}, "properties": {"address": "Birchstrasse 191", "electric": 0, "id": "pb_393", "manual": 2, "name": "Oerliker Park", "provider": "publibike", "timeStamp": "05/01/2020, 02:58:03", "zip": 8050}, "type": "Feature"}, {"geometry": {"coordinates": [8.5420304, 47.3669233], "type": "Point"}, "properties": {"address": "Stadthausquai 1", "electric": 1, "id": "pb_395", "manual": 6, "name": "B\u00fcrkliplatz", "provider": "publibike", "timeStamp": "05/01/2020, 02:58:03", "zip": 8001}, "type": "Feature"}, {"geometry": {"coordinates": [8.535767, 47.409881], "type": "Point"}, "properties": {"address": "Regensbergstrasse 195", "electric": 1, "id": "pb_396", "manual": 7, "name": "Holunderhof", "provider": "publibike", "timeStamp": "05/01/2020, 02:58:03", "zip": 8050}, "type": "Feature"}, {"geometry": {"coordinates": [8.5116245, 47.3616199], "type": "Point"}, "properties": {"address": "Grubenstrasse 42", "electric": 3, "id": "pb_431", "manual": 0, "name": "Binz Center", "provider": "publibike", "timeStamp": "05/01/2020, 02:58:03", "zip": 8045}, "type": "Feature"}, {"geometry": {"coordinates": [8.547195, 47.382089], "type": "Point"}, "properties": {"address": "Nelkenstrasse 24", "electric": 3, "id": "pb_430", "manual": 0, "name": "Stapferstube", "provider": "publibike", "timeStamp": "05/01/2020, 02:58:03", "zip": 8006}, "type": "Feature"}, {"geometry": {"coordinates": [8.5787183, 47.4039845], "type": "Point"}, "properties": {"address": "Kronwiesenstrasse 35", "electric": 3, "id": "pb_426", "manual": 2, "name": "Kronwiesen", "provider": "publibike", "timeStamp": "05/01/2020, 02:58:03", "zip": 8051}, "type": "Feature"}, {"geometry": {"coordinates": [8.508131, 47.420757], "type": "Point"}, "properties": {"address": "Riedenhaldenstrasse 20-18", "electric": 7, "id": "pb_425", "manual": 4, "name": "Bahnhof Affoltern", "provider": "publibike", "timeStamp": "05/01/2020, 02:58:03", "zip": 8046}, "type": "Feature"}, {"geometry": {"coordinates": [8.532464, 47.406988], "type": "Point"}, "properties": {"address": "K\u00fcnzlistrasse 41", "electric": 5, "id": "pb_424", "manual": 1, "name": "Birchd\u00f6rfli", "provider": "publibike", "timeStamp": "05/01/2020, 02:58:03", "zip": 8057}, "type": "Feature"}, {"geometry": {"coordinates": [8.5777038, 47.4080095], "type": "Point"}, "properties": {"address": "Luegislandstrasse 412", "electric": 6, "id": "pb_429", "manual": 5, "name": "Luegisland", "provider": "publibike", "timeStamp": "05/01/2020, 02:58:03", "zip": 8051}, "type": "Feature"}, {"geometry": {"coordinates": [8.58841, 47.40158], "type": "Point"}, "properties": {"address": "Hirzenbachstrasse 2-4", "electric": 9, "id": "pb_428", "manual": 0, "name": "Hirzenbachstrasse", "provider": "publibike", "timeStamp": "05/01/2020, 02:58:03", "zip": 8051}, "type": "Feature"}, {"geometry": {"coordinates": [8.5563463, 47.4095467], "type": "Point"}, "properties": {"address": "K\u00fchriedweg", "electric": 7, "id": "pb_445", "manual": 4, "name": "Hallenbad Oerlikon", "provider": "publibike", "timeStamp": "05/01/2020, 02:58:03", "zip": 8050}, "type": "Feature"}, {"geometry": {"coordinates": [8.537971, 47.364871], "type": "Point"}, "properties": {"address": "General-Guisan-Quai 17", "electric": 0, "id": "pb_454", "manual": 6, "name": "General-Guisan-Quai", "provider": "publibike", "timeStamp": "05/01/2020, 02:58:03", "zip": 8002}, "type": "Feature"}, {"geometry": {"coordinates": [8.560587, 47.350578], "type": "Point"}, "properties": {"address": "Bellerivestrasse 245", "electric": 6, "id": "pb_450", "manual": 8, "name": "Bahnhof Tiefenbrunnen", "provider": "publibike", "timeStamp": "05/01/2020, 02:58:03", "zip": 8008}, "type": "Feature"}, {"geometry": {"coordinates": [8.5269416, 47.3563719], "type": "Point"}, "properties": {"address": "Waffenplatzstrasse 89", "electric": 4, "id": "pb_452", "manual": 5, "name": "Rieterplatz", "provider": "publibike", "timeStamp": "05/01/2020, 02:58:03", "zip": 8002}, "type": "Feature"}, {"geometry": {"coordinates": [8.514176, 47.3663708], "type": "Point"}, "properties": {"address": "Talwiesenstrasse 92", "electric": 9, "id": "pb_446", "manual": 7, "name": "Binzallee", "provider": "publibike", "timeStamp": "05/01/2020, 02:58:03", "zip": 8055}, "type": "Feature"}, {"geometry": {"coordinates": [8.5070564, 47.371455], "type": "Point"}, "properties": {"address": "Gutstrasse 87", "electric": 20, "id": "pb_447", "manual": 5, "name": "Gutstrasse", "provider": "publibike", "timeStamp": "05/01/2020, 02:58:03", "zip": 8055}, "type": "Feature"}, {"geometry": {"coordinates": [8.4941268, 47.3836391], "type": "Point"}, "properties": {"address": "Flurstrasse 62", "electric": 3, "id": "pb_453", "manual": 10, "name": "Flurpark", "provider": "publibike", "timeStamp": "05/01/2020, 02:58:03", "zip": 8048}, "type": "Feature"}, {"geometry": {"coordinates": [8.500343, 47.380778], "type": "Point"}, "properties": {"address": "Edelweissstrasse 32", "electric": 7, "id": "pb_448", "manual": 3, "name": "Bl\u00fcemliquartier", "provider": "publibike", "timeStamp": "05/01/2020, 02:58:03", "zip": 8048}, "type": "Feature"}, {"geometry": {"coordinates": [8.528796, 47.383858], "type": "Point"}, "properties": {"address": "Gasometerstrasse 24", "electric": 2, "id": "pb_449", "manual": 2, "name": "Gasometerstrasse", "provider": "publibike", "timeStamp": "05/01/2020, 02:58:03", "zip": 8005}, "type": "Feature"}, {"geometry": {"coordinates": [8.4981964, 47.3859194], "type": "Point"}, "properties": {"address": "Baslerstrasse 57", "electric": 12, "id": "pb_455", "manual": 10, "name": "Letzipark", "provider": "publibike", "timeStamp": "05/01/2020, 02:58:03", "zip": 8048}, "type": "Feature"}, {"geometry": {"coordinates": [8.515252, 47.381915], "type": "Point"}, "properties": {"address": "Sihlfeldstrasse 175", "electric": 5, "id": "pb_451", "manual": 11, "name": "Hardplatz", "provider": "publibike", "timeStamp": "05/01/2020, 02:58:03", "zip": 8004}, "type": "Feature"}, {"geometry": {"coordinates": [8.5064743, 47.4188324], "type": "Point"}, "properties": {"address": "Wehntalerstrasse 541", "electric": 10, "id": "pb_427", "manual": 4, "name": "Zehntenhausplatz", "provider": "publibike", "timeStamp": "05/01/2020, 02:58:03", "zip": 8046}, "type": "Feature"}, {"geometry": {"coordinates": [8.537729, 47.379719], "type": "Point"}, "properties": {"address": "Sihlquai/HB", "electric": 10, "id": "pb_513", "manual": 18, "name": "Sihlquai", "provider": "publibike", "timeStamp": "05/01/2020, 02:58:03", "zip": 8005}, "type": "Feature"}, {"geometry": {"coordinates": [8.596202, 47.397885], "type": "Point"}, "properties": {"address": "Bahnhof Stettbach", "electric": 11, "id": "pb_514", "manual": 0, "name": "Bahnhof Stettbach", "provider": "publibike", "timeStamp": "05/01/2020, 02:58:03", "zip": 8051}, "type": "Feature"}, {"geometry": {"coordinates": [8.5543974, 47.3690153], "type": "Point"}, "properties": {"address": "Kasinostrasse 10", "electric": 1, "id": "pb_515", "manual": 6, "name": "Hottingerplatz", "provider": "publibike", "timeStamp": "05/01/2020, 02:58:03", "zip": 8032}, "type": "Feature"}, {"geometry": {"coordinates": [8.534444, 47.351525], "type": "Point"}, "properties": {"address": "Mobile Station Z\u00fcrich 1", "electric": 0, "id": "pb_282", "manual": 0, "name": "Theaterspektakel", "provider": "publibike", "timeStamp": "05/01/2020, 02:58:03", "zip": 8002}, "type": "Feature"}, {"geometry": {"coordinates": [8.516257, 47.367656], "type": "Point"}, "properties": {"address": "Goldbrunnenstrasse 54", "electric": 3, "id": "pb_538", "manual": 4, "name": "Kirche B\u00fchl", "provider": "publibike", "timeStamp": "05/01/2020, 02:58:03", "zip": 8055}, "type": "Feature"}, {"geometry": {"coordinates": [8.555639, 47.416873], "type": "Point"}, "properties": {"address": "Leutschenbachstrasse 50", "electric": 0, "id": "pb_537", "manual": 0, "name": "Leutschenpark", "provider": "publibike", "timeStamp": "05/01/2020, 02:58:03", "zip": 8050}, "type": "Feature"}, {"geometry": {"coordinates": [8.546464, 47.403822], "type": "Point"}, "properties": {"address": "Berninastrasse 45", "electric": 8, "id": "pb_540", "manual": 1, "name": "Berninaplatz", "provider": "publibike", "timeStamp": "05/01/2020, 02:58:03", "zip": 8057}, "type": "Feature"}, {"geometry": {"coordinates": [8.523134, 47.369004], "type": "Point"}, "properties": {"address": "Erlachstrasse 3", "electric": 4, "id": "pb_385", "manual": 4, "name": "Aegerten", "provider": "publibike", "timeStamp": "05/01/2020, 02:58:03", "zip": 8003}, "type": "Feature"}, {"geometry": {"coordinates": [8.49038, 47.381591], "type": "Point"}, "properties": {"address": "Rautistrasse 60", "electric": 13, "id": "pb_536", "manual": 9, "name": "Freilager", "provider": "publibike", "timeStamp": "05/01/2020, 02:58:03", "zip": 8048}, "type": "Feature"}, {"geometry": {"coordinates": [8.496511, 47.375247], "type": "Point"}, "properties": {"address": "Letzigraben 139", "electric": 6, "id": "pb_444", "manual": 11, "name": "Sackzelg", "provider": "publibike", "timeStamp": "05/01/2020, 02:58:03", "zip": 8047}, "type": "Feature"}, {"geometry": {"coordinates": [8.58131, 47.402801], "type": "Point"}, "properties": {"address": "Altwiesenstrasse 104", "electric": 1, "id": "pb_539", "manual": 0, "name": "Glattwiesen", "provider": "publibike", "timeStamp": "05/01/2020, 02:58:03", "zip": 8051}, "type": "Feature"}, {"geometry": {"coordinates": [8.52689, 47.3767], "type": "Point"}, "properties": {"address": "Molkenstrasse 5", "electric": 2, "id": "pb_560", "manual": 13, "name": "Helvetiaplatz", "provider": "publibike", "timeStamp": "05/01/2020, 02:58:03", "zip": 8004}, "type": "Feature"}, {"geometry": {"coordinates": [8.525602, 47.374241], "type": "Point"}, "properties": {"address": "Badenerstrasse 90", "electric": 7, "id": "pb_559", "manual": 3, "name": "Bezirksgeb\u00e4ude", "provider": "publibike", "timeStamp": "05/01/2020, 02:58:03", "zip": 8004}, "type": "Feature"}, {"geometry": {"coordinates": [8.535082, 47.345248], "type": "Point"}, "properties": {"address": "Bachstrasse 15", "electric": 5, "id": "pb_564", "manual": 11, "name": "GZ Wollishofen", "provider": "publibike", "timeStamp": "05/01/2020, 02:58:03", "zip": 8038}, "type": "Feature"}, {"geometry": {"coordinates": [8.514841, 47.370238], "type": "Point"}, "properties": {"address": "Schrennengasse 37", "electric": 3, "id": "pb_562", "manual": 3, "name": "Goldbrunnenplatz", "provider": "publibike", "timeStamp": "05/01/2020, 02:58:03", "zip": 8003}, "type": "Feature"}, {"geometry": {"coordinates": [8.514138, 47.374206], "type": "Point"}, "properties": {"address": "Idaplatz 4", "electric": 3, "id": "pb_557", "manual": 13, "name": "Idaplatz", "provider": "publibike", "timeStamp": "05/01/2020, 02:58:03", "zip": 8003}, "type": "Feature"}, {"geometry": {"coordinates": [8.518432, 47.369549], "type": "Point"}, "properties": {"address": "Brinerstrasse 2", "electric": 8, "id": "pb_558", "manual": 2, "name": "Schmiede Wiedikon", "provider": "publibike", "timeStamp": "05/01/2020, 02:58:03", "zip": 8003}, "type": "Feature"}, {"geometry": {"coordinates": [8.537546, 47.391289], "type": "Point"}, "properties": {"address": "Rotbuchstrasse 15", "electric": 4, "id": "pb_556", "manual": 0, "name": "Schaffhauserplatz", "provider": "publibike", "timeStamp": "05/01/2020, 02:58:03", "zip": 8006}, "type": "Feature"}, {"geometry": {"coordinates": [8.541541, 47.413733], "type": "Point"}, "properties": {"address": "Therese-Giehse-Strasse 11", "electric": 8, "id": "pb_561", "manual": 1, "name": "Center Eleven", "provider": "publibike", "timeStamp": "05/01/2020, 02:58:03", "zip": 8050}, "type": "Feature"}, {"geometry": {"coordinates": [8.534227, 47.360004], "type": "Point"}, "properties": {"address": "Alfred Escher-Strasse 76", "electric": 0, "id": "pb_563", "manual": 5, "name": "Mythenschloss", "provider": "publibike", "timeStamp": "05/01/2020, 02:58:03", "zip": 8002}, "type": "Feature"}, {"geometry": {"coordinates": [8.50373, 47.396172], "type": "Point"}, "properties": {"address": "Hardeggstrasse 6", "electric": 1, "id": "pb_566", "manual": 5, "name": "Am Wasser", "provider": "publibike", "timeStamp": "05/01/2020, 02:58:03", "zip": 8049}, "type": "Feature"}, {"geometry": {"coordinates": [8.532432, 47.381174], "type": "Point"}, "properties": {"address": "Klingenstrasse 9", "electric": 2, "id": "pb_565", "manual": 9, "name": "Zollstrasse", "provider": "publibike", "timeStamp": "05/01/2020, 02:58:03", "zip": 8005}, "type": "Feature"}, {"geometry": {"coordinates": [8.497982, 47.381447], "type": "Point"}, "properties": {"address": "Dennlerstrasse 23", "electric": 8, "id": "pb_567", "manual": 5, "name": "Dennlerstrasse", "provider": "publibike", "timeStamp": "05/01/2020, 02:58:03", "zip": 8047}, "type": "Feature"}, {"geometry": {"coordinates": [8.528049, 47.347701], "type": "Point"}, "properties": {"address": "Mutschellenstrasse 114", "electric": 16, "id": "pb_568", "manual": 6, "name": "Jugendherberge", "provider": "publibike", "timeStamp": "05/01/2020, 02:58:03", "zip": 8038}, "type": "Feature"}, {"geometry": {"coordinates": [8.539016, 47.405751], "type": "Point"}, "properties": {"address": "Ringstrasse 82", "electric": 5, "id": "pb_569", "manual": 2, "name": "Freibad Allenmoos", "provider": "publibike", "timeStamp": "05/01/2020, 02:58:03", "zip": 8057}, "type": "Feature"}, {"geometry": {"coordinates": [8.534974, 47.402164], "type": "Point"}, "properties": {"address": "Brache Guggach", "electric": 8, "id": "pb_572", "manual": 0, "name": "Radiostudio", "provider": "publibike", "timeStamp": "05/01/2020, 02:58:03", "zip": 8057}, "type": "Feature"}, {"geometry": {"coordinates": [8.547901, 47.375556], "type": "Point"}, "properties": {"address": "Karl-Schmid-Strasse 4", "electric": 0, "id": "pb_571", "manual": 0, "name": "ETH/Zoologisches Museum", "provider": "publibike", "timeStamp": "05/01/2020, 02:58:03", "zip": 8006}, "type": "Feature"}, {"geometry": {"coordinates": [8.54443833333333, 47.3768383333333], "type": "Point"}, "properties": {"charge": 99, "id": "bird_cf5c2f88-4e48-4910-928f-00ee68d1be79", "provider": "bird", "timeStamp": "03/31/2020, 16:17:00"}, "type": "Feature"}, {"geometry": {"coordinates": [8.51640666666667, 47.3754766666667], "type": "Point"}, "properties": {"charge": 53, "id": "bird_d086fc69-8f5f-423e-b1e6-442bda2c0fb4", "provider": "bird", "timeStamp": "03/31/2020, 16:17:00"}, "type": "Feature"}, {"geometry": {"coordinates": [8.54314333333333, 47.37497], "type": "Point"}, "properties": {"charge": 39, "id": "bird_05ef1df5-d1aa-4455-a640-557f8416875c", "provider": "bird", "timeStamp": "03/31/2020, 16:17:00"}, "type": "Feature"}, {"geometry": {"coordinates": [8.51790833333333, 47.386105], "type": "Point"}, "properties": {"charge": 82, "id": "bird_75c41e5a-fe16-441d-8698-10830ea34350", "provider": "bird", "timeStamp": "03/31/2020, 16:17:00"}, "type": "Feature"}, {"geometry": {"coordinates": [8.51822833333333, 47.3863683333333], "type": "Point"}, "properties": {"charge": 34, "id": "bird_0c6ed5c9-2585-45c9-84b5-4a4867dcd316", "provider": "bird", "timeStamp": "03/31/2020, 16:17:00"}, "type": "Feature"}, {"geometry": {"coordinates": [8.51531166666667, 47.3821866666667], "type": "Point"}, "properties": {"charge": 69, "id": "bird_a7f017e5-03a7-4593-a547-7de8f669be79", "provider": "bird", "timeStamp": "03/31/2020, 16:17:00"}, "type": "Feature"}, {"geometry": {"coordinates": [8.51534333333333, 47.3821833333333], "type": "Point"}, "properties": {"charge": 73, "id": "bird_a2e75445-003f-405a-a825-06ce16804b78", "provider": "bird", "timeStamp": "03/31/2020, 16:17:00"}, "type": "Feature"}, {"geometry": {"coordinates": [8.54404, 47.376515], "type": "Point"}, "properties": {"charge": 39, "id": "bird_b2285ed0-c432-42a6-8292-b3db54bb4e56", "provider": "bird", "timeStamp": "03/31/2020, 16:17:00"}, "type": "Feature"}, {"geometry": {"coordinates": [8.51824333333333, 47.386245], "type": "Point"}, "properties": {"charge": 82, "id": "bird_807e7d6a-7b51-4a76-bf74-bc723c05429e", "provider": "bird", "timeStamp": "03/31/2020, 16:17:00"}, "type": "Feature"}, {"geometry": {"coordinates": [8.52309333333333, 47.3710283333333], "type": "Point"}, "properties": {"charge": 73, "id": "bird_169ada10-34ca-45d4-9dd1-20b7760d7783", "provider": "bird", "timeStamp": "03/31/2020, 16:17:00"}, "type": "Feature"}, {"geometry": {"coordinates": [8.54401833333333, 47.3765333333333], "type": "Point"}, "properties": {"charge": 100, "id": "bird_4174872e-bfe3-4445-9bd6-42374d17da31", "provider": "bird", "timeStamp": "03/31/2020, 16:17:00"}, "type": "Feature"}, {"geometry": {"coordinates": [8.51826666666667, 47.3862383333333], "type": "Point"}, "properties": {"charge": 84, "id": "bird_7e87495e-c51d-4bde-a758-fbf9e8f9c885", "provider": "bird", "timeStamp": "03/31/2020, 16:17:00"}, "type": "Feature"}, {"geometry": {"coordinates": [8.51809833333333, 47.3860466666667], "type": "Point"}, "properties": {"charge": 82, "id": "bird_c6efe642-6c8c-4f89-b35b-c71ba0af2729", "provider": "bird", "timeStamp": "03/31/2020, 16:17:00"}, "type": "Feature"}, {"geometry": {"coordinates": [8.54390333333333, 47.376415], "type": "Point"}, "properties": {"charge": 98, "id": "bird_b35ffea8-9697-48ec-8a9d-893a753c6e3c", "provider": "bird", "timeStamp": "03/31/2020, 16:17:00"}, "type": "Feature"}, {"geometry": {"coordinates": [8.51585166666667, 47.3768966666667], "type": "Point"}, "properties": {"charge": 58, "id": "bird_83079eb3-4d26-45e5-a82f-103b5fef8009", "provider": "bird", "timeStamp": "03/31/2020, 16:17:00"}, "type": "Feature"}, {"geometry": {"coordinates": [8.54396833333333, 47.37656], "type": "Point"}, "properties": {"charge": 99, "id": "bird_b724be74-7113-4d2a-8df7-3d32e6fc65a0", "provider": "bird", "timeStamp": "03/31/2020, 16:17:00"}, "type": "Feature"}, {"geometry": {"coordinates": [8.54388333333333, 47.3764716666667], "type": "Point"}, "properties": {"charge": 100, "id": "bird_907dbe3b-5eb3-4463-a7cd-869aa293d890", "provider": "bird", "timeStamp": "03/31/2020, 16:17:00"}, "type": "Feature"}, {"geometry": {"coordinates": [8.51737333333333, 47.385265], "type": "Point"}, "properties": {"charge": 69, "id": "bird_ce90a0ce-a07d-45ca-b4f9-edbdd9482227", "provider": "bird", "timeStamp": "03/31/2020, 16:17:00"}, "type": "Feature"}, {"geometry": {"coordinates": [8.51537666666667, 47.3785133333333], "type": "Point"}, "properties": {"charge": 40, "id": "bird_6c781857-cb5d-46c2-a364-7d2ce01ebb86", "provider": "bird", "timeStamp": "03/31/2020, 16:17:00"}, "type": "Feature"}, {"geometry": {"coordinates": [8.53525, 47.3706466666667], "type": "Point"}, "properties": {"charge": 39, "id": "bird_d00cd871-d38f-4980-b801-94ee4436661d", "provider": "bird", "timeStamp": "03/31/2020, 16:17:00"}, "type": "Feature"}, {"geometry": {"coordinates": [8.52315666666667, 47.371135], "type": "Point"}, "properties": {"charge": 75, "id": "bird_16cabb9f-1d4c-4197-8f72-35e21cb255a0", "provider": "bird", "timeStamp": "03/31/2020, 16:17:00"}, "type": "Feature"}, {"geometry": {"coordinates": [8.52318166666667, 47.3711283333333], "type": "Point"}, "properties": {"charge": 75, "id": "bird_37659c32-9857-48da-bd88-c7a7a45f5bc5", "provider": "bird", "timeStamp": "03/31/2020, 16:17:00"}, "type": "Feature"}, {"geometry": {"coordinates": [8.52732833333333, 47.3701666666667], "type": "Point"}, "properties": {"charge": 39, "id": "bird_0d45416e-9cb1-4a33-ac61-1dc7114f4e4a", "provider": "bird", "timeStamp": "03/31/2020, 16:17:00"}, "type": "Feature"}, {"geometry": {"coordinates": [8.53328833333333, 47.3702733333333], "type": "Point"}, "properties": {"charge": 42, "id": "bird_013e5d5d-0747-4dfe-acae-e5ccb0c74510", "provider": "bird", "timeStamp": "03/31/2020, 16:17:00"}, "type": "Feature"}, {"geometry": {"coordinates": [8.523665, 47.3710166666667], "type": "Point"}, "properties": {"charge": 73, "id": "bird_2a6aee69-0cf6-4920-a190-ff92121eb088", "provider": "bird", "timeStamp": "03/31/2020, 16:17:00"}, "type": "Feature"}, {"geometry": {"coordinates": [8.54450833333333, 47.3816066666667], "type": "Point"}, "properties": {"charge": 34, "id": "bird_e1c83e61-a54b-485d-b253-a2073ccac334", "provider": "bird", "timeStamp": "03/31/2020, 16:17:00"}, "type": "Feature"}, {"geometry": {"coordinates": [8.51672333333333, 47.3757516666667], "type": "Point"}, "properties": {"charge": 60, "id": "bird_d02942a1-bfbe-4846-bdf7-4925cef97749", "provider": "bird", "timeStamp": "03/31/2020, 16:17:00"}, "type": "Feature"}, {"geometry": {"coordinates": [8.54069833333333, 47.3868033333333], "type": "Point"}, "properties": {"charge": 18, "id": "bird_eb9f12f1-0c49-4b55-b131-8b2fe2960b80", "provider": "bird", "timeStamp": "03/31/2020, 16:17:00"}, "type": "Feature"}, {"geometry": {"coordinates": [8.52301833333333, 47.3712616666667], "type": "Point"}, "properties": {"charge": 75, "id": "bird_9783d46a-90dd-4879-ac1b-0ea5c3625a2f", "provider": "bird", "timeStamp": "03/31/2020, 16:17:00"}, "type": "Feature"}, {"geometry": {"coordinates": [8.52367833333333, 47.37104], "type": "Point"}, "properties": {"charge": 61, "id": "bird_7a9e5954-0034-4a4f-a9ec-676d2e9f64cd", "provider": "bird", "timeStamp": "03/31/2020, 16:17:00"}, "type": "Feature"}, {"geometry": {"coordinates": [8.52338833333333, 47.371155], "type": "Point"}, "properties": {"charge": 75, "id": "bird_03c91547-45dc-4b4c-8126-d5824eb9a222", "provider": "bird", "timeStamp": "03/31/2020, 16:17:00"}, "type": "Feature"}, {"geometry": {"coordinates": [8.52304833333333, 47.3712766666667], "type": "Point"}, "properties": {"charge": 73, "id": "bird_9cff4a04-73ee-404f-ac97-388880b23797", "provider": "bird", "timeStamp": "03/31/2020, 16:17:00"}, "type": "Feature"}, {"geometry": {"coordinates": [8.518355, 47.385735], "type": "Point"}, "properties": {"charge": 73, "id": "bird_e78fe023-a201-4a8e-a6bf-d03c6e87ff33", "provider": "bird", "timeStamp": "03/31/2020, 16:17:00"}, "type": "Feature"}, {"geometry": {"coordinates": [8.51791166666667, 47.3852233333333], "type": "Point"}, "properties": {"charge": 84, "id": "bird_1bf300c5-1c8b-4468-aaa8-2a1fe0df268e", "provider": "bird", "timeStamp": "03/31/2020, 16:17:00"}, "type": "Feature"}, {"geometry": {"coordinates": [8.52392166666667, 47.371235], "type": "Point"}, "properties": {"charge": 47, "id": "bird_3da2300a-8f60-4188-9e32-91715b7b8f4a", "provider": "bird", "timeStamp": "03/31/2020, 16:17:00"}, "type": "Feature"}, {"geometry": {"coordinates": [8.51783666666667, 47.38509], "type": "Point"}, "properties": {"charge": 80, "id": "bird_b03e71bb-6529-4c46-8b26-418061ce1875", "provider": "bird", "timeStamp": "03/31/2020, 16:17:00"}, "type": "Feature"}, {"geometry": {"coordinates": [8.51642, 47.3770566666667], "type": "Point"}, "properties": {"charge": 11, "id": "bird_e9450805-a0ce-48a9-ab0d-64c0b99e5de9", "provider": "bird", "timeStamp": "03/31/2020, 16:17:00"}, "type": "Feature"}, {"geometry": {"coordinates": [8.51644, 47.377025], "type": "Point"}, "properties": {"charge": 17, "id": "bird_75688ed4-4917-4dab-97b1-b771cd227ba8", "provider": "bird", "timeStamp": "03/31/2020, 16:17:00"}, "type": "Feature"}, {"geometry": {"coordinates": [8.53965833333333, 47.372905], "type": "Point"}, "properties": {"charge": 89, "id": "bird_f4ac256f-4b65-436c-aae2-a7206fc51cf8", "provider": "bird", "timeStamp": "03/31/2020, 16:17:00"}, "type": "Feature"}, {"geometry": {"coordinates": [8.51654040127972, 47.3768810320868], "type": "Point"}, "properties": {"charge": 29, "id": "bird_a76e65ee-0732-4f29-8d03-46162a5df7e8", "provider": "bird", "timeStamp": "03/31/2020, 16:17:00"}, "type": "Feature"}, {"geometry": {"coordinates": [8.51646166666667, 47.3770416666667], "type": "Point"}, "properties": {"charge": 22, "id": "bird_a0b805fa-ff94-4cfe-9de0-cc1e086b4ab8", "provider": "bird", "timeStamp": "03/31/2020, 16:17:00"}, "type": "Feature"}, {"geometry": {"coordinates": [8.51647166666667, 47.3770333333333], "type": "Point"}, "properties": {"charge": 24, "id": "bird_dddd19d8-2fa9-4a6c-b28a-6ade5c18f0af", "provider": "bird", "timeStamp": "03/31/2020, 16:17:00"}, "type": "Feature"}, {"geometry": {"coordinates": [8.51799166666667, 47.3748433333333], "type": "Point"}, "properties": {"charge": 16, "id": "bird_8d9f9861-e697-4824-9878-4a4b422e001e", "provider": "bird", "timeStamp": "03/31/2020, 16:17:00"}, "type": "Feature"}, {"geometry": {"coordinates": [8.516485, 47.3770333333333], "type": "Point"}, "properties": {"charge": 11, "id": "bird_e7d29b49-e8b9-4095-851d-bf045b40f31e", "provider": "bird", "timeStamp": "03/31/2020, 16:17:00"}, "type": "Feature"}, {"geometry": {"coordinates": [8.53966, 47.3729583333333], "type": "Point"}, "properties": {"charge": 93, "id": "bird_69020a5d-ba34-480e-8146-94b2e8ce8cc7", "provider": "bird", "timeStamp": "03/31/2020, 16:17:00"}, "type": "Feature"}, {"geometry": {"coordinates": [8.5165, 47.3770483333333], "type": "Point"}, "properties": {"charge": 27, "id": "bird_8d40f779-5f78-4b77-8f00-839e32435a53", "provider": "bird", "timeStamp": "03/31/2020, 16:17:00"}, "type": "Feature"}, {"geometry": {"coordinates": [8.51623833333333, 47.3777466666667], "type": "Point"}, "properties": {"charge": 40, "id": "bird_c6aff10b-7313-454d-8576-15bd970ed6c9", "provider": "bird", "timeStamp": "03/31/2020, 16:17:00"}, "type": "Feature"}, {"geometry": {"coordinates": [8.51806666666667, 47.3748433333333], "type": "Point"}, "properties": {"charge": 40, "id": "bird_b5268884-cf66-42a4-82c6-6c13f7fb5b05", "provider": "bird", "timeStamp": "03/31/2020, 16:17:00"}, "type": "Feature"}, {"geometry": {"coordinates": [8.52213833333333, 47.372105], "type": "Point"}, "properties": {"charge": 62, "id": "bird_328ba563-70c4-478b-9875-5e34ecb99b1a", "provider": "bird", "timeStamp": "03/31/2020, 16:17:00"}, "type": "Feature"}, {"geometry": {"coordinates": [8.51601, 47.3797766666667], "type": "Point"}, "properties": {"charge": 31, "id": "bird_9fd11955-f883-495a-88ad-2d7b233c4481", "provider": "bird", "timeStamp": "03/31/2020, 16:17:00"}, "type": "Feature"}, {"geometry": {"coordinates": [8.54082666666667, 47.3741033333333], "type": "Point"}, "properties": {"charge": 55, "id": "bird_e30d06dc-36cd-414a-9f6f-241b5c0332a8", "provider": "bird", "timeStamp": "03/31/2020, 16:17:00"}, "type": "Feature"}, {"geometry": {"coordinates": [8.53759, 47.3721466666667], "type": "Point"}, "properties": {"charge": 84, "id": "bird_6b82ddbd-8645-4391-8008-eea3adea844c", "provider": "bird", "timeStamp": "03/31/2020, 16:17:00"}, "type": "Feature"}, {"geometry": {"coordinates": [8.5228, 47.387985], "type": "Point"}, "properties": {"charge": 33, "id": "bird_321adf8b-b5d6-4be2-a2bc-7180373318cf", "provider": "bird", "timeStamp": "03/31/2020, 16:17:00"}, "type": "Feature"}, {"geometry": {"coordinates": [8.53779833333333, 47.37231], "type": "Point"}, "properties": {"charge": 91, "id": "bird_c483a7cf-57ea-4105-b128-8fbdd1508529", "provider": "bird", "timeStamp": "03/31/2020, 16:17:00"}, "type": "Feature"}, {"geometry": {"coordinates": [8.53754666666667, 47.3721966666667], "type": "Point"}, "properties": {"charge": 88, "id": "bird_40e91e92-3290-403b-8169-84a47c58692e", "provider": "bird", "timeStamp": "03/31/2020, 16:17:00"}, "type": "Feature"}, {"geometry": {"coordinates": [8.52600666666667, 47.371075], "type": "Point"}, "properties": {"charge": 76, "id": "bird_837ec593-c49c-4d2d-9a09-68e11e78cb29", "provider": "bird", "timeStamp": "03/31/2020, 16:17:00"}, "type": "Feature"}, {"geometry": {"coordinates": [8.51625833333333, 47.3797033333333], "type": "Point"}, "properties": {"charge": 62, "id": "bird_9cd20308-3b03-4ec7-9d23-9ca7acbef018", "provider": "bird", "timeStamp": "03/31/2020, 16:17:00"}, "type": "Feature"}, {"geometry": {"coordinates": [8.541075, 47.374485], "type": "Point"}, "properties": {"charge": 90, "id": "bird_01fc74e2-2aed-455b-ac49-aa547b51850d", "provider": "bird", "timeStamp": "03/31/2020, 16:17:00"}, "type": "Feature"}, {"geometry": {"coordinates": [8.51632833333333, 47.3795583333333], "type": "Point"}, "properties": {"charge": 72, "id": "bird_e5e62993-5341-4acb-9b27-1da112172508", "provider": "bird", "timeStamp": "03/31/2020, 16:17:00"}, "type": "Feature"}, {"geometry": {"coordinates": [8.51667666666667, 47.3818366666667], "type": "Point"}, "properties": {"charge": 46, "id": "bird_8b296e5e-b776-459f-8fab-433c0c826e86", "provider": "bird", "timeStamp": "03/31/2020, 16:17:00"}, "type": "Feature"}, {"geometry": {"coordinates": [8.51679666666667, 47.3783916666667], "type": "Point"}, "properties": {"charge": 18, "id": "bird_e1037718-8733-4847-9874-8ea28ea80808", "provider": "bird", "timeStamp": "03/31/2020, 16:17:00"}, "type": "Feature"}, {"geometry": {"coordinates": [8.53638333333333, 47.387985], "type": "Point"}, "properties": {"charge": 26, "id": "bird_6511a691-328b-43de-9876-b9304fc3c487", "provider": "bird", "timeStamp": "03/31/2020, 16:17:00"}, "type": "Feature"}, {"geometry": {"coordinates": [8.54211, 47.3838383333333], "type": "Point"}, "properties": {"charge": 36, "id": "bird_eed4c661-1a55-4e00-b70d-757cba8c7dfa", "provider": "bird", "timeStamp": "03/31/2020, 16:17:00"}, "type": "Feature"}, {"geometry": {"coordinates": [8.53904166666667, 47.37349], "type": "Point"}, "properties": {"charge": 96, "id": "bird_e402f455-4286-49e6-8e41-cc4dfaf45eb9", "provider": "bird", "timeStamp": "03/31/2020, 16:17:00"}, "type": "Feature"}, {"geometry": {"coordinates": [8.51688166666667, 47.3795666666667], "type": "Point"}, "properties": {"charge": 30, "id": "bird_75ddd1b6-4f62-4b53-af1e-3024df44ec9a", "provider": "bird", "timeStamp": "03/31/2020, 16:17:00"}, "type": "Feature"}, {"geometry": {"coordinates": [8.53326666666667, 47.388595], "type": "Point"}, "properties": {"charge": 22, "id": "bird_ab6e7f62-84a0-49ad-add3-068c43545790", "provider": "bird", "timeStamp": "03/31/2020, 16:17:00"}, "type": "Feature"}, {"geometry": {"coordinates": [8.54018666666667, 47.3744316666667], "type": "Point"}, "properties": {"charge": 98, "id": "bird_7ac2f5c7-c362-4092-86d8-a49cecd5fac8", "provider": "bird", "timeStamp": "03/31/2020, 16:17:00"}, "type": "Feature"}, {"geometry": {"coordinates": [8.52986333333333, 47.3712083333333], "type": "Point"}, "properties": {"charge": 38, "id": "bird_a4103e75-a569-490e-87bc-1f91686b6e45", "provider": "bird", "timeStamp": "03/31/2020, 16:17:00"}, "type": "Feature"}, {"geometry": {"coordinates": [8.53007666666667, 47.371235], "type": "Point"}, "properties": {"charge": 65, "id": "bird_0bf91c9c-020c-4b27-8467-24621ba88fa3", "provider": "bird", "timeStamp": "03/31/2020, 16:17:00"}, "type": "Feature"}, {"geometry": {"coordinates": [8.52661333333333, 47.388325], "type": "Point"}, "properties": {"charge": 31, "id": "bird_a7bbfc65-f5b0-4796-849d-8f56dcc71c1f", "provider": "bird", "timeStamp": "03/31/2020, 16:17:00"}, "type": "Feature"}, {"geometry": {"coordinates": [8.517925, 47.3773416666667], "type": "Point"}, "properties": {"charge": 43, "id": "bird_548515f0-b167-4324-b327-85d7dc62586b", "provider": "bird", "timeStamp": "03/31/2020, 16:17:00"}, "type": "Feature"}, {"geometry": {"coordinates": [8.53494666666667, 47.372155], "type": "Point"}, "properties": {"charge": 82, "id": "bird_dde9ce4f-da8f-4c5b-ac82-ff310fc91318", "provider": "bird", "timeStamp": "03/31/2020, 16:17:00"}, "type": "Feature"}, {"geometry": {"coordinates": [8.52453333333333, 47.3876716666667], "type": "Point"}, "properties": {"charge": 61, "id": "bird_a83e4c11-356e-4c3c-906c-613d08150387", "provider": "bird", "timeStamp": "03/31/2020, 16:17:00"}, "type": "Feature"}, {"geometry": {"coordinates": [8.51750166666667, 47.379265], "type": "Point"}, "properties": {"charge": 62, "id": "bird_cce8aefa-34dc-40e6-9fae-ea282714d96c", "provider": "bird", "timeStamp": "03/31/2020, 16:17:00"}, "type": "Feature"}, {"geometry": {"coordinates": [8.53710666666667, 47.37302], "type": "Point"}, "properties": {"charge": 97, "id": "bird_1bdaf9eb-45bc-4efe-a83e-c0900edcaf2d", "provider": "bird", "timeStamp": "03/31/2020, 16:17:00"}, "type": "Feature"}, {"geometry": {"coordinates": [8.536895, 47.37299], "type": "Point"}, "properties": {"charge": 100, "id": "bird_c11ccf90-8ace-49e2-a6bc-92e188b928f9", "provider": "bird", "timeStamp": "03/31/2020, 16:17:00"}, "type": "Feature"}, {"geometry": {"coordinates": [8.53714166666667, 47.3731733333333], "type": "Point"}, "properties": {"charge": 96, "id": "bird_911d8c40-32e8-41a8-a8ef-5102d5ca6229", "provider": "bird", "timeStamp": "03/31/2020, 16:17:00"}, "type": "Feature"}, {"geometry": {"coordinates": [8.53680333333333, 47.3730583333333], "type": "Point"}, "properties": {"charge": 80, "id": "bird_3c892ae0-b57b-4b74-9b12-25ad4780ca32", "provider": "bird", "timeStamp": "03/31/2020, 16:17:00"}, "type": "Feature"}, {"geometry": {"coordinates": [8.53543833333333, 47.37254], "type": "Point"}, "properties": {"charge": 94, "id": "bird_be10e56f-2536-4018-b370-f4bfddb791dc", "provider": "bird", "timeStamp": "03/31/2020, 16:17:00"}, "type": "Feature"}, {"geometry": {"coordinates": [8.53676166666667, 47.3730966666667], "type": "Point"}, "properties": {"charge": 100, "id": "bird_19961b40-11d6-4c10-ab27-126c12b8363b", "provider": "bird", "timeStamp": "03/31/2020, 16:17:00"}, "type": "Feature"}, {"geometry": {"coordinates": [8.53544833333333, 47.3726], "type": "Point"}, "properties": {"charge": 93, "id": "bird_5f57f8a0-c948-46b8-bbf7-fb102c5a7221", "provider": "bird", "timeStamp": "03/31/2020, 16:17:00"}, "type": "Feature"}, {"geometry": {"coordinates": [8.53672166666667, 47.3731033333333], "type": "Point"}, "properties": {"charge": 100, "id": "bird_b1f005ca-6c7a-44f8-be0f-b43fe523c552", "provider": "bird", "timeStamp": "03/31/2020, 16:17:00"}, "type": "Feature"}, {"geometry": {"coordinates": [8.54064666666667, 47.3759883333333], "type": "Point"}, "properties": {"charge": 97, "id": "bird_1b324bd6-f524-441a-8c65-49cef9cb0954", "provider": "bird", "timeStamp": "03/31/2020, 16:17:00"}, "type": "Feature"}, {"geometry": {"coordinates": [8.54059666666667, 47.3759916666667], "type": "Point"}, "properties": {"charge": 98, "id": "bird_ddd90a20-9680-4b42-96d7-abc7ba5d4304", "provider": "bird", "timeStamp": "03/31/2020, 16:17:00"}, "type": "Feature"}, {"geometry": {"coordinates": [8.53440333333333, 47.3723416666667], "type": "Point"}, "properties": {"charge": 80, "id": "bird_311a721c-9762-4ee5-804d-942de9a97ce8", "provider": "bird", "timeStamp": "03/31/2020, 16:17:00"}, "type": "Feature"}, {"geometry": {"coordinates": [8.52352833333333, 47.38694], "type": "Point"}, "properties": {"charge": 82, "id": "bird_5510181a-e6b0-48a6-8ffa-7a67e274b544", "provider": "bird", "timeStamp": "03/31/2020, 16:17:00"}, "type": "Feature"}, {"geometry": {"coordinates": [8.53642833333333, 47.3730583333333], "type": "Point"}, "properties": {"charge": 92, "id": "bird_8ec56f26-0f90-48ae-b051-698b2f2c8866", "provider": "bird", "timeStamp": "03/31/2020, 16:17:00"}, "type": "Feature"}, {"geometry": {"coordinates": [8.53604166666667, 47.3729166666667], "type": "Point"}, "properties": {"charge": 42, "id": "bird_5b8a4113-318b-4521-909d-6fefa205704a", "provider": "bird", "timeStamp": "03/31/2020, 16:17:00"}, "type": "Feature"}, {"geometry": {"coordinates": [8.53641333333333, 47.3730816666667], "type": "Point"}, "properties": {"charge": 89, "id": "bird_37b810e5-c647-4c8e-93aa-ff8db5b983d9", "provider": "bird", "timeStamp": "03/31/2020, 16:17:00"}, "type": "Feature"}, {"geometry": {"coordinates": [8.53540833333333, 47.3727066666667], "type": "Point"}, "properties": {"charge": 84, "id": "bird_8927c12c-4582-4391-b19f-02e175214495", "provider": "bird", "timeStamp": "03/31/2020, 16:17:00"}, "type": "Feature"}, {"geometry": {"coordinates": [8.53449, 47.3724283333333], "type": "Point"}, "properties": {"charge": 80, "id": "bird_6202f0b4-eba1-4634-92f6-2a7fe47e9e4e", "provider": "bird", "timeStamp": "03/31/2020, 16:17:00"}, "type": "Feature"}, {"geometry": {"coordinates": [8.53452, 47.3724433333333], "type": "Point"}, "properties": {"charge": 75, "id": "bird_31b945b2-1858-40a3-8829-9abd54c7d6fa", "provider": "bird", "timeStamp": "03/31/2020, 16:17:00"}, "type": "Feature"}, {"geometry": {"coordinates": [8.54108833333333, 47.3829766666667], "type": "Point"}, "properties": {"charge": 19, "id": "bird_eb8fc8e1-4431-49df-9ba8-af004d6899cb", "provider": "bird", "timeStamp": "03/31/2020, 16:17:00"}, "type": "Feature"}, {"geometry": {"coordinates": [8.52343166666667, 47.37331], "type": "Point"}, "properties": {"charge": 65, "id": "bird_4ac9eb8d-0f46-41eb-a67b-0b30dcfa048c", "provider": "bird", "timeStamp": "03/31/2020, 16:17:00"}, "type": "Feature"}, {"geometry": {"coordinates": [8.54157, 47.3817216666667], "type": "Point"}, "properties": {"charge": 70, "id": "bird_dc7151e5-e04e-4158-83bf-74217495a5d5", "provider": "bird", "timeStamp": "03/31/2020, 16:17:00"}, "type": "Feature"}, {"geometry": {"coordinates": [8.52445166666667, 47.3869783333333], "type": "Point"}, "properties": {"charge": 42, "id": "bird_dfb73169-ee98-4fba-9762-29e438510506", "provider": "bird", "timeStamp": "03/31/2020, 16:17:00"}, "type": "Feature"}, {"geometry": {"coordinates": [8.53459333333333, 47.3728066666667], "type": "Point"}, "properties": {"charge": 82, "id": "bird_35d29a93-2b76-4f1d-90ab-427a87866f8c", "provider": "bird", "timeStamp": "03/31/2020, 16:17:00"}, "type": "Feature"}, {"geometry": {"coordinates": [8.52003833333333, 47.3760383333333], "type": "Point"}, "properties": {"charge": 51, "id": "bird_4367ca47-a5fc-443a-b3f8-5149bf113b66", "provider": "bird", "timeStamp": "03/31/2020, 16:17:00"}, "type": "Feature"}, {"geometry": {"coordinates": [8.534385, 47.3727866666667], "type": "Point"}, "properties": {"charge": 78, "id": "bird_726248bd-a627-4e5a-b41e-10ea5c7dba30", "provider": "bird", "timeStamp": "03/31/2020, 16:17:00"}, "type": "Feature"}, {"geometry": {"coordinates": [8.54051, 47.3768733333333], "type": "Point"}, "properties": {"charge": 100, "id": "bird_a53b6520-c413-411d-bef0-c10edf177d5c", "provider": "bird", "timeStamp": "03/31/2020, 16:17:00"}, "type": "Feature"}, {"geometry": {"coordinates": [8.54053333333333, 47.376915], "type": "Point"}, "properties": {"charge": 63, "id": "bird_0709081f-5711-4108-a284-010a1d0da6a6", "provider": "bird", "timeStamp": "03/31/2020, 16:17:00"}, "type": "Feature"}, {"geometry": {"coordinates": [8.52793333333333, 47.3876383333333], "type": "Point"}, "properties": {"charge": 35, "id": "bird_5877755e-fe08-4c74-8468-d276533d8d84", "provider": "bird", "timeStamp": "03/31/2020, 16:17:00"}, "type": "Feature"}, {"geometry": {"coordinates": [8.54052333333333, 47.3769983333333], "type": "Point"}, "properties": {"charge": 98, "id": "bird_d2affa8e-80d6-412b-9246-601f23a61078", "provider": "bird", "timeStamp": "03/31/2020, 16:17:00"}, "type": "Feature"}, {"geometry": {"coordinates": [8.52813, 47.3875966666667], "type": "Point"}, "properties": {"charge": 48, "id": "bird_005467ea-a14d-4265-bfd5-1c483ab5eaaa", "provider": "bird", "timeStamp": "03/31/2020, 16:17:00"}, "type": "Feature"}, {"geometry": {"coordinates": [8.540435, 47.37695], "type": "Point"}, "properties": {"charge": 100, "id": "bird_0cf8bc3d-19b2-4e7f-816f-75d1c1c9c904", "provider": "bird", "timeStamp": "03/31/2020, 16:17:00"}, "type": "Feature"}, {"geometry": {"coordinates": [8.53884833333333, 47.38483], "type": "Point"}, "properties": {"charge": 69, "id": "bird_e2776a70-7cf0-4b87-8cdc-4eaf2bf5e18c", "provider": "bird", "timeStamp": "03/31/2020, 16:17:00"}, "type": "Feature"}, {"geometry": {"coordinates": [8.51867, 47.3804666666667], "type": "Point"}, "properties": {"charge": 60, "id": "bird_dd95856d-b384-4a80-b133-e93910e8eda4", "provider": "bird", "timeStamp": "03/31/2020, 16:17:00"}, "type": "Feature"}, {"geometry": {"coordinates": [8.540375, 47.3769066666667], "type": "Point"}, "properties": {"charge": 100, "id": "bird_2055f6b1-09cf-43f5-9780-3059419061ca", "provider": "bird", "timeStamp": "03/31/2020, 16:17:00"}, "type": "Feature"}, {"geometry": {"coordinates": [8.52587833333333, 47.3729166666667], "type": "Point"}, "properties": {"charge": 79, "id": "bird_9ca485e8-4be9-4f16-a4d5-768780309457", "provider": "bird", "timeStamp": "03/31/2020, 16:17:00"}, "type": "Feature"}, {"geometry": {"coordinates": [8.52579666666667, 47.3729433333333], "type": "Point"}, "properties": {"charge": 69, "id": "bird_6f477ed5-9da6-4479-a24a-4f9bcbdde736", "provider": "bird", "timeStamp": "03/31/2020, 16:17:00"}, "type": "Feature"}, {"geometry": {"coordinates": [8.52811, 47.38734], "type": "Point"}, "properties": {"charge": 72, "id": "bird_8c374a91-47dd-4d53-9dce-368e01228868", "provider": "bird", "timeStamp": "03/31/2020, 16:17:00"}, "type": "Feature"}, {"geometry": {"coordinates": [8.53601666666667, 47.3737633333333], "type": "Point"}, "properties": {"charge": 93, "id": "bird_ce718374-766c-4567-82b5-64adee7e82a8", "provider": "bird", "timeStamp": "03/31/2020, 16:17:00"}, "type": "Feature"}, {"geometry": {"coordinates": [8.53600666666667, 47.3737716666667], "type": "Point"}, "properties": {"charge": 92, "id": "bird_2963f0e4-5bc1-44fd-a391-9d59e7488cab", "provider": "bird", "timeStamp": "03/31/2020, 16:17:00"}, "type": "Feature"}, {"geometry": {"coordinates": [8.53476166666667, 47.3733666666667], "type": "Point"}, "properties": {"charge": 11, "id": "bird_d1d1f6cf-5419-4718-bf53-20700e7fd0df", "provider": "bird", "timeStamp": "03/31/2020, 16:17:00"}, "type": "Feature"}, {"geometry": {"coordinates": [8.53477166666667, 47.3733933333333], "type": "Point"}, "properties": {"charge": 24, "id": "bird_050031e1-588d-439b-bedc-f6c7a1f1ceee", "provider": "bird", "timeStamp": "03/31/2020, 16:17:00"}, "type": "Feature"}, {"geometry": {"coordinates": [8.53472166666667, 47.37339], "type": "Point"}, "properties": {"charge": 16, "id": "bird_2529ab66-e107-49b4-80e7-935ffbc8d518", "provider": "bird", "timeStamp": "03/31/2020, 16:17:00"}, "type": "Feature"}, {"geometry": {"coordinates": [8.53472666666667, 47.3733933333333], "type": "Point"}, "properties": {"charge": 21, "id": "bird_8286efbe-c01e-4ba9-b15a-794793bb73bf", "provider": "bird", "timeStamp": "03/31/2020, 16:17:00"}, "type": "Feature"}, {"geometry": {"coordinates": [8.53473, 47.3733983333333], "type": "Point"}, "properties": {"charge": 26, "id": "bird_ab42161a-b719-419c-a8c3-044532e3fcd9", "provider": "bird", "timeStamp": "03/31/2020, 16:17:00"}, "type": "Feature"}, {"geometry": {"coordinates": [8.537175, 47.3745033333333], "type": "Point"}, "properties": {"charge": 61, "id": "bird_c624bea4-0871-40b8-b0c8-daaa0f9bc8de", "provider": "bird", "timeStamp": "03/31/2020, 16:17:00"}, "type": "Feature"}, {"geometry": {"coordinates": [8.53472, 47.3734016666667], "type": "Point"}, "properties": {"charge": 28, "id": "bird_034898ed-40d0-43cf-8d49-963bff260fdd", "provider": "bird", "timeStamp": "03/31/2020, 16:17:00"}, "type": "Feature"}, {"geometry": {"coordinates": [8.53467166666667, 47.3734366666667], "type": "Point"}, "properties": {"charge": 28, "id": "bird_a739578a-9561-45af-a4ea-a5cbe11ff367", "provider": "bird", "timeStamp": "03/31/2020, 16:17:00"}, "type": "Feature"}, {"geometry": {"coordinates": [8.53012833333333, 47.3728416666667], "type": "Point"}, "properties": {"charge": 52, "id": "bird_d9c50e80-f32b-4f3b-a62c-909cb4e485fc", "provider": "bird", "timeStamp": "03/31/2020, 16:17:00"}, "type": "Feature"}, {"geometry": {"coordinates": [8.53325833333333, 47.3732383333333], "type": "Point"}, "properties": {"charge": 82, "id": "bird_49809555-7d74-4ff1-a1b0-f32ff0d2b61c", "provider": "bird", "timeStamp": "03/31/2020, 16:17:00"}, "type": "Feature"}, {"geometry": {"coordinates": [8.53909, 47.377095], "type": "Point"}, "properties": {"charge": 40, "id": "bird_33340510-448e-4849-8ff4-25b8149b123f", "provider": "bird", "timeStamp": "03/31/2020, 16:17:00"}, "type": "Feature"}, {"geometry": {"coordinates": [8.53908333333333, 47.3771316666667], "type": "Point"}, "properties": {"charge": 70, "id": "bird_b7fc4cb7-66cf-41e3-97e3-f5aff1f74ca0", "provider": "bird", "timeStamp": "03/31/2020, 16:17:00"}, "type": "Feature"}, {"geometry": {"coordinates": [8.5204, 47.3781516666667], "type": "Point"}, "properties": {"charge": 64, "id": "bird_46adec15-4332-4fea-8165-5978e54c0309", "provider": "bird", "timeStamp": "03/31/2020, 16:17:00"}, "type": "Feature"}, {"geometry": {"coordinates": [8.52566666666667, 47.3739433333333], "type": "Point"}, "properties": {"charge": 40, "id": "bird_707ed481-b514-4ab9-9665-0e98e6c19117", "provider": "bird", "timeStamp": "03/31/2020, 16:17:00"}, "type": "Feature"}, {"geometry": {"coordinates": [8.52350666666667, 47.3750233333333], "type": "Point"}, "properties": {"charge": 71, "id": "bird_f02671c0-6346-4400-b85c-d61119aedfaf", "provider": "bird", "timeStamp": "03/31/2020, 16:17:00"}, "type": "Feature"}, {"geometry": {"coordinates": [8.53112833333333, 47.3734583333333], "type": "Point"}, "properties": {"charge": 93, "id": "bird_07b1241d-1892-470f-8878-44fc5c82f38b", "provider": "bird", "timeStamp": "03/31/2020, 16:17:00"}, "type": "Feature"}, {"geometry": {"coordinates": [8.52532166666667, 47.3742683333333], "type": "Point"}, "properties": {"charge": 75, "id": "bird_6ed73d6f-d5bb-4263-a16b-6c5e85b4c6cd", "provider": "bird", "timeStamp": "03/31/2020, 16:17:00"}, "type": "Feature"}, {"geometry": {"coordinates": [8.52529833333333, 47.37429], "type": "Point"}, "properties": {"charge": 75, "id": "bird_ee078963-16c4-41b8-8414-208046c31d37", "provider": "bird", "timeStamp": "03/31/2020, 16:17:00"}, "type": "Feature"}, {"geometry": {"coordinates": [8.53866833333333, 47.3772316666667], "type": "Point"}, "properties": {"charge": 71, "id": "bird_1ea3f682-10d7-4482-a571-779e3e92009e", "provider": "bird", "timeStamp": "03/31/2020, 16:17:00"}, "type": "Feature"}, {"geometry": {"coordinates": [8.529175, 47.3735616666667], "type": "Point"}, "properties": {"charge": 85, "id": "bird_5490fcfc-7325-4029-bb69-da0a2bdb10f7", "provider": "bird", "timeStamp": "03/31/2020, 16:17:00"}, "type": "Feature"}, {"geometry": {"coordinates": [8.53702833333333, 47.3756333333333], "type": "Point"}, "properties": {"charge": 46, "id": "bird_45272f44-824b-4003-83f4-3d32d0cee8cb", "provider": "bird", "timeStamp": "03/31/2020, 16:17:00"}, "type": "Feature"}, {"geometry": {"coordinates": [8.52568333333334, 47.3742516666667], "type": "Point"}, "properties": {"charge": 71, "id": "bird_46c3c882-f33b-4ea7-9cf0-307cb752b8f7", "provider": "bird", "timeStamp": "03/31/2020, 16:17:00"}, "type": "Feature"}, {"geometry": {"coordinates": [8.52977833333333, 47.3735583333333], "type": "Point"}, "properties": {"charge": 97, "id": "bird_4433c780-a9ba-4b85-8408-0db5b98c846b", "provider": "bird", "timeStamp": "03/31/2020, 16:17:00"}, "type": "Feature"}, {"geometry": {"coordinates": [8.53879333333333, 47.377545], "type": "Point"}, "properties": {"charge": 35, "id": "bird_5467594a-586b-4071-8b52-3ad378bf8ab4", "provider": "bird", "timeStamp": "03/31/2020, 16:17:00"}, "type": "Feature"}, {"geometry": {"coordinates": [8.52450833333333, 47.38525], "type": "Point"}, "properties": {"charge": 63, "id": "bird_dff15e5d-dcfb-4432-9a2f-fffd9be4ba49", "provider": "bird", "timeStamp": "03/31/2020, 16:17:00"}, "type": "Feature"}, {"geometry": {"coordinates": [8.52450166666667, 47.37481], "type": "Point"}, "properties": {"charge": 38, "id": "bird_0770baea-e051-47df-a1f3-c47f2c1e9070", "provider": "bird", "timeStamp": "03/31/2020, 16:17:00"}, "type": "Feature"}, {"geometry": {"coordinates": [8.52530333333333, 47.3744733333333], "type": "Point"}, "properties": {"charge": 75, "id": "bird_8cc2200f-edb0-4ef8-863b-a8ed85ef3cd6", "provider": "bird", "timeStamp": "03/31/2020, 16:17:00"}, "type": "Feature"}, {"geometry": {"coordinates": [8.536545, 47.37542], "type": "Point"}, "properties": {"charge": 82, "id": "bird_ece29501-cb3f-4ef2-9f42-81013c3d934f", "provider": "bird", "timeStamp": "03/31/2020, 16:17:00"}, "type": "Feature"}, {"geometry": {"coordinates": [8.529435, 47.3736416666667], "type": "Point"}, "properties": {"charge": 93, "id": "bird_06738efa-2511-4e6e-a0f0-9660c909226c", "provider": "bird", "timeStamp": "03/31/2020, 16:17:00"}, "type": "Feature"}, {"geometry": {"coordinates": [8.53717, 47.3758933333333], "type": "Point"}, "properties": {"charge": 48, "id": "bird_08439540-703f-4eb4-be3f-a36e533404e3", "provider": "bird", "timeStamp": "03/31/2020, 16:17:00"}, "type": "Feature"}, {"geometry": {"coordinates": [8.52535666666667, 47.374485], "type": "Point"}, "properties": {"charge": 75, "id": "bird_1f4318e8-d45a-477e-88ed-79c93a98043f", "provider": "bird", "timeStamp": "03/31/2020, 16:17:00"}, "type": "Feature"}, {"geometry": {"coordinates": [8.53750166666667, 47.3762466666667], "type": "Point"}, "properties": {"charge": 89, "id": "bird_b5db562a-ef95-42d6-9fe6-af1de8409af5", "provider": "bird", "timeStamp": "03/31/2020, 16:17:00"}, "type": "Feature"}, {"geometry": {"coordinates": [8.53032333333333, 47.37371], "type": "Point"}, "properties": {"charge": 94, "id": "bird_fada3b67-4021-4738-83ae-ce35ab96c87d", "provider": "bird", "timeStamp": "03/31/2020, 16:17:00"}, "type": "Feature"}, {"geometry": {"coordinates": [8.53044333333333, 47.3737216666667], "type": "Point"}, "properties": {"charge": 92, "id": "bird_18ee08cf-8b21-4811-ae82-78a9d252ac7e", "provider": "bird", "timeStamp": "03/31/2020, 16:17:00"}, "type": "Feature"}, {"geometry": {"coordinates": [8.5304, 47.3737533333333], "type": "Point"}, "properties": {"charge": 82, "id": "bird_946864db-aaf4-4d82-aa55-ed22dc309990", "provider": "bird", "timeStamp": "03/31/2020, 16:17:00"}, "type": "Feature"}, {"geometry": {"coordinates": [8.53065, 47.3737983333333], "type": "Point"}, "properties": {"charge": 87, "id": "bird_24be2758-1c1d-4f22-a04b-00a26b4f0bb7", "provider": "bird", "timeStamp": "03/31/2020, 16:17:00"}, "type": "Feature"}, {"geometry": {"coordinates": [8.52106333333333, 47.3790316666667], "type": "Point"}, "properties": {"charge": 54, "id": "bird_72129b5f-b8f6-4639-9110-7a9764667021", "provider": "bird", "timeStamp": "03/31/2020, 16:17:00"}, "type": "Feature"}, {"geometry": {"coordinates": [8.52502833333333, 47.3753783333333], "type": "Point"}, "properties": {"charge": 73, "id": "bird_fc9b0610-f1b6-492c-95be-45ed4760460d", "provider": "bird", "timeStamp": "03/31/2020, 16:17:00"}, "type": "Feature"}, {"geometry": {"coordinates": [8.52503166666667, 47.3753883333333], "type": "Point"}, "properties": {"charge": 73, "id": "bird_091a0661-fd31-47e2-94ba-bd74a728f6bf", "provider": "bird", "timeStamp": "03/31/2020, 16:17:00"}, "type": "Feature"}, {"geometry": {"coordinates": [8.53108833333333, 47.37444], "type": "Point"}, "properties": {"charge": 94, "id": "bird_ea99ab91-3974-4658-9e5a-68281504e471", "provider": "bird", "timeStamp": "03/31/2020, 16:17:00"}, "type": "Feature"}, {"geometry": {"coordinates": [8.52388333333333, 47.3768116666667], "type": "Point"}, "properties": {"charge": 54, "id": "bird_131d504d-b297-49a7-99c3-033a0eae6e1c", "provider": "bird", "timeStamp": "03/31/2020, 16:17:00"}, "type": "Feature"}, {"geometry": {"coordinates": [8.52804833333333, 47.37495], "type": "Point"}, "properties": {"charge": 73, "id": "bird_da18c7a1-e5c5-484d-bfeb-279684c4154b", "provider": "bird", "timeStamp": "03/31/2020, 16:17:00"}, "type": "Feature"}, {"geometry": {"coordinates": [8.53742333333333, 47.3794866666667], "type": "Point"}, "properties": {"charge": 100, "id": "bird_a83a3886-23ab-40e6-8568-9b5c4b8ffd52", "provider": "bird", "timeStamp": "03/31/2020, 16:17:00"}, "type": "Feature"}, {"geometry": {"coordinates": [8.53129833333333, 47.3849683333333], "type": "Point"}, "properties": {"charge": 82, "id": "bird_8424cd33-e457-4db9-bcdc-5c9d8fdcdd86", "provider": "bird", "timeStamp": "03/31/2020, 16:17:00"}, "type": "Feature"}, {"geometry": {"coordinates": [8.53158, 47.3849216666667], "type": "Point"}, "properties": {"charge": 69, "id": "bird_b67da2f1-f2f5-4a35-b27e-0e0e3ba86306", "provider": "bird", "timeStamp": "03/31/2020, 16:17:00"}, "type": "Feature"}, {"geometry": {"coordinates": [8.53739333333333, 47.37946], "type": "Point"}, "properties": {"charge": 96, "id": "bird_278cc7e6-e0dc-4d77-ac0e-efe05ec061bc", "provider": "bird", "timeStamp": "03/31/2020, 16:17:00"}, "type": "Feature"}, {"geometry": {"coordinates": [8.53137333333333, 47.3849266666667], "type": "Point"}, "properties": {"charge": 75, "id": "bird_9dbf4ffc-6abb-49a7-bbbd-0ab665fe06ca", "provider": "bird", "timeStamp": "03/31/2020, 16:17:00"}, "type": "Feature"}, {"geometry": {"coordinates": [8.53176666666667, 47.3848566666667], "type": "Point"}, "properties": {"charge": 75, "id": "bird_c3763444-01e9-4d68-9855-efff2bf17970", "provider": "bird", "timeStamp": "03/31/2020, 16:17:00"}, "type": "Feature"}, {"geometry": {"coordinates": [8.53736666666667, 47.379665], "type": "Point"}, "properties": {"charge": 99, "id": "bird_e09bb3a3-c126-419a-bb5b-0be746b64980", "provider": "bird", "timeStamp": "03/31/2020, 16:17:00"}, "type": "Feature"}, {"geometry": {"coordinates": [8.53733166666667, 47.3794666666667], "type": "Point"}, "properties": {"charge": 54, "id": "bird_856f8e6c-b8bc-4ea4-9bc8-d9aa64b4c280", "provider": "bird", "timeStamp": "03/31/2020, 16:17:00"}, "type": "Feature"}, {"geometry": {"coordinates": [8.53731166666667, 47.379475], "type": "Point"}, "properties": {"charge": 99, "id": "bird_b8e227b0-37fa-4ac4-bd7b-101dc095ac35", "provider": "bird", "timeStamp": "03/31/2020, 16:17:00"}, "type": "Feature"}, {"geometry": {"coordinates": [8.52959, 47.38496], "type": "Point"}, "properties": {"charge": 42, "id": "bird_be0d2aba-af88-48f5-a102-d97ad3f8356d", "provider": "bird", "timeStamp": "03/31/2020, 16:17:00"}, "type": "Feature"}, {"geometry": {"coordinates": [8.5255, 47.3839183333333], "type": "Point"}, "properties": {"charge": 71, "id": "bird_f780cb85-8749-4185-87f2-2b5344d45e63", "provider": "bird", "timeStamp": "03/31/2020, 16:17:00"}, "type": "Feature"}, {"geometry": {"coordinates": [8.53725166666667, 47.37946], "type": "Point"}, "properties": {"charge": 98, "id": "bird_382a59aa-da5c-4cf0-81e0-cc07272e4db2", "provider": "bird", "timeStamp": "03/31/2020, 16:17:00"}, "type": "Feature"}, {"geometry": {"coordinates": [8.53625333333333, 47.377765], "type": "Point"}, "properties": {"charge": 42, "id": "bird_abf377e9-8d99-47d4-b0df-5361380db4f1", "provider": "bird", "timeStamp": "03/31/2020, 16:17:00"}, "type": "Feature"}, {"geometry": {"coordinates": [8.53625333333333, 47.3778083333333], "type": "Point"}, "properties": {"charge": 79, "id": "bird_39c7f264-7347-422d-8689-4f9c6a888dbf", "provider": "bird", "timeStamp": "03/31/2020, 16:17:00"}, "type": "Feature"}, {"geometry": {"coordinates": [8.536845, 47.3797416666667], "type": "Point"}, "properties": {"charge": 67, "id": "bird_504e703f-8fc8-481f-bd55-3080e6c57174", "provider": "bird", "timeStamp": "03/31/2020, 16:17:00"}, "type": "Feature"}, {"geometry": {"coordinates": [8.532135, 47.3843533333333], "type": "Point"}, "properties": {"charge": 46, "id": "bird_28a5bbd1-34ef-4293-8910-263ed5e877b2", "provider": "bird", "timeStamp": "03/31/2020, 16:17:00"}, "type": "Feature"}, {"geometry": {"coordinates": [8.536055, 47.3779566666667], "type": "Point"}, "properties": {"charge": 91, "id": "bird_16249a7a-8303-424a-92ae-e31326db739a", "provider": "bird", "timeStamp": "03/31/2020, 16:17:00"}, "type": "Feature"}, {"geometry": {"coordinates": [8.53606833333333, 47.3779983333333], "type": "Point"}, "properties": {"charge": 94, "id": "bird_93751495-b078-482e-9acf-45d1fbdde6f0", "provider": "bird", "timeStamp": "03/31/2020, 16:17:00"}, "type": "Feature"}, {"geometry": {"coordinates": [8.53601, 47.3779216666667], "type": "Point"}, "properties": {"charge": 93, "id": "bird_41d7e764-29ef-451b-8d22-07491021edfe", "provider": "bird", "timeStamp": "03/31/2020, 16:17:00"}, "type": "Feature"}, {"geometry": {"coordinates": [8.53188833333333, 47.38435], "type": "Point"}, "properties": {"charge": 37, "id": "bird_ed8f39d8-791c-4eaf-a857-e3ea267f20a3", "provider": "bird", "timeStamp": "03/31/2020, 16:17:00"}, "type": "Feature"}, {"geometry": {"coordinates": [8.52634333333333, 47.376205], "type": "Point"}, "properties": {"charge": 75, "id": "bird_2dd164d3-381d-4b26-85e3-b58931229603", "provider": "bird", "timeStamp": "03/31/2020, 16:17:00"}, "type": "Feature"}, {"geometry": {"coordinates": [8.52669, 47.3839116666667], "type": "Point"}, "properties": {"charge": 34, "id": "bird_23deeb18-1c18-4cd3-adb3-2826ffe8ac40", "provider": "bird", "timeStamp": "03/31/2020, 16:17:00"}, "type": "Feature"}, {"geometry": {"coordinates": [8.52953833333333, 47.3755066666667], "type": "Point"}, "properties": {"charge": 37, "id": "bird_f92c692c-ea80-4e76-8046-bd83b0410c5a", "provider": "bird", "timeStamp": "03/31/2020, 16:17:00"}, "type": "Feature"}, {"geometry": {"coordinates": [8.526305, 47.37629], "type": "Point"}, "properties": {"charge": 75, "id": "bird_b7e0993c-561c-4770-a44e-c70de9cfd002", "provider": "bird", "timeStamp": "03/31/2020, 16:17:00"}, "type": "Feature"}, {"geometry": {"coordinates": [8.52645833333333, 47.3762283333333], "type": "Point"}, "properties": {"charge": 74, "id": "bird_24389095-71f4-4110-9cee-dc6dac33e008", "provider": "bird", "timeStamp": "03/31/2020, 16:17:00"}, "type": "Feature"}, {"geometry": {"coordinates": [8.53587, 47.3779683333333], "type": "Point"}, "properties": {"charge": 71, "id": "bird_208e5f2d-fa08-4615-9556-22d9b4431d37", "provider": "bird", "timeStamp": "03/31/2020, 16:17:00"}, "type": "Feature"}, {"geometry": {"coordinates": [8.52629666666667, 47.3763083333333], "type": "Point"}, "properties": {"charge": 55, "id": "bird_bfce986b-f334-4ff9-a6e4-d5bf5dec8957", "provider": "bird", "timeStamp": "03/31/2020, 16:17:00"}, "type": "Feature"}, {"geometry": {"coordinates": [8.52647333333333, 47.3762466666667], "type": "Point"}, "properties": {"charge": 75, "id": "bird_bc6a5abc-ae7e-4cfd-8edd-307cd8908708", "provider": "bird", "timeStamp": "03/31/2020, 16:17:00"}, "type": "Feature"}, {"geometry": {"coordinates": [8.53584666666667, 47.377995], "type": "Point"}, "properties": {"charge": 93, "id": "bird_9ea1a988-a427-4a5a-9d68-1fa7fef0ef36", "provider": "bird", "timeStamp": "03/31/2020, 16:17:00"}, "type": "Feature"}, {"geometry": {"coordinates": [8.53583166666667, 47.37798], "type": "Point"}, "properties": {"charge": 91, "id": "bird_0c6c1e8c-95f5-4762-8d26-054ba184baa6", "provider": "bird", "timeStamp": "03/31/2020, 16:17:00"}, "type": "Feature"}, {"geometry": {"coordinates": [8.53590833333333, 47.3781583333333], "type": "Point"}, "properties": {"charge": 96, "id": "bird_33295dd5-56ef-4306-af4d-7d423b746866", "provider": "bird", "timeStamp": "03/31/2020, 16:17:00"}, "type": "Feature"}, {"geometry": {"coordinates": [8.53581833333333, 47.3781083333333], "type": "Point"}, "properties": {"charge": 97, "id": "bird_eea5de29-01fc-47e7-960c-e834802cafb5", "provider": "bird", "timeStamp": "03/31/2020, 16:17:00"}, "type": "Feature"}, {"geometry": {"coordinates": [8.53576833333333, 47.378105], "type": "Point"}, "properties": {"charge": 94, "id": "bird_b0266ea3-c935-497b-afd9-792df4f64ec7", "provider": "bird", "timeStamp": "03/31/2020, 16:17:00"}, "type": "Feature"}, {"geometry": {"coordinates": [8.53578833333333, 47.3781433333333], "type": "Point"}, "properties": {"charge": 96, "id": "bird_0f946050-b563-4f02-bd83-4c6035df8434", "provider": "bird", "timeStamp": "03/31/2020, 16:17:00"}, "type": "Feature"}, {"geometry": {"coordinates": [8.53569833333333, 47.3780483333333], "type": "Point"}, "properties": {"charge": 93, "id": "bird_7ba11040-ca1c-4ecf-b4bd-e1851fcbf1d4", "provider": "bird", "timeStamp": "03/31/2020, 16:17:00"}, "type": "Feature"}, {"geometry": {"coordinates": [8.53433166666667, 47.3768233333333], "type": "Point"}, "properties": {"charge": 83, "id": "bird_68b441d3-1a6a-4a2f-ac09-9ff2e8321adc", "provider": "bird", "timeStamp": "03/31/2020, 16:17:00"}, "type": "Feature"}, {"geometry": {"coordinates": [8.53566, 47.3780016666667], "type": "Point"}, "properties": {"charge": 96, "id": "bird_1bb4cb65-8b94-44a3-ab57-96bb537d003a", "provider": "bird", "timeStamp": "03/31/2020, 16:17:00"}, "type": "Feature"}, {"geometry": {"coordinates": [8.534415, 47.3769233333333], "type": "Point"}, "properties": {"charge": 79, "id": "bird_003b13ee-cd9e-480a-937c-d8a2fde75a7c", "provider": "bird", "timeStamp": "03/31/2020, 16:17:00"}, "type": "Feature"}, {"geometry": {"coordinates": [8.53228, 47.3839866666667], "type": "Point"}, "properties": {"charge": 69, "id": "bird_f4e5b9bb-bf60-4612-b854-417b8d3d62f6", "provider": "bird", "timeStamp": "03/31/2020, 16:17:00"}, "type": "Feature"}, {"geometry": {"coordinates": [8.53568166666667, 47.3781466666667], "type": "Point"}, "properties": {"charge": 89, "id": "bird_7085b5f1-c528-4782-8d2c-eeab68646623", "provider": "bird", "timeStamp": "03/31/2020, 16:17:00"}, "type": "Feature"}, {"geometry": {"coordinates": [8.53426666666667, 47.3768733333333], "type": "Point"}, "properties": {"charge": 84, "id": "bird_a021aaa1-a888-47ee-8a23-37e27ea32ae2", "provider": "bird", "timeStamp": "03/31/2020, 16:17:00"}, "type": "Feature"}, {"geometry": {"coordinates": [8.52390333333333, 47.3795466666667], "type": "Point"}, "properties": {"charge": 48, "id": "bird_220c6c7f-1ce8-4435-8bb4-f5833c56c048", "provider": "bird", "timeStamp": "03/31/2020, 16:17:00"}, "type": "Feature"}, {"geometry": {"coordinates": [8.53173666666667, 47.3839233333333], "type": "Point"}, "properties": {"charge": 84, "id": "bird_c4dba607-bc28-4a4b-9afb-24a6285d5437", "provider": "bird", "timeStamp": "03/31/2020, 16:17:00"}, "type": "Feature"}, {"geometry": {"coordinates": [8.53370166666667, 47.3768616666667], "type": "Point"}, "properties": {"charge": 81, "id": "bird_d1cb5685-42e0-4c5f-9f43-901684b49d09", "provider": "bird", "timeStamp": "03/31/2020, 16:17:00"}, "type": "Feature"}, {"geometry": {"coordinates": [8.53520833333333, 47.3783383333333], "type": "Point"}, "properties": {"charge": 89, "id": "bird_0ba41ada-0463-4229-8e58-8d3b50b03844", "provider": "bird", "timeStamp": "03/31/2020, 16:17:00"}, "type": "Feature"}, {"geometry": {"coordinates": [8.53536, 47.378585], "type": "Point"}, "properties": {"charge": 91, "id": "bird_78fb2269-449e-4b18-9288-e2fb58c97d6a", "provider": "bird", "timeStamp": "03/31/2020, 16:17:00"}, "type": "Feature"}, {"geometry": {"coordinates": [8.534, 47.377285], "type": "Point"}, "properties": {"charge": 82, "id": "bird_43670767-cca3-4510-b86d-55342e409e2a", "provider": "bird", "timeStamp": "03/31/2020, 16:17:00"}, "type": "Feature"}, {"geometry": {"coordinates": [8.52770166666667, 47.3767816666667], "type": "Point"}, "properties": {"charge": 81, "id": "bird_63ae30be-479c-4047-a228-826387beb4d6", "provider": "bird", "timeStamp": "03/31/2020, 16:17:00"}, "type": "Feature"}, {"geometry": {"coordinates": [8.53067833333333, 47.3834833333333], "type": "Point"}, "properties": {"charge": 71, "id": "bird_7b2724db-7a43-4461-b796-30565fa09538", "provider": "bird", "timeStamp": "03/31/2020, 16:17:00"}, "type": "Feature"}, {"geometry": {"coordinates": [8.53064333333333, 47.3834766666667], "type": "Point"}, "properties": {"charge": 44, "id": "bird_4036d297-1559-43dc-813e-3a23a435cf47", "provider": "bird", "timeStamp": "03/31/2020, 16:17:00"}, "type": "Feature"}, {"geometry": {"coordinates": [8.53465333333333, 47.378505], "type": "Point"}, "properties": {"charge": 93, "id": "bird_e547c246-e8d9-474c-9acd-e967e4893a6f", "provider": "bird", "timeStamp": "03/31/2020, 16:17:00"}, "type": "Feature"}, {"geometry": {"coordinates": [8.53069166666667, 47.38345], "type": "Point"}, "properties": {"charge": 71, "id": "bird_16735b9f-9c10-490a-ab6e-e04869ebed11", "provider": "bird", "timeStamp": "03/31/2020, 16:17:00"}, "type": "Feature"}, {"geometry": {"coordinates": [8.53465833333333, 47.3786933333333], "type": "Point"}, "properties": {"charge": 92, "id": "bird_761b4e00-9503-47f3-9dea-8ca24590ba0b", "provider": "bird", "timeStamp": "03/31/2020, 16:17:00"}, "type": "Feature"}, {"geometry": {"coordinates": [8.534705, 47.381195], "type": "Point"}, "properties": {"charge": 45, "id": "bird_7ba85da8-2887-4bb8-a3ef-41cb8451dfbf", "provider": "bird", "timeStamp": "03/31/2020, 16:17:00"}, "type": "Feature"}, {"geometry": {"coordinates": [8.52517, 47.3794633333333], "type": "Point"}, "properties": {"charge": 38, "id": "bird_570b143c-6793-4ffa-819f-c029e272856a", "provider": "bird", "timeStamp": "03/31/2020, 16:17:00"}, "type": "Feature"}, {"geometry": {"coordinates": [8.53332666666667, 47.3775866666667], "type": "Point"}, "properties": {"charge": 87, "id": "bird_db018510-a68b-4846-b086-917f9b494320", "provider": "bird", "timeStamp": "03/31/2020, 16:17:00"}, "type": "Feature"}, {"geometry": {"coordinates": [8.5299, 47.3829566666667], "type": "Point"}, "properties": {"charge": 73, "id": "bird_7abfaeb5-d42d-4946-bac0-586642dba527", "provider": "bird", "timeStamp": "03/31/2020, 16:17:00"}, "type": "Feature"}, {"geometry": {"coordinates": [8.53275166666667, 47.3779683333333], "type": "Point"}, "properties": {"charge": 84, "id": "bird_8697529e-6b73-4405-b2ec-af0b408d0d6b", "provider": "bird", "timeStamp": "03/31/2020, 16:17:00"}, "type": "Feature"}, {"geometry": {"coordinates": [8.52945333333333, 47.38263], "type": "Point"}, "properties": {"charge": 70, "id": "bird_e5d2eb36-3d78-483f-845a-eedc8263e259", "provider": "bird", "timeStamp": "03/31/2020, 16:17:00"}, "type": "Feature"}, {"geometry": {"coordinates": [8.52711666666667, 47.378205], "type": "Point"}, "properties": {"charge": 65, "id": "bird_bd483b24-c5e2-4edd-8c95-a13f8bad5157", "provider": "bird", "timeStamp": "03/31/2020, 16:17:00"}, "type": "Feature"}, {"geometry": {"coordinates": [8.532065, 47.3777583333333], "type": "Point"}, "properties": {"charge": 81, "id": "bird_621c35ec-f88e-45d8-ad4b-35bc99afcf4d", "provider": "bird", "timeStamp": "03/31/2020, 16:17:00"}, "type": "Feature"}, {"geometry": {"coordinates": [8.52934333333333, 47.38258], "type": "Point"}, "properties": {"charge": 62, "id": "bird_0fedddf4-6000-4e7d-9ca2-973eed30a5eb", "provider": "bird", "timeStamp": "03/31/2020, 16:17:00"}, "type": "Feature"}, {"geometry": {"coordinates": [8.52738, 47.3782383333333], "type": "Point"}, "properties": {"charge": 69, "id": "bird_624f75e8-caff-41ac-8db0-b7e4354e3cb5", "provider": "bird", "timeStamp": "03/31/2020, 16:17:00"}, "type": "Feature"}, {"geometry": {"coordinates": [8.532315, 47.3780666666667], "type": "Point"}, "properties": {"charge": 82, "id": "bird_038a9427-50ab-4feb-af94-0a07be487d51", "provider": "bird", "timeStamp": "03/31/2020, 16:17:00"}, "type": "Feature"}, {"geometry": {"coordinates": [8.527415, 47.3782533333333], "type": "Point"}, "properties": {"charge": 75, "id": "bird_1cfb5767-e881-414e-bdff-41af841c0106", "provider": "bird", "timeStamp": "03/31/2020, 16:17:00"}, "type": "Feature"}, {"geometry": {"coordinates": [8.52992, 47.3823966666667], "type": "Point"}, "properties": {"charge": 73, "id": "bird_af3fed92-dbc3-430c-b2bc-f2f1044051e6", "provider": "bird", "timeStamp": "03/31/2020, 16:17:00"}, "type": "Feature"}, {"geometry": {"coordinates": [8.52741, 47.3791316666667], "type": "Point"}, "properties": {"charge": 40, "id": "bird_1d514412-5209-4475-ab34-4071888feeb4", "provider": "bird", "timeStamp": "03/31/2020, 16:17:00"}, "type": "Feature"}, {"geometry": {"coordinates": [8.52933666666667, 47.3818166666667], "type": "Point"}, "properties": {"charge": 64, "id": "bird_e0cd349e-0b10-4fff-b7a7-5e7935d0f3e9", "provider": "bird", "timeStamp": "03/31/2020, 16:17:00"}, "type": "Feature"}, {"geometry": {"coordinates": [8.52938, 47.3817983333333], "type": "Point"}, "properties": {"charge": 66, "id": "bird_74469490-21d9-42fe-92f0-b6f258d29443", "provider": "bird", "timeStamp": "03/31/2020, 16:17:00"}, "type": "Feature"}, {"geometry": {"coordinates": [8.529265, 47.3817483333333], "type": "Point"}, "properties": {"charge": 71, "id": "bird_d3567649-8be3-4c06-a5ce-61291e2c6f23", "provider": "bird", "timeStamp": "03/31/2020, 16:17:00"}, "type": "Feature"}, {"geometry": {"coordinates": [8.52936833333333, 47.3817666666667], "type": "Point"}, "properties": {"charge": 66, "id": "bird_730fe961-b8cb-4041-b781-2060500f42bc", "provider": "bird", "timeStamp": "03/31/2020, 16:17:00"}, "type": "Feature"}, {"geometry": {"coordinates": [8.52763833333333, 47.3797116666667], "type": "Point"}, "properties": {"charge": 85, "id": "bird_cd3e4713-20cc-4b5e-b8a1-246e78d0358e", "provider": "bird", "timeStamp": "03/31/2020, 16:17:00"}, "type": "Feature"}, {"geometry": {"coordinates": [8.52836, 47.3803666666667], "type": "Point"}, "properties": {"charge": 56, "id": "bird_9c016c55-1ddd-4b40-8cf7-7084d4537e26", "provider": "bird", "timeStamp": "03/31/2020, 16:17:00"}, "type": "Feature"}, {"geometry": {"coordinates": [8.52832833333333, 47.38012], "type": "Point"}, "properties": {"charge": 82, "id": "bird_76165540-0980-47a1-a573-47903361fb1d", "provider": "bird", "timeStamp": "03/31/2020, 16:17:00"}, "type": "Feature"}, {"geometry": {"coordinates": [8.52833166666667, 47.3800583333333], "type": "Point"}, "properties": {"charge": 84, "id": "bird_26cbd676-2eae-4f74-9273-ee1378947f1b", "provider": "bird", "timeStamp": "03/31/2020, 16:17:00"}, "type": "Feature"}, {"geometry": {"coordinates": [8.52835333333333, 47.38015], "type": "Point"}, "properties": {"charge": 84, "id": "bird_646c6c8c-da9c-4ca3-a1b0-b3522f826f32", "provider": "bird", "timeStamp": "03/31/2020, 16:17:00"}, "type": "Feature"}, {"geometry": {"coordinates": [8.52892833333333, 47.3808516666667], "type": "Point"}, "properties": {"charge": 92, "id": "bird_dac2a18d-c52e-4621-9f83-c824ea8d7538", "provider": "bird", "timeStamp": "03/31/2020, 16:17:00"}, "type": "Feature"}, {"geometry": {"coordinates": [8.52848166666667, 47.380295], "type": "Point"}, "properties": {"charge": 18, "id": "bird_48c930d9-3fbb-4975-a9b4-4f0e4e0f82da", "provider": "bird", "timeStamp": "03/31/2020, 16:17:00"}, "type": "Feature"}, {"geometry": {"coordinates": [8.52849, 47.380185], "type": "Point"}, "properties": {"charge": 20, "id": "bird_7960641e-fbd2-48e0-bd6b-0ba89426a23f", "provider": "bird", "timeStamp": "03/31/2020, 16:17:00"}, "type": "Feature"}, {"geometry": {"coordinates": [8.52847833333333, 47.38012], "type": "Point"}, "properties": {"charge": 17, "id": "bird_273627b3-3885-44e9-ba5e-50b7b654943e", "provider": "bird", "timeStamp": "03/31/2020, 16:17:00"}, "type": "Feature"}, {"geometry": {"coordinates": [8.52850833333333, 47.3802033333333], "type": "Point"}, "properties": {"charge": 19, "id": "bird_a5244d16-07f1-4f02-bff4-91e4f1854d72", "provider": "bird", "timeStamp": "03/31/2020, 16:17:00"}, "type": "Feature"}, {"geometry": {"coordinates": [8.52937833333333, 47.3790733333333], "type": "Point"}, "properties": {"charge": 75, "id": "bird_9bdb79c9-de5e-49be-8d1d-40cee8d40d07", "provider": "bird", "timeStamp": "03/31/2020, 16:17:00"}, "type": "Feature"}, {"geometry": {"coordinates": [8.528535, 47.3802216666667], "type": "Point"}, "properties": {"charge": 16, "id": "bird_6cc6e1e9-c1e4-4cdb-8131-eaf5e21c1559", "provider": "bird", "timeStamp": "03/31/2020, 16:17:00"}, "type": "Feature"}, {"geometry": {"coordinates": [8.52852833333333, 47.38018], "type": "Point"}, "properties": {"charge": 16, "id": "bird_6ba17440-7730-458f-8216-13d9562be20f", "provider": "bird", "timeStamp": "03/31/2020, 16:17:00"}, "type": "Feature"}, {"geometry": {"coordinates": [8.528545, 47.3802266666667], "type": "Point"},