{"features": [{"geometry": {"coordinates": [8.540062, 47.374392], "type": "Point"}, "properties": {"address": "Uraniastrasse 7", "electric": 7, "id": "pb_60", "manual": 5, "name": "Demo Station Werdm\u00fchleplatz", "provider": "publibike", "timeStamp": "02/01/2020, 18:08:43", "zip": 8001}, "type": "Feature"}, {"geometry": {"coordinates": [8.5452956, 47.4099615], "type": "Point"}, "properties": {"address": "Querstrasse 8", "electric": 3, "id": "pb_61", "manual": 3, "name": "Marktplatz", "provider": "publibike", "timeStamp": "02/01/2020, 18:08:43", "zip": 8050}, "type": "Feature"}, {"geometry": {"coordinates": [8.5156327, 47.3795837], "type": "Point"}, "properties": {"address": "Bullingerstrasse 5", "electric": 6, "id": "pb_80", "manual": 6, "name": "Bullingerplatz", "provider": "publibike", "timeStamp": "02/01/2020, 18:08:43", "zip": 8004}, "type": "Feature"}, {"geometry": {"coordinates": [8.5104051, 47.3899342], "type": "Point"}, "properties": {"address": "Pfingstweidstrasse 96e", "electric": 3, "id": "pb_81", "manual": 2, "name": "Herdern", "provider": "publibike", "timeStamp": "02/01/2020, 18:08:43", "zip": 8001}, "type": "Feature"}, {"geometry": {"coordinates": [8.535718, 47.359675], "type": "Point"}, "properties": {"address": "Mythenquai 50", "electric": 0, "id": "pb_82", "manual": 0, "name": "Hafen Enge", "provider": "publibike", "timeStamp": "02/01/2020, 18:08:43", "zip": 8002}, "type": "Feature"}, {"geometry": {"coordinates": [8.520370505, 47.358663827], "type": "Point"}, "properties": {"address": "Bubenbergstrasse 1", "electric": 5, "id": "pb_83", "manual": 5, "name": "Comerge", "provider": "publibike", "timeStamp": "02/01/2020, 18:08:43", "zip": 8045}, "type": "Feature"}, {"geometry": {"coordinates": [8.5412505, 47.3789825], "type": "Point"}, "properties": {"address": "Museumstrasse 2", "electric": 16, "id": "pb_84", "manual": 22, "name": "Landesmuseum", "provider": "publibike", "timeStamp": "02/01/2020, 18:08:43", "zip": 8001}, "type": "Feature"}, {"geometry": {"coordinates": [8.5235479, 47.3716661], "type": "Point"}, "properties": {"address": "Birmensdorferstrasse 80", "electric": 0, "id": "pb_85", "manual": 6, "name": "Bahnhof Wiedikon", "provider": "publibike", "timeStamp": "02/01/2020, 18:08:43", "zip": 8003}, "type": "Feature"}, {"geometry": {"coordinates": [8.506822854, 47.40781197], "type": "Point"}, "properties": {"address": "Stefano-Franscini-Platz 5", "electric": 2, "id": "pb_86", "manual": 0, "name": "ETH H\u00f6nggerberg", "provider": "publibike", "timeStamp": "02/01/2020, 18:08:43", "zip": 8093}, "type": "Feature"}, {"geometry": {"coordinates": [8.536101, 47.371083], "type": "Point"}, "properties": {"address": "Pelikanplatz 5", "electric": 2, "id": "pb_87", "manual": 10, "name": "Pelikanplatz", "provider": "publibike", "timeStamp": "02/01/2020, 18:08:43", "zip": 8001}, "type": "Feature"}, {"geometry": {"coordinates": [8.5257822, 47.3651936], "type": "Point"}, "properties": {"address": "H\u00fcrlimannplatz 90", "electric": 0, "id": "pb_88", "manual": 3, "name": "H\u00fcrlimannplatz", "provider": "publibike", "timeStamp": "02/01/2020, 18:08:43", "zip": 8002}, "type": "Feature"}, {"geometry": {"coordinates": [8.5313344, 47.3713591], "type": "Point"}, "properties": {"address": "Selnaustrasse 32", "electric": 0, "id": "pb_89", "manual": 3, "name": "Stauffacherbr\u00fccke", "provider": "publibike", "timeStamp": "02/01/2020, 18:08:43", "zip": 8001}, "type": "Feature"}, {"geometry": {"coordinates": [8.5056978, 47.3917964], "type": "Point"}, "properties": {"address": "Sportweg 25", "electric": 1, "id": "pb_90", "manual": 6, "name": "Sportweg", "provider": "publibike", "timeStamp": "02/01/2020, 18:08:43", "zip": 8005}, "type": "Feature"}, {"geometry": {"coordinates": [8.5181701, 47.3917837], "type": "Point"}, "properties": {"address": "Hardturmstrasse 11", "electric": 1, "id": "pb_91", "manual": 6, "name": "Puls 5", "provider": "publibike", "timeStamp": "02/01/2020, 18:08:43", "zip": 8005}, "type": "Feature"}, {"geometry": {"coordinates": [8.5286468, 47.3820827], "type": "Point"}, "properties": {"address": "R\u00f6ntgenstrasse 6", "electric": 0, "id": "pb_92", "manual": 0, "name": "R\u00f6ntgenstrasse", "provider": "publibike", "timeStamp": "02/01/2020, 18:08:43", "zip": 8005}, "type": "Feature"}, {"geometry": {"coordinates": [8.531935, 47.384918], "type": "Point"}, "properties": {"address": "Kornhausbr\u00fccke 1", "electric": 2, "id": "pb_93", "manual": 4, "name": "Limmatplatz", "provider": "publibike", "timeStamp": "02/01/2020, 18:08:43", "zip": 8005}, "type": "Feature"}, {"geometry": {"coordinates": [8.5354006, 47.3758639], "type": "Point"}, "properties": {"address": "Gessnerallee 15", "electric": 0, "id": "pb_94", "manual": 2, "name": "Gessnerallee", "provider": "publibike", "timeStamp": "02/01/2020, 18:08:43", "zip": 8001}, "type": "Feature"}, {"geometry": {"coordinates": [8.523818, 47.377148], "type": "Point"}, "properties": {"address": "Stauffacherstrasse 127", "electric": 2, "id": "pb_95", "manual": 6, "name": "B\u00e4ckeranlage", "provider": "publibike", "timeStamp": "02/01/2020, 18:08:43", "zip": 8004}, "type": "Feature"}, {"geometry": {"coordinates": [8.531836, 47.378548], "type": "Point"}, "properties": {"address": "Lagerstrasse 44", "electric": 7, "id": "pb_96", "manual": 6, "name": "Gustav-Gull-Platz", "provider": "publibike", "timeStamp": "02/01/2020, 18:08:43", "zip": 8004}, "type": "Feature"}, {"geometry": {"coordinates": [8.5104883, 47.3771535], "type": "Point"}, "properties": {"address": "Zurlindenstrasse 291", "electric": 2, "id": "pb_97", "manual": 1, "name": "Zurlindenstrasse", "provider": "publibike", "timeStamp": "02/01/2020, 18:08:43", "zip": 8003}, "type": "Feature"}, {"geometry": {"coordinates": [8.5333139, 47.3731102], "type": "Point"}, "properties": {"address": "Sihlstrasse 81", "electric": 1, "id": "pb_98", "manual": 0, "name": "Sihlstrasse", "provider": "publibike", "timeStamp": "02/01/2020, 18:08:43", "zip": 8001}, "type": "Feature"}, {"geometry": {"coordinates": [8.520532, 47.374951], "type": "Point"}, "properties": {"address": "Feldstrasse 24", "electric": 0, "id": "pb_99", "manual": 2, "name": "Kalkbreite", "provider": "publibike", "timeStamp": "02/01/2020, 18:08:43", "zip": 8004}, "type": "Feature"}, {"geometry": {"coordinates": [8.539046, 47.368064], "type": "Point"}, "properties": {"address": "Talstrasse 12", "electric": 3, "id": "pb_100", "manual": 8, "name": "Z\u00fcrcher Kantonalbank", "provider": "publibike", "timeStamp": "02/01/2020, 18:08:43", "zip": 8001}, "type": "Feature"}, {"geometry": {"coordinates": [8.5348427, 47.3625938], "type": "Point"}, "properties": {"address": "Breitingerstrasse 5", "electric": 0, "id": "pb_101", "manual": 3, "name": "Rentenanstalt", "provider": "publibike", "timeStamp": "02/01/2020, 18:08:43", "zip": 8002}, "type": "Feature"}, {"geometry": {"coordinates": [8.5166922, 47.3897772], "type": "Point"}, "properties": {"address": "Technoparkstrasse 4", "electric": 1, "id": "pb_102", "manual": 9, "name": "Turbinenplatz", "provider": "publibike", "timeStamp": "02/01/2020, 18:08:43", "zip": 8005}, "type": "Feature"}, {"geometry": {"coordinates": [8.539312, 47.3739964], "type": "Point"}, "properties": {"address": "Oetenbachgasse 14", "electric": 4, "id": "pb_104", "manual": 15, "name": "Rennweg", "provider": "publibike", "timeStamp": "02/01/2020, 18:08:43", "zip": 8001}, "type": "Feature"}, {"geometry": {"coordinates": [8.5360685, 47.3775022], "type": "Point"}, "properties": {"address": "Kasernenstrasse 101", "electric": 14, "id": "pb_105", "manual": 42, "name": "Sihlpost", "provider": "publibike", "timeStamp": "02/01/2020, 18:08:43", "zip": 8004}, "type": "Feature"}, {"geometry": {"coordinates": [8.53545, 47.382798], "type": "Point"}, "properties": {"address": "Ausstellungsstrasse 44", "electric": 14, "id": "pb_106", "manual": 0, "name": "Museum f\u00fcr Gestaltung", "provider": "publibike", "timeStamp": "02/01/2020, 18:08:43", "zip": 8005}, "type": "Feature"}, {"geometry": {"coordinates": [8.5306155, 47.3647902], "type": "Point"}, "properties": {"address": "Gutenbergstrasse 1", "electric": 2, "id": "pb_107", "manual": 5, "name": "Bederbr\u00fccke", "provider": "publibike", "timeStamp": "02/01/2020, 18:08:43", "zip": 8002}, "type": "Feature"}, {"geometry": {"coordinates": [8.518982, 47.386741], "type": "Point"}, "properties": {"address": "Geroldstrasse 4", "electric": 0, "id": "pb_108", "manual": 4, "name": "Bahnhof Hardbr\u00fccke", "provider": "publibike", "timeStamp": "02/01/2020, 18:08:43", "zip": 8005}, "type": "Feature"}, {"geometry": {"coordinates": [8.53001018, 47.37247535], "type": "Point"}, "properties": {"address": "Werdstrasse 21", "electric": 0, "id": "pb_109", "manual": 2, "name": "Tamedia", "provider": "publibike", "timeStamp": "02/01/2020, 18:08:43", "zip": 8004}, "type": "Feature"}, {"geometry": {"coordinates": [8.4860017, 47.396401], "type": "Point"}, "properties": {"address": "Gr\u00fcnauring 37", "electric": 7, "id": "pb_110", "manual": 3, "name": "Gr\u00fcnau", "provider": "publibike", "timeStamp": "02/01/2020, 18:08:43", "zip": 8064}, "type": "Feature"}, {"geometry": {"coordinates": [8.548519, 47.376756], "type": "Point"}, "properties": {"address": "R\u00e4mistrasse 101", "electric": 6, "id": "pb_111", "manual": 0, "name": "ETH Zentrum", "provider": "publibike", "timeStamp": "02/01/2020, 18:08:43", "zip": 8006}, "type": "Feature"}, {"geometry": {"coordinates": [8.520449, 47.388151], "type": "Point"}, "properties": {"address": "Josefstrasse 224", "electric": 2, "id": "pb_112", "manual": 5, "name": "Steinfelsareal", "provider": "publibike", "timeStamp": "02/01/2020, 18:08:43", "zip": 8005}, "type": "Feature"}, {"geometry": {"coordinates": [8.520482, 47.37209], "type": "Point"}, "properties": {"address": "Weststrasse 115", "electric": 6, "id": "pb_124", "manual": 3, "name": "Weststrasse", "provider": "publibike", "timeStamp": "02/01/2020, 18:08:43", "zip": 8003}, "type": "Feature"}, {"geometry": {"coordinates": [8.496727, 47.378521], "type": "Point"}, "properties": {"address": "Albisriederstrasse 200", "electric": 4, "id": "pb_125", "manual": 2, "name": "Utogrund", "provider": "publibike", "timeStamp": "02/01/2020, 18:08:43", "zip": 8047}, "type": "Feature"}, {"geometry": {"coordinates": [8.510418, 47.381356], "type": "Point"}, "properties": {"address": "Bullingerstrasse 73", "electric": 8, "id": "pb_126", "manual": 5, "name": "Hardau", "provider": "publibike", "timeStamp": "02/01/2020, 18:08:43", "zip": 8004}, "type": "Feature"}, {"geometry": {"coordinates": [8.525525, 47.361567], "type": "Point"}, "properties": {"address": "Klopstockstrasse 23", "electric": 7, "id": "pb_127", "manual": 1, "name": "Klopstockwiese", "provider": "publibike", "timeStamp": "02/01/2020, 18:08:43", "zip": 8002}, "type": "Feature"}, {"geometry": {"coordinates": [8.518143, 47.363148], "type": "Point"}, "properties": {"address": "Haldenstrasse 8", "electric": 5, "id": "pb_128", "manual": 3, "name": "Binz", "provider": "publibike", "timeStamp": "02/01/2020, 18:08:43", "zip": 8045}, "type": "Feature"}, {"geometry": {"coordinates": [8.542726, 47.379952], "type": "Point"}, "properties": {"address": "Walchestrasse 11", "electric": 2, "id": "pb_129", "manual": 1, "name": "Stampfenbachplatz", "provider": "publibike", "timeStamp": "02/01/2020, 18:08:43", "zip": 8006}, "type": "Feature"}, {"geometry": {"coordinates": [8.488108, 47.391366], "type": "Point"}, "properties": {"address": "Altstetterplatz 1", "electric": 12, "id": "pb_130", "manual": 6, "name": "Bahnhof Altstetten", "provider": "publibike", "timeStamp": "02/01/2020, 18:08:43", "zip": 8048}, "type": "Feature"}, {"geometry": {"coordinates": [8.554114, 47.365119], "type": "Point"}, "properties": {"address": "Kreuzplatz 2", "electric": 5, "id": "pb_131", "manual": 4, "name": "Kreuzplatz", "provider": "publibike", "timeStamp": "02/01/2020, 18:08:43", "zip": 8032}, "type": "Feature"}, {"geometry": {"coordinates": [8.549852, 47.35594], "type": "Point"}, "properties": {"address": "H\u00f6schgasse 3", "electric": 7, "id": "pb_132", "manual": 8, "name": "Blatterwiese", "provider": "publibike", "timeStamp": "02/01/2020, 18:08:43", "zip": 8008}, "type": "Feature"}, {"geometry": {"coordinates": [8.554501, 47.36162], "type": "Point"}, "properties": {"address": "Feldeggstrasse 80", "electric": 2, "id": "pb_133", "manual": 3, "name": "Villa Bleuler", "provider": "publibike", "timeStamp": "02/01/2020, 18:08:43", "zip": 8008}, "type": "Feature"}, {"geometry": {"coordinates": [8.557088, 47.358557], "type": "Point"}, "properties": {"address": "M\u00fchlebachstrasse 131", "electric": 2, "id": "pb_134", "manual": 0, "name": "M\u00fchlebachstrasse", "provider": "publibike", "timeStamp": "02/01/2020, 18:08:43", "zip": 8008}, "type": "Feature"}, {"geometry": {"coordinates": [8.547639, 47.361266], "type": "Point"}, "properties": {"address": "Utoquai 50", "electric": 5, "id": "pb_135", "manual": 7, "name": "Seebad Utoquai", "provider": "publibike", "timeStamp": "02/01/2020, 18:08:43", "zip": 8008}, "type": "Feature"}, {"geometry": {"coordinates": [8.548045, 47.370869], "type": "Point"}, "properties": {"address": "Heimplatz 1", "electric": 2, "id": "pb_137", "manual": 0, "name": "Kunsthaus", "provider": "publibike", "timeStamp": "02/01/2020, 18:08:43", "zip": 8001}, "type": "Feature"}, {"geometry": {"coordinates": [8.543447, 47.375933], "type": "Point"}, "properties": {"address": "Limmatquai 138", "electric": 4, "id": "pb_138", "manual": 2, "name": "Central", "provider": "publibike", "timeStamp": "02/01/2020, 18:08:43", "zip": 8001}, "type": "Feature"}, {"geometry": {"coordinates": [8.549356, 47.408827], "type": "Point"}, "properties": {"address": "Tramstrasse 35", "electric": 4, "id": "pb_139", "manual": 3, "name": "ewz Tramstrasse", "provider": "publibike", "timeStamp": "02/01/2020, 18:08:43", "zip": 8050}, "type": "Feature"}, {"geometry": {"coordinates": [8.533736, 47.366904], "type": "Point"}, "properties": {"address": "Bleicherweg 33", "electric": 2, "id": "pb_140", "manual": 11, "name": "Bleicherweg", "provider": "publibike", "timeStamp": "02/01/2020, 18:08:43", "zip": 8002}, "type": "Feature"}, {"geometry": {"coordinates": [8.544935, 47.366752], "type": "Point"}, "properties": {"address": "Bellevueplatz 2", "electric": 36, "id": "pb_141", "manual": 31, "name": "Bellevue", "provider": "publibike", "timeStamp": "02/01/2020, 18:08:43", "zip": 8001}, "type": "Feature"}, {"geometry": {"coordinates": [8.5285533, 47.3742296], "type": "Point"}, "properties": {"address": "Stauffacherstrasse 41", "electric": 1, "id": "pb_142", "manual": 3, "name": "Stauffacher", "provider": "publibike", "timeStamp": "02/01/2020, 18:08:43", "zip": 8004}, "type": "Feature"}, {"geometry": {"coordinates": [8.523722, 47.3899], "type": "Point"}, "properties": {"address": "Limmatstrasse 310", "electric": 2, "id": "pb_143", "manual": 2, "name": "Escher-Wyss-Platz", "provider": "publibike", "timeStamp": "02/01/2020, 18:08:43", "zip": 8005}, "type": "Feature"}, {"geometry": {"coordinates": [8.491061, 47.392336], "type": "Point"}, "properties": {"address": "Vulkanplatz 1", "electric": 0, "id": "pb_149", "manual": 4, "name": "Vulkanplatz", "provider": "publibike", "timeStamp": "02/01/2020, 18:08:43", "zip": 8048}, "type": "Feature"}, {"geometry": {"coordinates": [8.52306, 47.359872], "type": "Point"}, "properties": {"address": "Giessh\u00fcbelstrasse 15", "electric": 11, "id": "pb_150", "manual": 12, "name": "Utoplatz", "provider": "publibike", "timeStamp": "02/01/2020, 18:08:43", "zip": 8045}, "type": "Feature"}, {"geometry": {"coordinates": [8.486284, 47.387685], "type": "Point"}, "properties": {"address": "Lindenplatz 1", "electric": 5, "id": "pb_151", "manual": 4, "name": "Lindenplatz", "provider": "publibike", "timeStamp": "02/01/2020, 18:08:43", "zip": 8048}, "type": "Feature"}, {"geometry": {"coordinates": [8.49163, 47.389823], "type": "Point"}, "properties": {"address": "Hohlstrasse 563", "electric": 1, "id": "pb_152", "manual": 7, "name": "Luggweg", "provider": "publibike", "timeStamp": "02/01/2020, 18:08:43", "zip": 8048}, "type": "Feature"}, {"geometry": {"coordinates": [8.52174, 47.365272], "type": "Point"}, "properties": {"address": "Manessestrasse 87", "electric": 5, "id": "pb_153", "manual": 3, "name": "Manesseplatz", "provider": "publibike", "timeStamp": "02/01/2020, 18:08:43", "zip": 8045}, "type": "Feature"}, {"geometry": {"coordinates": [8.52714, 47.372329], "type": "Point"}, "properties": {"address": "Werdstrasse 75", "electric": 3, "id": "pb_154", "manual": 5, "name": "Werd", "provider": "publibike", "timeStamp": "02/01/2020, 18:08:43", "zip": 8004}, "type": "Feature"}, {"geometry": {"coordinates": [8.543042, 47.374711], "type": "Point"}, "properties": {"address": "Limmatquai 100", "electric": 0, "id": "pb_155", "manual": 0, "name": "Rudolf-Brun-Br\u00fccke", "provider": "publibike", "timeStamp": "02/01/2020, 18:08:43", "zip": 8001}, "type": "Feature"}, {"geometry": {"coordinates": [8.490837, 47.386596], "type": "Point"}, "properties": {"address": "Badenerstrasse 627", "electric": 2, "id": "pb_156", "manual": 7, "name": "Luggwegstrasse VBZ", "provider": "publibike", "timeStamp": "02/01/2020, 18:08:43", "zip": 8048}, "type": "Feature"}, {"geometry": {"coordinates": [8.535119, 47.355189], "type": "Point"}, "properties": {"address": "Mythenquai 95", "electric": 1, "id": "pb_157", "manual": 0, "name": "Strandbad Mythenquai", "provider": "publibike", "timeStamp": "02/01/2020, 18:08:43", "zip": 8002}, "type": "Feature"}, {"geometry": {"coordinates": [8.545505, 47.373675], "type": "Point"}, "properties": {"address": "Predigerpatz 21", "electric": 10, "id": "pb_158", "manual": 8, "name": "Predigerplatz", "provider": "publibike", "timeStamp": "02/01/2020, 18:08:43", "zip": 8001}, "type": "Feature"}, {"geometry": {"coordinates": [8.515558, 47.371868], "type": "Point"}, "properties": {"address": "Aemtlerstrasse 23", "electric": 10, "id": "pb_159", "manual": 1, "name": "Zwinglihaus", "provider": "publibike", "timeStamp": "02/01/2020, 18:08:43", "zip": 8003}, "type": "Feature"}, {"geometry": {"coordinates": [8.524629, 47.386072], "type": "Point"}, "properties": {"address": "Josefstrasse 188", "electric": 0, "id": "pb_160", "manual": 4, "name": "Josefwiese", "provider": "publibike", "timeStamp": "02/01/2020, 18:08:43", "zip": 8005}, "type": "Feature"}, {"geometry": {"coordinates": [8.527138, 47.387531], "type": "Point"}, "properties": {"address": "R\u00f6ntgenstrasse 87", "electric": 0, "id": "pb_164", "manual": 6, "name": "Markthalle", "provider": "publibike", "timeStamp": "02/01/2020, 18:08:43", "zip": 8005}, "type": "Feature"}, {"geometry": {"coordinates": [8.552717, 47.359978], "type": "Point"}, "properties": {"address": "Seefeldstrasse 96", "electric": 3, "id": "pb_263", "manual": 15, "name": "Feldeggstrasse", "provider": "publibike", "timeStamp": "02/01/2020, 18:08:43", "zip": 8008}, "type": "Feature"}, {"geometry": {"coordinates": [8.553189, 47.353198], "type": "Point"}, "properties": {"address": "Bellerivestrasse 170", "electric": 1, "id": "pb_264", "manual": 0, "name": "Lake Side", "provider": "publibike", "timeStamp": "02/01/2020, 18:08:43", "zip": 8008}, "type": "Feature"}, {"geometry": {"coordinates": [8.543437, 47.369256], "type": "Point"}, "properties": {"address": "Limmatquai 18", "electric": 0, "id": "pb_265", "manual": 0, "name": "Helmhaus", "provider": "publibike", "timeStamp": "02/01/2020, 18:08:43", "zip": 8032}, "type": "Feature"}, {"geometry": {"coordinates": [8.516676, 47.375819], "type": "Point"}, "properties": {"address": "Badenerstrasse 246", "electric": 2, "id": "pb_266", "manual": 0, "name": "Lochergut", "provider": "publibike", "timeStamp": "02/01/2020, 18:08:43", "zip": 8004}, "type": "Feature"}, {"geometry": {"coordinates": [8.514605, 47.389862], "type": "Point"}, "properties": {"address": "Pfingstweidstrasse 60", "electric": 0, "id": "pb_273", "manual": 4, "name": "Westpark", "provider": "publibike", "timeStamp": "02/01/2020, 18:08:43", "zip": 8005}, "type": "Feature"}, {"geometry": {"coordinates": [8.541239126, 47.375991201], "type": "Point"}, "properties": {"address": "Beatenplatz 1", "electric": 6, "id": "pb_274", "manual": 8, "name": "Beatenplatz", "provider": "publibike", "timeStamp": "02/01/2020, 18:08:43", "zip": 8001}, "type": "Feature"}, {"geometry": {"coordinates": [8.5417135, 47.3942197], "type": "Point"}, "properties": {"address": "Scheuchzerstrasse 181", "electric": 4, "id": "pb_275", "manual": 0, "name": "Pauluskirche", "provider": "publibike", "timeStamp": "02/01/2020, 18:08:43", "zip": 8057}, "type": "Feature"}, {"geometry": {"coordinates": [8.5528182, 47.414558], "type": "Point"}, "properties": {"address": "Hagenholzstrasse 51", "electric": 2, "id": "pb_276", "manual": 10, "name": "Airgate", "provider": "publibike", "timeStamp": "02/01/2020, 18:08:43", "zip": 8050}, "type": "Feature"}, {"geometry": {"coordinates": [8.537816, 47.413514], "type": "Point"}, "properties": {"address": "Birchstrasse 183", "electric": 3, "id": "pb_277", "manual": 3, "name": "Lamprechtweg", "provider": "publibike", "timeStamp": "02/01/2020, 18:08:43", "zip": 8050}, "type": "Feature"}, {"geometry": {"coordinates": [8.545602, 47.417701], "type": "Point"}, "properties": {"address": "Felsenrainstrasse 2", "electric": 7, "id": "pb_278", "manual": 8, "name": "Emil-Oberh\u00e4nsli", "provider": "publibike", "timeStamp": "02/01/2020, 18:08:43", "zip": 8050}, "type": "Feature"}, {"geometry": {"coordinates": [8.533647, 47.39808], "type": "Point"}, "properties": {"address": "Bucheggplatz 2", "electric": 2, "id": "pb_279", "manual": 1, "name": "Bucheggplatz", "provider": "publibike", "timeStamp": "02/01/2020, 18:08:43", "zip": 8057}, "type": "Feature"}, {"geometry": {"coordinates": [8.523549, 47.392347], "type": "Point"}, "properties": {"address": "Wipkingerplatz 4", "electric": 0, "id": "pb_280", "manual": 6, "name": "Wipkingerplatz", "provider": "publibike", "timeStamp": "02/01/2020, 18:08:43", "zip": 8037}, "type": "Feature"}, {"geometry": {"coordinates": [8.548562, 47.36691], "type": "Point"}, "properties": {"address": "Galerie \u00fcber Gleis 2/3", "electric": 22, "id": "pb_285", "manual": 5, "name": "Bahnhof Stadelhofen", "provider": "publibike", "timeStamp": "02/01/2020, 18:08:43", "zip": 8001}, "type": "Feature"}, {"geometry": {"coordinates": [8.493822, 47.3985553], "type": "Point"}, "properties": {"address": "Meierwiesenstrasse 12-4", "electric": 1, "id": "pb_286", "manual": 2, "name": "T\u00fcffenwies", "provider": "publibike", "timeStamp": "02/01/2020, 18:08:43", "zip": 8064}, "type": "Feature"}, {"geometry": {"coordinates": [8.552432, 47.3801757], "type": "Point"}, "properties": {"address": "Hochstrasse 34", "electric": 6, "id": "pb_356", "manual": 0, "name": "Siriuswiese", "provider": "publibike", "timeStamp": "02/01/2020, 18:08:43", "zip": 8044}, "type": "Feature"}, {"geometry": {"coordinates": [8.527298, 47.370141], "type": "Point"}, "properties": {"address": "Hallwylstrasse 71", "electric": 1, "id": "pb_357", "manual": 1, "name": "Hallwylstrasse", "provider": "publibike", "timeStamp": "02/01/2020, 18:08:43", "zip": 8004}, "type": "Feature"}, {"geometry": {"coordinates": [8.5414185, 47.3972455], "type": "Point"}, "properties": {"address": "Schaffhauserstrasse 137", "electric": 8, "id": "pb_358", "manual": 0, "name": "Milchbuck", "provider": "publibike", "timeStamp": "02/01/2020, 18:08:43", "zip": 8057}, "type": "Feature"}, {"geometry": {"coordinates": [8.512381, 47.393409], "type": "Point"}, "properties": {"address": "Hardturmstrasse 161", "electric": 5, "id": "pb_359", "manual": 0, "name": "Fischerweg", "provider": "publibike", "timeStamp": "02/01/2020, 18:08:43", "zip": 8005}, "type": "Feature"}, {"geometry": {"coordinates": [8.5421457, 47.3876979], "type": "Point"}, "properties": {"address": "Turnerstrasse 47", "electric": 2, "id": "pb_360", "manual": 0, "name": "Kirche Unterstrass", "provider": "publibike", "timeStamp": "02/01/2020, 18:08:43", "zip": 8006}, "type": "Feature"}, {"geometry": {"coordinates": [8.522117, 47.394554], "type": "Point"}, "properties": {"address": "Dorfstrasse 40", "electric": 7, "id": "pb_361", "manual": 1, "name": "Dorfstrasse", "provider": "publibike", "timeStamp": "02/01/2020, 18:08:43", "zip": 8037}, "type": "Feature"}, {"geometry": {"coordinates": [8.530437, 47.37271], "type": "Point"}, "properties": {"address": "Werdstrasse 25", "electric": 1, "id": "pb_362", "manual": 5, "name": "Stauffachertor", "provider": "publibike", "timeStamp": "02/01/2020, 18:08:43", "zip": 8004}, "type": "Feature"}, {"geometry": {"coordinates": [8.541712, 47.416155], "type": "Point"}, "properties": {"address": "Eggb\u00fchlstrasse 21", "electric": 2, "id": "pb_363", "manual": 3, "name": "Wahlenpark", "provider": "publibike", "timeStamp": "02/01/2020, 18:08:43", "zip": 8050}, "type": "Feature"}, {"geometry": {"coordinates": [8.5595335, 47.3708387], "type": "Point"}, "properties": {"address": "Dolderstrasse 32", "electric": 6, "id": "pb_364", "manual": 2, "name": "Kinderspital", "provider": "publibike", "timeStamp": "02/01/2020, 18:08:43", "zip": 8032}, "type": "Feature"}, {"geometry": {"coordinates": [8.536433, 47.388689], "type": "Point"}, "properties": {"address": "Kornhausstrasse 30", "electric": 1, "id": "pb_365", "manual": 0, "name": "Kornhausstrasse", "provider": "publibike", "timeStamp": "02/01/2020, 18:08:43", "zip": 8006}, "type": "Feature"}, {"geometry": {"coordinates": [8.55033, 47.407098], "type": "Point"}, "properties": {"address": "Schwamendingenstrasse 41", "electric": 2, "id": "pb_366", "manual": 6, "name": "Dorflinde", "provider": "publibike", "timeStamp": "02/01/2020, 18:08:43", "zip": 8050}, "type": "Feature"}, {"geometry": {"coordinates": [8.560476, 47.368199], "type": "Point"}, "properties": {"address": "R\u00f6merhofplatz 5", "electric": 9, "id": "pb_367", "manual": 2, "name": "R\u00f6merhof", "provider": "publibike", "timeStamp": "02/01/2020, 18:08:43", "zip": 8032}, "type": "Feature"}, {"geometry": {"coordinates": [8.5609218, 47.3619068], "type": "Point"}, "properties": {"address": "Forchstrasse 99", "electric": 12, "id": "pb_368", "manual": 1, "name": "Hegibachplatz", "provider": "publibike", "timeStamp": "02/01/2020, 18:08:43", "zip": 8032}, "type": "Feature"}, {"geometry": {"coordinates": [8.5721264, 47.4039985], "type": "Point"}, "properties": {"address": "Winterthurerstrasse 519", "electric": 8, "id": "pb_370", "manual": 4, "name": "Schwamendingerplatz", "provider": "publibike", "timeStamp": "02/01/2020, 18:08:43", "zip": 8051}, "type": "Feature"}, {"geometry": {"coordinates": [8.520168, 47.378556], "type": "Point"}, "properties": {"address": "Herman-Greulich-Strasse 56", "electric": 2, "id": "pb_384", "manual": 2, "name": "Hermann-Greulich-Weg", "provider": "publibike", "timeStamp": "02/01/2020, 18:08:43", "zip": 8004}, "type": "Feature"}, {"geometry": {"coordinates": [8.547912, 47.384923], "type": "Point"}, "properties": {"address": "Culmannstrasse", "electric": 0, "id": "pb_386", "manual": 1, "name": "Rigiplatz", "provider": "publibike", "timeStamp": "02/01/2020, 18:08:43", "zip": 8006}, "type": "Feature"}, {"geometry": {"coordinates": [8.543768, 47.411057], "type": "Point"}, "properties": {"address": "Hofwiesenstrasse 369", "electric": 5, "id": "pb_387", "manual": 3, "name": "Bahnhof Oerlikon S\u00fcd", "provider": "publibike", "timeStamp": "02/01/2020, 18:08:43", "zip": 8050}, "type": "Feature"}, {"geometry": {"coordinates": [8.544185, 47.412732], "type": "Point"}, "properties": {"address": "Jungholzstrasse 6", "electric": 6, "id": "pb_388", "manual": 2, "name": "Max-Frisch-Platz", "provider": "publibike", "timeStamp": "02/01/2020, 18:08:43", "zip": 8050}, "type": "Feature"}, {"geometry": {"coordinates": [8.558096, 47.413032], "type": "Point"}, "properties": {"address": "Andreasstrasse", "electric": 8, "id": "pb_389", "manual": 8, "name": "Hunziker-Areal", "provider": "publibike", "timeStamp": "02/01/2020, 18:08:43", "zip": 8050}, "type": "Feature"}, {"geometry": {"coordinates": [8.533265, 47.412873], "type": "Point"}, "properties": {"address": "Regina-K\u00e4gi-Strasse 1", "electric": 6, "id": "pb_390", "manual": 4, "name": "Luis-H\u00e4fliger-Park", "provider": "publibike", "timeStamp": "02/01/2020, 18:08:43", "zip": 8050}, "type": "Feature"}, {"geometry": {"coordinates": [8.499265, 47.401852], "type": "Point"}, "properties": {"address": "Limmattalstrasse 177", "electric": 0, "id": "pb_391", "manual": 1, "name": "Meierhofplatz", "provider": "publibike", "timeStamp": "02/01/2020, 18:08:43", "zip": 8049}, "type": "Feature"}, {"geometry": {"coordinates": [8.528356, 47.393255], "type": "Point"}, "properties": {"address": "R\u00f6schibachstrasse 73", "electric": 8, "id": "pb_392", "manual": 15, "name": "R\u00f6schibachplatz", "provider": "publibike", "timeStamp": "02/01/2020, 18:08:43", "zip": 8037}, "type": "Feature"}, {"geometry": {"coordinates": [8.538067, 47.415721], "type": "Point"}, "properties": {"address": "Birchstrasse 191", "electric": 7, "id": "pb_393", "manual": 2, "name": "Oerliker Park", "provider": "publibike", "timeStamp": "02/01/2020, 18:08:43", "zip": 8050}, "type": "Feature"}, {"geometry": {"coordinates": [8.5420304, 47.3669233], "type": "Point"}, "properties": {"address": "Stadthausquai 1", "electric": 1, "id": "pb_395", "manual": 4, "name": "B\u00fcrkliplatz", "provider": "publibike", "timeStamp": "02/01/2020, 18:08:43", "zip": 8001}, "type": "Feature"}, {"geometry": {"coordinates": [8.535767, 47.409881], "type": "Point"}, "properties": {"address": "Regensbergstrasse 195", "electric": 1, "id": "pb_396", "manual": 0, "name": "Holunderhof", "provider": "publibike", "timeStamp": "02/01/2020, 18:08:43", "zip": 8050}, "type": "Feature"}, {"geometry": {"coordinates": [8.5116245, 47.3616199], "type": "Point"}, "properties": {"address": "Grubenstrasse 42", "electric": 2, "id": "pb_431", "manual": 3, "name": "Binz Center", "provider": "publibike", "timeStamp": "02/01/2020, 18:08:43", "zip": 8045}, "type": "Feature"}, {"geometry": {"coordinates": [8.547195, 47.382089], "type": "Point"}, "properties": {"address": "Nelkenstrasse 24", "electric": 5, "id": "pb_430", "manual": 0, "name": "Stapferstube", "provider": "publibike", "timeStamp": "02/01/2020, 18:08:43", "zip": 8006}, "type": "Feature"}, {"geometry": {"coordinates": [8.5787183, 47.4039845], "type": "Point"}, "properties": {"address": "Kronwiesenstrasse 35", "electric": 3, "id": "pb_426", "manual": 3, "name": "Kronwiesen", "provider": "publibike", "timeStamp": "02/01/2020, 18:08:43", "zip": 8051}, "type": "Feature"}, {"geometry": {"coordinates": [8.508131, 47.420757], "type": "Point"}, "properties": {"address": "Riedenhaldenstrasse 20-18", "electric": 9, "id": "pb_425", "manual": 4, "name": "Bahnhof Affoltern", "provider": "publibike", "timeStamp": "02/01/2020, 18:08:43", "zip": 8046}, "type": "Feature"}, {"geometry": {"coordinates": [8.532464, 47.406988], "type": "Point"}, "properties": {"address": "K\u00fcnzlistrasse 41", "electric": 2, "id": "pb_424", "manual": 3, "name": "Birchd\u00f6rfli", "provider": "publibike", "timeStamp": "02/01/2020, 18:08:43", "zip": 8057}, "type": "Feature"}, {"geometry": {"coordinates": [8.5777038, 47.4080095], "type": "Point"}, "properties": {"address": "Luegislandstrasse 412", "electric": 4, "id": "pb_429", "manual": 3, "name": "Luegisland", "provider": "publibike", "timeStamp": "02/01/2020, 18:08:43", "zip": 8051}, "type": "Feature"}, {"geometry": {"coordinates": [8.58841, 47.40158], "type": "Point"}, "properties": {"address": "Hirzenbachstrasse 2-4", "electric": 6, "id": "pb_428", "manual": 0, "name": "Hirzenbachstrasse", "provider": "publibike", "timeStamp": "02/01/2020, 18:08:43", "zip": 8051}, "type": "Feature"}, {"geometry": {"coordinates": [8.5563463, 47.4095467], "type": "Point"}, "properties": {"address": "K\u00fchriedweg", "electric": 5, "id": "pb_445", "manual": 10, "name": "Hallenbad Oerlikon", "provider": "publibike", "timeStamp": "02/01/2020, 18:08:43", "zip": 8050}, "type": "Feature"}, {"geometry": {"coordinates": [8.537971, 47.364871], "type": "Point"}, "properties": {"address": "General-Guisan-Quai 17", "electric": 3, "id": "pb_454", "manual": 3, "name": "General-Guisan-Quai", "provider": "publibike", "timeStamp": "02/01/2020, 18:08:43", "zip": 8002}, "type": "Feature"}, {"geometry": {"coordinates": [8.560587, 47.350578], "type": "Point"}, "properties": {"address": "Bellerivestrasse 245", "electric": 6, "id": "pb_450", "manual": 5, "name": "Bahnhof Tiefenbrunnen", "provider": "publibike", "timeStamp": "02/01/2020, 18:08:43", "zip": 8008}, "type": "Feature"}, {"geometry": {"coordinates": [8.5269416, 47.3563719], "type": "Point"}, "properties": {"address": "Waffenplatzstrasse 89", "electric": 2, "id": "pb_452", "manual": 3, "name": "Rieterplatz", "provider": "publibike", "timeStamp": "02/01/2020, 18:08:43", "zip": 8002}, "type": "Feature"}, {"geometry": {"coordinates": [8.514176, 47.3663708], "type": "Point"}, "properties": {"address": "Talwiesenstrasse 92", "electric": 7, "id": "pb_446", "manual": 3, "name": "Binzallee", "provider": "publibike", "timeStamp": "02/01/2020, 18:08:43", "zip": 8055}, "type": "Feature"}, {"geometry": {"coordinates": [8.5070564, 47.371455], "type": "Point"}, "properties": {"address": "Gutstrasse 87", "electric": 2, "id": "pb_447", "manual": 4, "name": "Gutstrasse", "provider": "publibike", "timeStamp": "02/01/2020, 18:08:43", "zip": 8055}, "type": "Feature"}, {"geometry": {"coordinates": [8.4941268, 47.3836391], "type": "Point"}, "properties": {"address": "Flurstrasse 62", "electric": 6, "id": "pb_453", "manual": 3, "name": "Flurpark", "provider": "publibike", "timeStamp": "02/01/2020, 18:08:43", "zip": 8048}, "type": "Feature"}, {"geometry": {"coordinates": [8.500343, 47.380778], "type": "Point"}, "properties": {"address": "Edelweissstrasse 32", "electric": 8, "id": "pb_448", "manual": 1, "name": "Bl\u00fcemliquartier", "provider": "publibike", "timeStamp": "02/01/2020, 18:08:43", "zip": 8048}, "type": "Feature"}, {"geometry": {"coordinates": [8.528796, 47.383858], "type": "Point"}, "properties": {"address": "Gasometerstrasse 24", "electric": 1, "id": "pb_449", "manual": 6, "name": "Gasometerstrasse", "provider": "publibike", "timeStamp": "02/01/2020, 18:08:43", "zip": 8005}, "type": "Feature"}, {"geometry": {"coordinates": [8.4981964, 47.3859194], "type": "Point"}, "properties": {"address": "Baslerstrasse 57", "electric": 8, "id": "pb_455", "manual": 6, "name": "Letzipark", "provider": "publibike", "timeStamp": "02/01/2020, 18:08:43", "zip": 8048}, "type": "Feature"}, {"geometry": {"coordinates": [8.515252, 47.381915], "type": "Point"}, "properties": {"address": "Sihlfeldstrasse 175", "electric": 1, "id": "pb_451", "manual": 3, "name": "Hardplatz", "provider": "publibike", "timeStamp": "02/01/2020, 18:08:43", "zip": 8004}, "type": "Feature"}, {"geometry": {"coordinates": [8.5064743, 47.4188324], "type": "Point"}, "properties": {"address": "Wehntalerstrasse 541", "electric": 5, "id": "pb_427", "manual": 5, "name": "Zehntenhausplatz", "provider": "publibike", "timeStamp": "02/01/2020, 18:08:43", "zip": 8046}, "type": "Feature"}, {"geometry": {"coordinates": [8.537729, 47.379719], "type": "Point"}, "properties": {"address": "Sihlquai/HB", "electric": 8, "id": "pb_513", "manual": 9, "name": "Sihlquai", "provider": "publibike", "timeStamp": "02/01/2020, 18:08:43", "zip": 8005}, "type": "Feature"}, {"geometry": {"coordinates": [8.596202, 47.397885], "type": "Point"}, "properties": {"address": "Bahnhof Stettbach", "electric": 1, "id": "pb_514", "manual": 3, "name": "Bahnhof Stettbach", "provider": "publibike", "timeStamp": "02/01/2020, 18:08:43", "zip": 8051}, "type": "Feature"}, {"geometry": {"coordinates": [8.5543974, 47.3690153], "type": "Point"}, "properties": {"address": "Kasinostrasse 10", "electric": 1, "id": "pb_515", "manual": 0, "name": "Hottingerplatz", "provider": "publibike", "timeStamp": "02/01/2020, 18:08:43", "zip": 8032}, "type": "Feature"}, {"geometry": {"coordinates": [8.534444, 47.351525], "type": "Point"}, "properties": {"address": "Mobile Station Z\u00fcrich 1", "electric": 0, "id": "pb_282", "manual": 0, "name": "Theaterspektakel", "provider": "publibike", "timeStamp": "02/01/2020, 18:08:43", "zip": 8002}, "type": "Feature"}, {"geometry": {"coordinates": [8.516257, 47.367656], "type": "Point"}, "properties": {"address": "Goldbrunnenstrasse 54", "electric": 4, "id": "pb_538", "manual": 1, "name": "Kirche B\u00fchl", "provider": "publibike", "timeStamp": "02/01/2020, 18:08:43", "zip": 8055}, "type": "Feature"}, {"geometry": {"coordinates": [8.555639, 47.416873], "type": "Point"}, "properties": {"address": "Leutschenbachstrasse 50", "electric": 0, "id": "pb_537", "manual": 3, "name": "Leutschenpark", "provider": "publibike", "timeStamp": "02/01/2020, 18:08:43", "zip": 8050}, "type": "Feature"}, {"geometry": {"coordinates": [8.546464, 47.403822], "type": "Point"}, "properties": {"address": "Berninastrasse 45", "electric": 6, "id": "pb_540", "manual": 0, "name": "Berninaplatz", "provider": "publibike", "timeStamp": "02/01/2020, 18:08:43", "zip": 8057}, "type": "Feature"}, {"geometry": {"coordinates": [8.523134, 47.369004], "type": "Point"}, "properties": {"address": "Erlachstrasse 3", "electric": 2, "id": "pb_385", "manual": 4, "name": "Aegerten", "provider": "publibike", "timeStamp": "02/01/2020, 18:08:43", "zip": 8003}, "type": "Feature"}, {"geometry": {"coordinates": [8.49038, 47.381591], "type": "Point"}, "properties": {"address": "Rautistrasse 60", "electric": 3, "id": "pb_536", "manual": 6, "name": "Freilager", "provider": "publibike", "timeStamp": "02/01/2020, 18:08:43", "zip": 8048}, "type": "Feature"}, {"geometry": {"coordinates": [8.496511, 47.375247], "type": "Point"}, "properties": {"address": "Letzigraben 139", "electric": 6, "id": "pb_444", "manual": 3, "name": "Sackzelg", "provider": "publibike", "timeStamp": "02/01/2020, 18:08:43", "zip": 8047}, "type": "Feature"}, {"geometry": {"coordinates": [8.58131, 47.402801], "type": "Point"}, "properties": {"address": "Altwiesenstrasse 104", "electric": 0, "id": "pb_539", "manual": 4, "name": "Glattwiesen", "provider": "publibike", "timeStamp": "02/01/2020, 18:08:43", "zip": 8051}, "type": "Feature"}, {"geometry": {"coordinates": [8.52689, 47.3767], "type": "Point"}, "properties": {"address": "Molkenstrasse 5", "electric": 2, "id": "pb_560", "manual": 17, "name": "Helvetiaplatz", "provider": "publibike", "timeStamp": "02/01/2020, 18:08:43", "zip": 8004}, "type": "Feature"}, {"geometry": {"coordinates": [8.525602, 47.374241], "type": "Point"}, "properties": {"address": "Badenerstrasse 90", "electric": 1, "id": "pb_559", "manual": 2, "name": "Bezirksgeb\u00e4ude", "provider": "publibike", "timeStamp": "02/01/2020, 18:08:43", "zip": 8004}, "type": "Feature"}, {"geometry": {"coordinates": [8.535082, 47.345248], "type": "Point"}, "properties": {"address": "Bachstrasse 15", "electric": 8, "id": "pb_564", "manual": 5, "name": "GZ Wollishofen", "provider": "publibike", "timeStamp": "02/01/2020, 18:08:43", "zip": 8038}, "type": "Feature"}, {"geometry": {"coordinates": [8.514841, 47.370238], "type": "Point"}, "properties": {"address": "Schrennengasse 37", "electric": 1, "id": "pb_562", "manual": 5, "name": "Goldbrunnenplatz", "provider": "publibike", "timeStamp": "02/01/2020, 18:08:43", "zip": 8003}, "type": "Feature"}, {"geometry": {"coordinates": [8.514138, 47.374206], "type": "Point"}, "properties": {"address": "Idaplatz 4", "electric": 0, "id": "pb_557", "manual": 0, "name": "Idaplatz", "provider": "publibike", "timeStamp": "02/01/2020, 18:08:43", "zip": 8003}, "type": "Feature"}, {"geometry": {"coordinates": [8.518432, 47.369549], "type": "Point"}, "properties": {"address": "Brinerstrasse 2", "electric": 1, "id": "pb_558", "manual": 11, "name": "Schmiede Wiedikon", "provider": "publibike", "timeStamp": "02/01/2020, 18:08:43", "zip": 8003}, "type": "Feature"}, {"geometry": {"coordinates": [8.537546, 47.391289], "type": "Point"}, "properties": {"address": "Rotbuchstrasse 15", "electric": 1, "id": "pb_556", "manual": 0, "name": "Schaffhauserplatz", "provider": "publibike", "timeStamp": "02/01/2020, 18:08:43", "zip": 8006}, "type": "Feature"}, {"geometry": {"coordinates": [8.541541, 47.413733], "type": "Point"}, "properties": {"address": "Therese-Giehse-Strasse 11", "electric": 0, "id": "pb_561", "manual": 2, "name": "Center Eleven", "provider": "publibike", "timeStamp": "02/01/2020, 18:08:43", "zip": 8050}, "type": "Feature"}, {"geometry": {"coordinates": [8.534227, 47.360004], "type": "Point"}, "properties": {"address": "Alfred Escher-Strasse 76", "electric": 4, "id": "pb_563", "manual": 1, "name": "Mythenschloss", "provider": "publibike", "timeStamp": "02/01/2020, 18:08:43", "zip": 8002}, "type": "Feature"}, {"geometry": {"coordinates": [8.50373, 47.396172], "type": "Point"}, "properties": {"address": "Hardeggstrasse 6", "electric": 1, "id": "pb_566", "manual": 3, "name": "Am Wasser", "provider": "publibike", "timeStamp": "02/01/2020, 18:08:43", "zip": 8049}, "type": "Feature"}, {"geometry": {"coordinates": [8.532432, 47.381174], "type": "Point"}, "properties": {"address": "Klingenstrasse 9", "electric": 2, "id": "pb_565", "manual": 0, "name": "Zollstrasse", "provider": "publibike", "timeStamp": "02/01/2020, 18:08:43", "zip": 8005}, "type": "Feature"}, {"geometry": {"coordinates": [8.497982, 47.381447], "type": "Point"}, "properties": {"address": "Dennlerstrasse 23", "electric": 9, "id": "pb_567", "manual": 1, "name": "Dennlerstrasse", "provider": "publibike", "timeStamp": "02/01/2020, 18:08:43", "zip": 8047}, "type": "Feature"}, {"geometry": {"coordinates": [8.528049, 47.347701], "type": "Point"}, "properties": {"address": "Mutschellenstrasse 114", "electric": 3, "id": "pb_568", "manual": 6, "name": "Jugendherberge", "provider": "publibike", "timeStamp": "02/01/2020, 18:08:43", "zip": 8038}, "type": "Feature"}, {"geometry": {"coordinates": [8.539016, 47.405751], "type": "Point"}, "properties": {"address": "Ringstrasse 82", "electric": 3, "id": "pb_569", "manual": 4, "name": "Freibad Allenmoos", "provider": "publibike", "timeStamp": "02/01/2020, 18:08:43", "zip": 8057}, "type": "Feature"}, {"geometry": {"coordinates": [8.534974, 47.402164], "type": "Point"}, "properties": {"address": "Brache Guggach", "electric": 3, "id": "pb_572", "manual": 0, "name": "Radiostudio", "provider": "publibike", "timeStamp": "02/01/2020, 18:08:43", "zip": 8057}, "type": "Feature"}, {"geometry": {"coordinates": [8.547901, 47.375556], "type": "Point"}, "properties": {"address": "Karl-Schmid-Strasse 4", "electric": 0, "id": "pb_571", "manual": 2, "name": "ETH/Zoologisches Museum", "provider": "publibike", "timeStamp": "02/01/2020, 18:08:43", "zip": 8006}, "type": "Feature"}, {"geometry": {"coordinates": [8.532795, 47.336815], "type": "Point"}, "properties": {"charge": 69, "id": "smide_2901", "name": "ZH 267278", "provider": "smide", "range": 34.0, "size": 20, "time": "02/01/2020, 18:08:17"}, "type": "Feature"}, {"geometry": {"coordinates": [8.56953, 47.352123], "type": "Point"}, "properties": {"charge": 92, "id": "smide_2895", "name": "ZH 267279", "provider": "smide", "range": 46.0, "size": 20, "time": "02/01/2020, 18:08:17"}, "type": "Feature"}, {"geometry": {"coordinates": [8.486891, 47.388121], "type": "Point"}, "properties": {"charge": 85, "id": "smide_2880", "name": "ZH267289", "provider": "smide", "range": 42.0, "size": 17, "time": "02/01/2020, 18:08:17"}, "type": "Feature"}, {"geometry": {"coordinates": [8.518991, 47.337211], "type": "Point"}, "properties": {"charge": 83, "id": "smide_2871", "name": "ZH 267086", "provider": "smide", "range": 41.0, "size": 20, "time": "02/01/2020, 18:08:17"}, "type": "Feature"}, {"geometry": {"coordinates": [8.51083, 47.390785], "type": "Point"}, "properties": {"charge": 45, "id": "smide_2867", "name": "ZH 267090", "provider": "smide", "range": 22.0, "size": 20, "time": "02/01/2020, 18:08:17"}, "type": "Feature"}, {"geometry": {"coordinates": [8.536633, 47.361951], "type": "Point"}, "properties": {"charge": 14, "id": "smide_2861", "name": "ZH 267096", "provider": "smide", "range": 7.0, "size": 17, "time": "02/01/2020, 18:08:17"}, "type": "Feature"}, {"geometry": {"coordinates": [8.575946, 47.349913], "type": "Point"}, "properties": {"charge": 89, "id": "smide_2860", "name": "ZH 267097", "provider": "smide", "range": 44.0, "size": 17, "time": "02/01/2020, 18:08:17"}, "type": "Feature"}, {"geometry": {"coordinates": [8.53682, 47.375451], "type": "Point"}, "properties": {"charge": 100, "id": "smide_2859", "name": "ZH 267098", "provider": "smide", "range": 50.0, "size": 17, "time": "02/01/2020, 18:08:17"}, "type": "Feature"}, {"geometry": {"coordinates": [8.520956, 47.37007], "type": "Point"}, "properties": {"charge": 42, "id": "smide_2856", "name": "ZH 267101", "provider": "smide", "range": 21.0, "size": 17, "time": "02/01/2020, 18:08:17"}, "type": "Feature"}, {"geometry": {"coordinates": [8.539535, 47.375675], "type": "Point"}, "properties": {"charge": 78, "id": "smide_2855", "name": "ZH 267102", "provider": "smide", "range": 39.0, "size": 17, "time": "02/01/2020, 18:08:17"}, "type": "Feature"}, {"geometry": {"coordinates": [8.507071, 47.399791], "type": "Point"}, "properties": {"charge": 100, "id": "smide_2854", "name": "ZH 267103", "provider": "smide", "range": 50.0, "size": 17, "time": "02/01/2020, 18:08:17"}, "type": "Feature"}, {"geometry": {"coordinates": [8.545745, 47.409826], "type": "Point"}, "properties": {"charge": 100, "id": "smide_2833", "name": "ZH 267182", "provider": "smide", "range": 50.0, "size": 20, "time": "02/01/2020, 18:08:17"}, "type": "Feature"}, {"geometry": {"coordinates": [8.570226, 47.352276], "type": "Point"}, "properties": {"charge": 58, "id": "smide_2831", "name": "ZH 267180", "provider": "smide", "range": 28.0, "size": 20, "time": "02/01/2020, 18:08:17"}, "type": "Feature"}, {"geometry": {"coordinates": [8.572615, 47.357483], "type": "Point"}, "properties": {"charge": 55, "id": "smide_2829", "name": "ZH 267049", "provider": "smide", "range": 27.0, "size": 20, "time": "02/01/2020, 18:08:17"}, "type": "Feature"}, {"geometry": {"coordinates": [8.554075, 47.412206], "type": "Point"}, "properties": {"charge": 72, "id": "smide_2804", "name": "ZH266903", "provider": "smide", "range": 36.0, "size": 20, "time": "02/01/2020, 18:08:17"}, "type": "Feature"}, {"geometry": {"coordinates": [8.544846, 47.376043], "type": "Point"}, "properties": {"charge": 100, "id": "smide_2798", "name": "ZH266888", "provider": "smide", "range": 50.0, "size": 17, "time": "02/01/2020, 18:08:17"}, "type": "Feature"}, {"geometry": {"coordinates": [8.52074, 47.370085], "type": "Point"}, "properties": {"charge": 40, "id": "smide_2793", "name": "ZH266883", "provider": "smide", "range": 20.0, "size": 17, "time": "02/01/2020, 18:08:17"}, "type": "Feature"}, {"geometry": {"coordinates": [8.545411, 47.369675], "type": "Point"}, "properties": {"charge": 34, "id": "smide_2790", "name": "ZH266880", "provider": "smide", "range": 17.0, "size": 17, "time": "02/01/2020, 18:08:17"}, "type": "Feature"}, {"geometry": {"coordinates": [8.517083, 47.358608], "type": "Point"}, "properties": {"charge": 49, "id": "smide_2785", "name": "ZH266875", "provider": "smide", "range": 24.0, "size": 17, "time": "02/01/2020, 18:08:17"}, "type": "Feature"}, {"geometry": {"coordinates": [8.515398, 47.374856], "type": "Point"}, "properties": {"charge": 91, "id": "smide_2781", "name": "ZH 266871", "provider": "smide", "range": 45.0, "size": 17, "time": "02/01/2020, 18:08:17"}, "type": "Feature"}, {"geometry": {"coordinates": [8.515586, 47.398171], "type": "Point"}, "properties": {"charge": 93, "id": "smide_2780", "name": "ST1 X #1", "provider": "smide", "range": 46.0, "size": 17, "time": "02/01/2020, 18:08:17"}, "type": "Feature"}, {"geometry": {"coordinates": [8.554576, 47.40294], "type": "Point"}, "properties": {"charge": 60, "id": "smide_2773", "name": "ZH266561", "provider": "smide", "range": 30.0, "size": 17, "time": "02/01/2020, 18:08:17"}, "type": "Feature"}, {"geometry": {"coordinates": [8.483672, 47.381916], "type": "Point"}, "properties": {"charge": 55, "id": "smide_2763", "name": "ZH266641", "provider": "smide", "range": 27.0, "size": 17, "time": "02/01/2020, 18:08:17"}, "type": "Feature"}, {"geometry": {"coordinates": [8.560313, 47.382095], "type": "Point"}, "properties": {"charge": 38, "id": "smide_2761", "name": "ZH266642", "provider": "smide", "range": 19.0, "size": 20, "time": "02/01/2020, 18:08:17"}, "type": "Feature"}, {"geometry": {"coordinates": [8.55943, 47.376596], "type": "Point"}, "properties": {"charge": 98, "id": "smide_2758", "name": "ZH266638 M", "provider": "smide", "range": 49.0, "size": 17, "time": "02/01/2020, 18:08:17"}, "type": "Feature"}, {"geometry": {"coordinates": [8.496132, 47.388788], "type": "Point"}, "properties": {"charge": 65, "id": "smide_2752", "name": "BE343856", "provider": "smide", "range": 32.0, "size": 17, "time": "02/01/2020, 18:08:17"}, "type": "Feature"}, {"geometry": {"coordinates": [8.545098, 47.38932], "type": "Point"}, "properties": {"charge": 61, "id": "smide_2751", "name": "BE343857", "provider": "smide", "range": 30.0, "size": 17, "time": "02/01/2020, 18:08:17"}, "type": "Feature"}, {"geometry": {"coordinates": [8.496537, 47.392504], "type": "Point"}, "properties": {"charge": 19, "id": "smide_2749", "name": "BE343867", "provider": "smide", "range": 9.0, "size": 17, "time": "02/01/2020, 18:08:17"}, "type": "Feature"}, {"geometry": {"coordinates": [8.536294, 47.377808], "type": "Point"}, "properties": {"charge": 89, "id": "smide_2748", "name": "BE335758", "provider": "smide", "range": 44.0, "size": 17, "time": "02/01/2020, 18:08:17"}, "type": "Feature"}, {"geometry": {"coordinates": [8.562477, 47.382932], "type": "Point"}, "properties": {"charge": 57, "id": "smide_2746", "name": "BE335817", "provider": "smide", "range": 28.0, "size": 17, "time": "02/01/2020, 18:08:17"}, "type": "Feature"}, {"geometry": {"coordinates": [8.553835, 47.398912], "type": "Point"}, "properties": {"charge": 83, "id": "smide_2747", "name": "BE335820", "provider": "smide", "range": 41.0, "size": 17, "time": "02/01/2020, 18:08:17"}, "type": "Feature"}, {"geometry": {"coordinates": [8.518233, 47.398552], "type": "Point"}, "properties": {"charge": 98, "id": "smide_2743", "name": "BE343864", "provider": "smide", "range": 49.0, "size": 17, "time": "02/01/2020, 18:08:17"}, "type": "Feature"}, {"geometry": {"coordinates": [8.532177, 47.386332], "type": "Point"}, "properties": {"charge": 76, "id": "smide_2742", "name": "BE343866", "provider": "smide", "range": 38.0, "size": 17, "time": "02/01/2020, 18:08:17"}, "type": "Feature"}, {"geometry": {"coordinates": [8.542267, 47.377132], "type": "Point"}, "properties": {"charge": 77, "id": "smide_2741", "name": "BE343874", "provider": "smide", "range": 38.0, "size": 17, "time": "02/01/2020, 18:08:17"}, "type": "Feature"}, {"geometry": {"coordinates": [8.529817, 47.369188], "type": "Point"}, "properties": {"charge": 65, "id": "smide_2740", "name": "BE343875", "provider": "smide", "range": 32.0, "size": 17, "time": "02/01/2020, 18:08:17"}, "type": "Feature"}, {"geometry": {"coordinates": [8.490428, 47.381058], "type": "Point"}, "properties": {"charge": 59, "id": "smide_2738", "name": "BE343865", "provider": "smide", "range": 29.0, "size": 17, "time": "02/01/2020, 18:08:17"}, "type": "Feature"}, {"geometry": {"coordinates": [8.557976, 47.352668], "type": "Point"}, "properties": {"charge": 36, "id": "smide_2737", "name": "BE336149", "provider": "smide", "range": 18.0, "size": 17, "time": "02/01/2020, 18:08:17"}, "type": "Feature"}, {"geometry": {"coordinates": [8.502074, 47.368892], "type": "Point"}, "properties": {"charge": 100, "id": "smide_2736", "name": "BE346639", "provider": "smide", "range": 50.0, "size": 17, "time": "02/01/2020, 18:08:17"}, "type": "Feature"}, {"geometry": {"coordinates": [8.518093, 47.36764], "type": "Point"}, "properties": {"charge": 46, "id": "smide_2734", "name": "BE343876", "provider": "smide", "range": 23.0, "size": 17, "time": "02/01/2020, 18:08:17"}, "type": "Feature"}, {"geometry": {"coordinates": [8.566452, 47.351764], "type": "Point"}, "properties": {"charge": 89, "id": "smide_2733", "name": "BE343873", "provider": "smide", "range": 44.0, "size": 17, "time": "02/01/2020, 18:08:17"}, "type": "Feature"}, {"geometry": {"coordinates": [8.478404, 47.389604], "type": "Point"}, "properties": {"charge": 78, "id": "smide_2732", "name": "BE343870", "provider": "smide", "range": 39.0, "size": 17, "time": "02/01/2020, 18:08:17"}, "type": "Feature"}, {"geometry": {"coordinates": [8.531352, 47.370948], "type": "Point"}, "properties": {"charge": 59, "id": "smide_2729", "name": "BE343878", "provider": "smide", "range": 29.0, "size": 17, "time": "02/01/2020, 18:08:17"}, "type": "Feature"}, {"geometry": {"coordinates": [8.507666, 47.407711], "type": "Point"}, "properties": {"charge": 100, "id": "smide_2725", "name": "ZH261545", "provider": "smide", "range": 50.0, "size": 0, "time": "02/01/2020, 18:08:17"}, "type": "Feature"}, {"geometry": {"coordinates": [8.563541, 47.382985], "type": "Point"}, "properties": {"charge": 59, "id": "smide_2718", "name": "ZH259019", "provider": "smide", "range": 29.0, "size": 20, "time": "02/01/2020, 18:08:17"}, "type": "Feature"}, {"geometry": {"coordinates": [8.553573, 47.397656], "type": "Point"}, "properties": {"charge": 34, "id": "smide_2717", "name": "ZH263287", "provider": "smide", "range": 17.0, "size": 17, "time": "02/01/2020, 18:08:17"}, "type": "Feature"}, {"geometry": {"coordinates": [8.530113, 47.390345], "type": "Point"}, "properties": {"charge": 97, "id": "smide_2716", "name": "ZH254606", "provider": "smide", "range": 48.0, "size": 17, "time": "02/01/2020, 18:08:17"}, "type": "Feature"}, {"geometry": {"coordinates": [8.542827, 47.38554], "type": "Point"}, "properties": {"charge": 100, "id": "smide_2715", "name": "ZH254605", "provider": "smide", "range": 50.0, "size": 17, "time": "02/01/2020, 18:08:17"}, "type": "Feature"}, {"geometry": {"coordinates": [8.568436, 47.367632], "type": "Point"}, "properties": {"charge": 73, "id": "smide_2710", "name": "ZH256460", "provider": "smide", "range": 36.0, "size": 17, "time": "02/01/2020, 18:08:17"}, "type": "Feature"}, {"geometry": {"coordinates": [8.515706, 47.368856], "type": "Point"}, "properties": {"charge": 100, "id": "smide_2712", "name": "ZH256462", "provider": "smide", "range": 50.0, "size": 17, "time": "02/01/2020, 18:08:17"}, "type": "Feature"}, {"geometry": {"coordinates": [8.534322, 47.361156], "type": "Point"}, "properties": {"charge": 46, "id": "smide_2711", "name": "ZH256463", "provider": "smide", "range": 23.0, "size": 17, "time": "02/01/2020, 18:08:17"}, "type": "Feature"}, {"geometry": {"coordinates": [8.563918, 47.348201], "type": "Point"}, "properties": {"charge": 74, "id": "smide_2709", "name": "ZH256466", "provider": "smide", "range": 37.0, "size": 20, "time": "02/01/2020, 18:08:17"}, "type": "Feature"}, {"geometry": {"coordinates": [8.544384, 47.416488], "type": "Point"}, "properties": {"charge": 64, "id": "smide_2707", "name": "ZH256467", "provider": "smide", "range": 32.0, "size": 20, "time": "02/01/2020, 18:08:17"}, "type": "Feature"}, {"geometry": {"coordinates": [8.500748, 47.373688], "type": "Point"}, "properties": {"charge": 100, "id": "smide_2708", "name": "ZH256464", "provider": "smide", "range": 50.0, "size": 17, "time": "02/01/2020, 18:08:17"}, "type": "Feature"}, {"geometry": {"coordinates": [8.545165, 47.367612], "type": "Point"}, "properties": {"charge": 83, "id": "smide_2706", "name": "ZH256322", "provider": "smide", "range": 41.0, "size": 20, "time": "02/01/2020, 18:08:17"}, "type": "Feature"}, {"geometry": {"coordinates": [8.563323, 47.372352], "type": "Point"}, "properties": {"charge": 100, "id": "smide_2701", "name": "ZH256468", "provider": "smide", "range": 50.0, "size": 20, "time": "02/01/2020, 18:08:17"}, "type": "Feature"}, {"geometry": {"coordinates": [8.543864, 47.371924], "type": "Point"}, "properties": {"charge": 85, "id": "smide_2700", "name": "ZH256470", "provider": "smide", "range": 42.0, "size": 20, "time": "02/01/2020, 18:08:17"}, "type": "Feature"}, {"geometry": {"coordinates": [8.568428, 47.367616], "type": "Point"}, "properties": {"charge": 100, "id": "smide_2699", "name": "ZH254611", "provider": "smide", "range": 50.0, "size": 20, "time": "02/01/2020, 18:08:17"}, "type": "Feature"}, {"geometry": {"coordinates": [8.509469, 47.395248], "type": "Point"}, "properties": {"charge": 99, "id": "smide_2696", "name": "ZH254616", "provider": "smide", "range": 49.0, "size": 20, "time": "02/01/2020, 18:08:17"}, "type": "Feature"}, {"geometry": {"coordinates": [8.551839, 47.389176], "type": "Point"}, "properties": {"charge": 84, "id": "smide_2694", "name": "ZH254610", "provider": "smide", "range": 42.0, "size": 20, "time": "02/01/2020, 18:08:17"}, "type": "Feature"}, {"geometry": {"coordinates": [8.558673, 47.403586], "type": "Point"}, "properties": {"charge": 49, "id": "smide_2691", "name": "ZH254622", "provider": "smide", "range": 24.0, "size": 20, "time": "02/01/2020, 18:08:17"}, "type": "Feature"}, {"geometry": {"coordinates": [8.545145, 47.37364], "type": "Point"}, "properties": {"charge": 100, "id": "smide_2690", "name": "ZH254625", "provider": "smide", "range": 50.0, "size": 20, "time": "02/01/2020, 18:08:17"}, "type": "Feature"}, {"geometry": {"coordinates": [8.496702, 47.423896], "type": "Point"}, "properties": {"charge": 85, "id": "smide_2689", "name": "ZH254623", "provider": "smide", "range": 42.0, "size": 20, "time": "02/01/2020, 18:08:17"}, "type": "Feature"}, {"geometry": {"coordinates": [8.502078, 47.368776], "type": "Point"}, "properties": {"charge": 100, "id": "smide_2687", "name": "ZH263529", "provider": "smide", "range": 50.0, "size": 20, "time": "02/01/2020, 18:08:17"}, "type": "Feature"}, {"geometry": {"coordinates": [8.563405, 47.382396], "type": "Point"}, "properties": {"charge": 69, "id": "smide_2684", "name": "ZH254626", "provider": "smide", "range": 34.0, "size": 20, "time": "02/01/2020, 18:08:17"}, "type": "Feature"}, {"geometry": {"coordinates": [8.560555, 47.350485], "type": "Point"}, "properties": {"charge": 44, "id": "smide_2683", "name": "ZH254620", "provider": "smide", "range": 22.0, "size": 20, "time": "02/01/2020, 18:08:17"}, "type": "Feature"}, {"geometry": {"coordinates": [8.550866, 47.392332], "type": "Point"}, "properties": {"charge": 60, "id": "smide_2680", "name": "ZH254619", "provider": "smide", "range": 30.0, "size": 20, "time": "02/01/2020, 18:08:17"}, "type": "Feature"}, {"geometry": {"coordinates": [8.576385, 47.351188], "type": "Point"}, "properties": {"charge": 83, "id": "smide_2679", "name": "ZH258489", "provider": "smide", "range": 41.0, "size": 17, "time": "02/01/2020, 18:08:17"}, "type": "Feature"}, {"geometry": {"coordinates": [8.502141, 47.368912], "type": "Point"}, "properties": {"charge": 100, "id": "smide_2677", "name": "ZH258487", "provider": "smide", "range": 50.0, "size": 17, "time": "02/01/2020, 18:08:17"}, "type": "Feature"}, {"geometry": {"coordinates": [8.53312, 47.336772], "type": "Point"}, "properties": {"charge": 74, "id": "smide_2674", "name": "ZH258654", "provider": "smide", "range": 37.0, "size": 17, "time": "02/01/2020, 18:08:17"}, "type": "Feature"}, {"geometry": {"coordinates": [8.494577, 47.42352], "type": "Point"}, "properties": {"charge": 88, "id": "smide_2671", "name": "ZH258645", "provider": "smide", "range": 44.0, "size": 17, "time": "02/01/2020, 18:08:17"}, "type": "Feature"}, {"geometry": {"coordinates": [8.527363, 47.354204], "type": "Point"}, "properties": {"charge": 40, "id": "smide_2669", "name": "ZH263294", "provider": "smide", "range": 20.0, "size": 17, "time": "02/01/2020, 18:08:17"}, "type": "Feature"}, {"geometry": {"coordinates": [8.541646, 47.36746], "type": "Point"}, "properties": {"charge": 56, "id": "smide_2666", "name": "ZH258653", "provider": "smide", "range": 28.0, "size": 17, "time": "02/01/2020, 18:08:17"}, "type": "Feature"}, {"geometry": {"coordinates": [8.546325, 47.409376], "type": "Point"}, "properties": {"charge": 47, "id": "smide_2665", "name": "ZH258644", "provider": "smide", "range": 23.0, "size": 17, "time": "02/01/2020, 18:08:17"}, "type": "Feature"}, {"geometry": {"coordinates": [8.537679, 47.379372], "type": "Point"}, "properties": {"charge": 98, "id": "smide_2664", "name": "ZH258652", "provider": "smide", "range": 49.0, "size": 17, "time": "02/01/2020, 18:08:17"}, "type": "Feature"}, {"geometry": {"coordinates": [8.541446, 47.379168], "type": "Point"}, "properties": {"charge": 41, "id": "smide_2663", "name": "ZH258649", "provider": "smide", "range": 20.0, "size": 17, "time": "02/01/2020, 18:08:17"}, "type": "Feature"}, {"geometry": {"coordinates": [8.568454, 47.366852], "type": "Point"}, "properties": {"charge": 35, "id": "smide_2662", "name": "ZH258643", "provider": "smide", "range": 17.0, "size": 17, "time": "02/01/2020, 18:08:17"}, "type": "Feature"}, {"geometry": {"coordinates": [8.502148, 47.370248], "type": "Point"}, "properties": {"charge": 71, "id": "smide_2660", "name": "ZH258647", "provider": "smide", "range": 35.0, "size": 17, "time": "02/01/2020, 18:08:17"}, "type": "Feature"}, {"geometry": {"coordinates": [8.548479, 47.377932], "type": "Point"}, "properties": {"charge": 100, "id": "smide_2648", "name": "ZH257930", "provider": "smide", "range": 50.0, "size": 20, "time": "02/01/2020, 18:08:17"}, "type": "Feature"}, {"geometry": {"coordinates": [8.570051, 47.352493], "type": "Point"}, "properties": {"charge": 52, "id": "smide_2657", "name": "ZH257936", "provider": "smide", "range": 26.0, "size": 17, "time": "02/01/2020, 18:08:17"}, "type": "Feature"}, {"geometry": {"coordinates": [8.514347, 47.397044], "type": "Point"}, "properties": {"charge": 40, "id": "smide_2645", "name": "ZH257933", "provider": "smide", "range": 20.0, "size": 20, "time": "02/01/2020, 18:08:17"}, "type": "Feature"}, {"geometry": {"coordinates": [8.4986, 47.399316], "type": "Point"}, "properties": {"charge": 87, "id": "smide_3", "name": "ZH253765", "provider": "smide", "range": 43.0, "size": 20, "time": "02/01/2020, 18:08:17"}, "type": "Feature"}, {"geometry": {"coordinates": [8.52596, 47.408468], "type": "Point"}, "properties": {"charge": 77, "id": "smide_105", "name": "ZH253804", "provider": "smide", "range": 38.0, "size": 17, "time": "02/01/2020, 18:08:17"}, "type": "Feature"}, {"geometry": {"coordinates": [8.542121, 47.407592], "type": "Point"}, "properties": {"charge": 91, "id": "smide_186", "name": "ZH253751", "provider": "smide", "range": 45.0, "size": 20, "time": "02/01/2020, 18:08:17"}, "type": "Feature"}, {"geometry": {"coordinates": [8.571117, 47.352528], "type": "Point"}, "properties": {"charge": 89, "id": "smide_173", "name": "ZH258501", "provider": "smide", "range": 44.0, "size": 17, "time": "02/01/2020, 18:08:17"}, "type": "Feature"}, {"geometry": {"coordinates": [8.55928, 47.405968], "type": "Point"}, "properties": {"charge": 73, "id": "smide_77", "name": "ZH261548", "provider": "smide", "range": 36.0, "size": 20, "time": "02/01/2020, 18:08:17"}, "type": "Feature"}, {"geometry": {"coordinates": [8.563097, 47.365068], "type": "Point"}, "properties": {"charge": 91, "id": "smide_200", "name": "ZH253801", "provider": "smide", "range": 45.0, "size": 20, "time": "02/01/2020, 18:08:17"}, "type": "Feature"}, {"geometry": {"coordinates": [8.541901, 47.369876], "type": "Point"}, "properties": {"charge": 67, "id": "smide_197", "name": "ZH253864", "provider": "smide", "range": 33.0, "size": 20, "time": "02/01/2020, 18:08:17"}, "type": "Feature"}, {"geometry": {"coordinates": [8.55906, 47.414964], "type": "Point"}, "properties": {"charge": 100, "id": "smide_199", "name": "ZH253766", "provider": "smide", "range": 50.0, "size": 20, "time": "02/01/2020, 18:08:17"}, "type": "Feature"}, {"geometry": {"coordinates": [8.560403, 47.382088], "type": "Point"}, "properties": {"charge": 57, "id": "smide_8", "name": "ZH253861", "provider": "smide", "range": 28.0, "size": 17, "time": "02/01/2020, 18:08:17"}, "type": "Feature"}, {"geometry": {"coordinates": [8.563003, 47.38243], "type": "Point"}, "properties": {"charge": 76, "id": "smide_45", "name": "ZH253716", "provider": "smide", "range": 38.0, "size": 17, "time": "02/01/2020, 18:08:17"}, "type": "Feature"}, {"geometry": {"coordinates": [8.548107, 47.366336], "type": "Point"}, "properties": {"charge": 55, "id": "smide_188", "name": "ZH261543", "provider": "smide", "range": 27.0, "size": 20, "time": "02/01/2020, 18:08:17"}, "type": "Feature"}, {"geometry": {"coordinates": [8.540533, 47.417396], "type": "Point"}, "properties": {"charge": 43, "id": "smide_101", "name": "ZH253814", "provider": "smide", "range": 21.0, "size": 17, "time": "02/01/2020, 18:08:17"}, "type": "Feature"}, {"geometry": {"coordinates": [8.492568, 47.36822], "type": "Point"}, "properties": {"charge": 80, "id": "smide_9", "name": "ZH253796", "provider": "smide", "range": 40.0, "size": 17, "time": "02/01/2020, 18:08:17"}, "type": "Feature"}, {"geometry": {"coordinates": [8.559171, 47.414944], "type": "Point"}, "properties": {"charge": 95, "id": "smide_143", "name": "ZH253778", "provider": "smide", "range": 47.0, "size": 17, "time": "02/01/2020, 18:08:17"}, "type": "Feature"}, {"geometry": {"coordinates": [8.560148, 47.413986], "type": "Point"}, "properties": {"charge": 100, "id": "smide_180", "name": "ZH253824", "provider": "smide", "range": 50.0, "size": 20, "time": "02/01/2020, 18:08:17"}, "type": "Feature"}, {"geometry": {"coordinates": [8.541692, 47.369168], "type": "Point"}, "properties": {"charge": 52, "id": "smide_20", "name": "ZH253770", "provider": "smide", "range": 26.0, "size": 20, "time": "02/01/2020, 18:08:17"}, "type": "Feature"}, {"geometry": {"coordinates": [8.554802, 47.377256], "type": "Point"}, "properties": {"charge": 86, "id": "smide_50", "name": "ZH253853", "provider": "smide", "range": 43.0, "size": 17, "time": "02/01/2020, 18:08:17"}, "type": "Feature"}, {"geometry": {"coordinates": [8.544415, 47.393306], "type": "Point"}, "properties": {"charge": 91, "id": "smide_30", "name": "ZH253813", "provider": "smide", "range": 45.0, "size": 20, "time": "02/01/2020, 18:08:17"}, "type": "Feature"}, {"geometry": {"coordinates": [8.53593, 47.374405], "type": "Point"}, "properties": {"charge": 83, "id": "smide_10", "name": "ZH253855", "provider": "smide", "range": 41.0, "size": 17, "time": "02/01/2020, 18:08:17"}, "type": "Feature"}, {"geometry": {"coordinates": [8.541637, 47.376104], "type": "Point"}, "properties": {"charge": 48, "id": "smide_165", "name": "ZH253752", "provider": "smide", "range": 24.0, "size": 17, "time": "02/01/2020, 18:08:17"}, "type": "Feature"}, {"geometry": {"coordinates": [8.53828, 47.377016], "type": "Point"}, "properties": {"charge": 90, "id": "smide_35", "name": "ZH253755", "provider": "smide", "range": 45.0, "size": 20, "time": "02/01/2020, 18:08:17"}, "type": "Feature"}, {"geometry": {"coordinates": [8.54162, 47.367412], "type": "Point"}, "properties": {"charge": 27, "id": "smide_76", "name": "ZH253764", "provider": "smide", "range": 13.0, "size": 17, "time": "02/01/2020, 18:08:17"}, "type": "Feature"}, {"geometry": {"coordinates": [8.560665, 47.350464], "type": "Point"}, "properties": {"charge": 100, "id": "smide_129", "name": "ZH261378", "provider": "smide", "range": 50.0, "size": 17, "time": "02/01/2020, 18:08:17"}, "type": "Feature"}, {"geometry": {"coordinates": [8.561301, 47.363972], "type": "Point"}, "properties": {"charge": 41, "id": "smide_94", "name": "ZH253754", "provider": "smide", "range": 20.0, "size": 17, "time": "02/01/2020, 18:08:17"}, "type": "Feature"}, {"geometry": {"coordinates": [8.532393, 47.397416], "type": "Point"}, "properties": {"charge": 46, "id": "smide_37", "name": "ZH261377", "provider": "smide", "range": 23.0, "size": 20, "time": "02/01/2020, 18:08:17"}, "type": "Feature"}, {"geometry": {"coordinates": [8.544608, 47.369488], "type": "Point"}, "properties": {"charge": 84, "id": "smide_191", "name": "ZH253762", "provider": "smide", "range": 42.0, "size": 17, "time": "02/01/2020, 18:08:17"}, "type": "Feature"}, {"geometry": {"coordinates": [8.54503, 47.378093], "type": "Point"}, "properties": {"charge": 100, "id": "smide_202", "name": "ZH253830", "provider": "smide", "range": 50.0, "size": 17, "time": "02/01/2020, 18:08:17"}, "type": "Feature"}, {"geometry": {"coordinates": [8.539724, 47.40888], "type": "Point"}, "properties": {"charge": 71, "id": "smide_56", "name": "ZH261442", "provider": "smide", "range": 35.0, "size": 20, "time": "02/01/2020, 18:08:17"}, "type": "Feature"}, {"geometry": {"coordinates": [8.483115, 47.384726], "type": "Point"}, "properties": {"charge": 37, "id": "smide_47", "name": "ZH253858", "provider": "smide", "range": 18.0, "size": 17, "time": "02/01/2020, 18:08:17"}, "type": "Feature"}, {"geometry": {"coordinates": [8.559826, 47.404092], "type": "Point"}, "properties": {"charge": 100, "id": "smide_66", "name": "ZH253818", "provider": "smide", "range": 50.0, "size": 20, "time": "02/01/2020, 18:08:17"}, "type": "Feature"}, {"geometry": {"coordinates": [8.548328, 47.405631], "type": "Point"}, "properties": {"charge": 95, "id": "smide_17", "name": "ZH253793", "provider": "smide", "range": 47.0, "size": 17, "time": "02/01/2020, 18:08:17"}, "type": "Feature"}, {"geometry": {"coordinates": [8.564096, 47.366964], "type": "Point"}, "properties": {"charge": 67, "id": "smide_127", "name": "ZH253808", "provider": "smide", "range": 33.0, "size": 20, "time": "02/01/2020, 18:08:17"}, "type": "Feature"}, {"geometry": {"coordinates": [8.539495, 47.415673], "type": "Point"}, "properties": {"charge": 81, "id": "smide_145", "name": "ZH253780", "provider": "smide", "range": 40.0, "size": 20, "time": "02/01/2020, 18:08:17"}, "type": "Feature"}, {"geometry": {"coordinates": [8.53294, 47.416324], "type": "Point"}, "properties": {"charge": 100, "id": "smide_114", "name": "ZH253878", "provider": "smide", "range": 50.0, "size": 20, "time": "02/01/2020, 18:08:17"}, "type": "Feature"}, {"geometry": {"coordinates": [8.543296, 47.372876], "type": "Point"}, "properties": {"charge": 80, "id": "smide_21", "name": "ZH253841", "provider": "smide", "range": 40.0, "size": 17, "time": "02/01/2020, 18:08:17"}, "type": "Feature"}, {"geometry": {"coordinates": [8.530634, 47.383328], "type": "Point"}, "properties": {"charge": 93, "id": "smide_164", "name": "ZH253775", "provider": "smide", "range": 46.0, "size": 17, "time": "02/01/2020, 18:08:17"}, "type": "Feature"}, {"geometry": {"coordinates": [8.487411, 47.367584], "type": "Point"}, "properties": {"charge": 93, "id": "smide_189", "name": "ZH253845", "provider": "smide", "range": 46.0, "size": 20, "time": "02/01/2020, 18:08:17"}, "type": "Feature"}, {"geometry": {"coordinates": [8.515182, 47.3687], "type": "Point"}, "properties": {"charge": 28, "id": "smide_81", "name": "ZH253753", "provider": "smide", "range": 14.0, "size": 17, "time": "02/01/2020, 18:08:17"}, "type": "Feature"}, {"geometry": {"coordinates": [8.571745, 47.381476], "type": "Point"}, "properties": {"charge": 87, "id": "smide_171", "name": "ZH253689", "provider": "smide", "range": 43.0, "size": 20, "time": "02/01/2020, 18:08:17"}, "type": "Feature"}, {"geometry": {"coordinates": [8.553848, 47.37468], "type": "Point"}, "properties": {"charge": 58, "id": "smide_93", "name": "ZH253681", "provider": "smide", "range": 28.0, "size": 17, "time": "02/01/2020, 18:08:17"}, "type": "Feature"}, {"geometry": {"coordinates": [8.573263, 47.352468], "type": "Point"}, "properties": {"charge": 88, "id": "smide_67", "name": "ZH253779", "provider": "smide", "range": 44.0, "size": 17, "time": "02/01/2020, 18:08:17"}, "type": "Feature"}, {"geometry": {"coordinates": [8.536628, 47.41914], "type": "Point"}, "properties": {"charge": 100, "id": "smide_133", "name": "ZH253848", "provider": "smide", "range": 50.0, "size": 20, "time": "02/01/2020, 18:08:17"}, "type": "Feature"}, {"geometry": {"coordinates": [8.482143, 47.385653], "type": "Point"}, "properties": {"charge": 99, "id": "smide_118", "name": "ZH253759", "provider": "smide", "range": 49.0, "size": 20, "time": "02/01/2020, 18:08:17"}, "type": "Feature"}, {"geometry": {"coordinates": [8.543011, 47.370264], "type": "Point"}, "properties": {"charge": 100, "id": "smide_142", "name": "ZH258745", "provider": "smide", "range": 50.0, "size": 17, "time": "02/01/2020, 18:08:17"}, "type": "Feature"}, {"geometry": {"coordinates": [8.537905, 47.375625], "type": "Point"}, "properties": {"charge": 55, "id": "smide_166", "name": "ZH253728", "provider": "smide", "range": 27.0, "size": 17, "time": "02/01/2020, 18:08:17"}, "type": "Feature"}, {"geometry": {"coordinates": [8.494485, 47.397828], "type": "Point"}, "properties": {"charge": 55, "id": "smide_126", "name": "ZH268400", "provider": "smide", "range": 27.0, "size": 17, "time": "02/01/2020, 18:08:17"}, "type": "Feature"}, {"geometry": {"coordinates": [8.546318, 47.364306], "type": "Point"}, "properties": {"charge": 100, "id": "smide_98", "name": "ZH256321", "provider": "smide", "range": 50.0, "size": 17, "time": "02/01/2020, 18:08:17"}, "type": "Feature"}, {"geometry": {"coordinates": [8.521504, 47.357292], "type": "Point"}, "properties": {"charge": 48, "id": "smide_7", "name": "ZH256289", "provider": "smide", "range": 24.0, "size": 20, "time": "02/01/2020, 18:08:17"}, "type": "Feature"}, {"geometry": {"coordinates": [8.560387, 47.372308], "type": "Point"}, "properties": {"charge": 86, "id": "smide_92", "name": "ZH253798", "provider": "smide", "range": 43.0, "size": 17, "time": "02/01/2020, 18:08:17"}, "type": "Feature"}, {"geometry": {"coordinates": [8.517515, 47.424568], "type": "Point"}, "properties": {"charge": 59, "id": "smide_167", "name": "ZH253854", "provider": "smide", "range": 29.0, "size": 17, "time": "02/01/2020, 18:08:17"}, "type": "Feature"}, {"geometry": {"coordinates": [8.500439, 47.370272], "type": "Point"}, "properties": {"charge": 23, "id": "smide_65", "name": "ZH253810", "provider": "smide", "range": 11.0, "size": 17, "time": "02/01/2020, 18:08:17"}, "type": "Feature"}, {"geometry": {"coordinates": [8.531752, 47.389988], "type": "Point"}, "properties": {"charge": 76, "id": "smide_111", "name": "ZH253763", "provider": "smide", "range": 38.0, "size": 17, "time": "02/01/2020, 18:08:17"}, "type": "Feature"}, {"geometry": {"coordinates": [8.546339, 47.41254], "type": "Point"}, "properties": {"charge": 97, "id": "smide_40", "name": "ZH253690", "provider": "smide", "range": 48.0, "size": 20, "time": "02/01/2020, 18:08:17"}, "type": "Feature"}, {"geometry": {"coordinates": [8.557739, 47.352], "type": "Point"}, "properties": {"charge": 99, "id": "smide_1", "name": "ZH253776", "provider": "smide", "range": 49.0, "size": 17, "time": "02/01/2020, 18:08:17"}, "type": "Feature"}, {"geometry": {"coordinates": [8.539503, 47.378904], "type": "Point"}, "properties": {"charge": 71, "id": "smide_28", "name": "ZH253831", "provider": "smide", "range": 35.0, "size": 17, "time": "02/01/2020, 18:08:17"}, "type": "Feature"}, {"geometry": {"coordinates": [8.520121, 47.340463], "type": "Point"}, "properties": {"charge": 75, "id": "smide_14", "name": "ZH253749", "provider": "smide", "range": 37.0, "size": 20, "time": "02/01/2020, 18:08:17"}, "type": "Feature"}, {"geometry": {"coordinates": [8.534229, 47.380412], "type": "Point"}, "properties": {"charge": 100, "id": "smide_130", "name": "ZH253847", "provider": "smide", "range": 50.0, "size": 20, "time": "02/01/2020, 18:08:17"}, "type": "Feature"}, {"geometry": {"coordinates": [8.54087, 47.378424], "type": "Point"}, "properties": {"charge": 41, "id": "smide_24", "name": "ZH253696", "provider": "smide", "range": 20.0, "size": 20, "time": "02/01/2020, 18:08:17"}, "type": "Feature"}, {"geometry": {"coordinates": [8.50211, 47.368912], "type": "Point"}, "properties": {"charge": 94, "id": "smide_107", "name": "ZH253819", "provider": "smide", "range": 47.0, "size": 17, "time": "02/01/2020, 18:08:17"}, "type": "Feature"}, {"geometry": {"coordinates": [8.540183, 47.378992], "type": "Point"}, "properties": {"charge": 98, "id": "smide_136", "name": "ZH253682", "provider": "smide", "range": 49.0, "size": 17, "time": "02/01/2020, 18:08:17"}, "type": "Feature"}, {"geometry": {"coordinates": [8.520862, 47.411672], "type": "Point"}, "properties": {"charge": 100, "id": "smide_83", "name": "ZH253869", "provider": "smide", "range": 50.0, "size": 20, "time": "02/01/2020, 18:08:17"}, "type": "Feature"}, {"geometry": {"coordinates": [8.534274, 47.372688], "type": "Point"}, "properties": {"charge": 32, "id": "smide_193", "name": "ZH253738", "provider": "smide", "range": 16.0, "size": 20, "time": "02/01/2020, 18:08:17"}, "type": "Feature"}, {"geometry": {"coordinates": [8.545181, 47.412256], "type": "Point"}, "properties": {"charge": 99, "id": "smide_73", "name": "ZH261379", "provider": "smide", "range": 49.0, "size": 20, "time": "02/01/2020, 18:08:17"}, "type": "Feature"}, {"geometry": {"coordinates": [8.485306, 47.375336], "type": "Point"}, "properties": {"charge": 100, "id": "smide_158", "name": "ZH253870", "provider": "smide", "range": 50.0, "size": 20, "time": "02/01/2020, 18:08:17"}, "type": "Feature"}, {"geometry": {"coordinates": [8.542541, 47.411948], "type": "Point"}, "properties": {"charge": 91, "id": "smide_100", "name": "ZH253862", "provider": "smide", "range": 45.0, "size": 20, "time": "02/01/2020, 18:08:17"}, "type": "Feature"}, {"geometry": {"coordinates": [8.488913, 47.392556], "type": "Point"}, "properties": {"charge": 100, "id": "smide_134", "name": "ZH253741", "provider": "smide", "range": 50.0, "size": 20, "time": "02/01/2020, 18:08:17"}, "type": "Feature"}, {"geometry": {"coordinates": [8.508403, 47.418953], "type": "Point"}, "properties": {"charge": 100, "id": "smide_141", "name": "ZH253800", "provider": "smide", "range": 50.0, "size": 20, "time": "02/01/2020, 18:08:17"}, "type": "Feature"}, {"geometry": {"coordinates": [8.562921, 47.366136], "type": "Point"}, "properties": {"charge": 52, "id": "smide_74", "name": "ZH253693", "provider": "smide", "range": 26.0, "size": 20, "time": "02/01/2020, 18:08:17"}, "type": "Feature"}, {"geometry": {"coordinates": [8.576763, 47.351061], "type": "Point"}, "properties": {"charge": 83, "id": "smide_33", "name": "ZH253782", "provider": "smide", "range": 41.0, "size": 20, "time": "02/01/2020, 18:08:17"}, "type": "Feature"}, {"geometry": {"coordinates": [8.560324, 47.372364], "type": "Point"}, "properties": {"charge": 58, "id": "smide_161", "name": "ZH253691", "provider": "smide", "range": 28.0, "size": 20, "time": "02/01/2020, 18:08:17"}, "type": "Feature"}, {"geometry": {"coordinates": [8.523026, 47.362691], "type": "Point"}, "properties": {"charge": 51, "id": "smide_183", "name": "ZH253868", "provider": "smide", "range": 25.0, "size": 17, "time": "02/01/2020, 18:08:17"}, "type": "Feature"}, {"geometry": {"coordinates": [8.543205, 47.375348], "type": "Point"}, "properties": {"charge": 78, "id": "smide_42", "name": "ZH253846", "provider": "smide", "range": 39.0, "size": 20, "time": "02/01/2020, 18:08:17"}, "type": "Feature"}, {"geometry": {"coordinates": [8.539374, 47.419304], "type": "Point"}, "properties": {"charge": 97, "id": "smide_4", "name": "ZH253740", "provider": "smide", "range": 48.0, "size": 20, "time": "02/01/2020, 18:08:17"}, "type": "Feature"}, {"geometry": {"coordinates": [8.555496, 47.366972], "type": "Point"}, "properties": {"charge": 97, "id": "smide_160", "name": "ZH253722", "provider": "smide", "range": 48.0, "size": 17, "time": "02/01/2020, 18:08:17"}, "type": "Feature"}, {"geometry": {"coordinates": [8.573311, 47.349158], "type": "Point"}, "properties": {"charge": 98, "id": "smide_137", "name": "ZH258502", "provider": "smide", "range": 49.0, "size": 17, "time": "02/01/2020, 18:08:17"}, "type": "Feature"}, {"geometry": {"coordinates": [8.577437, 47.35304], "type": "Point"}, "properties": {"charge": 98, "id": "smide_178", "name": "ZH253803", "provider": "smide", "range": 49.0, "size": 17, "time": "02/01/2020, 18:08:17"}, "type": "Feature"}, {"geometry": {"coordinates": [8.487358, 47.384573], "type": "Point"}, "properties": {"charge": 36, "id": "smide_55", "name": "ZH253875", "provider": "smide", "range": 18.0, "size": 17, "time": "02/01/2020, 18:08:17"}, "type": "Feature"}, {"geometry": {"coordinates": [8.515296, 47.398024], "type": "Point"}, "properties": {"charge": 99, "id": "smide_96", "name": "ZH256146", "provider": "smide", "range": 49.0, "size": 20, "time": "02/01/2020, 18:08:17"}, "type": "Feature"}, {"geometry": {"coordinates": [8.550873, 47.392332], "type": "Point"}, "properties": {"charge": 29, "id": "smide_58", "name": "ZH259246", "provider": "smide", "range": 14.0, "size": 20, "time": "02/01/2020, 18:08:17"}, "type": "Feature"}, {"geometry": {"coordinates": [8.502093, 47.368836], "type": "Point"}, "properties": {"charge": 100, "id": "smide_54", "name": "ZH253874", "provider": "smide", "range": 50.0, "size": 20, "time": "02/01/2020, 18:08:17"}, "type": "Feature"}, {"geometry": {"coordinates": [8.552075, 47.389252], "type": "Point"}, "properties": {"charge": 89, "id": "smide_175", "name": "ZH253730", "provider": "smide", "range": 44.0, "size": 17, "time": "02/01/2020, 18:08:17"}, "type": "Feature"}, {"geometry": {"coordinates": [8.50214, 47.368852], "type": "Point"}, "properties": {"charge": 100, "id": "smide_95", "name": "ZH253773", "provider": "smide", "range": 50.0, "size": 17, "time": "02/01/2020, 18:08:17"}, "type": "Feature"}, {"geometry": {"coordinates": [8.514253, 47.376844], "type": "Point"}, "properties": {"charge": 100, "id": "smide_163", "name": "ZH256147", "provider": "smide", "range": 50.0, "size": 20, "time": "02/01/2020, 18:08:17"}, "type": "Feature"}, {"geometry": {"coordinates": [8.541291, 47.413488], "type": "Point"}, "properties": {"charge": 57, "id": "smide_112", "name": "ZH263530", "provider": "smide", "range": 28.0, "size": 20, "time": "02/01/2020, 18:08:17"}, "type": "Feature"}, {"geometry": {"coordinates": [8.56431, 47.369384], "type": "Point"}, "properties": {"charge": 34, "id": "smide_122", "name": "ZH253850", "provider": "smide", "range": 17.0, "size": 20, "time": "02/01/2020, 18:08:17"}, "type": "Feature"}, {"geometry": {"coordinates": [8.544148, 47.372325], "type": "Point"}, "properties": {"charge": 85, "id": "smide_38", "name": "ZH253851", "provider": "smide", "range": 42.0, "size": 20, "time": "02/01/2020, 18:08:17"}, "type": "Feature"}, {"geometry": {"coordinates": [8.557756, 47.404396], "type": "Point"}, "properties": {"charge": 89, "id": "smide_6", "name": "ZH253787", "provider": "smide", "range": 44.0, "size": 17, "time": "02/01/2020, 18:08:17"}, "type": "Feature"}, {"geometry": {"coordinates": [8.556939, 47.404004], "type": "Point"}, "properties": {"charge": 100, "id": "smide_18", "name": "ZH253859", "provider": "smide", "range": 50.0, "size": 17, "time": "02/01/2020, 18:08:17"}, "type": "Feature"}, {"geometry": {"coordinates": [8.498163, 47.399196], "type": "Point"}, "properties": {"charge": 59, "id": "smide_12", "name": "ZH253685", "provider": "smide", "range": 29.0, "size": 17, "time": "02/01/2020, 18:08:17"}, "type": "Feature"}, {"geometry": {"coordinates": [8.576272, 47.348824], "type": "Point"}, "properties": {"charge": 95, "id": "smide_192", "name": "ZH253706", "provider": "smide", "range": 47.0, "size": 20, "time": "02/01/2020, 18:08:17"}, "type": "Feature"}, {"geometry": {"coordinates": [8.55823, 47.354664], "type": "Point"}, "properties": {"charge": 74, "id": "smide_39", "name": "ZH253714", "provider": "smide", "range": 37.0, "size": 20, "time": "02/01/2020, 18:08:17"}, "type": "Feature"}, {"geometry": {"coordinates": [8.519066, 47.337288], "type": "Point"}, "properties": {"charge": 59, "id": "smide_5", "name": "ZH261443", "provider": "smide", "range": 29.0, "size": 20, "time": "02/01/2020, 18:08:17"}, "type": "Feature"}, {"geometry": {"coordinates": [8.562491, 47.377705], "type": "Point"}, "properties": {"charge": 99, "id": "smide_85", "name": "ZH253729", "provider": "smide", "range": 49.0, "size": 17, "time": "02/01/2020, 18:08:17"}, "type": "Feature"}, {"geometry": {"coordinates": [8.531952, 47.373356], "type": "Point"}, "properties": {"charge": 24, "id": "smide_29", "name": "ZH253723", "provider": "smide", "range": 12.0, "size": 17, "time": "02/01/2020, 18:08:17"}, "type": "Feature"}, {"geometry": {"coordinates": [8.547607, 47.390996], "type": "Point"}, "properties": {"charge": 55, "id": "smide_48", "name": "ZH253849", "provider": "smide", "range": 27.0, "size": 20, "time": "02/01/2020, 18:08:17"}, "type": "Feature"}, {"geometry": {"coordinates": [8.53841166666667, 47.36943], "type": "Point"}, "properties": {"charge": 76, "id": "bird_ce313b5f-2d67-48b0-a41a-6788b6e82f91", "provider": "bird", "timeStamp": "02/01/2020, 18:08:17"}, "type": "Feature"}, {"geometry": {"coordinates": [8.53832333333333, 47.369415], "type": "Point"}, "properties": {"charge": 82, "id": "bird_32ac6b34-022a-4d73-9bd2-496604d814ca", "provider": "bird", "timeStamp": "02/01/2020, 18:08:17"}, "type": "Feature"}, {"geometry": {"coordinates": [8.513755, 47.3752283333333], "type": "Point"}, "properties": {"charge": 43, "id": "bird_514cf3da-37b7-4257-88e8-332e1212efb0", "provider": "bird", "timeStamp": "02/01/2020, 18:08:17"}, "type": "Feature"}, {"geometry": {"coordinates": [8.51249833333333, 47.3787083333333], "type": "Point"}, "properties": {"charge": 85, "id": "bird_d2fe00ef-990b-48c3-bf83-37b7ce5ed37d", "provider": "bird", "timeStamp": "02/01/2020, 18:08:17"}, "type": "Feature"}, {"geometry": {"coordinates": [8.543695, 47.372555], "type": "Point"}, "properties": {"charge": 60, "id": "bird_afe72d96-7067-4c7b-b74e-02550c50c552", "provider": "bird", "timeStamp": "02/01/2020, 18:08:17"}, "type": "Feature"}, {"geometry": {"coordinates": [8.53819833333333, 47.3695033333333], "type": "Point"}, "properties": {"charge": 22, "id": "bird_f140ae28-152d-4683-a5cf-4fac380b6b7e", "provider": "bird", "timeStamp": "02/01/2020, 18:08:17"}, "type": "Feature"}, {"geometry": {"coordinates": [8.51535333333333, 47.3734816666667], "type": "Point"}, "properties": {"charge": 91, "id": "bird_6609747d-01e0-4924-bbe5-8afb226e3a13", "provider": "bird", "timeStamp": "02/01/2020, 18:08:17"}, "type": "Feature"}, {"geometry": {"coordinates": [8.517705, 47.3884166666667], "type": "Point"}, "properties": {"charge": 78, "id": "bird_81426be8-9f66-4810-8be6-9d668ab57fbf", "provider": "bird", "timeStamp": "02/01/2020, 18:08:17"}, "type": "Feature"}, {"geometry": {"coordinates": [8.54665333333333, 47.37643], "type": "Point"}, "properties": {"charge": 93, "id": "bird_6bc22f7b-4fb7-4a41-b6c9-9fd300a719d5", "provider": "bird", "timeStamp": "02/01/2020, 18:08:17"}, "type": "Feature"}, {"geometry": {"coordinates": [8.512635, 47.3803866666667], "type": "Point"}, "properties": {"charge": 21, "id": "bird_413029c6-0606-48c4-9313-fc7d8bed4e59", "provider": "bird", "timeStamp": "02/01/2020, 18:08:17"}, "type": "Feature"}, {"geometry": {"coordinates": [8.517275, 47.3878816666667], "type": "Point"}, "properties": {"charge": 66, "id": "bird_7d33d51e-6df4-47df-a3b2-0fac18d0d6eb", "provider": "bird", "timeStamp": "02/01/2020, 18:08:17"}, "type": "Feature"}, {"geometry": {"coordinates": [8.54388666666667, 47.3731616666667], "type": "Point"}, "properties": {"charge": 79, "id": "bird_1d37c9ac-f6aa-4dd7-b43c-c1e979691ad2", "provider": "bird", "timeStamp": "02/01/2020, 18:08:17"}, "type": "Feature"}, {"geometry": {"coordinates": [8.51303, 47.37836], "type": "Point"}, "properties": {"charge": 79, "id": "bird_dc257b82-1982-4ff4-a00f-d9183a0678d6", "provider": "bird", "timeStamp": "02/01/2020, 18:08:17"}, "type": "Feature"}, {"geometry": {"coordinates": [8.544675, 47.3741266666667], "type": "Point"}, "properties": {"charge": 64, "id": "bird_74778cd2-817a-4b29-b907-39531af30d08", "provider": "bird", "timeStamp": "02/01/2020, 18:08:17"}, "type": "Feature"}, {"geometry": {"coordinates": [8.54464166666667, 47.3740916666667], "type": "Point"}, "properties": {"charge": 75, "id": "bird_f362a016-919d-4032-9531-4c9b57d60f25", "provider": "bird", "timeStamp": "02/01/2020, 18:08:17"}, "type": "Feature"}, {"geometry": {"coordinates": [8.51363, 47.3768316666667], "type": "Point"}, "properties": {"charge": 61, "id": "bird_8b95fdc9-2f93-4a83-b7d0-73cafa17d7a6", "provider": "bird", "timeStamp": "02/01/2020, 18:08:17"}, "type": "Feature"}, {"geometry": {"coordinates": [8.54369666666667, 47.3732383333333], "type": "Point"}, "properties": {"charge": 17, "id": "bird_916874c5-d266-41e8-a409-fa1e8527f2e8", "provider": "bird", "timeStamp": "02/01/2020, 18:08:17"}, "type": "Feature"}, {"geometry": {"coordinates": [8.521095, 47.389725], "type": "Point"}, "properties": {"charge": 54, "id": "bird_9dde0f14-f300-44e6-977d-d190090c4019", "provider": "bird", "timeStamp": "02/01/2020, 18:08:17"}, "type": "Feature"}, {"geometry": {"coordinates": [8.51453666666667, 47.3756833333333], "type": "Point"}, "properties": {"charge": 24, "id": "bird_2d8d9c5c-25ab-4f20-9ad0-fb10553e99d7", "provider": "bird", "timeStamp": "02/01/2020, 18:08:17"}, "type": "Feature"}, {"geometry": {"coordinates": [8.51412833333333, 47.37672], "type": "Point"}, "properties": {"charge": 29, "id": "bird_56476b14-919a-4f6f-8ce4-cc30764f46e8", "provider": "bird", "timeStamp": "02/01/2020, 18:08:17"}, "type": "Feature"}, {"geometry": {"coordinates": [8.51360166666667, 47.3782883333333], "type": "Point"}, "properties": {"charge": 91, "id": "bird_ea8c11a4-f19d-44ff-b866-3c5c164c0c82", "provider": "bird", "timeStamp": "02/01/2020, 18:08:17"}, "type": "Feature"}, {"geometry": {"coordinates": [8.53824166666667, 47.3703533333333], "type": "Point"}, "properties": {"charge": 45, "id": "bird_8e4791ae-ff98-4f19-ba91-4be271433918", "provider": "bird", "timeStamp": "02/01/2020, 18:08:17"}, "type": "Feature"}, {"geometry": {"coordinates": [8.54273333333333, 47.372975], "type": "Point"}, "properties": {"charge": 18, "id": "bird_db6ff6b7-939e-4037-9a9b-c083894a117f", "provider": "bird", "timeStamp": "02/01/2020, 18:08:17"}, "type": "Feature"}, {"geometry": {"coordinates": [8.51382, 47.378205], "type": "Point"}, "properties": {"charge": 70, "id": "bird_08a73a73-d382-4f18-bb46-0e2c7ed0506b", "provider": "bird", "timeStamp": "02/01/2020, 18:08:17"}, "type": "Feature"}, {"geometry": {"coordinates": [8.53779, 47.37024], "type": "Point"}, "properties": {"charge": 88, "id": "bird_8beab993-14a3-4e10-a126-73a884761366", "provider": "bird", "timeStamp": "02/01/2020, 18:08:17"}, "type": "Feature"}, {"geometry": {"coordinates": [8.534145, 47.3692816666667], "type": "Point"}, "properties": {"charge": 30, "id": "bird_acce71e9-d993-4741-a53d-9ed92216a947", "provider": "bird", "timeStamp": "02/01/2020, 18:08:17"}, "type": "Feature"}, {"geometry": {"coordinates": [8.51961, 47.3884816666667], "type": "Point"}, "properties": {"charge": 69, "id": "bird_751a35fb-b8c6-458c-a2d7-3edf225074c9", "provider": "bird", "timeStamp": "02/01/2020, 18:08:17"}, "type": "Feature"}, {"geometry": {"coordinates": [8.54592833333333, 47.3780283333333], "type": "Point"}, "properties": {"charge": 91, "id": "bird_b196189e-e074-4f2d-8846-35f7691fa905", "provider": "bird", "timeStamp": "02/01/2020, 18:08:17"}, "type": "Feature"}, {"geometry": {"coordinates": [8.54617, 47.380485], "type": "Point"}, "properties": {"charge": 37, "id": "bird_283498b7-bf29-4e7b-9c1f-e981f05dfd62", "provider": "bird", "timeStamp": "02/01/2020, 18:08:17"}, "type": "Feature"}, {"geometry": {"coordinates": [8.53541833333333, 47.3697133333333], "type": "Point"}, "properties": {"charge": 80, "id": "bird_bf5e364f-102c-4c63-b6ad-fc7f33da0096", "provider": "bird", "timeStamp": "02/01/2020, 18:08:17"}, "type": "Feature"}, {"geometry": {"coordinates": [8.54585166666667, 47.37807], "type": "Point"}, "properties": {"charge": 96, "id": "bird_8b9c23f7-97d8-48eb-9d52-9139eeca7fbb", "provider": "bird", "timeStamp": "02/01/2020, 18:08:17"}, "type": "Feature"}, {"geometry": {"coordinates": [8.53407, 47.369575], "type": "Point"}, "properties": {"charge": 57, "id": "bird_9c8fdae5-ab78-4bcf-8bc1-0a9e7a005cec", "provider": "bird", "timeStamp": "02/01/2020, 18:08:17"}, "type": "Feature"}, {"geometry": {"coordinates": [8.52715833333333, 47.3694083333333], "type": "Point"}, "properties": {"charge": 87, "id": "bird_9b01e6fb-0391-410f-bb1c-d79c45ad9ade", "provider": "bird", "timeStamp": "02/01/2020, 18:08:17"}, "type": "Feature"}, {"geometry": {"coordinates": [8.54138166666667, 47.37249], "type": "Point"}, "properties": {"charge": 78, "id": "bird_c81532cc-ce29-4e53-94ac-1537969ca91c", "provider": "bird", "timeStamp": "02/01/2020, 18:08:17"}, "type": "Feature"}, {"geometry": {"coordinates": [8.54564833333333, 47.378235], "type": "Point"}, "properties": {"charge": 98, "id": "bird_96c9f325-461c-44a8-887c-354226effd2e", "provider": "bird", "timeStamp": "02/01/2020, 18:08:17"}, "type": "Feature"}, {"geometry": {"coordinates": [8.53380333333333, 47.369625], "type": "Point"}, "properties": {"charge": 62, "id": "bird_2d2c2ed0-7feb-408b-8b35-7cc04bd2c3f3", "provider": "bird", "timeStamp": "02/01/2020, 18:08:17"}, "type": "Feature"}, {"geometry": {"coordinates": [8.515945, 47.37516], "type": "Point"}, "properties": {"charge": 80, "id": "bird_5a3719ef-e8dd-4c17-a66e-e5bb850f391e", "provider": "bird", "timeStamp": "02/01/2020, 18:08:17"}, "type": "Feature"}, {"geometry": {"coordinates": [8.52128666666667, 47.38879], "type": "Point"}, "properties": {"charge": 31, "id": "bird_b1c054d4-5841-4f32-a77f-9b8af2a09d97", "provider": "bird", "timeStamp": "02/01/2020, 18:08:17"}, "type": "Feature"}, {"geometry": {"coordinates": [8.52169833333333, 47.3710666666667], "type": "Point"}, "properties": {"charge": 80, "id": "bird_269389a5-463f-4538-9f88-6c420658d69a", "provider": "bird", "timeStamp": "02/01/2020, 18:08:17"}, "type": "Feature"}, {"geometry": {"coordinates": [8.53927, 47.3884616666667], "type": "Point"}, "properties": {"charge": 71, "id": "bird_eb0b2f65-42ee-4bb1-9927-dde3c7eddb7b", "provider": "bird", "timeStamp": "02/01/2020, 18:08:17"}, "type": "Feature"}, {"geometry": {"coordinates": [8.54525333333333, 47.3819816666667], "type": "Point"}, "properties": {"charge": 31, "id": "bird_aa41194e-8656-48e1-b568-3c086a22d1fd", "provider": "bird", "timeStamp": "02/01/2020, 18:08:17"}, "type": "Feature"}, {"geometry": {"coordinates": [8.51613, 47.3754433333333], "type": "Point"}, "properties": {"charge": 40, "id": "bird_56dfeb7f-ad2b-47e3-9fc6-dbfc2aa5903f", "provider": "bird", "timeStamp": "02/01/2020, 18:08:17"}, "type": "Feature"}, {"geometry": {"coordinates": [8.51548666666667, 47.3766516666667], "type": "Point"}, "properties": {"charge": 83, "id": "bird_4b793b03-c89c-4a41-a728-b1f83435fbc6", "provider": "bird", "timeStamp": "02/01/2020, 18:08:17"}, "type": "Feature"}, {"geometry": {"coordinates": [8.52024, 47.388005], "type": "Point"}, "properties": {"charge": 11, "id": "bird_7eba84b2-f987-4265-8946-4ce20d1f2d1b", "provider": "bird", "timeStamp": "02/01/2020, 18:08:17"}, "type": "Feature"}, {"geometry": {"coordinates": [8.51547666666667, 47.3767133333333], "type": "Point"}, "properties": {"charge": 82, "id": "bird_62e1d335-6229-4270-8c58-cb41429fd45a", "provider": "bird", "timeStamp": "02/01/2020, 18:08:17"}, "type": "Feature"}, {"geometry": {"coordinates": [8.52028833333333, 47.388015], "type": "Point"}, "properties": {"charge": 73, "id": "bird_6b02df25-7999-455a-b0e0-fd21c444ce7b", "provider": "bird", "timeStamp": "02/01/2020, 18:08:17"}, "type": "Feature"}, {"geometry": {"coordinates": [8.54455666666667, 47.3769], "type": "Point"}, "properties": {"charge": 94, "id": "bird_3d70a4b7-a826-43d4-86fa-f60aedd4d64c", "provider": "bird", "timeStamp": "02/01/2020, 18:08:17"}, "type": "Feature"}, {"geometry": {"coordinates": [8.54455166666667, 47.37693], "type": "Point"}, "properties": {"charge": 91, "id": "bird_0458a437-02f2-4d6b-95ec-5c7667f5bc77", "provider": "bird", "timeStamp": "02/01/2020, 18:08:17"}, "type": "Feature"}, {"geometry": {"coordinates": [8.51556666666667, 47.3832966666667], "type": "Point"}, "properties": {"charge": 93, "id": "bird_f29f1ea7-0d65-4e96-be62-67c320c924e7", "provider": "bird", "timeStamp": "02/01/2020, 18:08:17"}, "type": "Feature"}, {"geometry": {"coordinates": [8.53926833333333, 47.371865], "type": "Point"}, "properties": {"charge": 44, "id": "bird_c5065410-d125-474a-a079-207d39327730", "provider": "bird", "timeStamp": "02/01/2020, 18:08:17"}, "type": "Feature"}, {"geometry": {"coordinates": [8.51975, 47.372455], "type": "Point"}, "properties": {"charge": 20, "id": "bird_530cb39d-02e0-4d2d-beea-abe9b5b9a231", "provider": "bird", "timeStamp": "02/01/2020, 18:08:17"}, "type": "Feature"}, {"geometry": {"coordinates": [8.53522166666667, 47.3703916666667], "type": "Point"}, "properties": {"charge": 74, "id": "bird_dbefb92d-ab1b-4f8c-8104-fd40c74f5d25", "provider": "bird", "timeStamp": "02/01/2020, 18:08:17"}, "type": "Feature"}, {"geometry": {"coordinates": [8.51785166666667, 47.385955], "type": "Point"}, "properties": {"charge": 24, "id": "bird_0c42abea-7092-4537-8a45-f55302aae064", "provider": "bird", "timeStamp": "02/01/2020, 18:08:17"}, "type": "Feature"}, {"geometry": {"coordinates": [8.54403, 47.37645], "type": "Point"}, "properties": {"charge": 93, "id": "bird_d059bb1e-3366-4e74-909c-35b51bb507e2", "provider": "bird", "timeStamp": "02/01/2020, 18:08:17"}, "type": "Feature"}, {"geometry": {"coordinates": [8.54400166666667, 47.3764683333333], "type": "Point"}, "properties": {"charge": 93, "id": "bird_cfd154b4-5a26-4524-81c0-dca3517ded2f", "provider": "bird", "timeStamp": "02/01/2020, 18:08:17"}, "type": "Feature"}, {"geometry": {"coordinates": [8.51822, 47.3862033333333], "type": "Point"}, "properties": {"charge": 29, "id": "bird_6ae04d24-9957-4f58-9600-5da3a310f311", "provider": "bird", "timeStamp": "02/01/2020, 18:08:17"}, "type": "Feature"}, {"geometry": {"coordinates": [8.51820166666667, 47.3738283333333], "type": "Point"}, "properties": {"charge": 22, "id": "bird_d9fe0f34-9573-4a13-8918-5426ea47acf4", "provider": "bird", "timeStamp": "02/01/2020, 18:08:17"}, "type": "Feature"}, {"geometry": {"coordinates": [8.52048166666667, 47.372235], "type": "Point"}, "properties": {"charge": 67, "id": "bird_631b0dc3-037f-4f23-b3c0-45a2fae770ee", "provider": "bird", "timeStamp": "02/01/2020, 18:08:17"}, "type": "Feature"}, {"geometry": {"coordinates": [8.51509833333333, 47.3799633333333], "type": "Point"}, "properties": {"charge": 36, "id": "bird_7e664e32-b9df-4f21-b776-466d8e1d9828", "provider": "bird", "timeStamp": "02/01/2020, 18:08:17"}, "type": "Feature"}, {"geometry": {"coordinates": [8.532995, 47.3898583333333], "type": "Point"}, "properties": {"charge": 36, "id": "bird_0d81403c-dabd-4b36-8e15-3f894b513242", "provider": "bird", "timeStamp": "02/01/2020, 18:08:17"}, "type": "Feature"}, {"geometry": {"coordinates": [8.51719666666667, 47.3850783333333], "type": "Point"}, "properties": {"charge": 64, "id": "bird_061cb443-c6f7-4d87-999c-533c00733997", "provider": "bird", "timeStamp": "02/01/2020, 18:08:17"}, "type": "Feature"}, {"geometry": {"coordinates": [8.51638166666667, 47.3760183333333], "type": "Point"}, "properties": {"charge": 79, "id": "bird_850f28dd-4cd0-4b3b-a9f6-60d3f8ccab9c", "provider": "bird", "timeStamp": "02/01/2020, 18:08:17"}, "type": "Feature"}, {"geometry": {"coordinates": [8.54387166666667, 47.3764616666667], "type": "Point"}, "properties": {"charge": 37, "id": "bird_0ad2b1a1-ee3f-456d-8d5e-0d4e1552ca33", "provider": "bird", "timeStamp": "02/01/2020, 18:08:17"}, "type": "Feature"}, {"geometry": {"coordinates": [8.52150833333333, 47.388195], "type": "Point"}, "properties": {"charge": 18, "id": "bird_cf620108-a01a-4d02-9e46-19baea95f562", "provider": "bird", "timeStamp": "02/01/2020, 18:08:17"}, "type": "Feature"}, {"geometry": {"coordinates": [8.54370833333333, 47.3763233333333], "type": "Point"},