{"features": [{"geometry": {"coordinates": [8.540062, 47.374392], "type": "Point"}, "properties": {"address": "Uraniastrasse 7", "electric": 7, "id": "pb_60", "manual": 8, "name": "Demo Station Werdm\u00fchleplatz", "provider": "publibike", "timeStamp": "01/26/2020, 10:28:45", "zip": 8001}, "type": "Feature"}, {"geometry": {"coordinates": [8.5452956, 47.4099615], "type": "Point"}, "properties": {"address": "Querstrasse 8", "electric": 3, "id": "pb_61", "manual": 4, "name": "Marktplatz", "provider": "publibike", "timeStamp": "01/26/2020, 10:28:45", "zip": 8050}, "type": "Feature"}, {"geometry": {"coordinates": [8.5156327, 47.3795837], "type": "Point"}, "properties": {"address": "Bullingerstrasse 5", "electric": 6, "id": "pb_80", "manual": 13, "name": "Bullingerplatz", "provider": "publibike", "timeStamp": "01/26/2020, 10:28:45", "zip": 8004}, "type": "Feature"}, {"geometry": {"coordinates": [8.5104051, 47.3899342], "type": "Point"}, "properties": {"address": "Pfingstweidstrasse 96e", "electric": 2, "id": "pb_81", "manual": 5, "name": "Herdern", "provider": "publibike", "timeStamp": "01/26/2020, 10:28:45", "zip": 8001}, "type": "Feature"}, {"geometry": {"coordinates": [8.535718, 47.359675], "type": "Point"}, "properties": {"address": "Mythenquai 50", "electric": 1, "id": "pb_82", "manual": 1, "name": "Hafen Enge", "provider": "publibike", "timeStamp": "01/26/2020, 10:28:45", "zip": 8002}, "type": "Feature"}, {"geometry": {"coordinates": [8.520370505, 47.358663827], "type": "Point"}, "properties": {"address": "Bubenbergstrasse 1", "electric": 3, "id": "pb_83", "manual": 1, "name": "Comerge", "provider": "publibike", "timeStamp": "01/26/2020, 10:28:45", "zip": 8045}, "type": "Feature"}, {"geometry": {"coordinates": [8.5412505, 47.3789825], "type": "Point"}, "properties": {"address": "Museumstrasse 2", "electric": 4, "id": "pb_84", "manual": 32, "name": "Landesmuseum", "provider": "publibike", "timeStamp": "01/26/2020, 10:28:45", "zip": 8001}, "type": "Feature"}, {"geometry": {"coordinates": [8.5235479, 47.3716661], "type": "Point"}, "properties": {"address": "Birmensdorferstrasse 80", "electric": 2, "id": "pb_85", "manual": 7, "name": "Bahnhof Wiedikon", "provider": "publibike", "timeStamp": "01/26/2020, 10:28:45", "zip": 8003}, "type": "Feature"}, {"geometry": {"coordinates": [8.506822854, 47.40781197], "type": "Point"}, "properties": {"address": "Stefano-Franscini-Platz 5", "electric": 4, "id": "pb_86", "manual": 0, "name": "ETH H\u00f6nggerberg", "provider": "publibike", "timeStamp": "01/26/2020, 10:28:45", "zip": 8093}, "type": "Feature"}, {"geometry": {"coordinates": [8.536101, 47.371083], "type": "Point"}, "properties": {"address": "Pelikanplatz 5", "electric": 0, "id": "pb_87", "manual": 2, "name": "Pelikanplatz", "provider": "publibike", "timeStamp": "01/26/2020, 10:28:45", "zip": 8001}, "type": "Feature"}, {"geometry": {"coordinates": [8.5257822, 47.3651936], "type": "Point"}, "properties": {"address": "H\u00fcrlimannplatz 90", "electric": 3, "id": "pb_88", "manual": 0, "name": "H\u00fcrlimannplatz", "provider": "publibike", "timeStamp": "01/26/2020, 10:28:45", "zip": 8002}, "type": "Feature"}, {"geometry": {"coordinates": [8.5313344, 47.3713591], "type": "Point"}, "properties": {"address": "Selnaustrasse 32", "electric": 2, "id": "pb_89", "manual": 3, "name": "Stauffacherbr\u00fccke", "provider": "publibike", "timeStamp": "01/26/2020, 10:28:45", "zip": 8001}, "type": "Feature"}, {"geometry": {"coordinates": [8.5056978, 47.3917964], "type": "Point"}, "properties": {"address": "Sportweg 25", "electric": 5, "id": "pb_90", "manual": 2, "name": "Sportweg", "provider": "publibike", "timeStamp": "01/26/2020, 10:28:45", "zip": 8005}, "type": "Feature"}, {"geometry": {"coordinates": [8.5181701, 47.3917837], "type": "Point"}, "properties": {"address": "Hardturmstrasse 11", "electric": 0, "id": "pb_91", "manual": 5, "name": "Puls 5", "provider": "publibike", "timeStamp": "01/26/2020, 10:28:45", "zip": 8005}, "type": "Feature"}, {"geometry": {"coordinates": [8.5286468, 47.3820827], "type": "Point"}, "properties": {"address": "R\u00f6ntgenstrasse 6", "electric": 1, "id": "pb_92", "manual": 3, "name": "R\u00f6ntgenstrasse", "provider": "publibike", "timeStamp": "01/26/2020, 10:28:45", "zip": 8005}, "type": "Feature"}, {"geometry": {"coordinates": [8.531935, 47.384918], "type": "Point"}, "properties": {"address": "Kornhausbr\u00fccke 1", "electric": 3, "id": "pb_93", "manual": 6, "name": "Limmatplatz", "provider": "publibike", "timeStamp": "01/26/2020, 10:28:45", "zip": 8005}, "type": "Feature"}, {"geometry": {"coordinates": [8.5354006, 47.3758639], "type": "Point"}, "properties": {"address": "Gessnerallee 15", "electric": 8, "id": "pb_94", "manual": 7, "name": "Gessnerallee", "provider": "publibike", "timeStamp": "01/26/2020, 10:28:45", "zip": 8001}, "type": "Feature"}, {"geometry": {"coordinates": [8.523818, 47.377148], "type": "Point"}, "properties": {"address": "Stauffacherstrasse 127", "electric": 5, "id": "pb_95", "manual": 0, "name": "B\u00e4ckeranlage", "provider": "publibike", "timeStamp": "01/26/2020, 10:28:45", "zip": 8004}, "type": "Feature"}, {"geometry": {"coordinates": [8.531836, 47.378548], "type": "Point"}, "properties": {"address": "Lagerstrasse 44", "electric": 1, "id": "pb_96", "manual": 4, "name": "Gustav-Gull-Platz", "provider": "publibike", "timeStamp": "01/26/2020, 10:28:45", "zip": 8004}, "type": "Feature"}, {"geometry": {"coordinates": [8.5104883, 47.3771535], "type": "Point"}, "properties": {"address": "Zurlindenstrasse 291", "electric": 7, "id": "pb_97", "manual": 5, "name": "Zurlindenstrasse", "provider": "publibike", "timeStamp": "01/26/2020, 10:28:45", "zip": 8003}, "type": "Feature"}, {"geometry": {"coordinates": [8.5333139, 47.3731102], "type": "Point"}, "properties": {"address": "Sihlstrasse 81", "electric": 0, "id": "pb_98", "manual": 1, "name": "Sihlstrasse", "provider": "publibike", "timeStamp": "01/26/2020, 10:28:45", "zip": 8001}, "type": "Feature"}, {"geometry": {"coordinates": [8.520532, 47.374951], "type": "Point"}, "properties": {"address": "Feldstrasse 24", "electric": 1, "id": "pb_99", "manual": 5, "name": "Kalkbreite", "provider": "publibike", "timeStamp": "01/26/2020, 10:28:45", "zip": 8004}, "type": "Feature"}, {"geometry": {"coordinates": [8.539046, 47.368064], "type": "Point"}, "properties": {"address": "Talstrasse 12", "electric": 3, "id": "pb_100", "manual": 0, "name": "Z\u00fcrcher Kantonalbank", "provider": "publibike", "timeStamp": "01/26/2020, 10:28:45", "zip": 8001}, "type": "Feature"}, {"geometry": {"coordinates": [8.5348427, 47.3625938], "type": "Point"}, "properties": {"address": "Breitingerstrasse 5", "electric": 3, "id": "pb_101", "manual": 0, "name": "Rentenanstalt", "provider": "publibike", "timeStamp": "01/26/2020, 10:28:45", "zip": 8002}, "type": "Feature"}, {"geometry": {"coordinates": [8.5166922, 47.3897772], "type": "Point"}, "properties": {"address": "Technoparkstrasse 4", "electric": 1, "id": "pb_102", "manual": 2, "name": "Turbinenplatz", "provider": "publibike", "timeStamp": "01/26/2020, 10:28:45", "zip": 8005}, "type": "Feature"}, {"geometry": {"coordinates": [8.539312, 47.3739964], "type": "Point"}, "properties": {"address": "Oetenbachgasse 14", "electric": 2, "id": "pb_104", "manual": 10, "name": "Rennweg", "provider": "publibike", "timeStamp": "01/26/2020, 10:28:45", "zip": 8001}, "type": "Feature"}, {"geometry": {"coordinates": [8.5360685, 47.3775022], "type": "Point"}, "properties": {"address": "Kasernenstrasse 101", "electric": 23, "id": "pb_105", "manual": 33, "name": "Sihlpost", "provider": "publibike", "timeStamp": "01/26/2020, 10:28:45", "zip": 8004}, "type": "Feature"}, {"geometry": {"coordinates": [8.53545, 47.382798], "type": "Point"}, "properties": {"address": "Ausstellungsstrasse 44", "electric": 2, "id": "pb_106", "manual": 7, "name": "Museum f\u00fcr Gestaltung", "provider": "publibike", "timeStamp": "01/26/2020, 10:28:45", "zip": 8005}, "type": "Feature"}, {"geometry": {"coordinates": [8.5306155, 47.3647902], "type": "Point"}, "properties": {"address": "Gutenbergstrasse 1", "electric": 10, "id": "pb_107", "manual": 7, "name": "Bederbr\u00fccke", "provider": "publibike", "timeStamp": "01/26/2020, 10:28:45", "zip": 8002}, "type": "Feature"}, {"geometry": {"coordinates": [8.518982, 47.386741], "type": "Point"}, "properties": {"address": "Geroldstrasse 4", "electric": 1, "id": "pb_108", "manual": 9, "name": "Bahnhof Hardbr\u00fccke", "provider": "publibike", "timeStamp": "01/26/2020, 10:28:45", "zip": 8005}, "type": "Feature"}, {"geometry": {"coordinates": [8.53001018, 47.37247535], "type": "Point"}, "properties": {"address": "Werdstrasse 21", "electric": 1, "id": "pb_109", "manual": 1, "name": "Tamedia", "provider": "publibike", "timeStamp": "01/26/2020, 10:28:45", "zip": 8004}, "type": "Feature"}, {"geometry": {"coordinates": [8.4860017, 47.396401], "type": "Point"}, "properties": {"address": "Gr\u00fcnauring 37", "electric": 9, "id": "pb_110", "manual": 7, "name": "Gr\u00fcnau", "provider": "publibike", "timeStamp": "01/26/2020, 10:28:45", "zip": 8064}, "type": "Feature"}, {"geometry": {"coordinates": [8.548519, 47.376756], "type": "Point"}, "properties": {"address": "R\u00e4mistrasse 101", "electric": 24, "id": "pb_111", "manual": 1, "name": "ETH Zentrum", "provider": "publibike", "timeStamp": "01/26/2020, 10:28:45", "zip": 8006}, "type": "Feature"}, {"geometry": {"coordinates": [8.520449, 47.388151], "type": "Point"}, "properties": {"address": "Josefstrasse 224", "electric": 0, "id": "pb_112", "manual": 2, "name": "Steinfelsareal", "provider": "publibike", "timeStamp": "01/26/2020, 10:28:45", "zip": 8005}, "type": "Feature"}, {"geometry": {"coordinates": [8.520482, 47.37209], "type": "Point"}, "properties": {"address": "Weststrasse 115", "electric": 0, "id": "pb_124", "manual": 6, "name": "Weststrasse", "provider": "publibike", "timeStamp": "01/26/2020, 10:28:45", "zip": 8003}, "type": "Feature"}, {"geometry": {"coordinates": [8.496727, 47.378521], "type": "Point"}, "properties": {"address": "Albisriederstrasse 200", "electric": 6, "id": "pb_125", "manual": 1, "name": "Utogrund", "provider": "publibike", "timeStamp": "01/26/2020, 10:28:45", "zip": 8047}, "type": "Feature"}, {"geometry": {"coordinates": [8.510418, 47.381356], "type": "Point"}, "properties": {"address": "Bullingerstrasse 73", "electric": 1, "id": "pb_126", "manual": 3, "name": "Hardau", "provider": "publibike", "timeStamp": "01/26/2020, 10:28:45", "zip": 8004}, "type": "Feature"}, {"geometry": {"coordinates": [8.525525, 47.361567], "type": "Point"}, "properties": {"address": "Klopstockstrasse 23", "electric": 3, "id": "pb_127", "manual": 0, "name": "Klopstockwiese", "provider": "publibike", "timeStamp": "01/26/2020, 10:28:45", "zip": 8002}, "type": "Feature"}, {"geometry": {"coordinates": [8.518143, 47.363148], "type": "Point"}, "properties": {"address": "Haldenstrasse 8", "electric": 5, "id": "pb_128", "manual": 10, "name": "Binz", "provider": "publibike", "timeStamp": "01/26/2020, 10:28:45", "zip": 8045}, "type": "Feature"}, {"geometry": {"coordinates": [8.542726, 47.379952], "type": "Point"}, "properties": {"address": "Walchestrasse 11", "electric": 2, "id": "pb_129", "manual": 0, "name": "Stampfenbachplatz", "provider": "publibike", "timeStamp": "01/26/2020, 10:28:45", "zip": 8006}, "type": "Feature"}, {"geometry": {"coordinates": [8.488108, 47.391366], "type": "Point"}, "properties": {"address": "Altstetterplatz 1", "electric": 4, "id": "pb_130", "manual": 10, "name": "Bahnhof Altstetten", "provider": "publibike", "timeStamp": "01/26/2020, 10:28:45", "zip": 8048}, "type": "Feature"}, {"geometry": {"coordinates": [8.554114, 47.365119], "type": "Point"}, "properties": {"address": "Kreuzplatz 2", "electric": 4, "id": "pb_131", "manual": 1, "name": "Kreuzplatz", "provider": "publibike", "timeStamp": "01/26/2020, 10:28:45", "zip": 8032}, "type": "Feature"}, {"geometry": {"coordinates": [8.549852, 47.35594], "type": "Point"}, "properties": {"address": "H\u00f6schgasse 3", "electric": 1, "id": "pb_132", "manual": 4, "name": "Blatterwiese", "provider": "publibike", "timeStamp": "01/26/2020, 10:28:45", "zip": 8008}, "type": "Feature"}, {"geometry": {"coordinates": [8.554501, 47.36162], "type": "Point"}, "properties": {"address": "Feldeggstrasse 80", "electric": 10, "id": "pb_133", "manual": 5, "name": "Villa Bleuler", "provider": "publibike", "timeStamp": "01/26/2020, 10:28:45", "zip": 8008}, "type": "Feature"}, {"geometry": {"coordinates": [8.557088, 47.358557], "type": "Point"}, "properties": {"address": "M\u00fchlebachstrasse 131", "electric": 5, "id": "pb_134", "manual": 4, "name": "M\u00fchlebachstrasse", "provider": "publibike", "timeStamp": "01/26/2020, 10:28:45", "zip": 8008}, "type": "Feature"}, {"geometry": {"coordinates": [8.547639, 47.361266], "type": "Point"}, "properties": {"address": "Utoquai 50", "electric": 2, "id": "pb_135", "manual": 6, "name": "Seebad Utoquai", "provider": "publibike", "timeStamp": "01/26/2020, 10:28:45", "zip": 8008}, "type": "Feature"}, {"geometry": {"coordinates": [8.548045, 47.370869], "type": "Point"}, "properties": {"address": "Heimplatz 1", "electric": 10, "id": "pb_137", "manual": 0, "name": "Kunsthaus", "provider": "publibike", "timeStamp": "01/26/2020, 10:28:45", "zip": 8001}, "type": "Feature"}, {"geometry": {"coordinates": [8.543447, 47.375933], "type": "Point"}, "properties": {"address": "Limmatquai 138", "electric": 1, "id": "pb_138", "manual": 18, "name": "Central", "provider": "publibike", "timeStamp": "01/26/2020, 10:28:45", "zip": 8001}, "type": "Feature"}, {"geometry": {"coordinates": [8.549356, 47.408827], "type": "Point"}, "properties": {"address": "Tramstrasse 35", "electric": 1, "id": "pb_139", "manual": 4, "name": "ewz Tramstrasse", "provider": "publibike", "timeStamp": "01/26/2020, 10:28:45", "zip": 8050}, "type": "Feature"}, {"geometry": {"coordinates": [8.533736, 47.366904], "type": "Point"}, "properties": {"address": "Bleicherweg 33", "electric": 3, "id": "pb_140", "manual": 2, "name": "Bleicherweg", "provider": "publibike", "timeStamp": "01/26/2020, 10:28:45", "zip": 8002}, "type": "Feature"}, {"geometry": {"coordinates": [8.544935, 47.366752], "type": "Point"}, "properties": {"address": "Bellevueplatz 2", "electric": 35, "id": "pb_141", "manual": 25, "name": "Bellevue", "provider": "publibike", "timeStamp": "01/26/2020, 10:28:45", "zip": 8001}, "type": "Feature"}, {"geometry": {"coordinates": [8.5285533, 47.3742296], "type": "Point"}, "properties": {"address": "Stauffacherstrasse 41", "electric": 2, "id": "pb_142", "manual": 0, "name": "Stauffacher", "provider": "publibike", "timeStamp": "01/26/2020, 10:28:45", "zip": 8004}, "type": "Feature"}, {"geometry": {"coordinates": [8.523722, 47.3899], "type": "Point"}, "properties": {"address": "Limmatstrasse 310", "electric": 3, "id": "pb_143", "manual": 3, "name": "Escher-Wyss-Platz", "provider": "publibike", "timeStamp": "01/26/2020, 10:28:45", "zip": 8005}, "type": "Feature"}, {"geometry": {"coordinates": [8.491061, 47.392336], "type": "Point"}, "properties": {"address": "Vulkanplatz 1", "electric": 1, "id": "pb_149", "manual": 13, "name": "Vulkanplatz", "provider": "publibike", "timeStamp": "01/26/2020, 10:28:45", "zip": 8048}, "type": "Feature"}, {"geometry": {"coordinates": [8.52306, 47.359872], "type": "Point"}, "properties": {"address": "Giessh\u00fcbelstrasse 15", "electric": 12, "id": "pb_150", "manual": 5, "name": "Utoplatz", "provider": "publibike", "timeStamp": "01/26/2020, 10:28:45", "zip": 8045}, "type": "Feature"}, {"geometry": {"coordinates": [8.486284, 47.387685], "type": "Point"}, "properties": {"address": "Lindenplatz 1", "electric": 14, "id": "pb_151", "manual": 11, "name": "Lindenplatz", "provider": "publibike", "timeStamp": "01/26/2020, 10:28:45", "zip": 8048}, "type": "Feature"}, {"geometry": {"coordinates": [8.49163, 47.389823], "type": "Point"}, "properties": {"address": "Hohlstrasse 563", "electric": 2, "id": "pb_152", "manual": 8, "name": "Luggweg", "provider": "publibike", "timeStamp": "01/26/2020, 10:28:45", "zip": 8048}, "type": "Feature"}, {"geometry": {"coordinates": [8.52174, 47.365272], "type": "Point"}, "properties": {"address": "Manessestrasse 87", "electric": 0, "id": "pb_153", "manual": 0, "name": "Manesseplatz", "provider": "publibike", "timeStamp": "01/26/2020, 10:28:45", "zip": 8045}, "type": "Feature"}, {"geometry": {"coordinates": [8.52714, 47.372329], "type": "Point"}, "properties": {"address": "Werdstrasse 75", "electric": 4, "id": "pb_154", "manual": 0, "name": "Werd", "provider": "publibike", "timeStamp": "01/26/2020, 10:28:45", "zip": 8004}, "type": "Feature"}, {"geometry": {"coordinates": [8.543042, 47.374711], "type": "Point"}, "properties": {"address": "Limmatquai 100", "electric": 0, "id": "pb_155", "manual": 0, "name": "Rudolf-Brun-Br\u00fccke", "provider": "publibike", "timeStamp": "01/26/2020, 10:28:45", "zip": 8001}, "type": "Feature"}, {"geometry": {"coordinates": [8.490837, 47.386596], "type": "Point"}, "properties": {"address": "Badenerstrasse 627", "electric": 4, "id": "pb_156", "manual": 3, "name": "Luggwegstrasse VBZ", "provider": "publibike", "timeStamp": "01/26/2020, 10:28:45", "zip": 8048}, "type": "Feature"}, {"geometry": {"coordinates": [8.535119, 47.355189], "type": "Point"}, "properties": {"address": "Mythenquai 95", "electric": 8, "id": "pb_157", "manual": 1, "name": "Strandbad Mythenquai", "provider": "publibike", "timeStamp": "01/26/2020, 10:28:45", "zip": 8002}, "type": "Feature"}, {"geometry": {"coordinates": [8.545505, 47.373675], "type": "Point"}, "properties": {"address": "Predigerpatz 21", "electric": 4, "id": "pb_158", "manual": 6, "name": "Predigerplatz", "provider": "publibike", "timeStamp": "01/26/2020, 10:28:45", "zip": 8001}, "type": "Feature"}, {"geometry": {"coordinates": [8.515558, 47.371868], "type": "Point"}, "properties": {"address": "Aemtlerstrasse 23", "electric": 1, "id": "pb_159", "manual": 2, "name": "Zwinglihaus", "provider": "publibike", "timeStamp": "01/26/2020, 10:28:45", "zip": 8003}, "type": "Feature"}, {"geometry": {"coordinates": [8.524629, 47.386072], "type": "Point"}, "properties": {"address": "Josefstrasse 188", "electric": 3, "id": "pb_160", "manual": 2, "name": "Josefwiese", "provider": "publibike", "timeStamp": "01/26/2020, 10:28:45", "zip": 8005}, "type": "Feature"}, {"geometry": {"coordinates": [8.527138, 47.387531], "type": "Point"}, "properties": {"address": "R\u00f6ntgenstrasse 87", "electric": 7, "id": "pb_164", "manual": 3, "name": "Markthalle", "provider": "publibike", "timeStamp": "01/26/2020, 10:28:45", "zip": 8005}, "type": "Feature"}, {"geometry": {"coordinates": [8.552717, 47.359978], "type": "Point"}, "properties": {"address": "Seefeldstrasse 96", "electric": 7, "id": "pb_263", "manual": 16, "name": "Feldeggstrasse", "provider": "publibike", "timeStamp": "01/26/2020, 10:28:45", "zip": 8008}, "type": "Feature"}, {"geometry": {"coordinates": [8.553189, 47.353198], "type": "Point"}, "properties": {"address": "Bellerivestrasse 170", "electric": 0, "id": "pb_264", "manual": 0, "name": "Lake Side", "provider": "publibike", "timeStamp": "01/26/2020, 10:28:45", "zip": 8008}, "type": "Feature"}, {"geometry": {"coordinates": [8.543437, 47.369256], "type": "Point"}, "properties": {"address": "Limmatquai 18", "electric": 0, "id": "pb_265", "manual": 0, "name": "Helmhaus", "provider": "publibike", "timeStamp": "01/26/2020, 10:28:45", "zip": 8032}, "type": "Feature"}, {"geometry": {"coordinates": [8.516676, 47.375819], "type": "Point"}, "properties": {"address": "Badenerstrasse 246", "electric": 11, "id": "pb_266", "manual": 5, "name": "Lochergut", "provider": "publibike", "timeStamp": "01/26/2020, 10:28:45", "zip": 8004}, "type": "Feature"}, {"geometry": {"coordinates": [8.514605, 47.389862], "type": "Point"}, "properties": {"address": "Pfingstweidstrasse 60", "electric": 1, "id": "pb_273", "manual": 3, "name": "Westpark", "provider": "publibike", "timeStamp": "01/26/2020, 10:28:45", "zip": 8005}, "type": "Feature"}, {"geometry": {"coordinates": [8.541239126, 47.375991201], "type": "Point"}, "properties": {"address": "Beatenplatz 1", "electric": 7, "id": "pb_274", "manual": 10, "name": "Beatenplatz", "provider": "publibike", "timeStamp": "01/26/2020, 10:28:45", "zip": 8001}, "type": "Feature"}, {"geometry": {"coordinates": [8.5417135, 47.3942197], "type": "Point"}, "properties": {"address": "Scheuchzerstrasse 181", "electric": 1, "id": "pb_275", "manual": 0, "name": "Pauluskirche", "provider": "publibike", "timeStamp": "01/26/2020, 10:28:45", "zip": 8057}, "type": "Feature"}, {"geometry": {"coordinates": [8.5528182, 47.414558], "type": "Point"}, "properties": {"address": "Hagenholzstrasse 51", "electric": 0, "id": "pb_276", "manual": 10, "name": "Airgate", "provider": "publibike", "timeStamp": "01/26/2020, 10:28:45", "zip": 8050}, "type": "Feature"}, {"geometry": {"coordinates": [8.537816, 47.413514], "type": "Point"}, "properties": {"address": "Birchstrasse 183", "electric": 4, "id": "pb_277", "manual": 4, "name": "Lamprechtweg", "provider": "publibike", "timeStamp": "01/26/2020, 10:28:45", "zip": 8050}, "type": "Feature"}, {"geometry": {"coordinates": [8.545602, 47.417701], "type": "Point"}, "properties": {"address": "Felsenrainstrasse 2", "electric": 7, "id": "pb_278", "manual": 9, "name": "Emil-Oberh\u00e4nsli", "provider": "publibike", "timeStamp": "01/26/2020, 10:28:45", "zip": 8050}, "type": "Feature"}, {"geometry": {"coordinates": [8.533647, 47.39808], "type": "Point"}, "properties": {"address": "Bucheggplatz 2", "electric": 2, "id": "pb_279", "manual": 0, "name": "Bucheggplatz", "provider": "publibike", "timeStamp": "01/26/2020, 10:28:45", "zip": 8057}, "type": "Feature"}, {"geometry": {"coordinates": [8.523549, 47.392347], "type": "Point"}, "properties": {"address": "Wipkingerplatz 4", "electric": 5, "id": "pb_280", "manual": 6, "name": "Wipkingerplatz", "provider": "publibike", "timeStamp": "01/26/2020, 10:28:45", "zip": 8037}, "type": "Feature"}, {"geometry": {"coordinates": [8.548562, 47.36691], "type": "Point"}, "properties": {"address": "Galerie \u00fcber Gleis 2/3", "electric": 13, "id": "pb_285", "manual": 3, "name": "Bahnhof Stadelhofen", "provider": "publibike", "timeStamp": "01/26/2020, 10:28:45", "zip": 8001}, "type": "Feature"}, {"geometry": {"coordinates": [8.493822, 47.3985553], "type": "Point"}, "properties": {"address": "Meierwiesenstrasse 12-4", "electric": 1, "id": "pb_286", "manual": 3, "name": "T\u00fcffenwies", "provider": "publibike", "timeStamp": "01/26/2020, 10:28:45", "zip": 8064}, "type": "Feature"}, {"geometry": {"coordinates": [8.552432, 47.3801757], "type": "Point"}, "properties": {"address": "Hochstrasse 34", "electric": 0, "id": "pb_356", "manual": 0, "name": "Siriuswiese", "provider": "publibike", "timeStamp": "01/26/2020, 10:28:45", "zip": 8044}, "type": "Feature"}, {"geometry": {"coordinates": [8.527298, 47.370141], "type": "Point"}, "properties": {"address": "Hallwylstrasse 71", "electric": 2, "id": "pb_357", "manual": 3, "name": "Hallwylstrasse", "provider": "publibike", "timeStamp": "01/26/2020, 10:28:45", "zip": 8004}, "type": "Feature"}, {"geometry": {"coordinates": [8.5414185, 47.3972455], "type": "Point"}, "properties": {"address": "Schaffhauserstrasse 137", "electric": 8, "id": "pb_358", "manual": 3, "name": "Milchbuck", "provider": "publibike", "timeStamp": "01/26/2020, 10:28:45", "zip": 8057}, "type": "Feature"}, {"geometry": {"coordinates": [8.512381, 47.393409], "type": "Point"}, "properties": {"address": "Hardturmstrasse 161", "electric": 1, "id": "pb_359", "manual": 1, "name": "Fischerweg", "provider": "publibike", "timeStamp": "01/26/2020, 10:28:45", "zip": 8005}, "type": "Feature"}, {"geometry": {"coordinates": [8.5421457, 47.3876979], "type": "Point"}, "properties": {"address": "Turnerstrasse 47", "electric": 0, "id": "pb_360", "manual": 0, "name": "Kirche Unterstrass", "provider": "publibike", "timeStamp": "01/26/2020, 10:28:45", "zip": 8006}, "type": "Feature"}, {"geometry": {"coordinates": [8.522117, 47.394554], "type": "Point"}, "properties": {"address": "Dorfstrasse 40", "electric": 1, "id": "pb_361", "manual": 1, "name": "Dorfstrasse", "provider": "publibike", "timeStamp": "01/26/2020, 10:28:45", "zip": 8037}, "type": "Feature"}, {"geometry": {"coordinates": [8.530437, 47.37271], "type": "Point"}, "properties": {"address": "Werdstrasse 25", "electric": 1, "id": "pb_362", "manual": 3, "name": "Stauffachertor", "provider": "publibike", "timeStamp": "01/26/2020, 10:28:45", "zip": 8004}, "type": "Feature"}, {"geometry": {"coordinates": [8.541712, 47.416155], "type": "Point"}, "properties": {"address": "Eggb\u00fchlstrasse 21", "electric": 1, "id": "pb_363", "manual": 2, "name": "Wahlenpark", "provider": "publibike", "timeStamp": "01/26/2020, 10:28:45", "zip": 8050}, "type": "Feature"}, {"geometry": {"coordinates": [8.5595335, 47.3708387], "type": "Point"}, "properties": {"address": "Dolderstrasse 32", "electric": 7, "id": "pb_364", "manual": 1, "name": "Kinderspital", "provider": "publibike", "timeStamp": "01/26/2020, 10:28:45", "zip": 8032}, "type": "Feature"}, {"geometry": {"coordinates": [8.536433, 47.388689], "type": "Point"}, "properties": {"address": "Kornhausstrasse 30", "electric": 1, "id": "pb_365", "manual": 1, "name": "Kornhausstrasse", "provider": "publibike", "timeStamp": "01/26/2020, 10:28:45", "zip": 8006}, "type": "Feature"}, {"geometry": {"coordinates": [8.55033, 47.407098], "type": "Point"}, "properties": {"address": "Schwamendingenstrasse 41", "electric": 1, "id": "pb_366", "manual": 1, "name": "Dorflinde", "provider": "publibike", "timeStamp": "01/26/2020, 10:28:45", "zip": 8050}, "type": "Feature"}, {"geometry": {"coordinates": [8.560476, 47.368199], "type": "Point"}, "properties": {"address": "R\u00f6merhofplatz 5", "electric": 10, "id": "pb_367", "manual": 1, "name": "R\u00f6merhof", "provider": "publibike", "timeStamp": "01/26/2020, 10:28:45", "zip": 8032}, "type": "Feature"}, {"geometry": {"coordinates": [8.5609218, 47.3619068], "type": "Point"}, "properties": {"address": "Forchstrasse 99", "electric": 5, "id": "pb_368", "manual": 4, "name": "Hegibachplatz", "provider": "publibike", "timeStamp": "01/26/2020, 10:28:45", "zip": 8032}, "type": "Feature"}, {"geometry": {"coordinates": [8.5721264, 47.4039985], "type": "Point"}, "properties": {"address": "Winterthurerstrasse 519", "electric": 1, "id": "pb_370", "manual": 4, "name": "Schwamendingerplatz", "provider": "publibike", "timeStamp": "01/26/2020, 10:28:45", "zip": 8051}, "type": "Feature"}, {"geometry": {"coordinates": [8.520168, 47.378556], "type": "Point"}, "properties": {"address": "Herman-Greulich-Strasse 56", "electric": 6, "id": "pb_384", "manual": 8, "name": "Hermann-Greulich-Weg", "provider": "publibike", "timeStamp": "01/26/2020, 10:28:45", "zip": 8004}, "type": "Feature"}, {"geometry": {"coordinates": [8.547912, 47.384923], "type": "Point"}, "properties": {"address": "Culmannstrasse", "electric": 3, "id": "pb_386", "manual": 2, "name": "Rigiplatz", "provider": "publibike", "timeStamp": "01/26/2020, 10:28:45", "zip": 8006}, "type": "Feature"}, {"geometry": {"coordinates": [8.543768, 47.411057], "type": "Point"}, "properties": {"address": "Hofwiesenstrasse 369", "electric": 1, "id": "pb_387", "manual": 3, "name": "Bahnhof Oerlikon S\u00fcd", "provider": "publibike", "timeStamp": "01/26/2020, 10:28:45", "zip": 8050}, "type": "Feature"}, {"geometry": {"coordinates": [8.544185, 47.412732], "type": "Point"}, "properties": {"address": "Jungholzstrasse 6", "electric": 2, "id": "pb_388", "manual": 7, "name": "Max-Frisch-Platz", "provider": "publibike", "timeStamp": "01/26/2020, 10:28:45", "zip": 8050}, "type": "Feature"}, {"geometry": {"coordinates": [8.558096, 47.413032], "type": "Point"}, "properties": {"address": "Andreasstrasse", "electric": 1, "id": "pb_389", "manual": 10, "name": "Hunziker-Areal", "provider": "publibike", "timeStamp": "01/26/2020, 10:28:45", "zip": 8050}, "type": "Feature"}, {"geometry": {"coordinates": [8.533265, 47.412873], "type": "Point"}, "properties": {"address": "Regina-K\u00e4gi-Strasse 1", "electric": 0, "id": "pb_390", "manual": 3, "name": "Luis-H\u00e4fliger-Park", "provider": "publibike", "timeStamp": "01/26/2020, 10:28:45", "zip": 8050}, "type": "Feature"}, {"geometry": {"coordinates": [8.499265, 47.401852], "type": "Point"}, "properties": {"address": "Limmattalstrasse 177", "electric": 0, "id": "pb_391", "manual": 0, "name": "Meierhofplatz", "provider": "publibike", "timeStamp": "01/26/2020, 10:28:45", "zip": 8049}, "type": "Feature"}, {"geometry": {"coordinates": [8.528356, 47.393255], "type": "Point"}, "properties": {"address": "R\u00f6schibachstrasse 73", "electric": 7, "id": "pb_392", "manual": 0, "name": "R\u00f6schibachplatz", "provider": "publibike", "timeStamp": "01/26/2020, 10:28:45", "zip": 8037}, "type": "Feature"}, {"geometry": {"coordinates": [8.538067, 47.415721], "type": "Point"}, "properties": {"address": "Birchstrasse 191", "electric": 8, "id": "pb_393", "manual": 2, "name": "Oerliker Park", "provider": "publibike", "timeStamp": "01/26/2020, 10:28:45", "zip": 8050}, "type": "Feature"}, {"geometry": {"coordinates": [8.5420304, 47.3669233], "type": "Point"}, "properties": {"address": "Stadthausquai 1", "electric": 2, "id": "pb_395", "manual": 11, "name": "B\u00fcrkliplatz", "provider": "publibike", "timeStamp": "01/26/2020, 10:28:45", "zip": 8001}, "type": "Feature"}, {"geometry": {"coordinates": [8.535767, 47.409881], "type": "Point"}, "properties": {"address": "Regensbergstrasse 195", "electric": 2, "id": "pb_396", "manual": 1, "name": "Holunderhof", "provider": "publibike", "timeStamp": "01/26/2020, 10:28:45", "zip": 8050}, "type": "Feature"}, {"geometry": {"coordinates": [8.5116245, 47.3616199], "type": "Point"}, "properties": {"address": "Grubenstrasse 42", "electric": 1, "id": "pb_431", "manual": 0, "name": "Binz Center", "provider": "publibike", "timeStamp": "01/26/2020, 10:28:45", "zip": 8045}, "type": "Feature"}, {"geometry": {"coordinates": [8.547195, 47.382089], "type": "Point"}, "properties": {"address": "Nelkenstrasse 24", "electric": 0, "id": "pb_430", "manual": 0, "name": "Stapferstube", "provider": "publibike", "timeStamp": "01/26/2020, 10:28:45", "zip": 8006}, "type": "Feature"}, {"geometry": {"coordinates": [8.5787183, 47.4039845], "type": "Point"}, "properties": {"address": "Kronwiesenstrasse 35", "electric": 1, "id": "pb_426", "manual": 3, "name": "Kronwiesen", "provider": "publibike", "timeStamp": "01/26/2020, 10:28:45", "zip": 8051}, "type": "Feature"}, {"geometry": {"coordinates": [8.508131, 47.420757], "type": "Point"}, "properties": {"address": "Riedenhaldenstrasse 20-18", "electric": 8, "id": "pb_425", "manual": 3, "name": "Bahnhof Affoltern", "provider": "publibike", "timeStamp": "01/26/2020, 10:28:45", "zip": 8046}, "type": "Feature"}, {"geometry": {"coordinates": [8.532464, 47.406988], "type": "Point"}, "properties": {"address": "K\u00fcnzlistrasse 41", "electric": 1, "id": "pb_424", "manual": 3, "name": "Birchd\u00f6rfli", "provider": "publibike", "timeStamp": "01/26/2020, 10:28:45", "zip": 8057}, "type": "Feature"}, {"geometry": {"coordinates": [8.5777038, 47.4080095], "type": "Point"}, "properties": {"address": "Luegislandstrasse 412", "electric": 1, "id": "pb_429", "manual": 5, "name": "Luegisland", "provider": "publibike", "timeStamp": "01/26/2020, 10:28:45", "zip": 8051}, "type": "Feature"}, {"geometry": {"coordinates": [8.58841, 47.40158], "type": "Point"}, "properties": {"address": "Hirzenbachstrasse 2-4", "electric": 3, "id": "pb_428", "manual": 2, "name": "Hirzenbachstrasse", "provider": "publibike", "timeStamp": "01/26/2020, 10:28:45", "zip": 8051}, "type": "Feature"}, {"geometry": {"coordinates": [8.5563463, 47.4095467], "type": "Point"}, "properties": {"address": "K\u00fchriedweg", "electric": 3, "id": "pb_445", "manual": 7, "name": "Hallenbad Oerlikon", "provider": "publibike", "timeStamp": "01/26/2020, 10:28:45", "zip": 8050}, "type": "Feature"}, {"geometry": {"coordinates": [8.537971, 47.364871], "type": "Point"}, "properties": {"address": "General-Guisan-Quai 17", "electric": 4, "id": "pb_454", "manual": 0, "name": "General-Guisan-Quai", "provider": "publibike", "timeStamp": "01/26/2020, 10:28:45", "zip": 8002}, "type": "Feature"}, {"geometry": {"coordinates": [8.560587, 47.350578], "type": "Point"}, "properties": {"address": "Bellerivestrasse 245", "electric": 5, "id": "pb_450", "manual": 4, "name": "Bahnhof Tiefenbrunnen", "provider": "publibike", "timeStamp": "01/26/2020, 10:28:45", "zip": 8008}, "type": "Feature"}, {"geometry": {"coordinates": [8.5269416, 47.3563719], "type": "Point"}, "properties": {"address": "Waffenplatzstrasse 89", "electric": 0, "id": "pb_452", "manual": 6, "name": "Rieterplatz", "provider": "publibike", "timeStamp": "01/26/2020, 10:28:45", "zip": 8002}, "type": "Feature"}, {"geometry": {"coordinates": [8.514176, 47.3663708], "type": "Point"}, "properties": {"address": "Talwiesenstrasse 92", "electric": 6, "id": "pb_446", "manual": 6, "name": "Binzallee", "provider": "publibike", "timeStamp": "01/26/2020, 10:28:45", "zip": 8055}, "type": "Feature"}, {"geometry": {"coordinates": [8.5070564, 47.371455], "type": "Point"}, "properties": {"address": "Gutstrasse 87", "electric": 13, "id": "pb_447", "manual": 10, "name": "Gutstrasse", "provider": "publibike", "timeStamp": "01/26/2020, 10:28:45", "zip": 8055}, "type": "Feature"}, {"geometry": {"coordinates": [8.4941268, 47.3836391], "type": "Point"}, "properties": {"address": "Flurstrasse 62", "electric": 6, "id": "pb_453", "manual": 3, "name": "Flurpark", "provider": "publibike", "timeStamp": "01/26/2020, 10:28:45", "zip": 8048}, "type": "Feature"}, {"geometry": {"coordinates": [8.500343, 47.380778], "type": "Point"}, "properties": {"address": "Edelweissstrasse 32", "electric": 1, "id": "pb_448", "manual": 1, "name": "Bl\u00fcemliquartier", "provider": "publibike", "timeStamp": "01/26/2020, 10:28:45", "zip": 8048}, "type": "Feature"}, {"geometry": {"coordinates": [8.528796, 47.383858], "type": "Point"}, "properties": {"address": "Gasometerstrasse 24", "electric": 0, "id": "pb_449", "manual": 7, "name": "Gasometerstrasse", "provider": "publibike", "timeStamp": "01/26/2020, 10:28:45", "zip": 8005}, "type": "Feature"}, {"geometry": {"coordinates": [8.4981964, 47.3859194], "type": "Point"}, "properties": {"address": "Baslerstrasse 57", "electric": 8, "id": "pb_455", "manual": 6, "name": "Letzipark", "provider": "publibike", "timeStamp": "01/26/2020, 10:28:45", "zip": 8048}, "type": "Feature"}, {"geometry": {"coordinates": [8.515252, 47.381915], "type": "Point"}, "properties": {"address": "Sihlfeldstrasse 175", "electric": 4, "id": "pb_451", "manual": 0, "name": "Hardplatz", "provider": "publibike", "timeStamp": "01/26/2020, 10:28:45", "zip": 8004}, "type": "Feature"}, {"geometry": {"coordinates": [8.5064743, 47.4188324], "type": "Point"}, "properties": {"address": "Wehntalerstrasse 541", "electric": 6, "id": "pb_427", "manual": 5, "name": "Zehntenhausplatz", "provider": "publibike", "timeStamp": "01/26/2020, 10:28:45", "zip": 8046}, "type": "Feature"}, {"geometry": {"coordinates": [8.537729, 47.379719], "type": "Point"}, "properties": {"address": "Sihlquai/HB", "electric": 6, "id": "pb_513", "manual": 8, "name": "Sihlquai", "provider": "publibike", "timeStamp": "01/26/2020, 10:28:45", "zip": 8005}, "type": "Feature"}, {"geometry": {"coordinates": [8.596202, 47.397885], "type": "Point"}, "properties": {"address": "Bahnhof Stettbach", "electric": 7, "id": "pb_514", "manual": 5, "name": "Bahnhof Stettbach", "provider": "publibike", "timeStamp": "01/26/2020, 10:28:45", "zip": 8051}, "type": "Feature"}, {"geometry": {"coordinates": [8.5543974, 47.3690153], "type": "Point"}, "properties": {"address": "Kasinostrasse 10", "electric": 1, "id": "pb_515", "manual": 0, "name": "Hottingerplatz", "provider": "publibike", "timeStamp": "01/26/2020, 10:28:45", "zip": 8032}, "type": "Feature"}, {"geometry": {"coordinates": [8.534444, 47.351525], "type": "Point"}, "properties": {"address": "Mobile Station Z\u00fcrich 1", "electric": 0, "id": "pb_282", "manual": 0, "name": "Theaterspektakel", "provider": "publibike", "timeStamp": "01/26/2020, 10:28:45", "zip": 8002}, "type": "Feature"}, {"geometry": {"coordinates": [8.516257, 47.367656], "type": "Point"}, "properties": {"address": "Goldbrunnenstrasse 54", "electric": 11, "id": "pb_538", "manual": 4, "name": "Kirche B\u00fchl", "provider": "publibike", "timeStamp": "01/26/2020, 10:28:45", "zip": 8055}, "type": "Feature"}, {"geometry": {"coordinates": [8.555639, 47.416873], "type": "Point"}, "properties": {"address": "Leutschenbachstrasse 50", "electric": 0, "id": "pb_537", "manual": 4, "name": "Leutschenpark", "provider": "publibike", "timeStamp": "01/26/2020, 10:28:45", "zip": 8050}, "type": "Feature"}, {"geometry": {"coordinates": [8.546464, 47.403822], "type": "Point"}, "properties": {"address": "Berninastrasse 45", "electric": 4, "id": "pb_540", "manual": 0, "name": "Berninaplatz", "provider": "publibike", "timeStamp": "01/26/2020, 10:28:45", "zip": 8057}, "type": "Feature"}, {"geometry": {"coordinates": [8.523134, 47.369004], "type": "Point"}, "properties": {"address": "Erlachstrasse 3", "electric": 1, "id": "pb_385", "manual": 3, "name": "Aegerten", "provider": "publibike", "timeStamp": "01/26/2020, 10:28:45", "zip": 8003}, "type": "Feature"}, {"geometry": {"coordinates": [8.49038, 47.381591], "type": "Point"}, "properties": {"address": "Rautistrasse 60", "electric": 6, "id": "pb_536", "manual": 11, "name": "Freilager", "provider": "publibike", "timeStamp": "01/26/2020, 10:28:45", "zip": 8048}, "type": "Feature"}, {"geometry": {"coordinates": [8.496511, 47.375247], "type": "Point"}, "properties": {"address": "Letzigraben 139", "electric": 5, "id": "pb_444", "manual": 3, "name": "Sackzelg", "provider": "publibike", "timeStamp": "01/26/2020, 10:28:45", "zip": 8047}, "type": "Feature"}, {"geometry": {"coordinates": [8.58131, 47.402801], "type": "Point"}, "properties": {"address": "Altwiesenstrasse 104", "electric": 4, "id": "pb_539", "manual": 4, "name": "Glattwiesen", "provider": "publibike", "timeStamp": "01/26/2020, 10:28:45", "zip": 8051}, "type": "Feature"}, {"geometry": {"coordinates": [8.52689, 47.3767], "type": "Point"}, "properties": {"address": "Molkenstrasse 5", "electric": 0, "id": "pb_560", "manual": 3, "name": "Helvetiaplatz", "provider": "publibike", "timeStamp": "01/26/2020, 10:28:45", "zip": 8004}, "type": "Feature"}, {"geometry": {"coordinates": [8.525602, 47.374241], "type": "Point"}, "properties": {"address": "Badenerstrasse 90", "electric": 2, "id": "pb_559", "manual": 0, "name": "Bezirksgeb\u00e4ude", "provider": "publibike", "timeStamp": "01/26/2020, 10:28:45", "zip": 8004}, "type": "Feature"}, {"geometry": {"coordinates": [8.535082, 47.345248], "type": "Point"}, "properties": {"address": "Bachstrasse 15", "electric": 5, "id": "pb_564", "manual": 0, "name": "GZ Wollishofen", "provider": "publibike", "timeStamp": "01/26/2020, 10:28:45", "zip": 8038}, "type": "Feature"}, {"geometry": {"coordinates": [8.514841, 47.370238], "type": "Point"}, "properties": {"address": "Schrennengasse 37", "electric": 4, "id": "pb_562", "manual": 3, "name": "Goldbrunnenplatz", "provider": "publibike", "timeStamp": "01/26/2020, 10:28:45", "zip": 8003}, "type": "Feature"}, {"geometry": {"coordinates": [8.514138, 47.374206], "type": "Point"}, "properties": {"address": "Idaplatz 4", "electric": 1, "id": "pb_557", "manual": 3, "name": "Idaplatz", "provider": "publibike", "timeStamp": "01/26/2020, 10:28:45", "zip": 8003}, "type": "Feature"}, {"geometry": {"coordinates": [8.518432, 47.369549], "type": "Point"}, "properties": {"address": "Brinerstrasse 2", "electric": 2, "id": "pb_558", "manual": 4, "name": "Schmiede Wiedikon", "provider": "publibike", "timeStamp": "01/26/2020, 10:28:45", "zip": 8003}, "type": "Feature"}, {"geometry": {"coordinates": [8.537546, 47.391289], "type": "Point"}, "properties": {"address": "Rotbuchstrasse 15", "electric": 9, "id": "pb_556", "manual": 0, "name": "Schaffhauserplatz", "provider": "publibike", "timeStamp": "01/26/2020, 10:28:45", "zip": 8006}, "type": "Feature"}, {"geometry": {"coordinates": [8.541541, 47.413733], "type": "Point"}, "properties": {"address": "Therese-Giehse-Strasse 11", "electric": 2, "id": "pb_561", "manual": 1, "name": "Center Eleven", "provider": "publibike", "timeStamp": "01/26/2020, 10:28:45", "zip": 8050}, "type": "Feature"}, {"geometry": {"coordinates": [8.534227, 47.360004], "type": "Point"}, "properties": {"address": "Alfred Escher-Strasse 76", "electric": 2, "id": "pb_563", "manual": 1, "name": "Mythenschloss", "provider": "publibike", "timeStamp": "01/26/2020, 10:28:45", "zip": 8002}, "type": "Feature"}, {"geometry": {"coordinates": [8.50373, 47.396172], "type": "Point"}, "properties": {"address": "Hardeggstrasse 6", "electric": 3, "id": "pb_566", "manual": 7, "name": "Am Wasser", "provider": "publibike", "timeStamp": "01/26/2020, 10:28:45", "zip": 8049}, "type": "Feature"}, {"geometry": {"coordinates": [8.532432, 47.381174], "type": "Point"}, "properties": {"address": "Klingenstrasse 9", "electric": 6, "id": "pb_565", "manual": 9, "name": "Zollstrasse", "provider": "publibike", "timeStamp": "01/26/2020, 10:28:45", "zip": 8005}, "type": "Feature"}, {"geometry": {"coordinates": [8.497982, 47.381447], "type": "Point"}, "properties": {"address": "Dennlerstrasse 23", "electric": 1, "id": "pb_567", "manual": 1, "name": "Dennlerstrasse", "provider": "publibike", "timeStamp": "01/26/2020, 10:28:45", "zip": 8047}, "type": "Feature"}, {"geometry": {"coordinates": [8.528049, 47.347701], "type": "Point"}, "properties": {"address": "Mutschellenstrasse 114", "electric": 7, "id": "pb_568", "manual": 7, "name": "Jugendherberge", "provider": "publibike", "timeStamp": "01/26/2020, 10:28:45", "zip": 8038}, "type": "Feature"}, {"geometry": {"coordinates": [8.539016, 47.405751], "type": "Point"}, "properties": {"address": "Ringstrasse 82", "electric": 6, "id": "pb_569", "manual": 3, "name": "Freibad Allenmoos", "provider": "publibike", "timeStamp": "01/26/2020, 10:28:45", "zip": 8057}, "type": "Feature"}, {"geometry": {"coordinates": [8.534974, 47.402164], "type": "Point"}, "properties": {"address": "Brache Guggach", "electric": 4, "id": "pb_572", "manual": 1, "name": "Radiostudio", "provider": "publibike", "timeStamp": "01/26/2020, 10:28:45", "zip": 8057}, "type": "Feature"}, {"geometry": {"coordinates": [8.547901, 47.375556], "type": "Point"}, "properties": {"address": "Karl-Schmid-Strasse 4", "electric": 0, "id": "pb_571", "manual": 0, "name": "ETH/Zoologisches Museum", "provider": "publibike", "timeStamp": "01/26/2020, 10:28:45", "zip": 8006}, "type": "Feature"}, {"geometry": {"coordinates": [8.582076, 47.351906], "type": "Point"}, "properties": {"charge": 69, "id": "smide_2901", "name": "ZH 267278", "provider": "smide", "range": 34.0, "size": 20, "time": "01/26/2020, 10:28:19"}, "type": "Feature"}, {"geometry": {"coordinates": [8.561233, 47.350353], "type": "Point"}, "properties": {"charge": 33, "id": "smide_2895", "name": "ZH 267279", "provider": "smide", "range": 16.0, "size": 20, "time": "01/26/2020, 10:28:19"}, "type": "Feature"}, {"geometry": {"coordinates": [8.539, 47.375781], "type": "Point"}, "properties": {"charge": 77, "id": "smide_2883", "name": "ZH 267272", "provider": "smide", "range": 38.0, "size": 20, "time": "01/26/2020, 10:28:19"}, "type": "Feature"}, {"geometry": {"coordinates": [8.508505, 47.39442], "type": "Point"}, "properties": {"charge": 72, "id": "smide_2880", "name": "ZH267289", "provider": "smide", "range": 36.0, "size": 17, "time": "01/26/2020, 10:28:19"}, "type": "Feature"}, {"geometry": {"coordinates": [8.560365, 47.351806], "type": "Point"}, "properties": {"charge": 87, "id": "smide_2874", "name": "ZH 267288", "provider": "smide", "range": 43.0, "size": 17, "time": "01/26/2020, 10:28:19"}, "type": "Feature"}, {"geometry": {"coordinates": [8.49498, 47.398323], "type": "Point"}, "properties": {"charge": 82, "id": "smide_2871", "name": "ZH 267086", "provider": "smide", "range": 41.0, "size": 20, "time": "01/26/2020, 10:28:19"}, "type": "Feature"}, {"geometry": {"coordinates": [8.557445, 47.419073], "type": "Point"}, "properties": {"charge": 88, "id": "smide_2867", "name": "ZH 267090", "provider": "smide", "range": 44.0, "size": 20, "time": "01/26/2020, 10:28:19"}, "type": "Feature"}, {"geometry": {"coordinates": [8.556763, 47.377083], "type": "Point"}, "properties": {"charge": 45, "id": "smide_2861", "name": "ZH 267096", "provider": "smide", "range": 22.0, "size": 17, "time": "01/26/2020, 10:28:19"}, "type": "Feature"}, {"geometry": {"coordinates": [8.483613, 47.397176], "type": "Point"}, "properties": {"charge": 72, "id": "smide_2860", "name": "ZH 267097", "provider": "smide", "range": 36.0, "size": 17, "time": "01/26/2020, 10:28:19"}, "type": "Feature"}, {"geometry": {"coordinates": [8.533358, 47.347736], "type": "Point"}, "properties": {"charge": 49, "id": "smide_2859", "name": "ZH 267098", "provider": "smide", "range": 24.0, "size": 17, "time": "01/26/2020, 10:28:19"}, "type": "Feature"}, {"geometry": {"coordinates": [8.579825, 47.350748], "type": "Point"}, "properties": {"charge": 34, "id": "smide_2856", "name": "ZH 267101", "provider": "smide", "range": 17.0, "size": 17, "time": "01/26/2020, 10:28:19"}, "type": "Feature"}, {"geometry": {"coordinates": [8.551988, 47.411171], "type": "Point"}, "properties": {"charge": 56, "id": "smide_2855", "name": "ZH 267102", "provider": "smide", "range": 28.0, "size": 17, "time": "01/26/2020, 10:28:19"}, "type": "Feature"}, {"geometry": {"coordinates": [8.553673, 47.39782], "type": "Point"}, "properties": {"charge": 35, "id": "smide_2854", "name": "ZH 267103", "provider": "smide", "range": 17.0, "size": 17, "time": "01/26/2020, 10:28:19"}, "type": "Feature"}, {"geometry": {"coordinates": [8.51859, 47.413555], "type": "Point"}, "properties": {"charge": 100, "id": "smide_2833", "name": "ZH 267182", "provider": "smide", "range": 50.0, "size": 20, "time": "01/26/2020, 10:28:19"}, "type": "Feature"}, {"geometry": {"coordinates": [8.569951, 47.352373], "type": "Point"}, "properties": {"charge": 92, "id": "smide_2831", "name": "ZH 267180", "provider": "smide", "range": 46.0, "size": 20, "time": "01/26/2020, 10:28:19"}, "type": "Feature"}, {"geometry": {"coordinates": [8.553668, 47.381778], "type": "Point"}, "properties": {"charge": 62, "id": "smide_2829", "name": "ZH 267049", "provider": "smide", "range": 31.0, "size": 20, "time": "01/26/2020, 10:28:19"}, "type": "Feature"}, {"geometry": {"coordinates": [8.511846, 47.420376], "type": "Point"}, "properties": {"charge": 84, "id": "smide_2804", "name": "ZH266903", "provider": "smide", "range": 42.0, "size": 20, "time": "01/26/2020, 10:28:19"}, "type": "Feature"}, {"geometry": {"coordinates": [8.553026, 47.39845], "type": "Point"}, "properties": {"charge": 17, "id": "smide_2798", "name": "ZH266888", "provider": "smide", "range": 8.0, "size": 17, "time": "01/26/2020, 10:28:19"}, "type": "Feature"}, {"geometry": {"coordinates": [8.552998, 47.413986], "type": "Point"}, "properties": {"charge": 41, "id": "smide_2792", "name": "ZH266882", "provider": "smide", "range": 20.0, "size": 17, "time": "01/26/2020, 10:28:19"}, "type": "Feature"}, {"geometry": {"coordinates": [8.512833, 47.415213], "type": "Point"}, "properties": {"charge": 100, "id": "smide_2790", "name": "ZH266880", "provider": "smide", "range": 50.0, "size": 17, "time": "01/26/2020, 10:28:19"}, "type": "Feature"}, {"geometry": {"coordinates": [8.560295, 47.372131], "type": "Point"}, "properties": {"charge": 24, "id": "smide_2781", "name": "ZH 266871", "provider": "smide", "range": 12.0, "size": 17, "time": "01/26/2020, 10:28:19"}, "type": "Feature"}, {"geometry": {"coordinates": [8.502085, 47.362145], "type": "Point"}, "properties": {"charge": 32, "id": "smide_2780", "name": "ST1 X #1", "provider": "smide", "range": 16.0, "size": 17, "time": "01/26/2020, 10:28:19"}, "type": "Feature"}, {"geometry": {"coordinates": [8.487291, 47.384292], "type": "Point"}, "properties": {"charge": 44, "id": "smide_2775", "name": "ZH267283", "provider": "smide", "range": 22.0, "size": 20, "time": "01/26/2020, 10:28:19"}, "type": "Feature"}, {"geometry": {"coordinates": [8.487306, 47.384324], "type": "Point"}, "properties": {"charge": 74, "id": "smide_2773", "name": "ZH266561", "provider": "smide", "range": 37.0, "size": 17, "time": "01/26/2020, 10:28:19"}, "type": "Feature"}, {"geometry": {"coordinates": [8.506604, 47.406616], "type": "Point"}, "properties": {"charge": 89, "id": "smide_2763", "name": "ZH266641", "provider": "smide", "range": 44.0, "size": 17, "time": "01/26/2020, 10:28:19"}, "type": "Feature"}, {"geometry": {"coordinates": [8.514238, 47.365265], "type": "Point"}, "properties": {"charge": 28, "id": "smide_2761", "name": "ZH266642", "provider": "smide", "range": 14.0, "size": 20, "time": "01/26/2020, 10:28:19"}, "type": "Feature"}, {"geometry": {"coordinates": [8.515499, 47.364648], "type": "Point"}, "properties": {"charge": 90, "id": "smide_2758", "name": "ZH266638 M", "provider": "smide", "range": 45.0, "size": 17, "time": "01/26/2020, 10:28:19"}, "type": "Feature"}, {"geometry": {"coordinates": [8.552621, 47.38868], "type": "Point"}, "properties": {"charge": 31, "id": "smide_2751", "name": "BE343857", "provider": "smide", "range": 15.0, "size": 17, "time": "01/26/2020, 10:28:19"}, "type": "Feature"}, {"geometry": {"coordinates": [8.558045, 47.371524], "type": "Point"}, "properties": {"charge": 97, "id": "smide_2749", "name": "BE343867", "provider": "smide", "range": 48.0, "size": 17, "time": "01/26/2020, 10:28:19"}, "type": "Feature"}, {"geometry": {"coordinates": [8.536057, 47.377604], "type": "Point"}, "properties": {"charge": 91, "id": "smide_2746", "name": "BE335817", "provider": "smide", "range": 45.0, "size": 17, "time": "01/26/2020, 10:28:19"}, "type": "Feature"}, {"geometry": {"coordinates": [8.558372, 47.40458], "type": "Point"}, "properties": {"charge": 99, "id": "smide_2747", "name": "BE335820", "provider": "smide", "range": 49.0, "size": 17, "time": "01/26/2020, 10:28:19"}, "type": "Feature"}, {"geometry": {"coordinates": [8.490826, 47.376416], "type": "Point"}, "properties": {"charge": 62, "id": "smide_2745", "name": "BE335818", "provider": "smide", "range": 31.0, "size": 17, "time": "01/26/2020, 10:28:19"}, "type": "Feature"}, {"geometry": {"coordinates": [8.574638, 47.352656], "type": "Point"}, "properties": {"charge": 80, "id": "smide_2742", "name": "BE343866", "provider": "smide", "range": 40.0, "size": 17, "time": "01/26/2020, 10:28:19"}, "type": "Feature"}, {"geometry": {"coordinates": [8.530354, 47.352028], "type": "Point"}, "properties": {"charge": 99, "id": "smide_2740", "name": "BE343875", "provider": "smide", "range": 49.0, "size": 17, "time": "01/26/2020, 10:28:19"}, "type": "Feature"}, {"geometry": {"coordinates": [8.557241, 47.370263], "type": "Point"}, "properties": {"charge": 65, "id": "smide_2738", "name": "BE343865", "provider": "smide", "range": 32.0, "size": 17, "time": "01/26/2020, 10:28:19"}, "type": "Feature"}, {"geometry": {"coordinates": [8.564196, 47.361616], "type": "Point"}, "properties": {"charge": 44, "id": "smide_2737", "name": "BE336149", "provider": "smide", "range": 22.0, "size": 17, "time": "01/26/2020, 10:28:19"}, "type": "Feature"}, {"geometry": {"coordinates": [8.57384, 47.383708], "type": "Point"}, "properties": {"charge": 89, "id": "smide_2734", "name": "BE343876", "provider": "smide", "range": 44.0, "size": 17, "time": "01/26/2020, 10:28:19"}, "type": "Feature"}, {"geometry": {"coordinates": [8.542186, 47.394472], "type": "Point"}, "properties": {"charge": 64, "id": "smide_2733", "name": "BE343873", "provider": "smide", "range": 32.0, "size": 17, "time": "01/26/2020, 10:28:19"}, "type": "Feature"}, {"geometry": {"coordinates": [8.509403, 47.395272], "type": "Point"}, "properties": {"charge": 85, "id": "smide_2732", "name": "BE343870", "provider": "smide", "range": 42.0, "size": 17, "time": "01/26/2020, 10:28:19"}, "type": "Feature"}, {"geometry": {"coordinates": [8.562183, 47.410436], "type": "Point"}, "properties": {"charge": 42, "id": "smide_2729", "name": "BE343878", "provider": "smide", "range": 21.0, "size": 17, "time": "01/26/2020, 10:28:19"}, "type": "Feature"}, {"geometry": {"coordinates": [8.491196, 47.38057], "type": "Point"}, "properties": {"charge": 100, "id": "smide_2725", "name": "ZH261545", "provider": "smide", "range": 50.0, "size": 0, "time": "01/26/2020, 10:28:19"}, "type": "Feature"}, {"geometry": {"coordinates": [8.537095, 47.367355], "type": "Point"}, "properties": {"charge": 77, "id": "smide_2718", "name": "ZH259019", "provider": "smide", "range": 38.0, "size": 20, "time": "01/26/2020, 10:28:19"}, "type": "Feature"}, {"geometry": {"coordinates": [8.508754, 47.385112], "type": "Point"}, "properties": {"charge": 17, "id": "smide_2717", "name": "ZH263287", "provider": "smide", "range": 8.0, "size": 17, "time": "01/26/2020, 10:28:19"}, "type": "Feature"}, {"geometry": {"coordinates": [8.524016, 47.398003], "type": "Point"}, "properties": {"charge": 90, "id": "smide_2716", "name": "ZH254606", "provider": "smide", "range": 45.0, "size": 17, "time": "01/26/2020, 10:28:19"}, "type": "Feature"}, {"geometry": {"coordinates": [8.537486, 47.340136], "type": "Point"}, "properties": {"charge": 89, "id": "smide_2715", "name": "ZH254605", "provider": "smide", "range": 44.0, "size": 17, "time": "01/26/2020, 10:28:19"}, "type": "Feature"}, {"geometry": {"coordinates": [8.544364, 47.392844], "type": "Point"}, "properties": {"charge": 67, "id": "smide_2714", "name": "ZH256461", "provider": "smide", "range": 33.0, "size": 17, "time": "01/26/2020, 10:28:19"}, "type": "Feature"}, {"geometry": {"coordinates": [8.55356, 47.40228], "type": "Point"}, "properties": {"charge": 60, "id": "smide_2710", "name": "ZH256460", "provider": "smide", "range": 30.0, "size": 17, "time": "01/26/2020, 10:28:19"}, "type": "Feature"}, {"geometry": {"coordinates": [8.541275, 47.3769], "type": "Point"}, "properties": {"charge": 78, "id": "smide_2712", "name": "ZH256462", "provider": "smide", "range": 39.0, "size": 17, "time": "01/26/2020, 10:28:19"}, "type": "Feature"}, {"geometry": {"coordinates": [8.554628, 47.364712], "type": "Point"}, "properties": {"charge": 85, "id": "smide_2711", "name": "ZH256463", "provider": "smide", "range": 42.0, "size": 17, "time": "01/26/2020, 10:28:19"}, "type": "Feature"}, {"geometry": {"coordinates": [8.57449, 47.352465], "type": "Point"}, "properties": {"charge": 27, "id": "smide_2709", "name": "ZH256466", "provider": "smide", "range": 13.0, "size": 20, "time": "01/26/2020, 10:28:19"}, "type": "Feature"}, {"geometry": {"coordinates": [8.565775, 47.364172], "type": "Point"}, "properties": {"charge": 63, "id": "smide_2707", "name": "ZH256467", "provider": "smide", "range": 31.0, "size": 20, "time": "01/26/2020, 10:28:19"}, "type": "Feature"}, {"geometry": {"coordinates": [8.513756, 47.362272], "type": "Point"}, "properties": {"charge": 43, "id": "smide_2706", "name": "ZH256322", "provider": "smide", "range": 21.0, "size": 20, "time": "01/26/2020, 10:28:19"}, "type": "Feature"}, {"geometry": {"coordinates": [8.554688, 47.402908], "type": "Point"}, "properties": {"charge": 37, "id": "smide_2705", "name": "ZH256471", "provider": "smide", "range": 18.0, "size": 20, "time": "01/26/2020, 10:28:19"}, "type": "Feature"}, {"geometry": {"coordinates": [8.502353, 47.368644], "type": "Point"}, "properties": {"charge": 66, "id": "smide_2700", "name": "ZH256470", "provider": "smide", "range": 33.0, "size": 20, "time": "01/26/2020, 10:28:19"}, "type": "Feature"}, {"geometry": {"coordinates": [8.524683, 47.396644], "type": "Point"}, "properties": {"charge": 22, "id": "smide_2699", "name": "ZH254611", "provider": "smide", "range": 11.0, "size": 20, "time": "01/26/2020, 10:28:19"}, "type": "Feature"}, {"geometry": {"coordinates": [8.518458, 47.413524], "type": "Point"}, "properties": {"charge": 99, "id": "smide_2697", "name": "ZH254629", "provider": "smide", "range": 49.0, "size": 20, "time": "01/26/2020, 10:28:19"}, "type": "Feature"}, {"geometry": {"coordinates": [8.53354, 47.373448], "type": "Point"}, "properties": {"charge": 55, "id": "smide_2696", "name": "ZH254616", "provider": "smide", "range": 27.0, "size": 20, "time": "01/26/2020, 10:28:19"}, "type": "Feature"}, {"geometry": {"coordinates": [8.561845, 47.414905], "type": "Point"}, "properties": {"charge": 77, "id": "smide_2691", "name": "ZH254622", "provider": "smide", "range": 38.0, "size": 20, "time": "01/26/2020, 10:28:19"}, "type": "Feature"}, {"geometry": {"coordinates": [8.49383, 47.400276], "type": "Point"}, "properties": {"charge": 27, "id": "smide_2690", "name": "ZH254625", "provider": "smide", "range": 13.0, "size": 20, "time": "01/26/2020, 10:28:19"}, "type": "Feature"}, {"geometry": {"coordinates": [8.542059, 47.424664], "type": "Point"}, "properties": {"charge": 14, "id": "smide_2687", "name": "ZH263529", "provider": "smide", "range": 7.0, "size": 20, "time": "01/26/2020, 10:28:19"}, "type": "Feature"}, {"geometry": {"coordinates": [8.572762, 47.349036], "type": "Point"}, "properties": {"charge": 24, "id": "smide_2684", "name": "ZH254626", "provider": "smide", "range": 12.0, "size": 20, "time": "01/26/2020, 10:28:19"}, "type": "Feature"}, {"geometry": {"coordinates": [8.569005, 47.37312], "type": "Point"}, "properties": {"charge": 30, "id": "smide_2683", "name": "ZH254620", "provider": "smide", "range": 15.0, "size": 20, "time": "01/26/2020, 10:28:19"}, "type": "Feature"}, {"geometry": {"coordinates": [8.543925, 47.411428], "type": "Point"}, "properties": {"charge": 16, "id": "smide_2680", "name": "ZH254619", "provider": "smide", "range": 8.0, "size": 20, "time": "01/26/2020, 10:28:19"}, "type": "Feature"}, {"geometry": {"coordinates": [8.576406, 47.351276], "type": "Point"}, "properties": {"charge": 92, "id": "smide_2679", "name": "ZH258489", "provider": "smide", "range": 46.0, "size": 17, "time": "01/26/2020, 10:28:19"}, "type": "Feature"}, {"geometry": {"coordinates": [8.476673, 47.387392], "type": "Point"}, "properties": {"charge": 83, "id": "smide_2669", "name": "ZH263294", "provider": "smide", "range": 41.0, "size": 17, "time": "01/26/2020, 10:28:19"}, "type": "Feature"}, {"geometry": {"coordinates": [8.560719, 47.355728], "type": "Point"}, "properties": {"charge": 100, "id": "smide_2668", "name": "ZH258640", "provider": "smide", "range": 50.0, "size": 17, "time": "01/26/2020, 10:28:19"}, "type": "Feature"}, {"geometry": {"coordinates": [8.560331, 47.382176], "type": "Point"}, "properties": {"charge": 31, "id": "smide_2666", "name": "ZH258653", "provider": "smide", "range": 15.0, "size": 17, "time": "01/26/2020, 10:28:19"}, "type": "Feature"}, {"geometry": {"coordinates": [8.521486, 47.361616], "type": "Point"}, "properties": {"charge": 100, "id": "smide_2665", "name": "ZH258644", "provider": "smide", "range": 50.0, "size": 17, "time": "01/26/2020, 10:28:19"}, "type": "Feature"}, {"geometry": {"coordinates": [8.483124, 47.37814], "type": "Point"}, "properties": {"charge": 69, "id": "smide_2662", "name": "ZH258643", "provider": "smide", "range": 34.0, "size": 17, "time": "01/26/2020, 10:28:19"}, "type": "Feature"}, {"geometry": {"coordinates": [8.564591, 47.363504], "type": "Point"}, "properties": {"charge": 57, "id": "smide_2648", "name": "ZH257930", "provider": "smide", "range": 28.0, "size": 20, "time": "01/26/2020, 10:28:19"}, "type": "Feature"}, {"geometry": {"coordinates": [8.575683, 47.353193], "type": "Point"}, "properties": {"charge": 100, "id": "smide_2657", "name": "ZH257936", "provider": "smide", "range": 50.0, "size": 17, "time": "01/26/2020, 10:28:19"}, "type": "Feature"}, {"geometry": {"coordinates": [8.536777, 47.36622], "type": "Point"}, "properties": {"charge": 100, "id": "smide_2647", "name": "ZH257932", "provider": "smide", "range": 50.0, "size": 20, "time": "01/26/2020, 10:28:19"}, "type": "Feature"}, {"geometry": {"coordinates": [8.535872, 47.3563], "type": "Point"}, "properties": {"charge": 23, "id": "smide_2645", "name": "ZH257933", "provider": "smide", "range": 11.0, "size": 20, "time": "01/26/2020, 10:28:19"}, "type": "Feature"}, {"geometry": {"coordinates": [8.483558, 47.38164], "type": "Point"}, "properties": {"charge": 63, "id": "smide_186", "name": "ZH253751", "provider": "smide", "range": 31.0, "size": 20, "time": "01/26/2020, 10:28:19"}, "type": "Feature"}, {"geometry": {"coordinates": [8.559294, 47.406028], "type": "Point"}, "properties": {"charge": 84, "id": "smide_77", "name": "ZH261548", "provider": "smide", "range": 42.0, "size": 20, "time": "01/26/2020, 10:28:19"}, "type": "Feature"}, {"geometry": {"coordinates": [8.499153, 47.401808], "type": "Point"}, "properties": {"charge": 42, "id": "smide_200", "name": "ZH253801", "provider": "smide", "range": 21.0, "size": 20, "time": "01/26/2020, 10:28:19"}, "type": "Feature"}, {"geometry": {"coordinates": [8.538723, 47.337973], "type": "Point"}, "properties": {"charge": 72, "id": "smide_197", "name": "ZH253864", "provider": "smide", "range": 36.0, "size": 20, "time": "01/26/2020, 10:28:19"}, "type": "Feature"}, {"geometry": {"coordinates": [8.538499, 47.385188], "type": "Point"}, "properties": {"charge": 64, "id": "smide_199", "name": "ZH253766", "provider": "smide", "range": 32.0, "size": 20, "time": "01/26/2020, 10:28:19"}, "type": "Feature"}, {"geometry": {"coordinates": [8.547827, 47.40336], "type": "Point"}, "properties": {"charge": 59, "id": "smide_8", "name": "ZH253861", "provider": "smide", "range": 29.0, "size": 17, "time": "01/26/2020, 10:28:19"}, "type": "Feature"}, {"geometry": {"coordinates": [8.542135, 47.383895], "type": "Point"}, "properties": {"charge": 92, "id": "smide_45", "name": "ZH253716", "provider": "smide", "range": 46.0, "size": 17, "time": "01/26/2020, 10:28:19"}, "type": "Feature"}, {"geometry": {"coordinates": [8.550847, 47.414804], "type": "Point"}, "properties": {"charge": 60, "id": "smide_188", "name": "ZH261543", "provider": "smide", "range": 30.0, "size": 20, "time": "01/26/2020, 10:28:19"}, "type": "Feature"}, {"geometry": {"coordinates": [8.499599, 47.371028], "type": "Point"}, "properties": {"charge": 48, "id": "smide_101", "name": "ZH253814", "provider": "smide", "range": 24.0, "size": 17, "time": "01/26/2020, 10:28:19"}, "type": "Feature"}, {"geometry": {"coordinates": [8.506036, 47.38138], "type": "Point"}, "properties": {"charge": 65, "id": "smide_143", "name": "ZH253778", "provider": "smide", "range": 32.0, "size": 17, "time": "01/26/2020, 10:28:19"}, "type": "Feature"}, {"geometry": {"coordinates": [8.537265, 47.380028], "type": "Point"}, "properties": {"charge": 92, "id": "smide_180", "name": "ZH253824", "provider": "smide", "range": 46.0, "size": 20, "time": "01/26/2020, 10:28:19"}, "type": "Feature"}, {"geometry": {"coordinates": [8.549834, 47.398464], "type": "Point"}, "properties": {"charge": 58, "id": "smide_20", "name": "ZH253770", "provider": "smide", "range": 28.0, "size": 20, "time": "01/26/2020, 10:28:19"}, "type": "Feature"}, {"geometry": {"coordinates": [8.515816, 47.364724], "type": "Point"}, "properties": {"charge": 44, "id": "smide_50", "name": "ZH253853", "provider": "smide", "range": 22.0, "size": 17, "time": "01/26/2020, 10:28:19"}, "type": "Feature"}, {"geometry": {"coordinates": [8.530021, 47.364425], "type": "Point"}, "properties": {"charge": 13, "id": "smide_30", "name": "ZH253813", "provider": "smide", "range": 6.0, "size": 20, "time": "01/26/2020, 10:28:19"}, "type": "Feature"}, {"geometry": {"coordinates": [8.557711, 47.370483], "type": "Point"}, "properties": {"charge": 35, "id": "smide_10", "name": "ZH253855", "provider": "smide", "range": 17.0, "size": 17, "time": "01/26/2020, 10:28:19"}, "type": "Feature"}, {"geometry": {"coordinates": [8.543678, 47.40226], "type": "Point"}, "properties": {"charge": 21, "id": "smide_165", "name": "ZH253752", "provider": "smide", "range": 10.0, "size": 17, "time": "01/26/2020, 10:28:19"}, "type": "Feature"}, {"geometry": {"coordinates": [8.548477, 47.377904], "type": "Point"}, "properties": {"charge": 100, "id": "smide_76", "name": "ZH253764", "provider": "smide", "range": 50.0, "size": 17, "time": "01/26/2020, 10:28:19"}, "type": "Feature"}, {"geometry": {"coordinates": [8.550299, 47.397924], "type": "Point"}, "properties": {"charge": 83, "id": "smide_94", "name": "ZH253754", "provider": "smide", "range": 41.0, "size": 17, "time": "01/26/2020, 10:28:19"}, "type": "Feature"}, {"geometry": {"coordinates": [8.47831, 47.389753], "type": "Point"}, "properties": {"charge": 70, "id": "smide_191", "name": "ZH253762", "provider": "smide", "range": 35.0, "size": 17, "time": "01/26/2020, 10:28:19"}, "type": "Feature"}, {"geometry": {"coordinates": [8.490995, 47.377013], "type": "Point"}, "properties": {"charge": 100, "id": "smide_202", "name": "ZH253830", "provider": "smide", "range": 50.0, "size": 17, "time": "01/26/2020, 10:28:19"}, "type": "Feature"}, {"geometry": {"coordinates": [8.574937, 47.373256], "type": "Point"}, "properties": {"charge": 85, "id": "smide_56", "name": "ZH261442", "provider": "smide", "range": 42.0, "size": 20, "time": "01/26/2020, 10:28:19"}, "type": "Feature"}, {"geometry": {"coordinates": [8.51365, 47.375241], "type": "Point"}, "properties": {"charge": 86, "id": "smide_47", "name": "ZH253858", "provider": "smide", "range": 43.0, "size": 17, "time": "01/26/2020, 10:28:19"}, "type": "Feature"}, {"geometry": {"coordinates": [8.545791, 47.391216], "type": "Point"}, "properties": {"charge": 12, "id": "smide_150", "name": "ZH253703", "provider": "smide", "range": 6.0, "size": 20, "time": "01/26/2020, 10:28:19"}, "type": "Feature"}, {"geometry": {"coordinates": [8.545271, 47.423612], "type": "Point"}, "properties": {"charge": 74, "id": "smide_181", "name": "ZH253815", "provider": "smide", "range": 37.0, "size": 17, "time": "01/26/2020, 10:28:19"}, "type": "Feature"}, {"geometry": {"coordinates": [8.54125, 47.377061], "type": "Point"}, "properties": {"charge": 100, "id": "smide_17", "name": "ZH253793", "provider": "smide", "range": 50.0, "size": 17, "time": "01/26/2020, 10:28:19"}, "type": "Feature"}, {"geometry": {"coordinates": [8.58229, 47.351971], "type": "Point"}, "properties": {"charge": 63, "id": "smide_145", "name": "ZH253780", "provider": "smide", "range": 31.0, "size": 20, "time": "01/26/2020, 10:28:19"}, "type": "Feature"}, {"geometry": {"coordinates": [8.510609, 47.398464], "type": "Point"}, "properties": {"charge": 53, "id": "smide_114", "name": "ZH253878", "provider": "smide", "range": 26.0, "size": 20, "time": "01/26/2020, 10:28:19"}, "type": "Feature"}, {"geometry": {"coordinates": [8.548382, 47.377896], "type": "Point"}, "properties": {"charge": 100, "id": "smide_164", "name": "ZH253775", "provider": "smide", "range": 50.0, "size": 17, "time": "01/26/2020, 10:28:19"}, "type": "Feature"}, {"geometry": {"coordinates": [8.51246, 47.368856], "type": "Point"}, "properties": {"charge": 63, "id": "smide_189", "name": "ZH253845", "provider": "smide", "range": 31.0, "size": 20, "time": "01/26/2020, 10:28:19"}, "type": "Feature"}, {"geometry": {"coordinates": [8.489428, 47.395804], "type": "Point"}, "properties": {"charge": 46, "id": "smide_148", "name": "ZH253844", "provider": "smide", "range": 23.0, "size": 20, "time": "01/26/2020, 10:28:19"}, "type": "Feature"}, {"geometry": {"coordinates": [8.544887, 47.401108], "type": "Point"}, "properties": {"charge": 88, "id": "smide_171", "name": "ZH253689", "provider": "smide", "range": 44.0, "size": 20, "time": "01/26/2020, 10:28:19"}, "type": "Feature"}, {"geometry": {"coordinates": [8.535887, 47.356268], "type": "Point"}, "properties": {"charge": 69, "id": "smide_22", "name": "ZH253852", "provider": "smide", "range": 34.0, "size": 17, "time": "01/26/2020, 10:28:19"}, "type": "Feature"}, {"geometry": {"coordinates": [8.555143, 47.38394], "type": "Point"}, "properties": {"charge": 81, "id": "smide_93", "name": "ZH253681", "provider": "smide", "range": 40.0, "size": 17, "time": "01/26/2020, 10:28:19"}, "type": "Feature"}, {"geometry": {"coordinates": [8.570097, 47.352344], "type": "Point"}, "properties": {"charge": 100, "id": "smide_67", "name": "ZH253779", "provider": "smide", "range": 50.0, "size": 17, "time": "01/26/2020, 10:28:19"}, "type": "Feature"}, {"geometry": {"coordinates": [8.509961, 47.390256], "type": "Point"}, "properties": {"charge": 17, "id": "smide_133", "name": "ZH253848", "provider": "smide", "range": 8.0, "size": 20, "time": "01/26/2020, 10:28:19"}, "type": "Feature"}, {"geometry": {"coordinates": [8.480001, 47.385526], "type": "Point"}, "properties": {"charge": 87, "id": "smide_118", "name": "ZH253759", "provider": "smide", "range": 43.0, "size": 20, "time": "01/26/2020, 10:28:19"}, "type": "Feature"}, {"geometry": {"coordinates": [8.546511, 47.412676], "type": "Point"}, "properties": {"charge": 93, "id": "smide_198", "name": "ZH253836", "provider": "smide", "range": 46.0, "size": 17, "time": "01/26/2020, 10:28:19"}, "type": "Feature"}, {"geometry": {"coordinates": [8.503099, 47.373776], "type": "Point"}, "properties": {"charge": 100, "id": "smide_142", "name": "ZH258745", "provider": "smide", "range": 50.0, "size": 17, "time": "01/26/2020, 10:28:19"}, "type": "Feature"}, {"geometry": {"coordinates": [8.541485, 47.382663], "type": "Point"}, "properties": {"charge": 50, "id": "smide_166", "name": "ZH253728", "provider": "smide", "range": 25.0, "size": 17, "time": "01/26/2020, 10:28:19"}, "type": "Feature"}, {"geometry": {"coordinates": [8.488565, 47.391264], "type": "Point"}, "properties": {"charge": 38, "id": "smide_72", "name": "ZH253726", "provider": "smide", "range": 19.0, "size": 17, "time": "01/26/2020, 10:28:19"}, "type": "Feature"}, {"geometry": {"coordinates": [8.489514, 47.391756], "type": "Point"}, "properties": {"charge": 49, "id": "smide_126", "name": "ZH268400", "provider": "smide", "range": 24.0, "size": 17, "time": "01/26/2020, 10:28:19"}, "type": "Feature"}, {"geometry": {"coordinates": [8.563453, 47.382066], "type": "Point"}, "properties": {"charge": 55, "id": "smide_44", "name": "ZH253837", "provider": "smide", "range": 27.0, "size": 17, "time": "01/26/2020, 10:28:19"}, "type": "Feature"}, {"geometry": {"coordinates": [8.512236, 47.390568], "type": "Point"}, "properties": {"charge": 74, "id": "smide_98", "name": "ZH256321", "provider": "smide", "range": 37.0, "size": 17, "time": "01/26/2020, 10:28:19"}, "type": "Feature"}, {"geometry": {"coordinates": [8.516207, 47.396956], "type": "Point"}, "properties": {"charge": 55, "id": "smide_92", "name": "ZH253798", "provider": "smide", "range": 27.0, "size": 17, "time": "01/26/2020, 10:28:19"}, "type": "Feature"}, {"geometry": {"coordinates": [8.515244, 47.396436], "type": "Point"}, "properties": {"charge": 86, "id": "smide_65", "name": "ZH253810", "provider": "smide", "range": 43.0, "size": 17, "time": "01/26/2020, 10:28:19"}, "type": "Feature"}, {"geometry": {"coordinates": [8.522186, 47.410768], "type": "Point"}, "properties": {"charge": 55, "id": "smide_111", "name": "ZH253763", "provider": "smide", "range": 27.0, "size": 17, "time": "01/26/2020, 10:28:19"}, "type": "Feature"}, {"geometry": {"coordinates": [8.529631, 47.410244], "type": "Point"}, "properties": {"charge": 79, "id": "smide_1", "name": "ZH253776", "provider": "smide", "range": 39.0, "size": 17, "time": "01/26/2020, 10:28:19"}, "type": "Feature"}, {"geometry": {"coordinates": [8.556623, 47.353576], "type": "Point"}, "properties": {"charge": 81, "id": "smide_28", "name": "ZH253831", "provider": "smide", "range": 40.0, "size": 17, "time": "01/26/2020, 10:28:19"}, "type": "Feature"}, {"geometry": {"coordinates": [8.567415, 47.376213], "type": "Point"}, "properties": {"charge": 100, "id": "smide_14", "name": "ZH253749", "provider": "smide", "range": 50.0, "size": 20, "time": "01/26/2020, 10:28:19"}, "type": "Feature"}, {"geometry": {"coordinates": [8.556957, 47.405324], "type": "Point"}, "properties": {"charge": 70, "id": "smide_130", "name": "ZH253847", "provider": "smide", "range": 35.0, "size": 20, "time": "01/26/2020, 10:28:19"}, "type": "Feature"}, {"geometry": {"coordinates": [8.562198, 47.410508], "type": "Point"}, "properties": {"charge": 92, "id": "smide_24", "name": "ZH253696", "provider": "smide", "range": 46.0, "size": 20, "time": "01/26/2020, 10:28:19"}, "type": "Feature"}, {"geometry": {"coordinates": [8.558168, 47.413084], "type": "Point"}, "properties": {"charge": 20, "id": "smide_107", "name": "ZH253819", "provider": "smide", "range": 10.0, "size": 17, "time": "01/26/2020, 10:28:19"}, "type": "Feature"}, {"geometry": {"coordinates": [8.554564, 47.40286], "type": "Point"}, "properties": {"charge": 70, "id": "smide_193", "name": "ZH253738", "provider": "smide", "range": 35.0, "size": 20, "time": "01/26/2020, 10:28:19"}, "type": "Feature"}, {"geometry": {"coordinates": [8.563658, 47.40783], "type": "Point"}, "properties": {"charge": 100, "id": "smide_73", "name": "ZH261379", "provider": "smide", "range": 50.0, "size": 20, "time": "01/26/2020, 10:28:19"}, "type": "Feature"}, {"geometry": {"coordinates": [8.549108, 47.42208], "type": "Point"}, "properties": {"charge": 33, "id": "smide_158", "name": "ZH253870", "provider": "smide", "range": 16.0, "size": 20, "time": "01/26/2020, 10:28:19"}, "type": "Feature"}, {"geometry": {"coordinates": [8.568991, 47.373104], "type": "Point"}, "properties": {"charge": 51, "id": "smide_100", "name": "ZH253862", "provider": "smide", "range": 25.0, "size": 20, "time": "01/26/2020, 10:28:19"}, "type": "Feature"}, {"geometry": {"coordinates": [8.560348, 47.360248], "type": "Point"}, "properties": {"charge": 29, "id": "smide_134", "name": "ZH253741", "provider": "smide", "range": 14.0, "size": 20, "time": "01/26/2020, 10:28:19"}, "type": "Feature"}, {"geometry": {"coordinates": [8.537153, 47.419196], "type": "Point"}, "properties": {"charge": 63, "id": "smide_141", "name": "ZH253800", "provider": "smide", "range": 31.0, "size": 20, "time": "01/26/2020, 10:28:19"}, "type": "Feature"}, {"geometry": {"coordinates": [8.518086, 47.367652], "type": "Point"}, "properties": {"charge": 64, "id": "smide_74", "name": "ZH253693", "provider": "smide", "range": 32.0, "size": 20, "time": "01/26/2020, 10:28:19"}, "type": "Feature"}, {"geometry": {"coordinates": [8.496963, 47.392545], "type": "Point"}, "properties": {"charge": 100, "id": "smide_33", "name": "ZH253782", "provider": "smide", "range": 50.0, "size": 20, "time": "01/26/2020, 10:28:19"}, "type": "Feature"}, {"geometry": {"coordinates": [8.561889, 47.350336], "type": "Point"}, "properties": {"charge": 38, "id": "smide_161", "name": "ZH253691", "provider": "smide", "range": 19.0, "size": 20, "time": "01/26/2020, 10:28:19"}, "type": "Feature"}, {"geometry": {"coordinates": [8.53726, 47.419226], "type": "Point"}, "properties": {"charge": 58, "id": "smide_183", "name": "ZH253868", "provider": "smide", "range": 28.0, "size": 17, "time": "01/26/2020, 10:28:19"}, "type": "Feature"}, {"geometry": {"coordinates": [8.483397, 47.374668], "type": "Point"}, "properties": {"charge": 20, "id": "smide_42", "name": "ZH253846", "provider": "smide", "range": 10.0, "size": 20, "time": "01/26/2020, 10:28:19"}, "type": "Feature"}, {"geometry": {"coordinates": [8.510051, 47.425568], "type": "Point"}, "properties": {"charge": 14, "id": "smide_4", "name": "ZH253740", "provider": "smide", "range": 7.0, "size": 20, "time": "01/26/2020, 10:28:19"}, "type": "Feature"}, {"geometry": {"coordinates": [8.53963, 47.399748], "type": "Point"}, "properties": {"charge": 69, "id": "smide_160", "name": "ZH253722", "provider": "smide", "range": 34.0, "size": 17, "time": "01/26/2020, 10:28:19"}, "type": "Feature"}, {"geometry": {"coordinates": [8.560991, 47.364713], "type": "Point"}, "properties": {"charge": 18, "id": "smide_137", "name": "ZH258502", "provider": "smide", "range": 9.0, "size": 17, "time": "01/26/2020, 10:28:19"}, "type": "Feature"}, {"geometry": {"coordinates": [8.541358, 47.378888], "type": "Point"}, "properties": {"charge": 81, "id": "smide_178", "name": "ZH253803", "provider": "smide", "range": 40.0, "size": 17, "time": "01/26/2020, 10:28:19"}, "type": "Feature"}, {"geometry": {"coordinates": [8.558315, 47.376446], "type": "Point"}, "properties": {"charge": 88, "id": "smide_55", "name": "ZH253875", "provider": "smide", "range": 44.0, "size": 17, "time": "01/26/2020, 10:28:19"}, "type": "Feature"}, {"geometry": {"coordinates": [8.53072, 47.343408], "type": "Point"}, "properties": {"charge": 78, "id": "smide_96", "name": "ZH256146", "provider": "smide", "range": 39.0, "size": 20, "time": "01/26/2020, 10:28:19"}, "type": "Feature"}, {"geometry": {"coordinates": [8.51944, 47.337256], "type": "Point"}, "properties": {"charge": 76, "id": "smide_58", "name": "ZH259246", "provider": "smide", "range": 38.0, "size": 20, "time": "01/26/2020, 10:28:19"}, "type": "Feature"}, {"geometry": {"coordinates": [8.557954, 47.382804], "type": "Point"}, "properties": {"charge": 67, "id": "smide_54", "name": "ZH253874", "provider": "smide", "range": 33.0, "size": 20, "time": "01/26/2020, 10:28:19"}, "type": "Feature"}, {"geometry": {"coordinates": [8.4933, 47.39488], "type": "Point"}, "properties": {"charge": 86, "id": "smide_175", "name": "ZH253730", "provider": "smide", "range": 43.0, "size": 17, "time": "01/26/2020, 10:28:19"}, "type": "Feature"}, {"geometry": {"coordinates": [8.574856, 47.372152], "type": "Point"}, "properties": {"charge": 30, "id": "smide_163", "name": "ZH256147", "provider": "smide", "range": 15.0, "size": 20, "time": "01/26/2020, 10:28:19"}, "type": "Feature"}, {"geometry": {"coordinates": [8.556126, 47.410604], "type": "Point"}, "properties": {"charge": 91, "id": "smide_112", "name": "ZH263530", "provider": "smide", "range": 45.0, "size": 20, "time": "01/26/2020, 10:28:19"}, "type": "Feature"}, {"geometry": {"coordinates": [8.559814, 47.406752], "type": "Point"}, "properties": {"charge": 61, "id": "smide_122", "name": "ZH253850", "provider": "smide", "range": 30.0, "size": 20, "time": "01/26/2020, 10:28:19"}, "type": "Feature"}, {"geometry": {"coordinates": [8.551145, 47.389431], "type": "Point"}, "properties": {"charge": 76, "id": "smide_38", "name": "ZH253851", "provider": "smide", "range": 38.0, "size": 20, "time": "01/26/2020, 10:28:19"}, "type": "Feature"}, {"geometry": {"coordinates": [8.559241, 47.405968], "type": "Point"}, "properties": {"charge": 90, "id": "smide_18", "name": "ZH253859", "provider": "smide", "range": 45.0, "size": 17, "time": "01/26/2020, 10:28:19"}, "type": "Feature"}, {"geometry": {"coordinates": [8.549767, 47.40188], "type": "Point"}, "properties": {"charge": 88, "id": "smide_12", "name": "ZH253685", "provider": "smide", "range": 44.0, "size": 17, "time": "01/26/2020, 10:28:19"}, "type": "Feature"}, {"geometry": {"coordinates": [8.564585, 47.367424], "type": "Point"}, "properties": {"charge": 72, "id": "smide_192", "name": "ZH253706", "provider": "smide", "range": 36.0, "size": 20, "time": "01/26/2020, 10:28:19"}, "type": "Feature"}, {"geometry": {"coordinates": [8.554307, 47.417908], "type": "Point"}, "properties": {"charge": 46, "id": "smide_39", "name": "ZH253714", "provider": "smide", "range": 23.0, "size": 20, "time": "01/26/2020, 10:28:19"}, "type": "Feature"}, {"geometry": {"coordinates": [8.55762, 47.352648], "type": "Point"}, "properties": {"charge": 71, "id": "smide_5", "name": "ZH261443", "provider": "smide", "range": 35.0, "size": 20, "time": "01/26/2020, 10:28:19"}, "type": "Feature"}, {"geometry": {"coordinates": [8.52209, 47.366393], "type": "Point"}, "properties": {"charge": 62, "id": "smide_85", "name": "ZH253729", "provider": "smide", "range": 31.0, "size": 17, "time": "01/26/2020, 10:28:19"}, "type": "Feature"}, {"geometry": {"coordinates": [8.543812, 47.372028], "type": "Point"}, "properties": {"charge": 21, "id": "smide_48", "name": "ZH253849", "provider": "smide", "range": 10.0, "size": 20, "time": "01/26/2020, 10:28:19"}, "type": "Feature"}, {"geometry": {"coordinates": [8.553606, 47.387248], "type": "Point"}, "properties": {"charge": 31, "id": "smide_46", "name": "ZH253843", "provider": "smide", "range": 15.0, "size": 20, "time": "01/26/2020, 10:28:19"}, "type": "Feature"}, {"geometry": {"coordinates": [8.545355, 47.36634], "type": "Point"}, "properties": {"charge": 93, "id": "bird_3ce088ff-eafd-4308-8034-9e8e38b07681", "provider": "bird", "timeStamp": "01/26/2020, 10:28:19"}, "type": "Feature"}, {"geometry": {"coordinates": [8.505005, 47.3817283333333], "type": "Point"}, "properties": {"charge": 30, "id": "bird_d239f5f9-9a22-4dae-9208-19aa9bd60aa3", "provider": "bird", "timeStamp": "01/26/2020, 10:28:19"}, "type": "Feature"}, {"geometry": {"coordinates": [8.55339333333333, 47.3740083333333], "type": "Point"}, "properties": {"charge": 47, "id": "bird_e2d694bf-a04d-4257-a6f5-d13b1c767c07", "provider": "bird", "timeStamp": "01/26/2020, 10:28:19"}, "type": "Feature"}, {"geometry": {"coordinates": [8.54618833333333, 47.367165], "type": "Point"}, "properties": {"charge": 11, "id": "bird_f0854fef-a61f-4cbe-a487-cd41844a4a2a", "provider": "bird", "timeStamp": "01/26/2020, 10:28:19"}, "type": "Feature"}, {"geometry": {"coordinates": [8.51048, 47.3904616666667], "type": "Point"}, "properties": {"charge": 52, "id": "bird_838d2894-c711-4399-bf14-f4709f97998b", "provider": "bird", "timeStamp": "01/26/2020, 10:28:19"}, "type": "Feature"}, {"geometry": {"coordinates": [8.51990166666667, 47.3646233333333], "type": "Point"}, "properties": {"charge": 81, "id": "bird_05efac2f-7829-42aa-98d4-c5a9ea5a8373", "provider": "bird", "timeStamp": "01/26/2020, 10:28:19"}, "type": "Feature"}, {"geometry": {"coordinates": [8.54906333333333, 47.36922], "type": "Point"}, "properties": {"charge": 49, "id": "bird_0f3ec6bd-c106-49f2-89aa-3865ae3c8c9f", "provider": "bird", "timeStamp": "01/26/2020, 10:28:19"}, "type": "Feature"}, {"geometry": {"coordinates": [8.52202833333333, 47.3641016666667], "type": "Point"}, "properties": {"charge": 10, "id": "bird_30e3689e-ea7e-4178-b4f1-af402de6da8e", "provider": "bird", "timeStamp": "01/26/2020, 10:28:19"}, "type": "Feature"}, {"geometry": {"coordinates": [8.51757833333333, 47.39439], "type": "Point"}, "properties": {"charge": 60, "id": "bird_b7a15a1d-49bb-452b-b87d-4967d617a97b", "provider": "bird", "timeStamp": "01/26/2020, 10:28:19"}, "type": "Feature"}, {"geometry": {"coordinates": [8.517575, 47.3943333333333], "type": "Point"}, "properties": {"charge": 39, "id": "bird_3ef02e80-633f-4ad3-9887-96a9ea90e908", "provider": "bird", "timeStamp": "01/26/2020, 10:28:19"}, "type": "Feature"}, {"geometry": {"coordinates": [8.50577, 47.3813933333333], "type": "Point"}, "properties": {"charge": 19, "id": "bird_a06c5d3e-0f88-4f25-8821-bc99f1fd1a5b", "provider": "bird", "timeStamp": "01/26/2020, 10:28:19"}, "type": "Feature"}, {"geometry": {"coordinates": [8.544285, 47.366795], "type": "Point"}, "properties": {"charge": 56, "id": "bird_229e8593-0075-406d-8350-494a645e8551", "provider": "bird", "timeStamp": "01/26/2020, 10:28:19"}, "type": "Feature"}, {"geometry": {"coordinates": [8.54429, 47.366845], "type": "Point"}, "properties": {"charge": 91, "id": "bird_a652e7b5-742c-45ad-81b8-65125be09d24", "provider": "bird", "timeStamp": "01/26/2020, 10:28:19"}, "type": "Feature"}, {"geometry": {"coordinates": [8.55320666666667, 47.3756066666667], "type": "Point"}, "properties": {"charge": 45, "id": "bird_5534a99a-3ca1-463f-abdb-db7d2e6b6b9f", "provider": "bird", "timeStamp": "01/26/2020, 10:28:19"}, "type": "Feature"}, {"geometry": {"coordinates": [8.52409666666667, 47.3641816666667], "type": "Point"}, "properties": {"charge": 25, "id": "bird_6ddaa2cc-8479-4814-b0c8-5b0836a5e570", "provider": "bird", "timeStamp": "01/26/2020, 10:28:19"}, "type": "Feature"}, {"geometry": {"coordinates": [8.54422833333333, 47.3668483333333], "type": "Point"}, "properties": {"charge": 93, "id": "bird_f6b5e311-f79a-4e6b-9a70-b8990c9fe1a7", "provider": "bird", "timeStamp": "01/26/2020, 10:28:19"}, "type": "Feature"}, {"geometry": {"coordinates": [8.548535, 47.3903883333333], "type": "Point"}, "properties": {"charge": 56, "id": "bird_4cd7d7c5-8084-4399-b911-eb320af13c36", "provider": "bird", "timeStamp": "01/26/2020, 10:28:19"}, "type": "Feature"}, {"geometry": {"coordinates": [8.54422333333333, 47.3668783333333], "type": "Point"}, "properties": {"charge": 93, "id": "bird_eaf34c10-4c18-4296-83e2-8027c30cafb6", "provider": "bird", "timeStamp": "01/26/2020, 10:28:19"}, "type": "Feature"}, {"geometry": {"coordinates": [8.54413833333333, 47.366875], "type": "Point"}, "properties": {"charge": 18, "id": "bird_93cc97d1-ca62-40e3-9471-c1b913eca8a9", "provider": "bird", "timeStamp": "01/26/2020, 10:28:19"}, "type": "Feature"}, {"geometry": {"coordinates": [8.53809833333333, 47.364865], "type": "Point"}, "properties": {"charge": 24, "id": "bird_6acaba9b-36f3-42a5-a88c-3c61d6c78231", "provider": "bird", "timeStamp": "01/26/2020, 10:28:19"}, "type": "Feature"}, {"geometry": {"coordinates": [8.53186333333333, 47.3639566666667], "type": "Point"}, "properties": {"charge": 13, "id": "bird_7cb8a581-fee4-4f9f-949f-2000a5cdb736", "provider": "bird", "timeStamp": "01/26/2020, 10:28:19"}, "type": "Feature"}, {"geometry": {"coordinates": [8.53939666666667, 47.394695], "type": "Point"}, "properties": {"charge": 35, "id": "bird_08977b99-37ab-4de9-9f61-0631ec92912f", "provider": "bird", "timeStamp": "01/26/2020, 10:28:19"}, "type": "Feature"}, {"geometry": {"coordinates": [8.53024333333333, 47.36404], "type": "Point"}, "properties": {"charge": 76, "id": "bird_13cdd310-e0f6-45ae-b9da-e9c639c41de9", "provider": "bird", "timeStamp": "01/26/2020, 10:28:19"}, "type": "Feature"}, {"geometry": {"coordinates": [8.531795, 47.3641583333333], "type": "Point"}, "properties": {"charge": 73, "id": "bird_03dad709-3519-463f-9c7e-af00ff433129", "provider": "bird", "timeStamp": "01/26/2020, 10:28:19"}, "type": "Feature"}, {"geometry": {"coordinates": [8.51221666666667, 47.3697733333333], "type": "Point"}, "properties": {"charge": 87, "id": "bird_b4b23565-891b-4864-8f66-ac84b699d20b", "provider": "bird", "timeStamp": "01/26/2020, 10:28:19"}, "type": "Feature"}, {"geometry": {"coordinates": [8.50727666666667, 47.3775183333333], "type": "Point"}, "properties": {"charge": 62, "id": "bird_413321aa-2888-4b42-98c2-efaf9beca3b6", "provider": "bird", "timeStamp": "01/26/2020, 10:28:19"}, "type": "Feature"}, {"geometry": {"coordinates": [8.52040333333333, 47.3941], "type": "Point"}, "properties": {"charge": 40, "id": "bird_79bcbdd1-5309-4510-b901-8606bc9008d2", "provider": "bird", "timeStamp": "01/26/2020, 10:28:19"}, "type": "Feature"}, {"geometry": {"coordinates": [8.51043, 47.3719833333333], "type": "Point"}, "properties": {"charge": 58, "id": "bird_76f60696-f2dd-4e62-a7f6-6a82808ddc42", "provider": "bird", "timeStamp": "01/26/2020, 10:28:19"}, "type": "Feature"}, {"geometry": {"coordinates": [8.53228666666667, 47.3647083333333], "type": "Point"}, "properties": {"charge": 69, "id": "bird_3d0fc503-3ed7-4f20-b134-23ac43cb862a", "provider": "bird", "timeStamp": "01/26/2020, 10:28:19"}, "type": "Feature"}, {"geometry": {"coordinates": [8.53257833333333, 47.3647466666667], "type": "Point"}, "properties": {"charge": 80, "id": "bird_0e1565b1-0710-42e1-bdde-b037f3dee965", "provider": "bird", "timeStamp": "01/26/2020, 10:28:19"}, "type": "Feature"}, {"geometry": {"coordinates": [8.507345, 47.38015], "type": "Point"}, "properties": {"charge": 52, "id": "bird_c9b12892-7171-4cf1-bb5b-87d51892ee6f", "provider": "bird", "timeStamp": "01/26/2020, 10:28:19"}, "type": "Feature"}, {"geometry": {"coordinates": [8.53154166666667, 47.3646966666667], "type": "Point"}, "properties": {"charge": 51, "id": "bird_be0f3dee-a0cc-4f43-b389-70d0f42d1e0f", "provider": "bird", "timeStamp": "01/26/2020, 10:28:19"}, "type": "Feature"}, {"geometry": {"coordinates": [8.53025666666667, 47.36491], "type": "Point"}, "properties": {"charge": 46, "id": "bird_37350909-5a54-4635-a042-26b5c65c9b2e", "provider": "bird", "timeStamp": "01/26/2020, 10:28:19"}, "type": "Feature"}, {"geometry": {"coordinates": [8.55180333333333, 47.3773116666667], "type": "Point"}, "properties": {"charge": 18, "id": "bird_3396111b-5d9b-40e2-9da0-0ed9e3b3600b", "provider": "bird", "timeStamp": "01/26/2020, 10:28:19"}, "type": "Feature"}, {"geometry": {"coordinates": [8.51284833333333, 47.370575], "type": "Point"}, "properties": {"charge": 27, "id": "bird_f93afcf3-9668-4a67-8c84-95357df45a38", "provider": "bird", "timeStamp": "01/26/2020, 10:28:19"}, "type": "Feature"}, {"geometry": {"coordinates": [8.5149, 47.3909116666667], "type": "Point"}, "properties": {"charge": 90, "id": "bird_99a22c4f-9fc3-4dec-969d-59ce753c751d", "provider": "bird", "timeStamp": "01/26/2020, 10:28:19"}, "type": "Feature"}, {"geometry": {"coordinates": [8.54126666666667, 47.3672566666667], "type": "Point"}, "properties": {"charge": 57, "id": "bird_009299ac-ef95-49f5-a18e-d6d8966bfec0", "provider": "bird", "timeStamp": "01/26/2020, 10:28:19"}, "type": "Feature"}, {"geometry": {"coordinates": [8.52544833333333, 47.3945166666667], "type": "Point"}, "properties": {"charge": 60, "id": "bird_19aa676e-cd95-4b53-8573-b7468b522dfe", "provider": "bird", "timeStamp": "01/26/2020, 10:28:19"}, "type": "Feature"}, {"geometry": {"coordinates": [8.50846333333333, 47.3792683333333], "type": "Point"}, "properties": {"charge": 83, "id": "bird_64d2be1f-c290-4bc2-8ed9-457fa97e15b5", "provider": "bird", "timeStamp": "01/26/2020, 10:28:19"}, "type": "Feature"}, {"geometry": {"coordinates": [8.50849666666667, 47.379185], "type": "Point"}, "properties": {"charge": 91, "id": "bird_dedc3580-1389-40ee-ba4b-a289eb81f21f", "provider": "bird", "timeStamp": "01/26/2020, 10:28:19"}, "type": "Feature"}, {"geometry": {"coordinates": [8.536775, 47.3661733333333], "type": "Point"}, "properties": {"charge": 44, "id": "bird_67cb4e79-6f48-454e-87e8-17cad707671d", "provider": "bird", "timeStamp": "01/26/2020, 10:28:19"}, "type": "Feature"}, {"geometry": {"coordinates": [8.513105, 47.3710433333333], "type": "Point"}, "properties": {"charge": 39, "id": "bird_f29f1ea7-0d65-4e96-be62-67c320c924e7", "provider": "bird", "timeStamp": "01/26/2020, 10:28:19"}, "type": "Feature"}, {"geometry": {"coordinates": [8.50870166666667, 47.3795583333333], "type": "Point"}, "properties": {"charge": 57, "id": "bird_b4b91381-66ec-4a3b-93c1-abba5f0ed3ca", "provider": "bird", "timeStamp": "01/26/2020, 10:28:19"}, "type": "Feature"}, {"geometry": {"coordinates": [8.50870666666667, 47.3795516666667], "type": "Point"}, "properties": {"charge": 75, "id": "bird_7e202489-9f57-459d-9357-ddeeb24e7e6b", "provider": "bird", "timeStamp": "01/26/2020, 10:28:19"}, "type": "Feature"}, {"geometry": {"coordinates": [8.53656166666667, 47.366405], "type": "Point"}, "properties": {"charge": 79, "id": "bird_1f672f49-5ae4-4a8f-ac80-87eb608dcdb4", "provider": "bird", "timeStamp": "01/26/2020, 10:28:19"}, "type": "Feature"}, {"geometry": {"coordinates": [8.536545, 47.3664283333333], "type": "Point"}, "properties": {"charge": 57, "id": "bird_aa4256a7-fe42-4dc5-9450-f04ef9071624", "provider": "bird", "timeStamp": "01/26/2020, 10:28:19"}, "type": "Feature"}, {"geometry": {"coordinates": [8.51515666666667, 47.3699416666667], "type": "Point"}, "properties": {"charge": 56, "id": "bird_d9dbd0eb-63b6-4992-8000-86c8c0f50090", "provider": "bird", "timeStamp": "01/26/2020, 10:28:19"}, "type": "Feature"}, {"geometry": {"coordinates": [8.54988, 47.3845833333333], "type": "Point"}, "properties": {"charge": 45, "id": "bird_ad6e1878-7ff8-459e-8fdc-cad35de15f9d", "provider": "bird", "timeStamp": "01/26/2020, 10:28:19"}, "type": "Feature"}, {"geometry": {"coordinates": [8.511825, 47.3728983333333], "type": "Point"}, "properties": {"charge": 72, "id": "bird_bf9ac7dd-7428-4592-8cca-144aebc918ec", "provider": "bird", "timeStamp": "01/26/2020, 10:28:19"}, "type": "Feature"}, {"geometry": {"coordinates": [8.51180333333333, 47.372925], "type": "Point"}, "properties": {"charge": 56, "id": "bird_a8e17aff-57c8-4393-b6c3-4a387398179b", "provider": "bird", "timeStamp": "01/26/2020, 10:28:19"}, "type": "Feature"}, {"geometry": {"coordinates": [8.53534, 47.3664366666667], "type": "Point"}, "properties": {"charge": 65, "id": "bird_2e4f1b9c-336a-4415-a5e5-321d5a70b7ec", "provider": "bird", "timeStamp": "01/26/2020, 10:28:19"}, "type": "Feature"}, {"geometry": {"coordinates": [8.51025666666667, 47.3759383333333], "type": "Point"}, "properties": {"charge": 46, "id": "bird_122dfaf6-554c-424b-931c-fb210a057d0e", "provider": "bird", "timeStamp": "01/26/2020, 10:28:19"}, "type": "Feature"}, {"geometry": {"coordinates": [8.53081166666667, 47.3662383333333], "type": "Point"}, "properties": {"charge": 81, "id": "bird_4871bd85-aed1-4e64-b99f-8b6c3a2c843b", "provider": "bird", "timeStamp": "01/26/2020, 10:28:19"}, "type": "Feature"}, {"geometry": {"coordinates": [8.51291, 47.3873633333333], "type": "Point"}, "properties": {"charge": 65, "id": "bird_095d80d4-5bc9-40c4-a682-441e7bd0db8c", "provider": "bird", "timeStamp": "01/26/2020, 10:28:19"}, "type": "Feature"}, {"geometry": {"coordinates": [8.52668833333333, 47.3935166666667], "type": "Point"}, "properties": {"charge": 53, "id": "bird_51e8ba30-d0d3-43d5-9180-3009c19338ba", "provider": "bird", "timeStamp": "01/26/2020, 10:28:19"}, "type": "Feature"}, {"geometry": {"coordinates": [8.51631166666667, 47.36993], "type": "Point"}, "properties": {"charge": 30, "id": "bird_8d085237-8bdb-4f83-a8ea-afb3916f28e3", "provider": "bird", "timeStamp": "01/26/2020, 10:28:19"}, "type": "Feature"}, {"geometry": {"coordinates": [8.51045666666667, 47.3772166666667], "type": "Point"}, "properties": {"charge": 52, "id": "bird_d2ca613c-1868-4820-90bf-000fff7ce0af", "provider": "bird", "timeStamp": "01/26/2020, 10:28:19"}, "type": "Feature"}, {"geometry": {"coordinates": [8.51720666666667, 47.3902933333333], "type": "Point"}, "properties": {"charge": 81, "id": "bird_86b75fe3-564f-4e96-abd8-392d55060f67", "provider": "bird", "timeStamp": "01/26/2020, 10:28:19"}, "type": "Feature"}, {"geometry": {"coordinates": [8.51292833333333, 47.3868483333333], "type": "Point"}, "properties": {"charge": 26, "id": "bird_f59465e4-e24e-4a2f-865a-bbed57de7f37", "provider": "bird", "timeStamp": "01/26/2020, 10:28:19"}, "type": "Feature"}, {"geometry": {"coordinates": [8.51017833333333, 47.3802983333333], "type": "Point"}, "properties": {"charge": 39, "id": "bird_379d9e96-b03c-4511-8799-3bce6f504a5d", "provider": "bird", "timeStamp": "01/26/2020, 10:28:19"}, "type": "Feature"}, {"geometry": {"coordinates": [8.51102833333333, 47.37619], "type": "Point"}, "properties": {"charge": 69, "id": "bird_20d63ca3-54c4-4a25-878d-946d1782cb46", "provider": "bird", "timeStamp": "01/26/2020, 10:28:19"}, "type": "Feature"}, {"geometry": {"coordinates": [8.5433, 47.37022], "type": "Point"}, "properties": {"charge": 60, "id": "bird_29cfb699-645e-410f-bc4c-1816840e344b", "provider": "bird", "timeStamp": "01/26/2020, 10:28:19"}, "type": "Feature"}, {"geometry": {"coordinates": [8.538425, 47.3919183333333], "type": "Point"}, "properties": {"charge": 74, "id": "bird_17146b6e-0468-4ecc-8e3e-a38f6162851e", "provider": "bird", "timeStamp": "01/26/2020, 10:28:19"}, "type": "Feature"}, {"geometry": {"coordinates": [8.51526333333333, 47.3713416666667], "type": "Point"}, "properties": {"charge": 19, "id": "bird_9a091c59-af0e-42de-94a5-2e2959d6bd25", "provider": "bird", "timeStamp": "01/26/2020, 10:28:19"}, "type": "Feature"}, {"geometry": {"coordinates": [8.51380666666667, 47.387295], "type": "Point"}, "properties": {"charge": 69, "id": "bird_e023f507-609b-4b46-90f0-322f7e9597f8", "provider": "bird", "timeStamp": "01/26/2020, 10:28:19"}, "type": "Feature"}, {"geometry": {"coordinates": [8.53887333333333, 47.3683166666667], "type": "Point"}, "properties": {"charge": 11, "id": "bird_12716bb0-e49b-44b6-af3c-34593d18f8e7", "provider": "bird", "timeStamp": "01/26/2020, 10:28:19"}, "type": "Feature"}, {"geometry": {"coordinates": [8.54206, 47.3697583333333], "type": "Point"}, "properties": {"charge": 15, "id": "bird_b88778a3-a45e-43dd-a611-1b56ec455b06", "provider": "bird", "timeStamp": "01/26/2020, 10:28:19"}, "type": "Feature"}, {"geometry": {"coordinates": [8.52574, 47.3927466666667], "type": "Point"}, "properties": {"charge": 73, "id": "bird_fb7fdfe0-7888-4c58-bcd6-f1d8838383da", "provider": "bird", "timeStamp": "01/26/2020, 10:28:19"}, "type": "Feature"}, {"geometry": {"coordinates": [8.51121166666667, 47.377045], "type": "Point"}, "properties": {"charge": 45, "id": "bird_7426483b-8221-4a7a-879e-b05050069caa", "provider": "bird", "timeStamp": "01/26/2020, 10:28:19"}, "type": "Feature"}, {"geometry": {"coordinates": [8.51168833333333, 47.3763966666667], "type": "Point"}, "properties": {"charge": 72, "id": "bird_afdad7be-2b93-4dd7-8099-f8e34a6f708c", "provider": "bird", "timeStamp": "01/26/2020, 10:28:19"}, "type": "Feature"}, {"geometry": {"coordinates": [8.541725, 47.3698316666667], "type": "Point"}, "properties": {"charge": 44, "id": "bird_168be48e-e70a-45a3-a91c-c2aa1079b182", "provider": "bird", "timeStamp": "01/26/2020, 10:28:19"}, "type": "Feature"}, {"geometry": {"coordinates": [8.52437333333333, 47.3922383333333], "type": "Point"}, "properties": {"charge": 38, "id": "bird_97439f27-b28f-4fa2-ad1e-26d1c9f2e0c2", "provider": "bird", "timeStamp": "01/26/2020, 10:28:19"}, "type": "Feature"}, {"geometry": {"coordinates": [8.525615, 47.39246], "type": "Point"}, "properties": {"charge": 75, "id": "bird_cea49f64-ebc9-47e5-a385-729d2ed3b776", "provider": "bird", "timeStamp": "01/26/2020, 10:28:19"}, "type": "Feature"}, {"geometry": {"coordinates": [8.51134833333333, 47.378025], "type": "Point"}, "properties": {"charge": 70, "id": "bird_204b365c-fb87-48db-87f1-0250258a3889", "provider": "bird", "timeStamp": "01/26/2020, 10:28:19"}, "type": "Feature"}, {"geometry": {"coordinates": [8.52838166666667, 47.392685], "type": "Point"}, "properties": {"charge": 78, "id": "bird_60f47440-929d-4c9c-ab71-ec3fb0ae38e6", "provider": "bird", "timeStamp": "01/26/2020, 10:28:19"}, "type": "Feature"}, {"geometry": {"coordinates": [8.51474, 47.3872183333333], "type": "Point"}, "properties": {"charge": 90, "id": "bird_2f7f0517-d42b-4bc9-8e78-3afd1d055e82", "provider": "bird", "timeStamp": "01/26/2020, 10:28:19"}, "type": "Feature"}, {"geometry": {"coordinates": [8.54816, 47.3816866666667], "type": "Point"}, "properties": {"charge": 61, "id": "bird_4b82c223-6dd2-435a-aec5-10260f13e60d", "provider": "bird", "timeStamp": "01/26/2020, 10:28:19"}, "type": "Feature"}, {"geometry": {"coordinates": [8.51779, 47.3707733333333], "type": "Point"}, "properties": {"charge": 44, "id": "bird_2648a016-0af4-4565-b743-d479f871b1a9", "provider": "bird", "timeStamp": "01/26/2020, 10:28:19"}, "type": "Feature"}, {"geometry": {"coordinates": [8.529415, 47.3676183333333], "type": "Point"}, "properties": {"charge": 79, "id": "bird_f671170a-9a53-497e-aaae-baae7a1226c2", "provider": "bird", "timeStamp": "01/26/2020, 10:28:19"}, "type": "Feature"}, {"geometry": {"coordinates": [8.51781166666667, 47.37077], "type": "Point"}, "properties": {"charge": 31, "id": "bird_5d3e1d92-6305-4b8b-95a9-a97efdd751ac", "provider": "bird", "timeStamp": "01/26/2020, 10:28:19"}, "type": "Feature"}, {"geometry": {"coordinates": [8.51201166666667, 47.37807], "type": "Point"}, "properties": {"charge": 30, "id": "bird_0704547e-4a58-499a-937d-42f1fa7b0b60", "provider": "bird", "timeStamp": "01/26/2020, 10:28:19"}, "type": "Feature"}, {"geometry": {"coordinates": [8.51449833333333, 47.386425], "type": "Point"}, "properties": {"charge": 91, "id": "bird_615aa0b7-b2a8-43a6-ba74-5cc986acbbd1", "provider": "bird", "timeStamp": "01/26/2020, 10:28:19"}, "type": "Feature"}, {"geometry": {"coordinates": [8.52636833333333, 47.3920333333333], "type": "Point"},