{"features": [{"geometry": {"coordinates": [8.540062, 47.374392], "type": "Point"}, "properties": {"address": "Uraniastrasse 7", "electric": 0, "id": "pb_60", "manual": 2, "name": "Demo Station Werdm\u00fchleplatz", "provider": "publibike", "timeStamp": "03/12/2020, 22:27:13", "zip": 8001}, "type": "Feature"}, {"geometry": {"coordinates": [8.5452956, 47.4099615], "type": "Point"}, "properties": {"address": "Querstrasse 8", "electric": 4, "id": "pb_61", "manual": 3, "name": "Marktplatz", "provider": "publibike", "timeStamp": "03/12/2020, 22:27:13", "zip": 8050}, "type": "Feature"}, {"geometry": {"coordinates": [8.5156327, 47.3795837], "type": "Point"}, "properties": {"address": "Bullingerstrasse 5", "electric": 5, "id": "pb_80", "manual": 12, "name": "Bullingerplatz", "provider": "publibike", "timeStamp": "03/12/2020, 22:27:13", "zip": 8004}, "type": "Feature"}, {"geometry": {"coordinates": [8.5104051, 47.3899342], "type": "Point"}, "properties": {"address": "Pfingstweidstrasse 96e", "electric": 1, "id": "pb_81", "manual": 2, "name": "Herdern", "provider": "publibike", "timeStamp": "03/12/2020, 22:27:13", "zip": 8001}, "type": "Feature"}, {"geometry": {"coordinates": [8.535718, 47.359675], "type": "Point"}, "properties": {"address": "Mythenquai 50", "electric": 0, "id": "pb_82", "manual": 0, "name": "Hafen Enge", "provider": "publibike", "timeStamp": "03/12/2020, 22:27:13", "zip": 8002}, "type": "Feature"}, {"geometry": {"coordinates": [8.520370505, 47.358663827], "type": "Point"}, "properties": {"address": "Bubenbergstrasse 1", "electric": 7, "id": "pb_83", "manual": 5, "name": "Comerge", "provider": "publibike", "timeStamp": "03/12/2020, 22:27:13", "zip": 8045}, "type": "Feature"}, {"geometry": {"coordinates": [8.5412505, 47.3789825], "type": "Point"}, "properties": {"address": "Museumstrasse 2", "electric": 7, "id": "pb_84", "manual": 17, "name": "Landesmuseum", "provider": "publibike", "timeStamp": "03/12/2020, 22:27:13", "zip": 8001}, "type": "Feature"}, {"geometry": {"coordinates": [8.5235479, 47.3716661], "type": "Point"}, "properties": {"address": "Birmensdorferstrasse 80", "electric": 1, "id": "pb_85", "manual": 8, "name": "Bahnhof Wiedikon", "provider": "publibike", "timeStamp": "03/12/2020, 22:27:13", "zip": 8003}, "type": "Feature"}, {"geometry": {"coordinates": [8.506822854, 47.40781197], "type": "Point"}, "properties": {"address": "Stefano-Franscini-Platz 5", "electric": 0, "id": "pb_86", "manual": 1, "name": "ETH H\u00f6nggerberg", "provider": "publibike", "timeStamp": "03/12/2020, 22:27:13", "zip": 8093}, "type": "Feature"}, {"geometry": {"coordinates": [8.536101, 47.371083], "type": "Point"}, "properties": {"address": "Pelikanplatz 5", "electric": 3, "id": "pb_87", "manual": 5, "name": "Pelikanplatz", "provider": "publibike", "timeStamp": "03/12/2020, 22:27:13", "zip": 8001}, "type": "Feature"}, {"geometry": {"coordinates": [8.5257822, 47.3651936], "type": "Point"}, "properties": {"address": "H\u00fcrlimannplatz 90", "electric": 0, "id": "pb_88", "manual": 6, "name": "H\u00fcrlimannplatz", "provider": "publibike", "timeStamp": "03/12/2020, 22:27:13", "zip": 8002}, "type": "Feature"}, {"geometry": {"coordinates": [8.5313344, 47.3713591], "type": "Point"}, "properties": {"address": "Selnaustrasse 32", "electric": 1, "id": "pb_89", "manual": 4, "name": "Stauffacherbr\u00fccke", "provider": "publibike", "timeStamp": "03/12/2020, 22:27:13", "zip": 8001}, "type": "Feature"}, {"geometry": {"coordinates": [8.5056978, 47.3917964], "type": "Point"}, "properties": {"address": "Sportweg 25", "electric": 6, "id": "pb_90", "manual": 2, "name": "Sportweg", "provider": "publibike", "timeStamp": "03/12/2020, 22:27:13", "zip": 8005}, "type": "Feature"}, {"geometry": {"coordinates": [8.5181701, 47.3917837], "type": "Point"}, "properties": {"address": "Hardturmstrasse 11", "electric": 1, "id": "pb_91", "manual": 4, "name": "Puls 5", "provider": "publibike", "timeStamp": "03/12/2020, 22:27:13", "zip": 8005}, "type": "Feature"}, {"geometry": {"coordinates": [8.5286468, 47.3820827], "type": "Point"}, "properties": {"address": "R\u00f6ntgenstrasse 6", "electric": 0, "id": "pb_92", "manual": 1, "name": "R\u00f6ntgenstrasse", "provider": "publibike", "timeStamp": "03/12/2020, 22:27:13", "zip": 8005}, "type": "Feature"}, {"geometry": {"coordinates": [8.531935, 47.384918], "type": "Point"}, "properties": {"address": "Kornhausbr\u00fccke 1", "electric": 0, "id": "pb_93", "manual": 10, "name": "Limmatplatz", "provider": "publibike", "timeStamp": "03/12/2020, 22:27:13", "zip": 8005}, "type": "Feature"}, {"geometry": {"coordinates": [8.5354006, 47.3758639], "type": "Point"}, "properties": {"address": "Gessnerallee 15", "electric": 0, "id": "pb_94", "manual": 1, "name": "Gessnerallee", "provider": "publibike", "timeStamp": "03/12/2020, 22:27:13", "zip": 8001}, "type": "Feature"}, {"geometry": {"coordinates": [8.523818, 47.377148], "type": "Point"}, "properties": {"address": "Stauffacherstrasse 127", "electric": 2, "id": "pb_95", "manual": 3, "name": "B\u00e4ckeranlage", "provider": "publibike", "timeStamp": "03/12/2020, 22:27:13", "zip": 8004}, "type": "Feature"}, {"geometry": {"coordinates": [8.531836, 47.378548], "type": "Point"}, "properties": {"address": "Lagerstrasse 44", "electric": 8, "id": "pb_96", "manual": 10, "name": "Gustav-Gull-Platz", "provider": "publibike", "timeStamp": "03/12/2020, 22:27:13", "zip": 8004}, "type": "Feature"}, {"geometry": {"coordinates": [8.5104883, 47.3771535], "type": "Point"}, "properties": {"address": "Zurlindenstrasse 291", "electric": 8, "id": "pb_97", "manual": 5, "name": "Zurlindenstrasse", "provider": "publibike", "timeStamp": "03/12/2020, 22:27:13", "zip": 8003}, "type": "Feature"}, {"geometry": {"coordinates": [8.5333139, 47.3731102], "type": "Point"}, "properties": {"address": "Sihlstrasse 81", "electric": 6, "id": "pb_98", "manual": 6, "name": "Sihlstrasse", "provider": "publibike", "timeStamp": "03/12/2020, 22:27:13", "zip": 8001}, "type": "Feature"}, {"geometry": {"coordinates": [8.520532, 47.374951], "type": "Point"}, "properties": {"address": "Feldstrasse 24", "electric": 1, "id": "pb_99", "manual": 5, "name": "Kalkbreite", "provider": "publibike", "timeStamp": "03/12/2020, 22:27:13", "zip": 8004}, "type": "Feature"}, {"geometry": {"coordinates": [8.539046, 47.368064], "type": "Point"}, "properties": {"address": "Talstrasse 12", "electric": 1, "id": "pb_100", "manual": 3, "name": "Z\u00fcrcher Kantonalbank", "provider": "publibike", "timeStamp": "03/12/2020, 22:27:13", "zip": 8001}, "type": "Feature"}, {"geometry": {"coordinates": [8.5348427, 47.3625938], "type": "Point"}, "properties": {"address": "Breitingerstrasse 5", "electric": 0, "id": "pb_101", "manual": 0, "name": "Rentenanstalt", "provider": "publibike", "timeStamp": "03/12/2020, 22:27:13", "zip": 8002}, "type": "Feature"}, {"geometry": {"coordinates": [8.5166922, 47.3897772], "type": "Point"}, "properties": {"address": "Technoparkstrasse 4", "electric": 0, "id": "pb_102", "manual": 1, "name": "Turbinenplatz", "provider": "publibike", "timeStamp": "03/12/2020, 22:27:13", "zip": 8005}, "type": "Feature"}, {"geometry": {"coordinates": [8.539312, 47.3739964], "type": "Point"}, "properties": {"address": "Oetenbachgasse 14", "electric": 0, "id": "pb_104", "manual": 7, "name": "Rennweg", "provider": "publibike", "timeStamp": "03/12/2020, 22:27:13", "zip": 8001}, "type": "Feature"}, {"geometry": {"coordinates": [8.5360685, 47.3775022], "type": "Point"}, "properties": {"address": "Kasernenstrasse 101", "electric": 2, "id": "pb_105", "manual": 26, "name": "Sihlpost", "provider": "publibike", "timeStamp": "03/12/2020, 22:27:13", "zip": 8004}, "type": "Feature"}, {"geometry": {"coordinates": [8.53545, 47.382798], "type": "Point"}, "properties": {"address": "Ausstellungsstrasse 44", "electric": 0, "id": "pb_106", "manual": 6, "name": "Museum f\u00fcr Gestaltung", "provider": "publibike", "timeStamp": "03/12/2020, 22:27:13", "zip": 8005}, "type": "Feature"}, {"geometry": {"coordinates": [8.5306155, 47.3647902], "type": "Point"}, "properties": {"address": "Gutenbergstrasse 1", "electric": 0, "id": "pb_107", "manual": 6, "name": "Bederbr\u00fccke", "provider": "publibike", "timeStamp": "03/12/2020, 22:27:13", "zip": 8002}, "type": "Feature"}, {"geometry": {"coordinates": [8.518982, 47.386741], "type": "Point"}, "properties": {"address": "Geroldstrasse 4", "electric": 4, "id": "pb_108", "manual": 18, "name": "Bahnhof Hardbr\u00fccke", "provider": "publibike", "timeStamp": "03/12/2020, 22:27:13", "zip": 8005}, "type": "Feature"}, {"geometry": {"coordinates": [8.53001018, 47.37247535], "type": "Point"}, "properties": {"address": "Werdstrasse 21", "electric": 1, "id": "pb_109", "manual": 1, "name": "Tamedia", "provider": "publibike", "timeStamp": "03/12/2020, 22:27:13", "zip": 8004}, "type": "Feature"}, {"geometry": {"coordinates": [8.4860017, 47.396401], "type": "Point"}, "properties": {"address": "Gr\u00fcnauring 37", "electric": 11, "id": "pb_110", "manual": 0, "name": "Gr\u00fcnau", "provider": "publibike", "timeStamp": "03/12/2020, 22:27:13", "zip": 8064}, "type": "Feature"}, {"geometry": {"coordinates": [8.548519, 47.376756], "type": "Point"}, "properties": {"address": "R\u00e4mistrasse 101", "electric": 6, "id": "pb_111", "manual": 0, "name": "ETH Zentrum", "provider": "publibike", "timeStamp": "03/12/2020, 22:27:13", "zip": 8006}, "type": "Feature"}, {"geometry": {"coordinates": [8.520449, 47.388151], "type": "Point"}, "properties": {"address": "Josefstrasse 224", "electric": 1, "id": "pb_112", "manual": 1, "name": "Steinfelsareal", "provider": "publibike", "timeStamp": "03/12/2020, 22:27:13", "zip": 8005}, "type": "Feature"}, {"geometry": {"coordinates": [8.520482, 47.37209], "type": "Point"}, "properties": {"address": "Weststrasse 115", "electric": 3, "id": "pb_124", "manual": 7, "name": "Weststrasse", "provider": "publibike", "timeStamp": "03/12/2020, 22:27:13", "zip": 8003}, "type": "Feature"}, {"geometry": {"coordinates": [8.496727, 47.378521], "type": "Point"}, "properties": {"address": "Albisriederstrasse 200", "electric": 0, "id": "pb_125", "manual": 16, "name": "Utogrund", "provider": "publibike", "timeStamp": "03/12/2020, 22:27:13", "zip": 8047}, "type": "Feature"}, {"geometry": {"coordinates": [8.510418, 47.381356], "type": "Point"}, "properties": {"address": "Bullingerstrasse 73", "electric": 9, "id": "pb_126", "manual": 5, "name": "Hardau", "provider": "publibike", "timeStamp": "03/12/2020, 22:27:13", "zip": 8004}, "type": "Feature"}, {"geometry": {"coordinates": [8.525525, 47.361567], "type": "Point"}, "properties": {"address": "Klopstockstrasse 23", "electric": 2, "id": "pb_127", "manual": 6, "name": "Klopstockwiese", "provider": "publibike", "timeStamp": "03/12/2020, 22:27:13", "zip": 8002}, "type": "Feature"}, {"geometry": {"coordinates": [8.518143, 47.363148], "type": "Point"}, "properties": {"address": "Haldenstrasse 8", "electric": 6, "id": "pb_128", "manual": 2, "name": "Binz", "provider": "publibike", "timeStamp": "03/12/2020, 22:27:13", "zip": 8045}, "type": "Feature"}, {"geometry": {"coordinates": [8.542726, 47.379952], "type": "Point"}, "properties": {"address": "Walchestrasse 11", "electric": 0, "id": "pb_129", "manual": 0, "name": "Stampfenbachplatz", "provider": "publibike", "timeStamp": "03/12/2020, 22:27:13", "zip": 8006}, "type": "Feature"}, {"geometry": {"coordinates": [8.488108, 47.391366], "type": "Point"}, "properties": {"address": "Altstetterplatz 1", "electric": 2, "id": "pb_130", "manual": 2, "name": "Bahnhof Altstetten", "provider": "publibike", "timeStamp": "03/12/2020, 22:27:13", "zip": 8048}, "type": "Feature"}, {"geometry": {"coordinates": [8.554114, 47.365119], "type": "Point"}, "properties": {"address": "Kreuzplatz 2", "electric": 12, "id": "pb_131", "manual": 7, "name": "Kreuzplatz", "provider": "publibike", "timeStamp": "03/12/2020, 22:27:13", "zip": 8032}, "type": "Feature"}, {"geometry": {"coordinates": [8.549852, 47.35594], "type": "Point"}, "properties": {"address": "H\u00f6schgasse 3", "electric": 2, "id": "pb_132", "manual": 8, "name": "Blatterwiese", "provider": "publibike", "timeStamp": "03/12/2020, 22:27:13", "zip": 8008}, "type": "Feature"}, {"geometry": {"coordinates": [8.554501, 47.36162], "type": "Point"}, "properties": {"address": "Feldeggstrasse 80", "electric": 7, "id": "pb_133", "manual": 0, "name": "Villa Bleuler", "provider": "publibike", "timeStamp": "03/12/2020, 22:27:13", "zip": 8008}, "type": "Feature"}, {"geometry": {"coordinates": [8.557088, 47.358557], "type": "Point"}, "properties": {"address": "M\u00fchlebachstrasse 131", "electric": 1, "id": "pb_134", "manual": 4, "name": "M\u00fchlebachstrasse", "provider": "publibike", "timeStamp": "03/12/2020, 22:27:13", "zip": 8008}, "type": "Feature"}, {"geometry": {"coordinates": [8.547639, 47.361266], "type": "Point"}, "properties": {"address": "Utoquai 50", "electric": 8, "id": "pb_135", "manual": 1, "name": "Seebad Utoquai", "provider": "publibike", "timeStamp": "03/12/2020, 22:27:13", "zip": 8008}, "type": "Feature"}, {"geometry": {"coordinates": [8.548045, 47.370869], "type": "Point"}, "properties": {"address": "Heimplatz 1", "electric": 4, "id": "pb_137", "manual": 8, "name": "Kunsthaus", "provider": "publibike", "timeStamp": "03/12/2020, 22:27:13", "zip": 8001}, "type": "Feature"}, {"geometry": {"coordinates": [8.543447, 47.375933], "type": "Point"}, "properties": {"address": "Limmatquai 138", "electric": 7, "id": "pb_138", "manual": 1, "name": "Central", "provider": "publibike", "timeStamp": "03/12/2020, 22:27:13", "zip": 8001}, "type": "Feature"}, {"geometry": {"coordinates": [8.549356, 47.408827], "type": "Point"}, "properties": {"address": "Tramstrasse 35", "electric": 0, "id": "pb_139", "manual": 2, "name": "ewz Tramstrasse", "provider": "publibike", "timeStamp": "03/12/2020, 22:27:13", "zip": 8050}, "type": "Feature"}, {"geometry": {"coordinates": [8.533736, 47.366904], "type": "Point"}, "properties": {"address": "Bleicherweg 33", "electric": 4, "id": "pb_140", "manual": 4, "name": "Bleicherweg", "provider": "publibike", "timeStamp": "03/12/2020, 22:27:13", "zip": 8002}, "type": "Feature"}, {"geometry": {"coordinates": [8.544935, 47.366752], "type": "Point"}, "properties": {"address": "Bellevueplatz 2", "electric": 7, "id": "pb_141", "manual": 20, "name": "Bellevue", "provider": "publibike", "timeStamp": "03/12/2020, 22:27:13", "zip": 8001}, "type": "Feature"}, {"geometry": {"coordinates": [8.5285533, 47.3742296], "type": "Point"}, "properties": {"address": "Stauffacherstrasse 41", "electric": 2, "id": "pb_142", "manual": 2, "name": "Stauffacher", "provider": "publibike", "timeStamp": "03/12/2020, 22:27:13", "zip": 8004}, "type": "Feature"}, {"geometry": {"coordinates": [8.523722, 47.3899], "type": "Point"}, "properties": {"address": "Limmatstrasse 310", "electric": 0, "id": "pb_143", "manual": 10, "name": "Escher-Wyss-Platz", "provider": "publibike", "timeStamp": "03/12/2020, 22:27:13", "zip": 8005}, "type": "Feature"}, {"geometry": {"coordinates": [8.491061, 47.392336], "type": "Point"}, "properties": {"address": "Vulkanplatz 1", "electric": 3, "id": "pb_149", "manual": 11, "name": "Vulkanplatz", "provider": "publibike", "timeStamp": "03/12/2020, 22:27:13", "zip": 8048}, "type": "Feature"}, {"geometry": {"coordinates": [8.52306, 47.359872], "type": "Point"}, "properties": {"address": "Giessh\u00fcbelstrasse 15", "electric": 3, "id": "pb_150", "manual": 8, "name": "Utoplatz", "provider": "publibike", "timeStamp": "03/12/2020, 22:27:13", "zip": 8045}, "type": "Feature"}, {"geometry": {"coordinates": [8.486284, 47.387685], "type": "Point"}, "properties": {"address": "Lindenplatz 1", "electric": 12, "id": "pb_151", "manual": 5, "name": "Lindenplatz", "provider": "publibike", "timeStamp": "03/12/2020, 22:27:13", "zip": 8048}, "type": "Feature"}, {"geometry": {"coordinates": [8.49163, 47.389823], "type": "Point"}, "properties": {"address": "Hohlstrasse 563", "electric": 1, "id": "pb_152", "manual": 0, "name": "Luggweg", "provider": "publibike", "timeStamp": "03/12/2020, 22:27:13", "zip": 8048}, "type": "Feature"}, {"geometry": {"coordinates": [8.52174, 47.365272], "type": "Point"}, "properties": {"address": "Manessestrasse 87", "electric": 7, "id": "pb_153", "manual": 3, "name": "Manesseplatz", "provider": "publibike", "timeStamp": "03/12/2020, 22:27:13", "zip": 8045}, "type": "Feature"}, {"geometry": {"coordinates": [8.52714, 47.372329], "type": "Point"}, "properties": {"address": "Werdstrasse 75", "electric": 2, "id": "pb_154", "manual": 2, "name": "Werd", "provider": "publibike", "timeStamp": "03/12/2020, 22:27:13", "zip": 8004}, "type": "Feature"}, {"geometry": {"coordinates": [8.543042, 47.374711], "type": "Point"}, "properties": {"address": "Limmatquai 100", "electric": 0, "id": "pb_155", "manual": 0, "name": "Rudolf-Brun-Br\u00fccke", "provider": "publibike", "timeStamp": "03/12/2020, 22:27:13", "zip": 8001}, "type": "Feature"}, {"geometry": {"coordinates": [8.490837, 47.386596], "type": "Point"}, "properties": {"address": "Badenerstrasse 627", "electric": 5, "id": "pb_156", "manual": 13, "name": "Luggwegstrasse VBZ", "provider": "publibike", "timeStamp": "03/12/2020, 22:27:13", "zip": 8048}, "type": "Feature"}, {"geometry": {"coordinates": [8.535119, 47.355189], "type": "Point"}, "properties": {"address": "Mythenquai 95", "electric": 7, "id": "pb_157", "manual": 7, "name": "Strandbad Mythenquai", "provider": "publibike", "timeStamp": "03/12/2020, 22:27:13", "zip": 8002}, "type": "Feature"}, {"geometry": {"coordinates": [8.545505, 47.373675], "type": "Point"}, "properties": {"address": "Predigerpatz 21", "electric": 4, "id": "pb_158", "manual": 3, "name": "Predigerplatz", "provider": "publibike", "timeStamp": "03/12/2020, 22:27:13", "zip": 8001}, "type": "Feature"}, {"geometry": {"coordinates": [8.515558, 47.371868], "type": "Point"}, "properties": {"address": "Aemtlerstrasse 23", "electric": 17, "id": "pb_159", "manual": 12, "name": "Zwinglihaus", "provider": "publibike", "timeStamp": "03/12/2020, 22:27:13", "zip": 8003}, "type": "Feature"}, {"geometry": {"coordinates": [8.524629, 47.386072], "type": "Point"}, "properties": {"address": "Josefstrasse 188", "electric": 5, "id": "pb_160", "manual": 9, "name": "Josefwiese", "provider": "publibike", "timeStamp": "03/12/2020, 22:27:13", "zip": 8005}, "type": "Feature"}, {"geometry": {"coordinates": [8.527138, 47.387531], "type": "Point"}, "properties": {"address": "R\u00f6ntgenstrasse 87", "electric": 2, "id": "pb_164", "manual": 13, "name": "Markthalle", "provider": "publibike", "timeStamp": "03/12/2020, 22:27:13", "zip": 8005}, "type": "Feature"}, {"geometry": {"coordinates": [8.552717, 47.359978], "type": "Point"}, "properties": {"address": "Seefeldstrasse 96", "electric": 2, "id": "pb_263", "manual": 5, "name": "Feldeggstrasse", "provider": "publibike", "timeStamp": "03/12/2020, 22:27:13", "zip": 8008}, "type": "Feature"}, {"geometry": {"coordinates": [8.553189, 47.353198], "type": "Point"}, "properties": {"address": "Bellerivestrasse 170", "electric": 3, "id": "pb_264", "manual": 3, "name": "Lake Side", "provider": "publibike", "timeStamp": "03/12/2020, 22:27:13", "zip": 8008}, "type": "Feature"}, {"geometry": {"coordinates": [8.543437, 47.369256], "type": "Point"}, "properties": {"address": "Limmatquai 18", "electric": 0, "id": "pb_265", "manual": 0, "name": "Helmhaus", "provider": "publibike", "timeStamp": "03/12/2020, 22:27:13", "zip": 8032}, "type": "Feature"}, {"geometry": {"coordinates": [8.516676, 47.375819], "type": "Point"}, "properties": {"address": "Badenerstrasse 246", "electric": 11, "id": "pb_266", "manual": 11, "name": "Lochergut", "provider": "publibike", "timeStamp": "03/12/2020, 22:27:13", "zip": 8004}, "type": "Feature"}, {"geometry": {"coordinates": [8.514605, 47.389862], "type": "Point"}, "properties": {"address": "Pfingstweidstrasse 60", "electric": 0, "id": "pb_273", "manual": 0, "name": "Westpark", "provider": "publibike", "timeStamp": "03/12/2020, 22:27:13", "zip": 8005}, "type": "Feature"}, {"geometry": {"coordinates": [8.541239126, 47.375991201], "type": "Point"}, "properties": {"address": "Beatenplatz 1", "electric": 0, "id": "pb_274", "manual": 2, "name": "Beatenplatz", "provider": "publibike", "timeStamp": "03/12/2020, 22:27:13", "zip": 8001}, "type": "Feature"}, {"geometry": {"coordinates": [8.5417135, 47.3942197], "type": "Point"}, "properties": {"address": "Scheuchzerstrasse 181", "electric": 2, "id": "pb_275", "manual": 0, "name": "Pauluskirche", "provider": "publibike", "timeStamp": "03/12/2020, 22:27:13", "zip": 8057}, "type": "Feature"}, {"geometry": {"coordinates": [8.5528182, 47.414558], "type": "Point"}, "properties": {"address": "Hagenholzstrasse 51", "electric": 2, "id": "pb_276", "manual": 9, "name": "Airgate", "provider": "publibike", "timeStamp": "03/12/2020, 22:27:13", "zip": 8050}, "type": "Feature"}, {"geometry": {"coordinates": [8.537816, 47.413514], "type": "Point"}, "properties": {"address": "Birchstrasse 183", "electric": 0, "id": "pb_277", "manual": 1, "name": "Lamprechtweg", "provider": "publibike", "timeStamp": "03/12/2020, 22:27:13", "zip": 8050}, "type": "Feature"}, {"geometry": {"coordinates": [8.545602, 47.417701], "type": "Point"}, "properties": {"address": "Felsenrainstrasse 2", "electric": 6, "id": "pb_278", "manual": 5, "name": "Emil-Oberh\u00e4nsli", "provider": "publibike", "timeStamp": "03/12/2020, 22:27:13", "zip": 8050}, "type": "Feature"}, {"geometry": {"coordinates": [8.533647, 47.39808], "type": "Point"}, "properties": {"address": "Bucheggplatz 2", "electric": 6, "id": "pb_279", "manual": 3, "name": "Bucheggplatz", "provider": "publibike", "timeStamp": "03/12/2020, 22:27:13", "zip": 8057}, "type": "Feature"}, {"geometry": {"coordinates": [8.523549, 47.392347], "type": "Point"}, "properties": {"address": "Wipkingerplatz 4", "electric": 5, "id": "pb_280", "manual": 8, "name": "Wipkingerplatz", "provider": "publibike", "timeStamp": "03/12/2020, 22:27:13", "zip": 8037}, "type": "Feature"}, {"geometry": {"coordinates": [8.548562, 47.36691], "type": "Point"}, "properties": {"address": "Galerie \u00fcber Gleis 2/3", "electric": 14, "id": "pb_285", "manual": 9, "name": "Bahnhof Stadelhofen", "provider": "publibike", "timeStamp": "03/12/2020, 22:27:13", "zip": 8001}, "type": "Feature"}, {"geometry": {"coordinates": [8.493822, 47.3985553], "type": "Point"}, "properties": {"address": "Meierwiesenstrasse 12-4", "electric": 5, "id": "pb_286", "manual": 4, "name": "T\u00fcffenwies", "provider": "publibike", "timeStamp": "03/12/2020, 22:27:13", "zip": 8064}, "type": "Feature"}, {"geometry": {"coordinates": [8.552432, 47.3801757], "type": "Point"}, "properties": {"address": "Hochstrasse 34", "electric": 3, "id": "pb_356", "manual": 1, "name": "Siriuswiese", "provider": "publibike", "timeStamp": "03/12/2020, 22:27:13", "zip": 8044}, "type": "Feature"}, {"geometry": {"coordinates": [8.527298, 47.370141], "type": "Point"}, "properties": {"address": "Hallwylstrasse 71", "electric": 1, "id": "pb_357", "manual": 6, "name": "Hallwylstrasse", "provider": "publibike", "timeStamp": "03/12/2020, 22:27:13", "zip": 8004}, "type": "Feature"}, {"geometry": {"coordinates": [8.5414185, 47.3972455], "type": "Point"}, "properties": {"address": "Schaffhauserstrasse 137", "electric": 6, "id": "pb_358", "manual": 2, "name": "Milchbuck", "provider": "publibike", "timeStamp": "03/12/2020, 22:27:13", "zip": 8057}, "type": "Feature"}, {"geometry": {"coordinates": [8.512381, 47.393409], "type": "Point"}, "properties": {"address": "Hardturmstrasse 161", "electric": 1, "id": "pb_359", "manual": 4, "name": "Fischerweg", "provider": "publibike", "timeStamp": "03/12/2020, 22:27:13", "zip": 8005}, "type": "Feature"}, {"geometry": {"coordinates": [8.5421457, 47.3876979], "type": "Point"}, "properties": {"address": "Turnerstrasse 47", "electric": 3, "id": "pb_360", "manual": 2, "name": "Kirche Unterstrass", "provider": "publibike", "timeStamp": "03/12/2020, 22:27:13", "zip": 8006}, "type": "Feature"}, {"geometry": {"coordinates": [8.522117, 47.394554], "type": "Point"}, "properties": {"address": "Dorfstrasse 40", "electric": 5, "id": "pb_361", "manual": 1, "name": "Dorfstrasse", "provider": "publibike", "timeStamp": "03/12/2020, 22:27:13", "zip": 8037}, "type": "Feature"}, {"geometry": {"coordinates": [8.530437, 47.37271], "type": "Point"}, "properties": {"address": "Werdstrasse 25", "electric": 0, "id": "pb_362", "manual": 4, "name": "Stauffachertor", "provider": "publibike", "timeStamp": "03/12/2020, 22:27:13", "zip": 8004}, "type": "Feature"}, {"geometry": {"coordinates": [8.541712, 47.416155], "type": "Point"}, "properties": {"address": "Eggb\u00fchlstrasse 21", "electric": 2, "id": "pb_363", "manual": 5, "name": "Wahlenpark", "provider": "publibike", "timeStamp": "03/12/2020, 22:27:13", "zip": 8050}, "type": "Feature"}, {"geometry": {"coordinates": [8.5595335, 47.3708387], "type": "Point"}, "properties": {"address": "Dolderstrasse 32", "electric": 3, "id": "pb_364", "manual": 0, "name": "Kinderspital", "provider": "publibike", "timeStamp": "03/12/2020, 22:27:13", "zip": 8032}, "type": "Feature"}, {"geometry": {"coordinates": [8.536433, 47.388689], "type": "Point"}, "properties": {"address": "Kornhausstrasse 30", "electric": 2, "id": "pb_365", "manual": 1, "name": "Kornhausstrasse", "provider": "publibike", "timeStamp": "03/12/2020, 22:27:13", "zip": 8006}, "type": "Feature"}, {"geometry": {"coordinates": [8.55033, 47.407098], "type": "Point"}, "properties": {"address": "Schwamendingenstrasse 41", "electric": 5, "id": "pb_366", "manual": 5, "name": "Dorflinde", "provider": "publibike", "timeStamp": "03/12/2020, 22:27:13", "zip": 8050}, "type": "Feature"}, {"geometry": {"coordinates": [8.560476, 47.368199], "type": "Point"}, "properties": {"address": "R\u00f6merhofplatz 5", "electric": 10, "id": "pb_367", "manual": 2, "name": "R\u00f6merhof", "provider": "publibike", "timeStamp": "03/12/2020, 22:27:13", "zip": 8032}, "type": "Feature"}, {"geometry": {"coordinates": [8.5609218, 47.3619068], "type": "Point"}, "properties": {"address": "Forchstrasse 99", "electric": 5, "id": "pb_368", "manual": 8, "name": "Hegibachplatz", "provider": "publibike", "timeStamp": "03/12/2020, 22:27:13", "zip": 8032}, "type": "Feature"}, {"geometry": {"coordinates": [8.5721264, 47.4039985], "type": "Point"}, "properties": {"address": "Winterthurerstrasse 519", "electric": 11, "id": "pb_370", "manual": 6, "name": "Schwamendingerplatz", "provider": "publibike", "timeStamp": "03/12/2020, 22:27:13", "zip": 8051}, "type": "Feature"}, {"geometry": {"coordinates": [8.520168, 47.378556], "type": "Point"}, "properties": {"address": "Herman-Greulich-Strasse 56", "electric": 3, "id": "pb_384", "manual": 3, "name": "Hermann-Greulich-Weg", "provider": "publibike", "timeStamp": "03/12/2020, 22:27:13", "zip": 8004}, "type": "Feature"}, {"geometry": {"coordinates": [8.547912, 47.384923], "type": "Point"}, "properties": {"address": "Culmannstrasse", "electric": 7, "id": "pb_386", "manual": 1, "name": "Rigiplatz", "provider": "publibike", "timeStamp": "03/12/2020, 22:27:13", "zip": 8006}, "type": "Feature"}, {"geometry": {"coordinates": [8.543768, 47.411057], "type": "Point"}, "properties": {"address": "Hofwiesenstrasse 369", "electric": 4, "id": "pb_387", "manual": 1, "name": "Bahnhof Oerlikon S\u00fcd", "provider": "publibike", "timeStamp": "03/12/2020, 22:27:13", "zip": 8050}, "type": "Feature"}, {"geometry": {"coordinates": [8.544185, 47.412732], "type": "Point"}, "properties": {"address": "Jungholzstrasse 6", "electric": 0, "id": "pb_388", "manual": 1, "name": "Max-Frisch-Platz", "provider": "publibike", "timeStamp": "03/12/2020, 22:27:13", "zip": 8050}, "type": "Feature"}, {"geometry": {"coordinates": [8.558096, 47.413032], "type": "Point"}, "properties": {"address": "Andreasstrasse", "electric": 4, "id": "pb_389", "manual": 5, "name": "Hunziker-Areal", "provider": "publibike", "timeStamp": "03/12/2020, 22:27:13", "zip": 8050}, "type": "Feature"}, {"geometry": {"coordinates": [8.533265, 47.412873], "type": "Point"}, "properties": {"address": "Regina-K\u00e4gi-Strasse 1", "electric": 1, "id": "pb_390", "manual": 3, "name": "Luis-H\u00e4fliger-Park", "provider": "publibike", "timeStamp": "03/12/2020, 22:27:13", "zip": 8050}, "type": "Feature"}, {"geometry": {"coordinates": [8.499265, 47.401852], "type": "Point"}, "properties": {"address": "Limmattalstrasse 177", "electric": 7, "id": "pb_391", "manual": 0, "name": "Meierhofplatz", "provider": "publibike", "timeStamp": "03/12/2020, 22:27:13", "zip": 8049}, "type": "Feature"}, {"geometry": {"coordinates": [8.528356, 47.393255], "type": "Point"}, "properties": {"address": "R\u00f6schibachstrasse 73", "electric": 2, "id": "pb_392", "manual": 4, "name": "R\u00f6schibachplatz", "provider": "publibike", "timeStamp": "03/12/2020, 22:27:13", "zip": 8037}, "type": "Feature"}, {"geometry": {"coordinates": [8.538067, 47.415721], "type": "Point"}, "properties": {"address": "Birchstrasse 191", "electric": 3, "id": "pb_393", "manual": 1, "name": "Oerliker Park", "provider": "publibike", "timeStamp": "03/12/2020, 22:27:13", "zip": 8050}, "type": "Feature"}, {"geometry": {"coordinates": [8.5420304, 47.3669233], "type": "Point"}, "properties": {"address": "Stadthausquai 1", "electric": 0, "id": "pb_395", "manual": 9, "name": "B\u00fcrkliplatz", "provider": "publibike", "timeStamp": "03/12/2020, 22:27:13", "zip": 8001}, "type": "Feature"}, {"geometry": {"coordinates": [8.535767, 47.409881], "type": "Point"}, "properties": {"address": "Regensbergstrasse 195", "electric": 7, "id": "pb_396", "manual": 2, "name": "Holunderhof", "provider": "publibike", "timeStamp": "03/12/2020, 22:27:13", "zip": 8050}, "type": "Feature"}, {"geometry": {"coordinates": [8.5116245, 47.3616199], "type": "Point"}, "properties": {"address": "Grubenstrasse 42", "electric": 0, "id": "pb_431", "manual": 0, "name": "Binz Center", "provider": "publibike", "timeStamp": "03/12/2020, 22:27:13", "zip": 8045}, "type": "Feature"}, {"geometry": {"coordinates": [8.547195, 47.382089], "type": "Point"}, "properties": {"address": "Nelkenstrasse 24", "electric": 11, "id": "pb_430", "manual": 0, "name": "Stapferstube", "provider": "publibike", "timeStamp": "03/12/2020, 22:27:13", "zip": 8006}, "type": "Feature"}, {"geometry": {"coordinates": [8.5787183, 47.4039845], "type": "Point"}, "properties": {"address": "Kronwiesenstrasse 35", "electric": 3, "id": "pb_426", "manual": 3, "name": "Kronwiesen", "provider": "publibike", "timeStamp": "03/12/2020, 22:27:13", "zip": 8051}, "type": "Feature"}, {"geometry": {"coordinates": [8.508131, 47.420757], "type": "Point"}, "properties": {"address": "Riedenhaldenstrasse 20-18", "electric": 4, "id": "pb_425", "manual": 3, "name": "Bahnhof Affoltern", "provider": "publibike", "timeStamp": "03/12/2020, 22:27:13", "zip": 8046}, "type": "Feature"}, {"geometry": {"coordinates": [8.532464, 47.406988], "type": "Point"}, "properties": {"address": "K\u00fcnzlistrasse 41", "electric": 10, "id": "pb_424", "manual": 0, "name": "Birchd\u00f6rfli", "provider": "publibike", "timeStamp": "03/12/2020, 22:27:13", "zip": 8057}, "type": "Feature"}, {"geometry": {"coordinates": [8.5777038, 47.4080095], "type": "Point"}, "properties": {"address": "Luegislandstrasse 412", "electric": 5, "id": "pb_429", "manual": 3, "name": "Luegisland", "provider": "publibike", "timeStamp": "03/12/2020, 22:27:13", "zip": 8051}, "type": "Feature"}, {"geometry": {"coordinates": [8.58841, 47.40158], "type": "Point"}, "properties": {"address": "Hirzenbachstrasse 2-4", "electric": 11, "id": "pb_428", "manual": 7, "name": "Hirzenbachstrasse", "provider": "publibike", "timeStamp": "03/12/2020, 22:27:13", "zip": 8051}, "type": "Feature"}, {"geometry": {"coordinates": [8.5563463, 47.4095467], "type": "Point"}, "properties": {"address": "K\u00fchriedweg", "electric": 3, "id": "pb_445", "manual": 4, "name": "Hallenbad Oerlikon", "provider": "publibike", "timeStamp": "03/12/2020, 22:27:13", "zip": 8050}, "type": "Feature"}, {"geometry": {"coordinates": [8.537971, 47.364871], "type": "Point"}, "properties": {"address": "General-Guisan-Quai 17", "electric": 0, "id": "pb_454", "manual": 1, "name": "General-Guisan-Quai", "provider": "publibike", "timeStamp": "03/12/2020, 22:27:13", "zip": 8002}, "type": "Feature"}, {"geometry": {"coordinates": [8.560587, 47.350578], "type": "Point"}, "properties": {"address": "Bellerivestrasse 245", "electric": 10, "id": "pb_450", "manual": 6, "name": "Bahnhof Tiefenbrunnen", "provider": "publibike", "timeStamp": "03/12/2020, 22:27:13", "zip": 8008}, "type": "Feature"}, {"geometry": {"coordinates": [8.5269416, 47.3563719], "type": "Point"}, "properties": {"address": "Waffenplatzstrasse 89", "electric": 7, "id": "pb_452", "manual": 6, "name": "Rieterplatz", "provider": "publibike", "timeStamp": "03/12/2020, 22:27:13", "zip": 8002}, "type": "Feature"}, {"geometry": {"coordinates": [8.514176, 47.3663708], "type": "Point"}, "properties": {"address": "Talwiesenstrasse 92", "electric": 6, "id": "pb_446", "manual": 2, "name": "Binzallee", "provider": "publibike", "timeStamp": "03/12/2020, 22:27:13", "zip": 8055}, "type": "Feature"}, {"geometry": {"coordinates": [8.5070564, 47.371455], "type": "Point"}, "properties": {"address": "Gutstrasse 87", "electric": 14, "id": "pb_447", "manual": 3, "name": "Gutstrasse", "provider": "publibike", "timeStamp": "03/12/2020, 22:27:13", "zip": 8055}, "type": "Feature"}, {"geometry": {"coordinates": [8.4941268, 47.3836391], "type": "Point"}, "properties": {"address": "Flurstrasse 62", "electric": 6, "id": "pb_453", "manual": 2, "name": "Flurpark", "provider": "publibike", "timeStamp": "03/12/2020, 22:27:13", "zip": 8048}, "type": "Feature"}, {"geometry": {"coordinates": [8.500343, 47.380778], "type": "Point"}, "properties": {"address": "Edelweissstrasse 32", "electric": 3, "id": "pb_448", "manual": 7, "name": "Bl\u00fcemliquartier", "provider": "publibike", "timeStamp": "03/12/2020, 22:27:13", "zip": 8048}, "type": "Feature"}, {"geometry": {"coordinates": [8.528796, 47.383858], "type": "Point"}, "properties": {"address": "Gasometerstrasse 24", "electric": 2, "id": "pb_449", "manual": 9, "name": "Gasometerstrasse", "provider": "publibike", "timeStamp": "03/12/2020, 22:27:13", "zip": 8005}, "type": "Feature"}, {"geometry": {"coordinates": [8.4981964, 47.3859194], "type": "Point"}, "properties": {"address": "Baslerstrasse 57", "electric": 5, "id": "pb_455", "manual": 1, "name": "Letzipark", "provider": "publibike", "timeStamp": "03/12/2020, 22:27:13", "zip": 8048}, "type": "Feature"}, {"geometry": {"coordinates": [8.515252, 47.381915], "type": "Point"}, "properties": {"address": "Sihlfeldstrasse 175", "electric": 5, "id": "pb_451", "manual": 10, "name": "Hardplatz", "provider": "publibike", "timeStamp": "03/12/2020, 22:27:13", "zip": 8004}, "type": "Feature"}, {"geometry": {"coordinates": [8.5064743, 47.4188324], "type": "Point"}, "properties": {"address": "Wehntalerstrasse 541", "electric": 6, "id": "pb_427", "manual": 4, "name": "Zehntenhausplatz", "provider": "publibike", "timeStamp": "03/12/2020, 22:27:13", "zip": 8046}, "type": "Feature"}, {"geometry": {"coordinates": [8.537729, 47.379719], "type": "Point"}, "properties": {"address": "Sihlquai/HB", "electric": 10, "id": "pb_513", "manual": 15, "name": "Sihlquai", "provider": "publibike", "timeStamp": "03/12/2020, 22:27:13", "zip": 8005}, "type": "Feature"}, {"geometry": {"coordinates": [8.596202, 47.397885], "type": "Point"}, "properties": {"address": "Bahnhof Stettbach", "electric": 13, "id": "pb_514", "manual": 1, "name": "Bahnhof Stettbach", "provider": "publibike", "timeStamp": "03/12/2020, 22:27:13", "zip": 8051}, "type": "Feature"}, {"geometry": {"coordinates": [8.5543974, 47.3690153], "type": "Point"}, "properties": {"address": "Kasinostrasse 10", "electric": 3, "id": "pb_515", "manual": 5, "name": "Hottingerplatz", "provider": "publibike", "timeStamp": "03/12/2020, 22:27:13", "zip": 8032}, "type": "Feature"}, {"geometry": {"coordinates": [8.534444, 47.351525], "type": "Point"}, "properties": {"address": "Mobile Station Z\u00fcrich 1", "electric": 0, "id": "pb_282", "manual": 0, "name": "Theaterspektakel", "provider": "publibike", "timeStamp": "03/12/2020, 22:27:13", "zip": 8002}, "type": "Feature"}, {"geometry": {"coordinates": [8.516257, 47.367656], "type": "Point"}, "properties": {"address": "Goldbrunnenstrasse 54", "electric": 10, "id": "pb_538", "manual": 0, "name": "Kirche B\u00fchl", "provider": "publibike", "timeStamp": "03/12/2020, 22:27:13", "zip": 8055}, "type": "Feature"}, {"geometry": {"coordinates": [8.555639, 47.416873], "type": "Point"}, "properties": {"address": "Leutschenbachstrasse 50", "electric": 4, "id": "pb_537", "manual": 6, "name": "Leutschenpark", "provider": "publibike", "timeStamp": "03/12/2020, 22:27:13", "zip": 8050}, "type": "Feature"}, {"geometry": {"coordinates": [8.546464, 47.403822], "type": "Point"}, "properties": {"address": "Berninastrasse 45", "electric": 6, "id": "pb_540", "manual": 1, "name": "Berninaplatz", "provider": "publibike", "timeStamp": "03/12/2020, 22:27:13", "zip": 8057}, "type": "Feature"}, {"geometry": {"coordinates": [8.523134, 47.369004], "type": "Point"}, "properties": {"address": "Erlachstrasse 3", "electric": 0, "id": "pb_385", "manual": 2, "name": "Aegerten", "provider": "publibike", "timeStamp": "03/12/2020, 22:27:13", "zip": 8003}, "type": "Feature"}, {"geometry": {"coordinates": [8.49038, 47.381591], "type": "Point"}, "properties": {"address": "Rautistrasse 60", "electric": 7, "id": "pb_536", "manual": 3, "name": "Freilager", "provider": "publibike", "timeStamp": "03/12/2020, 22:27:13", "zip": 8048}, "type": "Feature"}, {"geometry": {"coordinates": [8.496511, 47.375247], "type": "Point"}, "properties": {"address": "Letzigraben 139", "electric": 9, "id": "pb_444", "manual": 4, "name": "Sackzelg", "provider": "publibike", "timeStamp": "03/12/2020, 22:27:13", "zip": 8047}, "type": "Feature"}, {"geometry": {"coordinates": [8.58131, 47.402801], "type": "Point"}, "properties": {"address": "Altwiesenstrasse 104", "electric": 1, "id": "pb_539", "manual": 2, "name": "Glattwiesen", "provider": "publibike", "timeStamp": "03/12/2020, 22:27:13", "zip": 8051}, "type": "Feature"}, {"geometry": {"coordinates": [8.52689, 47.3767], "type": "Point"}, "properties": {"address": "Molkenstrasse 5", "electric": 3, "id": "pb_560", "manual": 8, "name": "Helvetiaplatz", "provider": "publibike", "timeStamp": "03/12/2020, 22:27:13", "zip": 8004}, "type": "Feature"}, {"geometry": {"coordinates": [8.525602, 47.374241], "type": "Point"}, "properties": {"address": "Badenerstrasse 90", "electric": 2, "id": "pb_559", "manual": 4, "name": "Bezirksgeb\u00e4ude", "provider": "publibike", "timeStamp": "03/12/2020, 22:27:13", "zip": 8004}, "type": "Feature"}, {"geometry": {"coordinates": [8.535082, 47.345248], "type": "Point"}, "properties": {"address": "Bachstrasse 15", "electric": 11, "id": "pb_564", "manual": 9, "name": "GZ Wollishofen", "provider": "publibike", "timeStamp": "03/12/2020, 22:27:13", "zip": 8038}, "type": "Feature"}, {"geometry": {"coordinates": [8.514841, 47.370238], "type": "Point"}, "properties": {"address": "Schrennengasse 37", "electric": 5, "id": "pb_562", "manual": 7, "name": "Goldbrunnenplatz", "provider": "publibike", "timeStamp": "03/12/2020, 22:27:13", "zip": 8003}, "type": "Feature"}, {"geometry": {"coordinates": [8.514138, 47.374206], "type": "Point"}, "properties": {"address": "Idaplatz 4", "electric": 2, "id": "pb_557", "manual": 11, "name": "Idaplatz", "provider": "publibike", "timeStamp": "03/12/2020, 22:27:13", "zip": 8003}, "type": "Feature"}, {"geometry": {"coordinates": [8.518432, 47.369549], "type": "Point"}, "properties": {"address": "Brinerstrasse 2", "electric": 7, "id": "pb_558", "manual": 10, "name": "Schmiede Wiedikon", "provider": "publibike", "timeStamp": "03/12/2020, 22:27:13", "zip": 8003}, "type": "Feature"}, {"geometry": {"coordinates": [8.537546, 47.391289], "type": "Point"}, "properties": {"address": "Rotbuchstrasse 15", "electric": 5, "id": "pb_556", "manual": 0, "name": "Schaffhauserplatz", "provider": "publibike", "timeStamp": "03/12/2020, 22:27:13", "zip": 8006}, "type": "Feature"}, {"geometry": {"coordinates": [8.541541, 47.413733], "type": "Point"}, "properties": {"address": "Therese-Giehse-Strasse 11", "electric": 3, "id": "pb_561", "manual": 3, "name": "Center Eleven", "provider": "publibike", "timeStamp": "03/12/2020, 22:27:13", "zip": 8050}, "type": "Feature"}, {"geometry": {"coordinates": [8.534227, 47.360004], "type": "Point"}, "properties": {"address": "Alfred Escher-Strasse 76", "electric": 1, "id": "pb_563", "manual": 0, "name": "Mythenschloss", "provider": "publibike", "timeStamp": "03/12/2020, 22:27:13", "zip": 8002}, "type": "Feature"}, {"geometry": {"coordinates": [8.50373, 47.396172], "type": "Point"}, "properties": {"address": "Hardeggstrasse 6", "electric": 1, "id": "pb_566", "manual": 0, "name": "Am Wasser", "provider": "publibike", "timeStamp": "03/12/2020, 22:27:13", "zip": 8049}, "type": "Feature"}, {"geometry": {"coordinates": [8.532432, 47.381174], "type": "Point"}, "properties": {"address": "Klingenstrasse 9", "electric": 2, "id": "pb_565", "manual": 7, "name": "Zollstrasse", "provider": "publibike", "timeStamp": "03/12/2020, 22:27:13", "zip": 8005}, "type": "Feature"}, {"geometry": {"coordinates": [8.497982, 47.381447], "type": "Point"}, "properties": {"address": "Dennlerstrasse 23", "electric": 1, "id": "pb_567", "manual": 4, "name": "Dennlerstrasse", "provider": "publibike", "timeStamp": "03/12/2020, 22:27:13", "zip": 8047}, "type": "Feature"}, {"geometry": {"coordinates": [8.528049, 47.347701], "type": "Point"}, "properties": {"address": "Mutschellenstrasse 114", "electric": 6, "id": "pb_568", "manual": 3, "name": "Jugendherberge", "provider": "publibike", "timeStamp": "03/12/2020, 22:27:13", "zip": 8038}, "type": "Feature"}, {"geometry": {"coordinates": [8.539016, 47.405751], "type": "Point"}, "properties": {"address": "Ringstrasse 82", "electric": 4, "id": "pb_569", "manual": 4, "name": "Freibad Allenmoos", "provider": "publibike", "timeStamp": "03/12/2020, 22:27:13", "zip": 8057}, "type": "Feature"}, {"geometry": {"coordinates": [8.534974, 47.402164], "type": "Point"}, "properties": {"address": "Brache Guggach", "electric": 4, "id": "pb_572", "manual": 2, "name": "Radiostudio", "provider": "publibike", "timeStamp": "03/12/2020, 22:27:13", "zip": 8057}, "type": "Feature"}, {"geometry": {"coordinates": [8.547901, 47.375556], "type": "Point"}, "properties": {"address": "Karl-Schmid-Strasse 4", "electric": 1, "id": "pb_571", "manual": 0, "name": "ETH/Zoologisches Museum", "provider": "publibike", "timeStamp": "03/12/2020, 22:27:13", "zip": 8006}, "type": "Feature"}, {"geometry": {"coordinates": [8.578088, 47.348883], "type": "Point"}, "properties": {"charge": 98, "id": "smide_2871", "name": "ZH 267086", "provider": "smide", "range": 49.0, "size": 20, "time": "03/12/2020, 22:28:28"}, "type": "Feature"}, {"geometry": {"coordinates": [8.574205, 47.347968], "type": "Point"}, "properties": {"charge": 94, "id": "smide_2861", "name": "ZH 267096", "provider": "smide", "range": 47.0, "size": 17, "time": "03/12/2020, 22:28:28"}, "type": "Feature"}, {"geometry": {"coordinates": [8.560838, 47.38344], "type": "Point"}, "properties": {"charge": 64, "id": "smide_2856", "name": "ZH 267101", "provider": "smide", "range": 32.0, "size": 17, "time": "03/12/2020, 22:28:28"}, "type": "Feature"}, {"geometry": {"coordinates": [8.558208, 47.41611], "type": "Point"}, "properties": {"charge": 95, "id": "smide_2855", "name": "ZH 267102", "provider": "smide", "range": 47.0, "size": 17, "time": "03/12/2020, 22:28:28"}, "type": "Feature"}, {"geometry": {"coordinates": [8.538865, 47.42225], "type": "Point"}, "properties": {"charge": 74, "id": "smide_2831", "name": "ZH 267180", "provider": "smide", "range": 37.0, "size": 20, "time": "03/12/2020, 22:28:28"}, "type": "Feature"}, {"geometry": {"coordinates": [8.493606, 47.385396], "type": "Point"}, "properties": {"charge": 63, "id": "smide_2819", "name": "ZH266943", "provider": "smide", "range": 31.0, "size": 20, "time": "03/12/2020, 22:28:28"}, "type": "Feature"}, {"geometry": {"coordinates": [8.527375, 47.34305], "type": "Point"}, "properties": {"charge": 60, "id": "smide_2785", "name": "ZH266875", "provider": "smide", "range": 30.0, "size": 17, "time": "03/12/2020, 22:28:28"}, "type": "Feature"}, {"geometry": {"coordinates": [8.54607, 47.37506], "type": "Point"}, "properties": {"charge": 12, "id": "smide_2780", "name": "ST1 X #1", "provider": "smide", "range": 6.0, "size": 17, "time": "03/12/2020, 22:28:28"}, "type": "Feature"}, {"geometry": {"coordinates": [8.503003, 47.36929], "type": "Point"}, "properties": {"charge": 65, "id": "smide_2775", "name": "ZH267283", "provider": "smide", "range": 32.0, "size": 20, "time": "03/12/2020, 22:28:28"}, "type": "Feature"}, {"geometry": {"coordinates": [8.487359, 47.384348], "type": "Point"}, "properties": {"charge": 17, "id": "smide_2771", "name": "ZH266559", "provider": "smide", "range": 8.0, "size": 17, "time": "03/12/2020, 22:28:28"}, "type": "Feature"}, {"geometry": {"coordinates": [8.574071, 47.352068], "type": "Point"}, "properties": {"charge": 100, "id": "smide_2763", "name": "ZH266641", "provider": "smide", "range": 50.0, "size": 17, "time": "03/12/2020, 22:28:28"}, "type": "Feature"}, {"geometry": {"coordinates": [8.569423, 47.352015], "type": "Point"}, "properties": {"charge": 100, "id": "smide_2761", "name": "ZH266642", "provider": "smide", "range": 50.0, "size": 20, "time": "03/12/2020, 22:28:28"}, "type": "Feature"}, {"geometry": {"coordinates": [8.562426, 47.410481], "type": "Point"}, "properties": {"charge": 79, "id": "smide_2752", "name": "BE343856", "provider": "smide", "range": 39.0, "size": 17, "time": "03/12/2020, 22:28:28"}, "type": "Feature"}, {"geometry": {"coordinates": [8.5654, 47.408096], "type": "Point"}, "properties": {"charge": 78, "id": "smide_2749", "name": "BE343867", "provider": "smide", "range": 39.0, "size": 17, "time": "03/12/2020, 22:28:28"}, "type": "Feature"}, {"geometry": {"coordinates": [8.534064, 47.342148], "type": "Point"}, "properties": {"charge": 83, "id": "smide_2748", "name": "BE335758", "provider": "smide", "range": 41.0, "size": 17, "time": "03/12/2020, 22:28:28"}, "type": "Feature"}, {"geometry": {"coordinates": [8.580675, 47.350751], "type": "Point"}, "properties": {"charge": 63, "id": "smide_2747", "name": "BE335820", "provider": "smide", "range": 31.0, "size": 17, "time": "03/12/2020, 22:28:28"}, "type": "Feature"}, {"geometry": {"coordinates": [8.518462, 47.41362], "type": "Point"}, "properties": {"charge": 78, "id": "smide_2743", "name": "BE343864", "provider": "smide", "range": 39.0, "size": 17, "time": "03/12/2020, 22:28:28"}, "type": "Feature"}, {"geometry": {"coordinates": [8.556579, 47.42076], "type": "Point"}, "properties": {"charge": 74, "id": "smide_2742", "name": "BE343866", "provider": "smide", "range": 37.0, "size": 17, "time": "03/12/2020, 22:28:28"}, "type": "Feature"}, {"geometry": {"coordinates": [8.517645, 47.414341], "type": "Point"}, "properties": {"charge": 34, "id": "smide_2738", "name": "BE343865", "provider": "smide", "range": 17.0, "size": 17, "time": "03/12/2020, 22:28:28"}, "type": "Feature"}, {"geometry": {"coordinates": [8.551135, 47.389584], "type": "Point"}, "properties": {"charge": 91, "id": "smide_2737", "name": "BE336149", "provider": "smide", "range": 45.0, "size": 17, "time": "03/12/2020, 22:28:28"}, "type": "Feature"}, {"geometry": {"coordinates": [8.5631, 47.382536], "type": "Point"}, "properties": {"charge": 71, "id": "smide_2734", "name": "BE343876", "provider": "smide", "range": 35.0, "size": 17, "time": "03/12/2020, 22:28:28"}, "type": "Feature"}, {"geometry": {"coordinates": [8.520527, 47.374928], "type": "Point"}, "properties": {"charge": 51, "id": "smide_2732", "name": "BE343870", "provider": "smide", "range": 25.0, "size": 17, "time": "03/12/2020, 22:28:28"}, "type": "Feature"}, {"geometry": {"coordinates": [8.514932, 47.367948], "type": "Point"}, "properties": {"charge": 97, "id": "smide_2729", "name": "BE343878", "provider": "smide", "range": 48.0, "size": 17, "time": "03/12/2020, 22:28:28"}, "type": "Feature"}, {"geometry": {"coordinates": [8.564968, 47.348916], "type": "Point"}, "properties": {"charge": 64, "id": "smide_2725", "name": "ZH261545", "provider": "smide", "range": 32.0, "size": 0, "time": "03/12/2020, 22:28:28"}, "type": "Feature"}, {"geometry": {"coordinates": [8.519181, 47.371398], "type": "Point"}, "properties": {"charge": 42, "id": "smide_2716", "name": "ZH254606", "provider": "smide", "range": 21.0, "size": 17, "time": "03/12/2020, 22:28:28"}, "type": "Feature"}, {"geometry": {"coordinates": [8.535603, 47.377312], "type": "Point"}, "properties": {"charge": 40, "id": "smide_2715", "name": "ZH254605", "provider": "smide", "range": 20.0, "size": 17, "time": "03/12/2020, 22:28:28"}, "type": "Feature"}, {"geometry": {"coordinates": [8.508485, 47.391072], "type": "Point"}, "properties": {"charge": 100, "id": "smide_2714", "name": "ZH256461", "provider": "smide", "range": 50.0, "size": 17, "time": "03/12/2020, 22:28:28"}, "type": "Feature"}, {"geometry": {"coordinates": [8.544209, 47.416376], "type": "Point"}, "properties": {"charge": 81, "id": "smide_2710", "name": "ZH256460", "provider": "smide", "range": 40.0, "size": 17, "time": "03/12/2020, 22:28:28"}, "type": "Feature"}, {"geometry": {"coordinates": [8.51846, 47.339488], "type": "Point"}, "properties": {"charge": 85, "id": "smide_2711", "name": "ZH256463", "provider": "smide", "range": 42.0, "size": 17, "time": "03/12/2020, 22:28:28"}, "type": "Feature"}, {"geometry": {"coordinates": [8.564408, 47.369441], "type": "Point"}, "properties": {"charge": 51, "id": "smide_2709", "name": "ZH256466", "provider": "smide", "range": 25.0, "size": 20, "time": "03/12/2020, 22:28:28"}, "type": "Feature"}, {"geometry": {"coordinates": [8.573347, 47.35282], "type": "Point"}, "properties": {"charge": 62, "id": "smide_2707", "name": "ZH256467", "provider": "smide", "range": 31.0, "size": 20, "time": "03/12/2020, 22:28:28"}, "type": "Feature"}, {"geometry": {"coordinates": [8.508454, 47.42098], "type": "Point"}, "properties": {"charge": 92, "id": "smide_2708", "name": "ZH256464", "provider": "smide", "range": 46.0, "size": 17, "time": "03/12/2020, 22:28:28"}, "type": "Feature"}, {"geometry": {"coordinates": [8.514636, 47.378616], "type": "Point"}, "properties": {"charge": 94, "id": "smide_2706", "name": "ZH256322", "provider": "smide", "range": 47.0, "size": 20, "time": "03/12/2020, 22:28:28"}, "type": "Feature"}, {"geometry": {"coordinates": [8.537133, 47.419128], "type": "Point"}, "properties": {"charge": 41, "id": "smide_2701", "name": "ZH256468", "provider": "smide", "range": 20.0, "size": 20, "time": "03/12/2020, 22:28:28"}, "type": "Feature"}, {"geometry": {"coordinates": [8.502527, 47.38042], "type": "Point"}, "properties": {"charge": 89, "id": "smide_2700", "name": "ZH256470", "provider": "smide", "range": 44.0, "size": 20, "time": "03/12/2020, 22:28:28"}, "type": "Feature"}, {"geometry": {"coordinates": [8.544464, 47.402252], "type": "Point"}, "properties": {"charge": 99, "id": "smide_2697", "name": "ZH254629", "provider": "smide", "range": 49.0, "size": 20, "time": "03/12/2020, 22:28:28"}, "type": "Feature"}, {"geometry": {"coordinates": [8.53165, 47.369492], "type": "Point"}, "properties": {"charge": 91, "id": "smide_2694", "name": "ZH254610", "provider": "smide", "range": 45.0, "size": 20, "time": "03/12/2020, 22:28:28"}, "type": "Feature"}, {"geometry": {"coordinates": [8.541458, 47.397303], "type": "Point"}, "properties": {"charge": 34, "id": "smide_2691", "name": "ZH254622", "provider": "smide", "range": 17.0, "size": 20, "time": "03/12/2020, 22:28:28"}, "type": "Feature"}, {"geometry": {"coordinates": [8.524771, 47.33674], "type": "Point"}, "properties": {"charge": 65, "id": "smide_2690", "name": "ZH254625", "provider": "smide", "range": 32.0, "size": 20, "time": "03/12/2020, 22:28:28"}, "type": "Feature"}, {"geometry": {"coordinates": [8.568932, 47.373384], "type": "Point"}, "properties": {"charge": 44, "id": "smide_2689", "name": "ZH254623", "provider": "smide", "range": 22.0, "size": 20, "time": "03/12/2020, 22:28:28"}, "type": "Feature"}, {"geometry": {"coordinates": [8.516904, 47.375164], "type": "Point"}, "properties": {"charge": 87, "id": "smide_2686", "name": "ZH263288", "provider": "smide", "range": 43.0, "size": 20, "time": "03/12/2020, 22:28:28"}, "type": "Feature"}, {"geometry": {"coordinates": [8.543697, 47.372556], "type": "Point"}, "properties": {"charge": 59, "id": "smide_2684", "name": "ZH254626", "provider": "smide", "range": 29.0, "size": 20, "time": "03/12/2020, 22:28:28"}, "type": "Feature"}, {"geometry": {"coordinates": [8.567095, 47.376271], "type": "Point"}, "properties": {"charge": 35, "id": "smide_2683", "name": "ZH254620", "provider": "smide", "range": 17.0, "size": 20, "time": "03/12/2020, 22:28:28"}, "type": "Feature"}, {"geometry": {"coordinates": [8.483777, 47.397428], "type": "Point"}, "properties": {"charge": 80, "id": "smide_2680", "name": "ZH254619", "provider": "smide", "range": 40.0, "size": 20, "time": "03/12/2020, 22:28:28"}, "type": "Feature"}, {"geometry": {"coordinates": [8.517697, 47.414316], "type": "Point"}, "properties": {"charge": 88, "id": "smide_2679", "name": "ZH258489", "provider": "smide", "range": 44.0, "size": 17, "time": "03/12/2020, 22:28:28"}, "type": "Feature"}, {"geometry": {"coordinates": [8.510289, 47.389748], "type": "Point"}, "properties": {"charge": 24, "id": "smide_2674", "name": "ZH258654", "provider": "smide", "range": 12.0, "size": 17, "time": "03/12/2020, 22:28:28"}, "type": "Feature"}, {"geometry": {"coordinates": [8.571518, 47.347232], "type": "Point"}, "properties": {"charge": 97, "id": "smide_2671", "name": "ZH258645", "provider": "smide", "range": 48.0, "size": 17, "time": "03/12/2020, 22:28:28"}, "type": "Feature"}, {"geometry": {"coordinates": [8.566066, 47.356744], "type": "Point"}, "properties": {"charge": 73, "id": "smide_2669", "name": "ZH263294", "provider": "smide", "range": 36.0, "size": 17, "time": "03/12/2020, 22:28:28"}, "type": "Feature"}, {"geometry": {"coordinates": [8.525887, 47.365172], "type": "Point"}, "properties": {"charge": 46, "id": "smide_2666", "name": "ZH258653", "provider": "smide", "range": 23.0, "size": 17, "time": "03/12/2020, 22:28:28"}, "type": "Feature"}, {"geometry": {"coordinates": [8.487361, 47.39364], "type": "Point"}, "properties": {"charge": 42, "id": "smide_2662", "name": "ZH258643", "provider": "smide", "range": 21.0, "size": 17, "time": "03/12/2020, 22:28:28"}, "type": "Feature"}, {"geometry": {"coordinates": [8.552609, 47.357456], "type": "Point"}, "properties": {"charge": 84, "id": "smide_2660", "name": "ZH258647", "provider": "smide", "range": 42.0, "size": 17, "time": "03/12/2020, 22:28:28"}, "type": "Feature"}, {"geometry": {"coordinates": [8.493086, 47.375652], "type": "Point"}, "properties": {"charge": 87, "id": "smide_2648", "name": "ZH257930", "provider": "smide", "range": 43.0, "size": 20, "time": "03/12/2020, 22:28:28"}, "type": "Feature"}, {"geometry": {"coordinates": [8.570205, 47.352271], "type": "Point"}, "properties": {"charge": 47, "id": "smide_2657", "name": "ZH257936", "provider": "smide", "range": 23.0, "size": 17, "time": "03/12/2020, 22:28:28"}, "type": "Feature"}, {"geometry": {"coordinates": [8.547836, 47.372704], "type": "Point"}, "properties": {"charge": 100, "id": "smide_2647", "name": "ZH257932", "provider": "smide", "range": 50.0, "size": 20, "time": "03/12/2020, 22:28:28"}, "type": "Feature"}, {"geometry": {"coordinates": [8.556342, 47.354384], "type": "Point"}, "properties": {"charge": 88, "id": "smide_2645", "name": "ZH257933", "provider": "smide", "range": 44.0, "size": 20, "time": "03/12/2020, 22:28:28"}, "type": "Feature"}, {"geometry": {"coordinates": [8.558981, 47.411973], "type": "Point"}, "properties": {"charge": 100, "id": "smide_3", "name": "ZH253765", "provider": "smide", "range": 50.0, "size": 20, "time": "03/12/2020, 22:28:28"}, "type": "Feature"}, {"geometry": {"coordinates": [8.498221, 47.358118], "type": "Point"}, "properties": {"charge": 72, "id": "smide_105", "name": "ZH253804", "provider": "smide", "range": 36.0, "size": 17, "time": "03/12/2020, 22:28:28"}, "type": "Feature"}, {"geometry": {"coordinates": [8.550868, 47.384025], "type": "Point"}, "properties": {"charge": 77, "id": "smide_77", "name": "ZH261548", "provider": "smide", "range": 38.0, "size": 20, "time": "03/12/2020, 22:28:28"}, "type": "Feature"}, {"geometry": {"coordinates": [8.572003, 47.352585], "type": "Point"}, "properties": {"charge": 79, "id": "smide_199", "name": "ZH253766", "provider": "smide", "range": 39.0, "size": 20, "time": "03/12/2020, 22:28:28"}, "type": "Feature"}, {"geometry": {"coordinates": [8.510557, 47.372288], "type": "Point"}, "properties": {"charge": 87, "id": "smide_8", "name": "ZH253861", "provider": "smide", "range": 43.0, "size": 17, "time": "03/12/2020, 22:28:28"}, "type": "Feature"}, {"geometry": {"coordinates": [8.5082, 47.35388], "type": "Point"}, "properties": {"charge": 48, "id": "smide_201", "name": "ZH253698", "provider": "smide", "range": 24.0, "size": 17, "time": "03/12/2020, 22:28:28"}, "type": "Feature"}, {"geometry": {"coordinates": [8.523475, 47.395392], "type": "Point"}, "properties": {"charge": 77, "id": "smide_71", "name": "ZH253742", "provider": "smide", "range": 38.0, "size": 20, "time": "03/12/2020, 22:28:28"}, "type": "Feature"}, {"geometry": {"coordinates": [8.530518, 47.335892], "type": "Point"}, "properties": {"charge": 66, "id": "smide_101", "name": "ZH253814", "provider": "smide", "range": 33.0, "size": 17, "time": "03/12/2020, 22:28:28"}, "type": "Feature"}, {"geometry": {"coordinates": [8.573904, 47.352804], "type": "Point"}, "properties": {"charge": 92, "id": "smide_143", "name": "ZH253778", "provider": "smide", "range": 46.0, "size": 17, "time": "03/12/2020, 22:28:28"}, "type": "Feature"}, {"geometry": {"coordinates": [8.507688, 47.393416], "type": "Point"}, "properties": {"charge": 100, "id": "smide_180", "name": "ZH253824", "provider": "smide", "range": 50.0, "size": 20, "time": "03/12/2020, 22:28:28"}, "type": "Feature"}, {"geometry": {"coordinates": [8.569496, 47.352028], "type": "Point"}, "properties": {"charge": 65, "id": "smide_50", "name": "ZH253853", "provider": "smide", "range": 32.0, "size": 17, "time": "03/12/2020, 22:28:28"}, "type": "Feature"}, {"geometry": {"coordinates": [8.55011, 47.385471], "type": "Point"}, "properties": {"charge": 78, "id": "smide_30", "name": "ZH253813", "provider": "smide", "range": 39.0, "size": 20, "time": "03/12/2020, 22:28:28"}, "type": "Feature"}, {"geometry": {"coordinates": [8.530268, 47.390338], "type": "Point"}, "properties": {"charge": 26, "id": "smide_10", "name": "ZH253855", "provider": "smide", "range": 13.0, "size": 17, "time": "03/12/2020, 22:28:28"}, "type": "Feature"}, {"geometry": {"coordinates": [8.549961, 47.387981], "type": "Point"}, "properties": {"charge": 75, "id": "smide_79", "name": "ZH253711", "provider": "smide", "range": 37.0, "size": 20, "time": "03/12/2020, 22:28:28"}, "type": "Feature"}, {"geometry": {"coordinates": [8.539608, 47.399812], "type": "Point"}, "properties": {"charge": 36, "id": "smide_84", "name": "ZH253733", "provider": "smide", "range": 18.0, "size": 17, "time": "03/12/2020, 22:28:28"}, "type": "Feature"}, {"geometry": {"coordinates": [8.537128, 47.419112], "type": "Point"}, "properties": {"charge": 40, "id": "smide_165", "name": "ZH253752", "provider": "smide", "range": 20.0, "size": 17, "time": "03/12/2020, 22:28:28"}, "type": "Feature"}, {"geometry": {"coordinates": [8.506733, 47.36214], "type": "Point"}, "properties": {"charge": 97, "id": "smide_119", "name": "ZH253686", "provider": "smide", "range": 48.0, "size": 20, "time": "03/12/2020, 22:28:28"}, "type": "Feature"}, {"geometry": {"coordinates": [8.535824, 47.368512], "type": "Point"}, "properties": {"charge": 50, "id": "smide_129", "name": "ZH261378", "provider": "smide", "range": 25.0, "size": 17, "time": "03/12/2020, 22:28:28"}, "type": "Feature"}, {"geometry": {"coordinates": [8.569955, 47.352526], "type": "Point"}, "properties": {"charge": 50, "id": "smide_49", "name": "ZH253873", "provider": "smide", "range": 25.0, "size": 17, "time": "03/12/2020, 22:28:28"}, "type": "Feature"}, {"geometry": {"coordinates": [8.508289, 47.3953], "type": "Point"}, "properties": {"charge": 100, "id": "smide_94", "name": "ZH253754", "provider": "smide", "range": 50.0, "size": 17, "time": "03/12/2020, 22:28:28"}, "type": "Feature"}, {"geometry": {"coordinates": [8.582234, 47.351896], "type": "Point"}, "properties": {"charge": 77, "id": "smide_37", "name": "ZH261377", "provider": "smide", "range": 38.0, "size": 20, "time": "03/12/2020, 22:28:28"}, "type": "Feature"}, {"geometry": {"coordinates": [8.544115, 47.391501], "type": "Point"}, "properties": {"charge": 83, "id": "smide_191", "name": "ZH253762", "provider": "smide", "range": 41.0, "size": 17, "time": "03/12/2020, 22:28:28"}, "type": "Feature"}, {"geometry": {"coordinates": [8.504135, 47.381808], "type": "Point"}, "properties": {"charge": 50, "id": "smide_202", "name": "ZH253830", "provider": "smide", "range": 25.0, "size": 17, "time": "03/12/2020, 22:28:28"}, "type": "Feature"}, {"geometry": {"coordinates": [8.538961, 47.392332], "type": "Point"}, "properties": {"charge": 65, "id": "smide_56", "name": "ZH261442", "provider": "smide", "range": 32.0, "size": 20, "time": "03/12/2020, 22:28:28"}, "type": "Feature"}, {"geometry": {"coordinates": [8.519073, 47.337276], "type": "Point"}, "properties": {"charge": 74, "id": "smide_47", "name": "ZH253858", "provider": "smide", "range": 37.0, "size": 17, "time": "03/12/2020, 22:28:28"}, "type": "Feature"}, {"geometry": {"coordinates": [8.519355, 47.392856], "type": "Point"}, "properties": {"charge": 29, "id": "smide_150", "name": "ZH253703", "provider": "smide", "range": 14.0, "size": 20, "time": "03/12/2020, 22:28:28"}, "type": "Feature"}, {"geometry": {"coordinates": [8.533166, 47.34824], "type": "Point"}, "properties": {"charge": 100, "id": "smide_97", "name": "ZH253799", "provider": "smide", "range": 50.0, "size": 20, "time": "03/12/2020, 22:28:28"}, "type": "Feature"}, {"geometry": {"coordinates": [8.573904, 47.352732], "type": "Point"}, "properties": {"charge": 38, "id": "smide_66", "name": "ZH253818", "provider": "smide", "range": 19.0, "size": 20, "time": "03/12/2020, 22:28:28"}, "type": "Feature"}, {"geometry": {"coordinates": [8.483101, 47.384671], "type": "Point"}, "properties": {"charge": 60, "id": "smide_17", "name": "ZH253793", "provider": "smide", "range": 30.0, "size": 17, "time": "03/12/2020, 22:28:28"}, "type": "Feature"}, {"geometry": {"coordinates": [8.545726, 47.372516], "type": "Point"}, "properties": {"charge": 42, "id": "smide_127", "name": "ZH253808", "provider": "smide", "range": 21.0, "size": 20, "time": "03/12/2020, 22:28:28"}, "type": "Feature"}, {"geometry": {"coordinates": [8.486643, 47.388803], "type": "Point"}, "properties": {"charge": 100, "id": "smide_145", "name": "ZH253780", "provider": "smide", "range": 50.0, "size": 20, "time": "03/12/2020, 22:28:28"}, "type": "Feature"}, {"geometry": {"coordinates": [8.553813, 47.381956], "type": "Point"}, "properties": {"charge": 76, "id": "smide_114", "name": "ZH253878", "provider": "smide", "range": 38.0, "size": 20, "time": "03/12/2020, 22:28:28"}, "type": "Feature"}, {"geometry": {"coordinates": [8.522139, 47.39662], "type": "Point"}, "properties": {"charge": 40, "id": "smide_21", "name": "ZH253841", "provider": "smide", "range": 20.0, "size": 17, "time": "03/12/2020, 22:28:28"}, "type": "Feature"}, {"geometry": {"coordinates": [8.514064, 47.374272], "type": "Point"}, "properties": {"charge": 56, "id": "smide_164", "name": "ZH253775", "provider": "smide", "range": 28.0, "size": 17, "time": "03/12/2020, 22:28:28"}, "type": "Feature"}, {"geometry": {"coordinates": [8.524478, 47.398036], "type": "Point"}, "properties": {"charge": 91, "id": "smide_189", "name": "ZH253845", "provider": "smide", "range": 45.0, "size": 20, "time": "03/12/2020, 22:28:28"}, "type": "Feature"}, {"geometry": {"coordinates": [8.573872, 47.352764], "type": "Point"}, "properties": {"charge": 83, "id": "smide_81", "name": "ZH253753", "provider": "smide", "range": 41.0, "size": 17, "time": "03/12/2020, 22:28:28"}, "type": "Feature"}, {"geometry": {"coordinates": [8.543065, 47.410944], "type": "Point"}, "properties": {"charge": 59, "id": "smide_171", "name": "ZH253689", "provider": "smide", "range": 29.0, "size": 20, "time": "03/12/2020, 22:28:28"}, "type": "Feature"}, {"geometry": {"coordinates": [8.546899, 47.419284], "type": "Point"}, "properties": {"charge": 61, "id": "smide_93", "name": "ZH253681", "provider": "smide", "range": 30.0, "size": 17, "time": "03/12/2020, 22:28:28"}, "type": "Feature"}, {"geometry": {"coordinates": [8.536685, 47.377952], "type": "Point"}, "properties": {"charge": 15, "id": "smide_67", "name": "ZH253779", "provider": "smide", "range": 7.0, "size": 17, "time": "03/12/2020, 22:28:28"}, "type": "Feature"}, {"geometry": {"coordinates": [8.550092, 47.363188], "type": "Point"}, "properties": {"charge": 64, "id": "smide_142", "name": "ZH258745", "provider": "smide", "range": 32.0, "size": 17, "time": "03/12/2020, 22:28:28"}, "type": "Feature"}, {"geometry": {"coordinates": [8.544625, 47.422076], "type": "Point"}, "properties": {"charge": 100, "id": "smide_166", "name": "ZH253728", "provider": "smide", "range": 50.0, "size": 17, "time": "03/12/2020, 22:28:28"}, "type": "Feature"}, {"geometry": {"coordinates": [8.53395, 47.36272], "type": "Point"}, "properties": {"charge": 99, "id": "smide_126", "name": "ZH268400", "provider": "smide", "range": 49.0, "size": 17, "time": "03/12/2020, 22:28:28"}, "type": "Feature"}, {"geometry": {"coordinates": [8.54058, 47.416496], "type": "Point"}, "properties": {"charge": 88, "id": "smide_44", "name": "ZH253837", "provider": "smide", "range": 44.0, "size": 17, "time": "03/12/2020, 22:28:28"}, "type": "Feature"}, {"geometry": {"coordinates": [8.536544, 47.38976], "type": "Point"}, "properties": {"charge": 86, "id": "smide_154", "name": "ZH253744", "provider": "smide", "range": 43.0, "size": 20, "time": "03/12/2020, 22:28:28"}, "type": "Feature"}, {"geometry": {"coordinates": [8.518241, 47.380336], "type": "Point"}, "properties": {"charge": 49, "id": "smide_92", "name": "ZH253798", "provider": "smide", "range": 24.0, "size": 17, "time": "03/12/2020, 22:28:28"}, "type": "Feature"}, {"geometry": {"coordinates": [8.53164, 47.401152], "type": "Point"}, "properties": {"charge": 100, "id": "smide_65", "name": "ZH253810", "provider": "smide", "range": 50.0, "size": 17, "time": "03/12/2020, 22:28:28"}, "type": "Feature"}, {"geometry": {"coordinates": [8.520911, 47.411672], "type": "Point"}, "properties": {"charge": 88, "id": "smide_111", "name": "ZH253763", "provider": "smide", "range": 44.0, "size": 17, "time": "03/12/2020, 22:28:28"}, "type": "Feature"}, {"geometry": {"coordinates": [8.533354, 47.389512], "type": "Point"}, "properties": {"charge": 27, "id": "smide_40", "name": "ZH253690", "provider": "smide", "range": 13.0, "size": 20, "time": "03/12/2020, 22:28:28"}, "type": "Feature"}, {"geometry": {"coordinates": [8.573738, 47.35546], "type": "Point"}, "properties": {"charge": 100, "id": "smide_28", "name": "ZH253831", "provider": "smide", "range": 50.0, "size": 17, "time": "03/12/2020, 22:28:28"}, "type": "Feature"}, {"geometry": {"coordinates": [8.534843, 47.382138], "type": "Point"}, "properties": {"charge": 100, "id": "smide_14", "name": "ZH253749", "provider": "smide", "range": 50.0, "size": 20, "time": "03/12/2020, 22:28:28"}, "type": "Feature"}, {"geometry": {"coordinates": [8.563054, 47.382544], "type": "Point"}, "properties": {"charge": 71, "id": "smide_130", "name": "ZH253847", "provider": "smide", "range": 35.0, "size": 20, "time": "03/12/2020, 22:28:28"}, "type": "Feature"}, {"geometry": {"coordinates": [8.526006, 47.365076], "type": "Point"}, "properties": {"charge": 100, "id": "smide_136", "name": "ZH253682", "provider": "smide", "range": 50.0, "size": 17, "time": "03/12/2020, 22:28:28"}, "type": "Feature"}, {"geometry": {"coordinates": [8.516456, 47.39822], "type": "Point"}, "properties": {"charge": 97, "id": "smide_73", "name": "ZH261379", "provider": "smide", "range": 48.0, "size": 20, "time": "03/12/2020, 22:28:28"}, "type": "Feature"}, {"geometry": {"coordinates": [8.495141, 47.379425], "type": "Point"}, "properties": {"charge": 30, "id": "smide_158", "name": "ZH253870", "provider": "smide", "range": 15.0, "size": 20, "time": "03/12/2020, 22:28:28"}, "type": "Feature"}, {"geometry": {"coordinates": [8.564706, 47.372836], "type": "Point"}, "properties": {"charge": 58, "id": "smide_100", "name": "ZH253862", "provider": "smide", "range": 28.0, "size": 20, "time": "03/12/2020, 22:28:28"}, "type": "Feature"}, {"geometry": {"coordinates": [8.555146, 47.383801], "type": "Point"}, "properties": {"charge": 63, "id": "smide_141", "name": "ZH253800", "provider": "smide", "range": 31.0, "size": 20, "time": "03/12/2020, 22:28:28"}, "type": "Feature"}, {"geometry": {"coordinates": [8.533026, 47.348283], "type": "Point"}, "properties": {"charge": 38, "id": "smide_149", "name": "ZH253743", "provider": "smide", "range": 19.0, "size": 20, "time": "03/12/2020, 22:28:28"}, "type": "Feature"}, {"geometry": {"coordinates": [8.550857, 47.39234], "type": "Point"}, "properties": {"charge": 35, "id": "smide_16", "name": "ZH253713", "provider": "smide", "range": 17.0, "size": 20, "time": "03/12/2020, 22:28:28"}, "type": "Feature"}, {"geometry": {"coordinates": [8.561913, 47.415088], "type": "Point"}, "properties": {"charge": 49, "id": "smide_74", "name": "ZH253693", "provider": "smide", "range": 24.0, "size": 20, "time": "03/12/2020, 22:28:28"}, "type": "Feature"}, {"geometry": {"coordinates": [8.557691, 47.406801], "type": "Point"}, "properties": {"charge": 13, "id": "smide_33", "name": "ZH253782", "provider": "smide", "range": 6.0, "size": 20, "time": "03/12/2020, 22:28:28"}, "type": "Feature"}, {"geometry": {"coordinates": [8.573895, 47.352808], "type": "Point"}, "properties": {"charge": 56, "id": "smide_161", "name": "ZH253691", "provider": "smide", "range": 28.0, "size": 20, "time": "03/12/2020, 22:28:28"}, "type": "Feature"}, {"geometry": {"coordinates": [8.488161, 47.389228], "type": "Point"}, "properties": {"charge": 14, "id": "smide_183", "name": "ZH253868", "provider": "smide", "range": 7.0, "size": 17, "time": "03/12/2020, 22:28:28"}, "type": "Feature"}, {"geometry": {"coordinates": [8.507591, 47.42132], "type": "Point"}, "properties": {"charge": 90, "id": "smide_42", "name": "ZH253846", "provider": "smide", "range": 45.0, "size": 20, "time": "03/12/2020, 22:28:28"}, "type": "Feature"}, {"geometry": {"coordinates": [8.50849, 47.42064], "type": "Point"}, "properties": {"charge": 100, "id": "smide_4", "name": "ZH253740", "provider": "smide", "range": 50.0, "size": 20, "time": "03/12/2020, 22:28:28"}, "type": "Feature"}, {"geometry": {"coordinates": [8.537493, 47.379436], "type": "Point"}, "properties": {"charge": 26, "id": "smide_160", "name": "ZH253722", "provider": "smide", "range": 13.0, "size": 17, "time": "03/12/2020, 22:28:28"}, "type": "Feature"}, {"geometry": {"coordinates": [8.543581, 47.392621], "type": "Point"}, "properties": {"charge": 78, "id": "smide_137", "name": "ZH258502", "provider": "smide", "range": 39.0, "size": 17, "time": "03/12/2020, 22:28:28"}, "type": "Feature"}, {"geometry": {"coordinates": [8.524726, 47.360815], "type": "Point"}, "properties": {"charge": 90, "id": "smide_55", "name": "ZH253875", "provider": "smide", "range": 45.0, "size": 17, "time": "03/12/2020, 22:28:28"}, "type": "Feature"}, {"geometry": {"coordinates": [8.523831, 47.410944], "type": "Point"}, "properties": {"charge": 92, "id": "smide_96", "name": "ZH256146", "provider": "smide", "range": 46.0, "size": 20, "time": "03/12/2020, 22:28:28"}, "type": "Feature"}, {"geometry": {"coordinates": [8.557816, 47.352668], "type": "Point"}, "properties": {"charge": 41, "id": "smide_58", "name": "ZH259246", "provider": "smide", "range": 20.0, "size": 20, "time": "03/12/2020, 22:28:28"}, "type": "Feature"}, {"geometry": {"coordinates": [8.560239, 47.381404], "type": "Point"}, "properties": {"charge": 38, "id": "smide_54", "name": "ZH253874", "provider": "smide", "range": 19.0, "size": 20, "time": "03/12/2020, 22:28:28"}, "type": "Feature"}, {"geometry": {"coordinates": [8.5106, 47.379904], "type": "Point"}, "properties": {"charge": 66, "id": "smide_175", "name": "ZH253730", "provider": "smide", "range": 33.0, "size": 17, "time": "03/12/2020, 22:28:28"}, "type": "Feature"}, {"geometry": {"coordinates": [8.557205, 47.383106], "type": "Point"}, "properties": {"charge": 34, "id": "smide_162", "name": "ZH253760", "provider": "smide", "range": 17.0, "size": 17, "time": "03/12/2020, 22:28:28"}, "type": "Feature"}, {"geometry": {"coordinates": [8.525997, 47.358992], "type": "Point"}, "properties": {"charge": 27, "id": "smide_95", "name": "ZH253773", "provider": "smide", "range": 13.0, "size": 17, "time": "03/12/2020, 22:28:28"}, "type": "Feature"}, {"geometry": {"coordinates": [8.544389, 47.368396], "type": "Point"}, "properties": {"charge": 97, "id": "smide_163", "name": "ZH256147", "provider": "smide", "range": 48.0, "size": 20, "time": "03/12/2020, 22:28:28"}, "type": "Feature"}, {"geometry": {"coordinates": [8.528283, 47.34726], "type": "Point"}, "properties": {"charge": 100, "id": "smide_112", "name": "ZH263530", "provider": "smide", "range": 50.0, "size": 20, "time": "03/12/2020, 22:28:28"}, "type": "Feature"}, {"geometry": {"coordinates": [8.574963, 47.37335], "type": "Point"}, "properties": {"charge": 100, "id": "smide_38", "name": "ZH253851", "provider": "smide", "range": 50.0, "size": 20, "time": "03/12/2020, 22:28:28"}, "type": "Feature"}, {"geometry": {"coordinates": [8.559778, 47.376684], "type": "Point"}, "properties": {"charge": 100, "id": "smide_6", "name": "ZH253787", "provider": "smide", "range": 50.0, "size": 17, "time": "03/12/2020, 22:28:28"}, "type": "Feature"}, {"geometry": {"coordinates": [8.551877, 47.36168], "type": "Point"}, "properties": {"charge": 62, "id": "smide_192", "name": "ZH253706", "provider": "smide", "range": 31.0, "size": 20, "time": "03/12/2020, 22:28:28"}, "type": "Feature"}, {"geometry": {"coordinates": [8.574153, 47.347871], "type": "Point"}, "properties": {"charge": 57, "id": "smide_39", "name": "ZH253714", "provider": "smide", "range": 28.0, "size": 20, "time": "03/12/2020, 22:28:28"}, "type": "Feature"}, {"geometry": {"coordinates": [8.486336, 47.37412], "type": "Point"}, "properties": {"charge": 63, "id": "smide_5", "name": "ZH261443", "provider": "smide", "range": 31.0, "size": 20, "time": "03/12/2020, 22:28:28"}, "type": "Feature"}, {"geometry": {"coordinates": [8.501995, 47.37066], "type": "Point"}, "properties": {"charge": 21, "id": "smide_85", "name": "ZH253729", "provider": "smide", "range": 10.0, "size": 17, "time": "03/12/2020, 22:28:28"}, "type": "Feature"}, {"geometry": {"coordinates": [8.510142, 47.352764], "type": "Point"}, "properties": {"charge": 65, "id": "smide_29", "name": "ZH253723", "provider": "smide", "range": 32.0, "size": 17, "time": "03/12/2020, 22:28:28"}, "type": "Feature"}, {"geometry": {"coordinates": [8.546141, 47.389195], "type": "Point"}, "properties": {"charge": 55, "id": "smide_132", "name": "ZH253857", "provider": "smide", "range": 27.0, "size": 17, "time": "03/12/2020, 22:28:28"}, "type": "Feature"}, {"geometry": {"coordinates": [8.564489, 47.369416], "type": "Point"}, "properties": {"charge": 53, "id": "smide_46", "name": "ZH253843", "provider": "smide", "range": 26.0, "size": 20, "time": "03/12/2020, 22:28:28"}, "type": "Feature"}, {"geometry": {"coordinates": [8.51737166666667, 47.3854033333333], "type": "Point"}, "properties": {"charge": 85, "id": "bird_653678b5-efee-4426-9ce2-9d760ce83ebf", "provider": "bird", "timeStamp": "03/12/2020, 22:28:27"}, "type": "Feature"}, {"geometry": {"coordinates": [8.51970333333333, 47.3726916666667], "type": "Point"}, "properties": {"charge": 67, "id": "bird_9c74a8dd-2d37-4b88-8136-624679a3bcfc", "provider": "bird", "timeStamp": "03/12/2020, 22:28:27"}, "type": "Feature"}, {"geometry": {"coordinates": [8.51689833333333, 47.3848233333333], "type": "Point"}, "properties": {"charge": 75, "id": "bird_9368ef13-b579-442a-b2da-1b462171a0b6", "provider": "bird", "timeStamp": "03/12/2020, 22:28:27"}, "type": "Feature"}, {"geometry": {"coordinates": [8.54386833333333, 47.3763116666667], "type": "Point"}, "properties": {"charge": 63, "id": "bird_e86bcb9d-3d8e-422d-afa4-dadbe546b4ac", "provider": "bird", "timeStamp": "03/12/2020, 22:28:27"}, "type": "Feature"}, {"geometry": {"coordinates": [8.51801833333333, 47.3859633333333], "type": "Point"}, "properties": {"charge": 13, "id": "bird_eae67d5b-d8e4-4b17-b4ee-3233bc298e3c", "provider": "bird", "timeStamp": "03/12/2020, 22:28:27"}, "type": "Feature"}, {"geometry": {"coordinates": [8.5172, 47.38512], "type": "Point"}, "properties": {"charge": 22, "id": "bird_63c633f3-8246-4283-89a5-5d7291108aa5", "provider": "bird", "timeStamp": "03/12/2020, 22:28:27"}, "type": "Feature"}, {"geometry": {"coordinates": [8.51922333333333, 47.3869216666667], "type": "Point"}, "properties": {"charge": 84, "id": "bird_9b48a7ef-951b-45fe-a278-2ed1d70d5903", "provider": "bird", "timeStamp": "03/12/2020, 22:28:27"}, "type": "Feature"}, {"geometry": {"coordinates": [8.52226833333333, 47.3885766666667], "type": "Point"}, "properties": {"charge": 91, "id": "bird_d1f65bb9-4055-4699-a39c-f8c1a46743e6", "provider": "bird", "timeStamp": "03/12/2020, 22:28:27"}, "type": "Feature"}, {"geometry": {"coordinates": [8.542335, 47.385585], "type": "Point"}, "properties": {"charge": 72, "id": "bird_7c4bd238-a35e-4850-bd20-6b9582274455", "provider": "bird", "timeStamp": "03/12/2020, 22:28:27"}, "type": "Feature"}, {"geometry": {"coordinates": [8.5439, 47.3765], "type": "Point"}, "properties": {"charge": 40, "id": "bird_d0bbc022-ac9a-4b50-bc29-e2e737ac44ab", "provider": "bird", "timeStamp": "03/12/2020, 22:28:27"}, "type": "Feature"}, {"geometry": {"coordinates": [8.518595, 47.373585], "type": "Point"}, "properties": {"charge": 37, "id": "bird_3a58e401-fd4a-43e4-9d6d-5de9c8f09cfc", "provider": "bird", "timeStamp": "03/12/2020, 22:28:27"}, "type": "Feature"}, {"geometry": {"coordinates": [8.52721666666667, 47.3701433333333], "type": "Point"}, "properties": {"charge": 79, "id": "bird_94738ae7-ef9e-4e8d-aabb-ff3a86025d7e", "provider": "bird", "timeStamp": "03/12/2020, 22:28:27"}, "type": "Feature"}, {"geometry": {"coordinates": [8.51722833333333, 47.38504], "type": "Point"}, "properties": {"charge": 94, "id": "bird_2ba1b258-c7a5-4959-924f-dc5bb8c8360c", "provider": "bird", "timeStamp": "03/12/2020, 22:28:27"}, "type": "Feature"}, {"geometry": {"coordinates": [8.51785, 47.3856933333333], "type": "Point"}, "properties": {"charge": 76, "id": "bird_5ddcff34-e699-4e0a-8956-3fdf9bef8193", "provider": "bird", "timeStamp": "03/12/2020, 22:28:27"}, "type": "Feature"}, {"geometry": {"coordinates": [8.51827333333333, 47.38602], "type": "Point"}, "properties": {"charge": 76, "id": "bird_d5d36279-f8a9-43eb-8559-fad21a047e75", "provider": "bird", "timeStamp": "03/12/2020, 22:28:27"}, "type": "Feature"}, {"geometry": {"coordinates": [8.542395, 47.3853383333333], "type": "Point"}, "properties": {"charge": 33, "id": "bird_6b391ce7-5be0-4c6c-80b7-0933bf0b60c2", "provider": "bird", "timeStamp": "03/12/2020, 22:28:27"}, "type": "Feature"}, {"geometry": {"coordinates": [8.52299, 47.3712733333333], "type": "Point"}, "properties": {"charge": 75, "id": "bird_919ee249-52ea-40d1-9bab-f65c35516460", "provider": "bird", "timeStamp": "03/12/2020, 22:28:27"}, "type": "Feature"}, {"geometry": {"coordinates": [8.51801333333333, 47.38572], "type": "Point"}, "properties": {"charge": 79, "id": "bird_e94addc5-0a7e-4fe5-9637-e035a90b8d5a", "provider": "bird", "timeStamp": "03/12/2020, 22:28:27"}, "type": "Feature"}, {"geometry": {"coordinates": [8.523295, 47.37117], "type": "Point"}, "properties": {"charge": 91, "id": "bird_3bfe810a-be30-415c-8621-80cdfd93645b", "provider": "bird", "timeStamp": "03/12/2020, 22:28:27"}, "type": "Feature"}, {"geometry": {"coordinates": [8.51943666666667, 47.3868716666667], "type": "Point"}, "properties": {"charge": 17, "id": "bird_0557af42-34ff-4d67-9df6-e43215ca6460", "provider": "bird", "timeStamp": "03/12/2020, 22:28:27"}, "type": "Feature"}, {"geometry": {"coordinates": [8.51839666666667, 47.38604], "type": "Point"}, "properties": {"charge": 65, "id": "bird_862d0879-94b4-474e-8e7d-0cd1b25af575", "provider": "bird", "timeStamp": "03/12/2020, 22:28:27"}, "type": "Feature"}, {"geometry": {"coordinates": [8.52300666666667, 47.37133], "type": "Point"}, "properties": {"charge": 91, "id": "bird_ac02e68c-70df-4052-90b3-55be2ad7a5d3", "provider": "bird", "timeStamp": "03/12/2020, 22:28:27"}, "type": "Feature"}, {"geometry": {"coordinates": [8.52298166666667, 47.3886533333333], "type": "Point"}, "properties": {"charge": 29, "id": "bird_3d051a27-99b8-420e-92ba-09eadb95a9c8", "provider": "bird", "timeStamp": "03/12/2020, 22:28:27"}, "type": "Feature"}, {"geometry": {"coordinates": [8.51757, 47.385105], "type": "Point"}, "properties": {"charge": 33, "id": "bird_13de090d-bc6d-43a0-80a9-b7ab0612185a", "provider": "bird", "timeStamp": "03/12/2020, 22:28:27"}, "type": "Feature"}, {"geometry": {"coordinates": [8.517665, 47.3852], "type": "Point"}, "properties": {"charge": 58, "id": "bird_5f566b97-6c62-4e8c-8fc9-771310722a16", "provider": "bird", "timeStamp": "03/12/2020, 22:28:27"}, "type": "Feature"}, {"geometry": {"coordinates": [8.53713, 47.3714833333333], "type": "Point"}, "properties": {"charge": 69, "id": "bird_003b7967-c56b-48f5-b9d0-28f499993f38", "provider": "bird", "timeStamp": "03/12/2020, 22:28:27"}, "type": "Feature"}, {"geometry": {"coordinates": [8.51735, 47.3753166666667], "type": "Point"}, "properties": {"charge": 76, "id": "bird_30976913-ed64-47f6-854a-9ab19c46f4f6", "provider": "bird", "timeStamp": "03/12/2020, 22:28:27"}, "type": "Feature"}, {"geometry": {"coordinates": [8.51560333333333, 47.3797066666667], "type": "Point"}, "properties": {"charge": 54, "id": "bird_12b11e30-67e9-43c9-90f0-361d95006764", "provider": "bird", "timeStamp": "03/12/2020, 22:28:27"}, "type": "Feature"}, {"geometry": {"coordinates": [8.51594, 47.3820766666667], "type": "Point"}, "properties": {"charge": 79, "id": "bird_f14e664d-537e-4806-a54f-a3124caa9dd2", "provider": "bird", "timeStamp": "03/12/2020, 22:28:27"}, "type": "Feature"}, {"geometry": {"coordinates": [8.53710166666667, 47.3715366666667], "type": "Point"}, "properties": {"charge": 75, "id": "bird_a3eff93e-3fdf-4201-b46b-61146d6a8b14", "provider": "bird", "timeStamp": "03/12/2020, 22:28:27"}, "type": "Feature"}, {"geometry": {"coordinates": [8.51776666666667, 47.385105], "type": "Point"}, "properties": {"charge": 54, "id": "bird_cd82790c-26b6-4ed8-ab9c-931797594b3d", "provider": "bird", "timeStamp": "03/12/2020, 22:28:27"}, "type": "Feature"}, {"geometry": {"coordinates": [8.53624, 47.3712583333333], "type": "Point"}, "properties": {"charge": 93, "id": "bird_4b1bfb27-4dd2-4d4c-aa56-786c65fc6230", "provider": "bird", "timeStamp": "03/12/2020, 22:28:27"}, "type": "Feature"}, {"geometry": {"coordinates": [8.51568833333333, 47.3795816666667], "type": "Point"}, "properties": {"charge": 62, "id": "bird_5231b8a9-2853-45dc-b4d3-eae99b2b573a", "provider": "bird", "timeStamp": "03/12/2020, 22:28:27"}, "type": "Feature"}, {"geometry": {"coordinates": [8.51613, 47.3778233333333], "type": "Point"}, "properties": {"charge": 29, "id": "bird_be52b1ef-0497-4dc5-ac1a-09e883f73cd7", "provider": "bird", "timeStamp": "03/12/2020, 22:28:27"}, "type": "Feature"}, {"geometry": {"coordinates": [8.51617, 47.3778266666667], "type": "Point"}, "properties": {"charge": 71, "id": "bird_acc6057f-f341-4424-90aa-ed058087851b", "provider": "bird", "timeStamp": "03/12/2020, 22:28:27"}, "type": "Feature"}, {"geometry": {"coordinates": [8.51596, 47.3787616666667], "type": "Point"}, "properties": {"charge": 46, "id": "bird_d2e1e668-180a-409d-84ed-4f45ea04f8ca", "provider": "bird", "timeStamp": "03/12/2020, 22:28:27"}, "type": "Feature"}, {"geometry": {"coordinates": [8.51585, 47.3798216666667], "type": "Point"}, "properties": {"charge": 39, "id": "bird_08ce10c1-dbfc-4455-9e66-0502015304c9", "provider": "bird", "timeStamp": "03/12/2020, 22:28:27"}, "type": "Feature"}, {"geometry": {"coordinates": [8.53668333333333, 47.3715783333333], "type": "Point"}, "properties": {"charge": 67, "id": "bird_f18dfc59-8f77-49b3-9020-c90cca644615", "provider": "bird", "timeStamp": "03/12/2020, 22:28:27"}, "type": "Feature"}, {"geometry": {"coordinates": [8.51624666666667, 47.3779266666667], "type": "Point"}, "properties": {"charge": 80, "id": "bird_ce1e903d-e3d9-429e-9e98-ad170dea9102", "provider": "bird", "timeStamp": "03/12/2020, 22:28:27"}, "type": "Feature"}, {"geometry": {"coordinates": [8.51596166666667, 47.37949], "type": "Point"}, "properties": {"charge": 98, "id": "bird_caa40082-4724-4a70-a998-b2e9494d880e", "provider": "bird", "timeStamp": "03/12/2020, 22:28:27"}, "type": "Feature"}, {"geometry": {"coordinates": [8.51595, 47.3798483333333], "type": "Point"}, "properties": {"charge": 72, "id": "bird_71302196-9f41-4614-a530-9262d669e6e1", "provider": "bird", "timeStamp": "03/12/2020, 22:28:27"}, "type": "Feature"}, {"geometry": {"coordinates": [8.523905, 47.37146], "type": "Point"}, "properties": {"charge": 84, "id": "bird_1ff0b9de-87fd-4693-aca8-5d800abdfbbe", "provider": "bird", "timeStamp": "03/12/2020, 22:28:27"}, "type": "Feature"}, {"geometry": {"coordinates": [8.53630166666667, 47.3715483333333], "type": "Point"}, "properties": {"charge": 65, "id": "bird_5daa0105-a19f-4dc8-beaf-5f72b8f4aee9", "provider": "bird", "timeStamp": "03/12/2020, 22:28:27"}, "type": "Feature"}, {"geometry": {"coordinates": [8.51736666666667, 47.3759616666667], "type": "Point"}, "properties": {"charge": 85, "id": "bird_ef3b011e-585e-41c9-a59c-da7d2ecf66aa", "provider": "bird", "timeStamp": "03/12/2020, 22:28:27"}, "type": "Feature"}, {"geometry": {"coordinates": [8.54331166666667, 47.377155], "type": "Point"}, "properties": {"charge": 61, "id": "bird_7063aba3-4f70-4a34-8acd-9d5dce9f267f", "provider": "bird", "timeStamp": "03/12/2020, 22:28:27"}, "type": "Feature"}, {"geometry": {"coordinates": [8.54319333333333, 47.377075], "type": "Point"}, "properties": {"charge": 36, "id": "bird_d5f3332c-9a81-4628-b49c-064f4ddf62b2", "provider": "bird", "timeStamp": "03/12/2020, 22:28:27"}, "type": "Feature"}, {"geometry": {"coordinates": [8.52657833333333, 47.389095], "type": "Point"}, "properties": {"charge": 25, "id": "bird_967c99c4-b6f1-4aed-a5e0-6607c073940a", "provider": "bird", "timeStamp": "03/12/2020, 22:28:27"}, "type": "Feature"}, {"geometry": {"coordinates": [8.53658333333333, 47.3717683333333], "type": "Point"}, "properties": {"charge": 62, "id": "bird_493588e9-57c9-4b01-8c35-1dfc7743c3d0", "provider": "bird", "timeStamp": "03/12/2020, 22:28:27"}, "type": "Feature"}, {"geometry": {"coordinates": [8.51749666666667, 47.3760216666667], "type": "Point"}, "properties": {"charge": 45, "id": "bird_487563dd-8acd-4f43-81f2-c1bbf7e6f513", "provider": "bird", "timeStamp": "03/12/2020, 22:28:27"}, "type": "Feature"}, {"geometry": {"coordinates": [8.51621833333333, 47.379715], "type": "Point"}, "properties": {"charge": 36, "id": "bird_d5918888-7ce1-4baa-b472-ec6752d0775c", "provider": "bird", "timeStamp": "03/12/2020, 22:28:27"}, "type": "Feature"}, {"geometry": {"coordinates": [8.53012333333333, 47.3706733333333], "type": "Point"}, "properties": {"charge": 46, "id": "bird_6703c328-b204-450f-b91b-9a54e105d9de", "provider": "bird", "timeStamp": "03/12/2020, 22:28:27"}, "type": "Feature"}, {"geometry": {"coordinates": [8.51627166666667, 47.3796316666667], "type": "Point"}, "properties": {"charge": 83, "id": "bird_9c1ad7ec-f541-401f-947d-6e37c4e2a769", "provider": "bird", "timeStamp": "03/12/2020, 22:28:27"}, "type": "Feature"}, {"geometry": {"coordinates": [8.53759333333333, 47.37233], "type": "Point"}, "properties": {"charge": 64, "id": "bird_5bc8fe3e-0a0b-41af-bd42-b06ab3eed8c9", "provider": "bird", "timeStamp": "03/12/2020, 22:28:27"}, "type": "Feature"}, {"geometry": {"coordinates": [8.53772333333333, 47.3723983333333], "type": "Point"}, "properties": {"charge": 75, "id": "bird_688fdfd5-e0aa-441d-8d86-0d06fab0d465", "provider": "bird", "timeStamp": "03/12/2020, 22:28:27"}, "type": "Feature"}, {"geometry": {"coordinates": [8.51640833333333, 47.3796733333333], "type": "Point"}, "properties": {"charge": 70, "id": "bird_87b2806d-385e-47be-813e-21e449a0ab6b", "provider": "bird", "timeStamp": "03/12/2020, 22:28:27"}, "type": "Feature"}, {"geometry": {"coordinates": [8.51918, 47.385575], "type": "Point"}, "properties": {"charge": 69, "id": "bird_ee9b8435-5dcb-4a5b-b770-273f22e066ca", "provider": "bird", "timeStamp": "03/12/2020, 22:28:27"}, "type": "Feature"}, {"geometry": {"coordinates": [8.52479333333333, 47.3714983333333], "type": "Point"}, "properties": {"charge": 13, "id": "bird_a03cd6ad-6e28-432e-86e3-c6199c525bbd", "provider": "bird", "timeStamp": "03/12/2020, 22:28:27"}, "type": "Feature"}, {"geometry": {"coordinates": [8.52923833333333, 47.370815], "type": "Point"}, "properties": {"charge": 39, "id": "bird_b57b73f5-3d31-4e6a-a491-d1828117a703", "provider": "bird", "timeStamp": "03/12/2020, 22:28:27"}, "type": "Feature"}, {"geometry": {"coordinates": [8.53644166666667, 47.388065], "type": "Point"}, "properties": {"charge": 54, "id": "bird_585e2a9d-43fa-49d2-b447-71261b80f877", "provider": "bird", "timeStamp": "03/12/2020, 22:28:27"}, "type": "Feature"}, {"geometry": {"coordinates": [8.53627833333333, 47.371925], "type": "Point"}, "properties": {"charge": 39, "id": "bird_78f5e29c-b71c-4031-9752-e852f6cfa001", "provider": "bird", "timeStamp": "03/12/2020, 22:28:27"}, "type": "Feature"}, {"geometry": {"coordinates": [8.517175, 47.37761], "type": "Point"}, "properties": {"charge": 63, "id": "bird_17aa6407-b9c5-48ed-975f-f59ef0af9a6b", "provider": "bird", "timeStamp": "03/12/2020, 22:28:27"}, "type": "Feature"}, {"geometry": {"coordinates": [8.52019166666667, 47.3858216666667], "type": "Point"}, "properties": {"charge": 29, "id": "bird_6ed70c34-78bd-4e26-9ddc-6f81416283ae", "provider": "bird", "timeStamp": "03/12/2020, 22:28:27"}, "type": "Feature"}, {"geometry": {"coordinates": [8.54302, 47.379635], "type": "Point"}, "properties": {"charge": 24, "id": "bird_7755aa02-c80c-4451-9314-6f6bdecd01ef", "provider": "bird", "timeStamp": "03/12/2020, 22:28:27"}, "type": "Feature"}, {"geometry": {"coordinates": [8.54034, 47.3747183333333], "type": "Point"}, "properties": {"charge": 27, "id": "bird_028e90b3-e4eb-4aaa-b674-aa64e186a0d2", "provider": "bird", "timeStamp": "03/12/2020, 22:28:27"}, "type": "Feature"}, {"geometry": {"coordinates": [8.52451333333333, 47.38768], "type": "Point"}, "properties": {"charge": 67, "id": "bird_c677ebc8-7476-4e7d-9504-dbf2731f4d66", "provider": "bird", "timeStamp": "03/12/2020, 22:28:27"}, "type": "Feature"}, {"geometry": {"coordinates": [8.517545, 47.3793333333333], "type": "Point"}, "properties": {"charge": 60, "id": "bird_46177b4c-e8dc-4eb4-985c-09a744a9780f", "provider": "bird", "timeStamp": "03/12/2020, 22:28:27"}, "type": "Feature"}, {"geometry": {"coordinates": [8.54156833333333, 47.3768316666667], "type": "Point"}, "properties": {"charge": 26, "id": "bird_dc58998f-519c-42ef-8234-cc7e877e5ae6", "provider": "bird", "timeStamp": "03/12/2020, 22:28:27"}, "type": "Feature"}, {"geometry": {"coordinates": [8.54150166666667, 47.3768383333333], "type": "Point"}, "properties": {"charge": 33, "id": "bird_c8a36677-84e7-46ed-84b1-56bf1737a454", "provider": "bird", "timeStamp": "03/12/2020, 22:28:27"}, "type": "Feature"}, {"geometry": {"coordinates": [8.522105, 47.3864366666667], "type": "Point"}, "properties": {"charge": 34, "id": "bird_d9e20922-3e6e-40f9-962f-ef11ade9bab0", "provider": "bird", "timeStamp": "03/12/2020, 22:28:27"}, "type": "Feature"}, {"geometry": {"coordinates": [8.53984833333333, 47.37495], "type": "Point"}, "properties": {"charge": 43, "id": "bird_f4cbbdc8-e094-4f96-ab24-e58979b0f4f7", "provider": "bird", "timeStamp": "03/12/2020, 22:28:27"}, "type": "Feature"}, {"geometry": {"coordinates": [8.5368, 47.373035], "type": "Point"}, "properties": {"charge": 74, "id": "bird_2b2421e0-3977-481f-8869-1c7d88a4942e", "provider": "bird", "timeStamp": "03/12/2020, 22:28:27"}, "type": "Feature"}, {"geometry": {"coordinates": [8.52217666666667, 47.3864516666667], "type": "Point"}, "properties": {"charge": 38, "id": "bird_6618f8c9-087c-42d7-b09b-df7b537b2308", "provider": "bird", "timeStamp": "03/12/2020, 22:28:27"}, "type": "Feature"}, {"geometry": {"coordinates": [8.53680333333333, 47.37305], "type": "Point"}, "properties": {"charge": 73, "id": "bird_28354cbd-6276-49cf-be97-5626163b891c", "provider": "bird", "timeStamp": "03/12/2020, 22:28:27"}, "type": "Feature"}, {"geometry": {"coordinates": [8.53688833333333, 47.3730966666667], "type": "Point"}, "properties": {"charge": 71, "id": "bird_e3657f79-07f1-4cd9-8c01-ac47981a433a", "provider": "bird", "timeStamp": "03/12/2020, 22:28:27"}, "type": "Feature"}, {"geometry": {"coordinates": [8.536795, 47.3730883333333], "type": "Point"}, "properties": {"charge": 73, "id": "bird_d8df5408-517c-4a81-b5d1-ea22bddb6ac3", "provider": "bird", "timeStamp": "03/12/2020, 22:28:27"}, "type": "Feature"}, {"geometry": {"coordinates": [8.53677666666667, 47.3730933333333], "type": "Point"}, "properties": {"charge": 66, "id": "bird_9fbf4558-ec39-4aef-827c-ac1c1d559fb1", "provider": "bird", "timeStamp": "03/12/2020, 22:28:27"}, "type": "Feature"}, {"geometry": {"coordinates": [8.52188333333333, 47.386135], "type": "Point"}, "properties": {"charge": 43, "id": "bird_477020e2-9d6c-47b8-9d84-d00053b0b027", "provider": "bird", "timeStamp": "03/12/2020, 22:28:27"}, "type": "Feature"}, {"geometry": {"coordinates": [8.53970833333333, 47.375045], "type": "Point"}, "properties": {"charge": 73, "id": "bird_06b552e1-228c-48c2-8d06-82f6a9fac3e3", "provider": "bird", "timeStamp": "03/12/2020, 22:28:27"}, "type": "Feature"}, {"geometry": {"coordinates": [8.518305, 47.3778416666667], "type": "Point"}, "properties": {"charge": 20, "id": "bird_850b7ed2-e3cb-419c-bad2-55441a65b2aa", "provider": "bird", "timeStamp": "03/12/2020, 22:28:27"}, "type": "Feature"}, {"geometry": {"coordinates": [8.536475, 47.373115], "type": "Point"}, "properties": {"charge": 62, "id": "bird_80cd843e-26b9-4f86-b20d-289ae6eb139a", "provider": "bird", "timeStamp": "03/12/2020, 22:28:27"}, "type": "Feature"}, {"geometry": {"coordinates": [8.54065666666667, 47.376365], "type": "Point"}, "properties": {"charge": 48, "id": "bird_179f679d-0bbe-438a-a247-b73f527fef7b", "provider": "bird", "timeStamp": "03/12/2020, 22:28:27"}, "type": "Feature"}, {"geometry": {"coordinates": [8.54004833333333, 47.375695], "type": "Point"}, "properties": {"charge": 29, "id": "bird_505c39cf-7077-4b44-acff-baf21763df70", "provider": "bird", "timeStamp": "03/12/2020, 22:28:27"}, "type": "Feature"}, {"geometry": {"coordinates": [8.54178, 47.3803283333333], "type": "Point"}, "properties": {"charge": 58, "id": "bird_6c25b0fd-a3e8-4f63-9410-44fc68ee77e4", "provider": "bird", "timeStamp": "03/12/2020, 22:28:27"}, "type": "Feature"}, {"geometry": {"coordinates": [8.54095, 47.3771366666667], "type": "Point"}, "properties": {"charge": 70, "id": "bird_d9b9b7cb-0008-4a53-a7f2-0e3cde10d1e8", "provider": "bird", "timeStamp": "03/12/2020, 22:28:27"}, "type": "Feature"}, {"geometry": {"coordinates": [8.52952166666667, 47.3720583333333], "type": "Point"}, "properties": {"charge": 43, "id": "bird_d3e53142-afd0-4d85-b25d-cf71e3fd31c2", "provider": "bird", "timeStamp": "03/12/2020, 22:28:27"}, "type": "Feature"}, {"geometry": {"coordinates": [8.52341166666667, 47.3865733333333], "type": "Point"}, "properties": {"charge": 43, "id": "bird_95f44a55-cee7-40d3-84e3-0afda5847dba", "provider": "bird", "timeStamp": "03/12/2020, 22:28:27"}, "type": "Feature"}, {"geometry": {"coordinates": [8.52296333333333, 47.386345], "type": "Point"}, "properties": {"charge": 36, "id": "bird_49bfba29-2227-40bd-a4f9-89da6949b9bd", "provider": "bird", "timeStamp": "03/12/2020, 22:28:27"}, "type": "Feature"}, {"geometry": {"coordinates": [8.52342666666667, 47.3864783333333], "type": "Point"}, "properties": {"charge": 64, "id": "bird_d2e37337-5f35-41ca-8f99-00807c696654", "provider": "bird", "timeStamp": "03/12/2020, 22:28:27"}, "type": "Feature"}, {"geometry": {"coordinates": [8.54048166666667, 47.376815], "type": "Point"}, "properties": {"charge": 28, "id": "bird_393c61c7-74dd-441e-acb2-9a7da48615ae", "provider": "bird", "timeStamp": "03/12/2020, 22:28:27"}, "type": "Feature"}, {"geometry": {"coordinates": [8.52937666666667, 47.387715], "type": "Point"}, "properties": {"charge": 58, "id": "bird_44a01d9b-0751-4f40-992d-13b92b636187", "provider": "bird", "timeStamp": "03/12/2020, 22:28:27"}, "type": "Feature"}, {"geometry": {"coordinates": [8.527715, 47.3724483333333], "type": "Point"}, "properties": {"charge": 31, "id": "bird_25766f49-8187-4f3c-b5e7-2da77a7b1063", "provider": "bird", "timeStamp": "03/12/2020, 22:28:27"}, "type": "Feature"}, {"geometry": {"coordinates": [8.52931, 47.3723183333333], "type": "Point"}, "properties": {"charge": 91, "id": "bird_eec55235-aac9-4eb4-a4fb-6c02fba554c7", "provider": "bird", "timeStamp": "03/12/2020, 22:28:27"}, "type": "Feature"}, {"geometry": {"coordinates": [8.52939166666667, 47.37233], "type": "Point"}, "properties": {"charge": 80, "id": "bird_95fef949-84b6-4633-985c-478396390b4f", "provider": "bird", "timeStamp": "03/12/2020, 22:28:27"}, "type": "Feature"}, {"geometry": {"coordinates": [8.53674333333333, 47.3738716666667], "type": "Point"}, "properties": {"charge": 70, "id": "bird_328503e5-25fc-43f8-9a63-f99f7ee6d0b2", "provider": "bird", "timeStamp": "03/12/2020, 22:28:27"}, "type": "Feature"}, {"geometry": {"coordinates": [8.52602833333333, 47.3871233333333], "type": "Point"}, "properties": {"charge": 93, "id": "bird_a45ad3f4-6428-4cd1-b720-e079437bd026", "provider": "bird", "timeStamp": "03/12/2020, 22:28:27"}, "type": "Feature"}, {"geometry": {"coordinates": [8.52935666666667, 47.3725433333333], "type": "Point"}, "properties": {"charge": 73, "id": "bird_833027a6-d684-45af-9296-1b11caaa9597", "provider": "bird", "timeStamp": "03/12/2020, 22:28:27"}, "type": "Feature"}, {"geometry": {"coordinates": [8.52893833333333, 47.3873366666667], "type": "Point"}, "properties": {"charge": 39, "id": "bird_42717279-429b-4864-93c4-34403f6d86de", "provider": "bird", "timeStamp": "03/12/2020, 22:28:27"}, "type": "Feature"}, {"geometry": {"coordinates": [8.53488945863364, 47.3734301775333], "type": "Point"}, "properties": {"charge": 29, "id": "bird_7247e699-1a4a-405a-b567-5cc989eaeac6", "provider": "bird", "timeStamp": "03/12/2020, 22:28:27"}, "type": "Feature"}, {"geometry": {"coordinates": [8.52992833333333, 47.3726433333333], "type": "Point"}, "properties": {"charge": 81, "id": "bird_0351d114-f299-4d50-8d58-da8ccf51fecd", "provider": "bird", "timeStamp": "03/12/2020, 22:28:27"}, "type": "Feature"}, {"geometry": {"coordinates": [8.53488536662317, 47.3734342302563], "type": "Point"}, "properties": {"charge": 26, "id": "bird_f9d83432-baa2-4695-9795-1847946c6af0", "provider": "bird", "timeStamp": "03/12/2020, 22:28:27"}, "type": "Feature"}, {"geometry": {"coordinates": [8.53489895242559, 47.3734470960687], "type": "Point"}, "properties": {"charge": 19, "id": "bird_e17fbe4b-89d8-4063-8d47-e8c6b328e8af", "provider": "bird", "timeStamp": "03/12/2020, 22:28:27"}, "type": "Feature"},