{"features": [{"geometry": {"coordinates": [8.540062, 47.374392], "type": "Point"}, "properties": {"address": "Uraniastrasse 7", "electric": 3, "id": "pb_60", "manual": 4, "name": "Demo Station Werdm\u00fchleplatz", "provider": "publibike", "timeStamp": "02/04/2020, 15:28:14", "zip": 8001}, "type": "Feature"}, {"geometry": {"coordinates": [8.5452956, 47.4099615], "type": "Point"}, "properties": {"address": "Querstrasse 8", "electric": 1, "id": "pb_61", "manual": 4, "name": "Marktplatz", "provider": "publibike", "timeStamp": "02/04/2020, 15:28:14", "zip": 8050}, "type": "Feature"}, {"geometry": {"coordinates": [8.5156327, 47.3795837], "type": "Point"}, "properties": {"address": "Bullingerstrasse 5", "electric": 1, "id": "pb_80", "manual": 4, "name": "Bullingerplatz", "provider": "publibike", "timeStamp": "02/04/2020, 15:28:14", "zip": 8004}, "type": "Feature"}, {"geometry": {"coordinates": [8.5104051, 47.3899342], "type": "Point"}, "properties": {"address": "Pfingstweidstrasse 96e", "electric": 2, "id": "pb_81", "manual": 8, "name": "Herdern", "provider": "publibike", "timeStamp": "02/04/2020, 15:28:14", "zip": 8001}, "type": "Feature"}, {"geometry": {"coordinates": [8.535718, 47.359675], "type": "Point"}, "properties": {"address": "Mythenquai 50", "electric": 15, "id": "pb_82", "manual": 3, "name": "Hafen Enge", "provider": "publibike", "timeStamp": "02/04/2020, 15:28:14", "zip": 8002}, "type": "Feature"}, {"geometry": {"coordinates": [8.520370505, 47.358663827], "type": "Point"}, "properties": {"address": "Bubenbergstrasse 1", "electric": 5, "id": "pb_83", "manual": 7, "name": "Comerge", "provider": "publibike", "timeStamp": "02/04/2020, 15:28:14", "zip": 8045}, "type": "Feature"}, {"geometry": {"coordinates": [8.5412505, 47.3789825], "type": "Point"}, "properties": {"address": "Museumstrasse 2", "electric": 3, "id": "pb_84", "manual": 20, "name": "Landesmuseum", "provider": "publibike", "timeStamp": "02/04/2020, 15:28:14", "zip": 8001}, "type": "Feature"}, {"geometry": {"coordinates": [8.5235479, 47.3716661], "type": "Point"}, "properties": {"address": "Birmensdorferstrasse 80", "electric": 2, "id": "pb_85", "manual": 5, "name": "Bahnhof Wiedikon", "provider": "publibike", "timeStamp": "02/04/2020, 15:28:14", "zip": 8003}, "type": "Feature"}, {"geometry": {"coordinates": [8.506822854, 47.40781197], "type": "Point"}, "properties": {"address": "Stefano-Franscini-Platz 5", "electric": 8, "id": "pb_86", "manual": 1, "name": "ETH H\u00f6nggerberg", "provider": "publibike", "timeStamp": "02/04/2020, 15:28:14", "zip": 8093}, "type": "Feature"}, {"geometry": {"coordinates": [8.536101, 47.371083], "type": "Point"}, "properties": {"address": "Pelikanplatz 5", "electric": 4, "id": "pb_87", "manual": 7, "name": "Pelikanplatz", "provider": "publibike", "timeStamp": "02/04/2020, 15:28:14", "zip": 8001}, "type": "Feature"}, {"geometry": {"coordinates": [8.5257822, 47.3651936], "type": "Point"}, "properties": {"address": "H\u00fcrlimannplatz 90", "electric": 29, "id": "pb_88", "manual": 11, "name": "H\u00fcrlimannplatz", "provider": "publibike", "timeStamp": "02/04/2020, 15:28:14", "zip": 8002}, "type": "Feature"}, {"geometry": {"coordinates": [8.5313344, 47.3713591], "type": "Point"}, "properties": {"address": "Selnaustrasse 32", "electric": 0, "id": "pb_89", "manual": 8, "name": "Stauffacherbr\u00fccke", "provider": "publibike", "timeStamp": "02/04/2020, 15:28:14", "zip": 8001}, "type": "Feature"}, {"geometry": {"coordinates": [8.5056978, 47.3917964], "type": "Point"}, "properties": {"address": "Sportweg 25", "electric": 0, "id": "pb_90", "manual": 5, "name": "Sportweg", "provider": "publibike", "timeStamp": "02/04/2020, 15:28:14", "zip": 8005}, "type": "Feature"}, {"geometry": {"coordinates": [8.5181701, 47.3917837], "type": "Point"}, "properties": {"address": "Hardturmstrasse 11", "electric": 5, "id": "pb_91", "manual": 2, "name": "Puls 5", "provider": "publibike", "timeStamp": "02/04/2020, 15:28:14", "zip": 8005}, "type": "Feature"}, {"geometry": {"coordinates": [8.5286468, 47.3820827], "type": "Point"}, "properties": {"address": "R\u00f6ntgenstrasse 6", "electric": 2, "id": "pb_92", "manual": 10, "name": "R\u00f6ntgenstrasse", "provider": "publibike", "timeStamp": "02/04/2020, 15:28:14", "zip": 8005}, "type": "Feature"}, {"geometry": {"coordinates": [8.531935, 47.384918], "type": "Point"}, "properties": {"address": "Kornhausbr\u00fccke 1", "electric": 0, "id": "pb_93", "manual": 2, "name": "Limmatplatz", "provider": "publibike", "timeStamp": "02/04/2020, 15:28:14", "zip": 8005}, "type": "Feature"}, {"geometry": {"coordinates": [8.5354006, 47.3758639], "type": "Point"}, "properties": {"address": "Gessnerallee 15", "electric": 4, "id": "pb_94", "manual": 3, "name": "Gessnerallee", "provider": "publibike", "timeStamp": "02/04/2020, 15:28:14", "zip": 8001}, "type": "Feature"}, {"geometry": {"coordinates": [8.523818, 47.377148], "type": "Point"}, "properties": {"address": "Stauffacherstrasse 127", "electric": 4, "id": "pb_95", "manual": 1, "name": "B\u00e4ckeranlage", "provider": "publibike", "timeStamp": "02/04/2020, 15:28:14", "zip": 8004}, "type": "Feature"}, {"geometry": {"coordinates": [8.531836, 47.378548], "type": "Point"}, "properties": {"address": "Lagerstrasse 44", "electric": 7, "id": "pb_96", "manual": 4, "name": "Gustav-Gull-Platz", "provider": "publibike", "timeStamp": "02/04/2020, 15:28:14", "zip": 8004}, "type": "Feature"}, {"geometry": {"coordinates": [8.5104883, 47.3771535], "type": "Point"}, "properties": {"address": "Zurlindenstrasse 291", "electric": 1, "id": "pb_97", "manual": 4, "name": "Zurlindenstrasse", "provider": "publibike", "timeStamp": "02/04/2020, 15:28:14", "zip": 8003}, "type": "Feature"}, {"geometry": {"coordinates": [8.5333139, 47.3731102], "type": "Point"}, "properties": {"address": "Sihlstrasse 81", "electric": 4, "id": "pb_98", "manual": 4, "name": "Sihlstrasse", "provider": "publibike", "timeStamp": "02/04/2020, 15:28:14", "zip": 8001}, "type": "Feature"}, {"geometry": {"coordinates": [8.520532, 47.374951], "type": "Point"}, "properties": {"address": "Feldstrasse 24", "electric": 2, "id": "pb_99", "manual": 4, "name": "Kalkbreite", "provider": "publibike", "timeStamp": "02/04/2020, 15:28:14", "zip": 8004}, "type": "Feature"}, {"geometry": {"coordinates": [8.539046, 47.368064], "type": "Point"}, "properties": {"address": "Talstrasse 12", "electric": 5, "id": "pb_100", "manual": 8, "name": "Z\u00fcrcher Kantonalbank", "provider": "publibike", "timeStamp": "02/04/2020, 15:28:14", "zip": 8001}, "type": "Feature"}, {"geometry": {"coordinates": [8.5348427, 47.3625938], "type": "Point"}, "properties": {"address": "Breitingerstrasse 5", "electric": 1, "id": "pb_101", "manual": 5, "name": "Rentenanstalt", "provider": "publibike", "timeStamp": "02/04/2020, 15:28:14", "zip": 8002}, "type": "Feature"}, {"geometry": {"coordinates": [8.5166922, 47.3897772], "type": "Point"}, "properties": {"address": "Technoparkstrasse 4", "electric": 3, "id": "pb_102", "manual": 1, "name": "Turbinenplatz", "provider": "publibike", "timeStamp": "02/04/2020, 15:28:14", "zip": 8005}, "type": "Feature"}, {"geometry": {"coordinates": [8.539312, 47.3739964], "type": "Point"}, "properties": {"address": "Oetenbachgasse 14", "electric": 0, "id": "pb_104", "manual": 7, "name": "Rennweg", "provider": "publibike", "timeStamp": "02/04/2020, 15:28:14", "zip": 8001}, "type": "Feature"}, {"geometry": {"coordinates": [8.5360685, 47.3775022], "type": "Point"}, "properties": {"address": "Kasernenstrasse 101", "electric": 4, "id": "pb_105", "manual": 11, "name": "Sihlpost", "provider": "publibike", "timeStamp": "02/04/2020, 15:28:14", "zip": 8004}, "type": "Feature"}, {"geometry": {"coordinates": [8.53545, 47.382798], "type": "Point"}, "properties": {"address": "Ausstellungsstrasse 44", "electric": 9, "id": "pb_106", "manual": 2, "name": "Museum f\u00fcr Gestaltung", "provider": "publibike", "timeStamp": "02/04/2020, 15:28:14", "zip": 8005}, "type": "Feature"}, {"geometry": {"coordinates": [8.5306155, 47.3647902], "type": "Point"}, "properties": {"address": "Gutenbergstrasse 1", "electric": 2, "id": "pb_107", "manual": 1, "name": "Bederbr\u00fccke", "provider": "publibike", "timeStamp": "02/04/2020, 15:28:14", "zip": 8002}, "type": "Feature"}, {"geometry": {"coordinates": [8.518982, 47.386741], "type": "Point"}, "properties": {"address": "Geroldstrasse 4", "electric": 4, "id": "pb_108", "manual": 8, "name": "Bahnhof Hardbr\u00fccke", "provider": "publibike", "timeStamp": "02/04/2020, 15:28:14", "zip": 8005}, "type": "Feature"}, {"geometry": {"coordinates": [8.53001018, 47.37247535], "type": "Point"}, "properties": {"address": "Werdstrasse 21", "electric": 5, "id": "pb_109", "manual": 5, "name": "Tamedia", "provider": "publibike", "timeStamp": "02/04/2020, 15:28:14", "zip": 8004}, "type": "Feature"}, {"geometry": {"coordinates": [8.4860017, 47.396401], "type": "Point"}, "properties": {"address": "Gr\u00fcnauring 37", "electric": 3, "id": "pb_110", "manual": 4, "name": "Gr\u00fcnau", "provider": "publibike", "timeStamp": "02/04/2020, 15:28:14", "zip": 8064}, "type": "Feature"}, {"geometry": {"coordinates": [8.548519, 47.376756], "type": "Point"}, "properties": {"address": "R\u00e4mistrasse 101", "electric": 31, "id": "pb_111", "manual": 4, "name": "ETH Zentrum", "provider": "publibike", "timeStamp": "02/04/2020, 15:28:14", "zip": 8006}, "type": "Feature"}, {"geometry": {"coordinates": [8.520449, 47.388151], "type": "Point"}, "properties": {"address": "Josefstrasse 224", "electric": 5, "id": "pb_112", "manual": 0, "name": "Steinfelsareal", "provider": "publibike", "timeStamp": "02/04/2020, 15:28:14", "zip": 8005}, "type": "Feature"}, {"geometry": {"coordinates": [8.520482, 47.37209], "type": "Point"}, "properties": {"address": "Weststrasse 115", "electric": 4, "id": "pb_124", "manual": 1, "name": "Weststrasse", "provider": "publibike", "timeStamp": "02/04/2020, 15:28:14", "zip": 8003}, "type": "Feature"}, {"geometry": {"coordinates": [8.496727, 47.378521], "type": "Point"}, "properties": {"address": "Albisriederstrasse 200", "electric": 2, "id": "pb_125", "manual": 2, "name": "Utogrund", "provider": "publibike", "timeStamp": "02/04/2020, 15:28:14", "zip": 8047}, "type": "Feature"}, {"geometry": {"coordinates": [8.510418, 47.381356], "type": "Point"}, "properties": {"address": "Bullingerstrasse 73", "electric": 2, "id": "pb_126", "manual": 10, "name": "Hardau", "provider": "publibike", "timeStamp": "02/04/2020, 15:28:14", "zip": 8004}, "type": "Feature"}, {"geometry": {"coordinates": [8.525525, 47.361567], "type": "Point"}, "properties": {"address": "Klopstockstrasse 23", "electric": 3, "id": "pb_127", "manual": 0, "name": "Klopstockwiese", "provider": "publibike", "timeStamp": "02/04/2020, 15:28:14", "zip": 8002}, "type": "Feature"}, {"geometry": {"coordinates": [8.518143, 47.363148], "type": "Point"}, "properties": {"address": "Haldenstrasse 8", "electric": 1, "id": "pb_128", "manual": 2, "name": "Binz", "provider": "publibike", "timeStamp": "02/04/2020, 15:28:14", "zip": 8045}, "type": "Feature"}, {"geometry": {"coordinates": [8.542726, 47.379952], "type": "Point"}, "properties": {"address": "Walchestrasse 11", "electric": 2, "id": "pb_129", "manual": 4, "name": "Stampfenbachplatz", "provider": "publibike", "timeStamp": "02/04/2020, 15:28:14", "zip": 8006}, "type": "Feature"}, {"geometry": {"coordinates": [8.488108, 47.391366], "type": "Point"}, "properties": {"address": "Altstetterplatz 1", "electric": 6, "id": "pb_130", "manual": 3, "name": "Bahnhof Altstetten", "provider": "publibike", "timeStamp": "02/04/2020, 15:28:14", "zip": 8048}, "type": "Feature"}, {"geometry": {"coordinates": [8.554114, 47.365119], "type": "Point"}, "properties": {"address": "Kreuzplatz 2", "electric": 1, "id": "pb_131", "manual": 0, "name": "Kreuzplatz", "provider": "publibike", "timeStamp": "02/04/2020, 15:28:14", "zip": 8032}, "type": "Feature"}, {"geometry": {"coordinates": [8.549852, 47.35594], "type": "Point"}, "properties": {"address": "H\u00f6schgasse 3", "electric": 3, "id": "pb_132", "manual": 9, "name": "Blatterwiese", "provider": "publibike", "timeStamp": "02/04/2020, 15:28:14", "zip": 8008}, "type": "Feature"}, {"geometry": {"coordinates": [8.554501, 47.36162], "type": "Point"}, "properties": {"address": "Feldeggstrasse 80", "electric": 3, "id": "pb_133", "manual": 4, "name": "Villa Bleuler", "provider": "publibike", "timeStamp": "02/04/2020, 15:28:14", "zip": 8008}, "type": "Feature"}, {"geometry": {"coordinates": [8.557088, 47.358557], "type": "Point"}, "properties": {"address": "M\u00fchlebachstrasse 131", "electric": 8, "id": "pb_134", "manual": 2, "name": "M\u00fchlebachstrasse", "provider": "publibike", "timeStamp": "02/04/2020, 15:28:14", "zip": 8008}, "type": "Feature"}, {"geometry": {"coordinates": [8.547639, 47.361266], "type": "Point"}, "properties": {"address": "Utoquai 50", "electric": 4, "id": "pb_135", "manual": 7, "name": "Seebad Utoquai", "provider": "publibike", "timeStamp": "02/04/2020, 15:28:14", "zip": 8008}, "type": "Feature"}, {"geometry": {"coordinates": [8.548045, 47.370869], "type": "Point"}, "properties": {"address": "Heimplatz 1", "electric": 1, "id": "pb_137", "manual": 2, "name": "Kunsthaus", "provider": "publibike", "timeStamp": "02/04/2020, 15:28:14", "zip": 8001}, "type": "Feature"}, {"geometry": {"coordinates": [8.543447, 47.375933], "type": "Point"}, "properties": {"address": "Limmatquai 138", "electric": 1, "id": "pb_138", "manual": 3, "name": "Central", "provider": "publibike", "timeStamp": "02/04/2020, 15:28:14", "zip": 8001}, "type": "Feature"}, {"geometry": {"coordinates": [8.549356, 47.408827], "type": "Point"}, "properties": {"address": "Tramstrasse 35", "electric": 0, "id": "pb_139", "manual": 4, "name": "ewz Tramstrasse", "provider": "publibike", "timeStamp": "02/04/2020, 15:28:14", "zip": 8050}, "type": "Feature"}, {"geometry": {"coordinates": [8.533736, 47.366904], "type": "Point"}, "properties": {"address": "Bleicherweg 33", "electric": 0, "id": "pb_140", "manual": 17, "name": "Bleicherweg", "provider": "publibike", "timeStamp": "02/04/2020, 15:28:14", "zip": 8002}, "type": "Feature"}, {"geometry": {"coordinates": [8.544935, 47.366752], "type": "Point"}, "properties": {"address": "Bellevueplatz 2", "electric": 9, "id": "pb_141", "manual": 25, "name": "Bellevue", "provider": "publibike", "timeStamp": "02/04/2020, 15:28:14", "zip": 8001}, "type": "Feature"}, {"geometry": {"coordinates": [8.5285533, 47.3742296], "type": "Point"}, "properties": {"address": "Stauffacherstrasse 41", "electric": 3, "id": "pb_142", "manual": 3, "name": "Stauffacher", "provider": "publibike", "timeStamp": "02/04/2020, 15:28:14", "zip": 8004}, "type": "Feature"}, {"geometry": {"coordinates": [8.523722, 47.3899], "type": "Point"}, "properties": {"address": "Limmatstrasse 310", "electric": 3, "id": "pb_143", "manual": 4, "name": "Escher-Wyss-Platz", "provider": "publibike", "timeStamp": "02/04/2020, 15:28:14", "zip": 8005}, "type": "Feature"}, {"geometry": {"coordinates": [8.491061, 47.392336], "type": "Point"}, "properties": {"address": "Vulkanplatz 1", "electric": 2, "id": "pb_149", "manual": 7, "name": "Vulkanplatz", "provider": "publibike", "timeStamp": "02/04/2020, 15:28:14", "zip": 8048}, "type": "Feature"}, {"geometry": {"coordinates": [8.52306, 47.359872], "type": "Point"}, "properties": {"address": "Giessh\u00fcbelstrasse 15", "electric": 3, "id": "pb_150", "manual": 10, "name": "Utoplatz", "provider": "publibike", "timeStamp": "02/04/2020, 15:28:14", "zip": 8045}, "type": "Feature"}, {"geometry": {"coordinates": [8.486284, 47.387685], "type": "Point"}, "properties": {"address": "Lindenplatz 1", "electric": 4, "id": "pb_151", "manual": 8, "name": "Lindenplatz", "provider": "publibike", "timeStamp": "02/04/2020, 15:28:14", "zip": 8048}, "type": "Feature"}, {"geometry": {"coordinates": [8.49163, 47.389823], "type": "Point"}, "properties": {"address": "Hohlstrasse 563", "electric": 0, "id": "pb_152", "manual": 4, "name": "Luggweg", "provider": "publibike", "timeStamp": "02/04/2020, 15:28:14", "zip": 8048}, "type": "Feature"}, {"geometry": {"coordinates": [8.52174, 47.365272], "type": "Point"}, "properties": {"address": "Manessestrasse 87", "electric": 4, "id": "pb_153", "manual": 5, "name": "Manesseplatz", "provider": "publibike", "timeStamp": "02/04/2020, 15:28:14", "zip": 8045}, "type": "Feature"}, {"geometry": {"coordinates": [8.52714, 47.372329], "type": "Point"}, "properties": {"address": "Werdstrasse 75", "electric": 0, "id": "pb_154", "manual": 4, "name": "Werd", "provider": "publibike", "timeStamp": "02/04/2020, 15:28:14", "zip": 8004}, "type": "Feature"}, {"geometry": {"coordinates": [8.543042, 47.374711], "type": "Point"}, "properties": {"address": "Limmatquai 100", "electric": 0, "id": "pb_155", "manual": 0, "name": "Rudolf-Brun-Br\u00fccke", "provider": "publibike", "timeStamp": "02/04/2020, 15:28:14", "zip": 8001}, "type": "Feature"}, {"geometry": {"coordinates": [8.490837, 47.386596], "type": "Point"}, "properties": {"address": "Badenerstrasse 627", "electric": 2, "id": "pb_156", "manual": 9, "name": "Luggwegstrasse VBZ", "provider": "publibike", "timeStamp": "02/04/2020, 15:28:14", "zip": 8048}, "type": "Feature"}, {"geometry": {"coordinates": [8.535119, 47.355189], "type": "Point"}, "properties": {"address": "Mythenquai 95", "electric": 1, "id": "pb_157", "manual": 4, "name": "Strandbad Mythenquai", "provider": "publibike", "timeStamp": "02/04/2020, 15:28:14", "zip": 8002}, "type": "Feature"}, {"geometry": {"coordinates": [8.545505, 47.373675], "type": "Point"}, "properties": {"address": "Predigerpatz 21", "electric": 6, "id": "pb_158", "manual": 5, "name": "Predigerplatz", "provider": "publibike", "timeStamp": "02/04/2020, 15:28:14", "zip": 8001}, "type": "Feature"}, {"geometry": {"coordinates": [8.515558, 47.371868], "type": "Point"}, "properties": {"address": "Aemtlerstrasse 23", "electric": 8, "id": "pb_159", "manual": 3, "name": "Zwinglihaus", "provider": "publibike", "timeStamp": "02/04/2020, 15:28:14", "zip": 8003}, "type": "Feature"}, {"geometry": {"coordinates": [8.524629, 47.386072], "type": "Point"}, "properties": {"address": "Josefstrasse 188", "electric": 1, "id": "pb_160", "manual": 2, "name": "Josefwiese", "provider": "publibike", "timeStamp": "02/04/2020, 15:28:14", "zip": 8005}, "type": "Feature"}, {"geometry": {"coordinates": [8.527138, 47.387531], "type": "Point"}, "properties": {"address": "R\u00f6ntgenstrasse 87", "electric": 2, "id": "pb_164", "manual": 5, "name": "Markthalle", "provider": "publibike", "timeStamp": "02/04/2020, 15:28:14", "zip": 8005}, "type": "Feature"}, {"geometry": {"coordinates": [8.552717, 47.359978], "type": "Point"}, "properties": {"address": "Seefeldstrasse 96", "electric": 1, "id": "pb_263", "manual": 17, "name": "Feldeggstrasse", "provider": "publibike", "timeStamp": "02/04/2020, 15:28:14", "zip": 8008}, "type": "Feature"}, {"geometry": {"coordinates": [8.553189, 47.353198], "type": "Point"}, "properties": {"address": "Bellerivestrasse 170", "electric": 5, "id": "pb_264", "manual": 0, "name": "Lake Side", "provider": "publibike", "timeStamp": "02/04/2020, 15:28:14", "zip": 8008}, "type": "Feature"}, {"geometry": {"coordinates": [8.543437, 47.369256], "type": "Point"}, "properties": {"address": "Limmatquai 18", "electric": 0, "id": "pb_265", "manual": 0, "name": "Helmhaus", "provider": "publibike", "timeStamp": "02/04/2020, 15:28:14", "zip": 8032}, "type": "Feature"}, {"geometry": {"coordinates": [8.516676, 47.375819], "type": "Point"}, "properties": {"address": "Badenerstrasse 246", "electric": 0, "id": "pb_266", "manual": 5, "name": "Lochergut", "provider": "publibike", "timeStamp": "02/04/2020, 15:28:14", "zip": 8004}, "type": "Feature"}, {"geometry": {"coordinates": [8.514605, 47.389862], "type": "Point"}, "properties": {"address": "Pfingstweidstrasse 60", "electric": 5, "id": "pb_273", "manual": 9, "name": "Westpark", "provider": "publibike", "timeStamp": "02/04/2020, 15:28:14", "zip": 8005}, "type": "Feature"}, {"geometry": {"coordinates": [8.541239126, 47.375991201], "type": "Point"}, "properties": {"address": "Beatenplatz 1", "electric": 1, "id": "pb_274", "manual": 5, "name": "Beatenplatz", "provider": "publibike", "timeStamp": "02/04/2020, 15:28:14", "zip": 8001}, "type": "Feature"}, {"geometry": {"coordinates": [8.5417135, 47.3942197], "type": "Point"}, "properties": {"address": "Scheuchzerstrasse 181", "electric": 1, "id": "pb_275", "manual": 1, "name": "Pauluskirche", "provider": "publibike", "timeStamp": "02/04/2020, 15:28:14", "zip": 8057}, "type": "Feature"}, {"geometry": {"coordinates": [8.5528182, 47.414558], "type": "Point"}, "properties": {"address": "Hagenholzstrasse 51", "electric": 4, "id": "pb_276", "manual": 7, "name": "Airgate", "provider": "publibike", "timeStamp": "02/04/2020, 15:28:14", "zip": 8050}, "type": "Feature"}, {"geometry": {"coordinates": [8.537816, 47.413514], "type": "Point"}, "properties": {"address": "Birchstrasse 183", "electric": 4, "id": "pb_277", "manual": 3, "name": "Lamprechtweg", "provider": "publibike", "timeStamp": "02/04/2020, 15:28:14", "zip": 8050}, "type": "Feature"}, {"geometry": {"coordinates": [8.545602, 47.417701], "type": "Point"}, "properties": {"address": "Felsenrainstrasse 2", "electric": 4, "id": "pb_278", "manual": 4, "name": "Emil-Oberh\u00e4nsli", "provider": "publibike", "timeStamp": "02/04/2020, 15:28:14", "zip": 8050}, "type": "Feature"}, {"geometry": {"coordinates": [8.533647, 47.39808], "type": "Point"}, "properties": {"address": "Bucheggplatz 2", "electric": 9, "id": "pb_279", "manual": 0, "name": "Bucheggplatz", "provider": "publibike", "timeStamp": "02/04/2020, 15:28:14", "zip": 8057}, "type": "Feature"}, {"geometry": {"coordinates": [8.523549, 47.392347], "type": "Point"}, "properties": {"address": "Wipkingerplatz 4", "electric": 4, "id": "pb_280", "manual": 5, "name": "Wipkingerplatz", "provider": "publibike", "timeStamp": "02/04/2020, 15:28:14", "zip": 8037}, "type": "Feature"}, {"geometry": {"coordinates": [8.548562, 47.36691], "type": "Point"}, "properties": {"address": "Galerie \u00fcber Gleis 2/3", "electric": 22, "id": "pb_285", "manual": 2, "name": "Bahnhof Stadelhofen", "provider": "publibike", "timeStamp": "02/04/2020, 15:28:14", "zip": 8001}, "type": "Feature"}, {"geometry": {"coordinates": [8.493822, 47.3985553], "type": "Point"}, "properties": {"address": "Meierwiesenstrasse 12-4", "electric": 4, "id": "pb_286", "manual": 1, "name": "T\u00fcffenwies", "provider": "publibike", "timeStamp": "02/04/2020, 15:28:14", "zip": 8064}, "type": "Feature"}, {"geometry": {"coordinates": [8.552432, 47.3801757], "type": "Point"}, "properties": {"address": "Hochstrasse 34", "electric": 8, "id": "pb_356", "manual": 0, "name": "Siriuswiese", "provider": "publibike", "timeStamp": "02/04/2020, 15:28:14", "zip": 8044}, "type": "Feature"}, {"geometry": {"coordinates": [8.527298, 47.370141], "type": "Point"}, "properties": {"address": "Hallwylstrasse 71", "electric": 1, "id": "pb_357", "manual": 2, "name": "Hallwylstrasse", "provider": "publibike", "timeStamp": "02/04/2020, 15:28:14", "zip": 8004}, "type": "Feature"}, {"geometry": {"coordinates": [8.5414185, 47.3972455], "type": "Point"}, "properties": {"address": "Schaffhauserstrasse 137", "electric": 8, "id": "pb_358", "manual": 0, "name": "Milchbuck", "provider": "publibike", "timeStamp": "02/04/2020, 15:28:14", "zip": 8057}, "type": "Feature"}, {"geometry": {"coordinates": [8.512381, 47.393409], "type": "Point"}, "properties": {"address": "Hardturmstrasse 161", "electric": 1, "id": "pb_359", "manual": 4, "name": "Fischerweg", "provider": "publibike", "timeStamp": "02/04/2020, 15:28:14", "zip": 8005}, "type": "Feature"}, {"geometry": {"coordinates": [8.5421457, 47.3876979], "type": "Point"}, "properties": {"address": "Turnerstrasse 47", "electric": 5, "id": "pb_360", "manual": 3, "name": "Kirche Unterstrass", "provider": "publibike", "timeStamp": "02/04/2020, 15:28:14", "zip": 8006}, "type": "Feature"}, {"geometry": {"coordinates": [8.522117, 47.394554], "type": "Point"}, "properties": {"address": "Dorfstrasse 40", "electric": 7, "id": "pb_361", "manual": 3, "name": "Dorfstrasse", "provider": "publibike", "timeStamp": "02/04/2020, 15:28:14", "zip": 8037}, "type": "Feature"}, {"geometry": {"coordinates": [8.530437, 47.37271], "type": "Point"}, "properties": {"address": "Werdstrasse 25", "electric": 4, "id": "pb_362", "manual": 3, "name": "Stauffachertor", "provider": "publibike", "timeStamp": "02/04/2020, 15:28:14", "zip": 8004}, "type": "Feature"}, {"geometry": {"coordinates": [8.541712, 47.416155], "type": "Point"}, "properties": {"address": "Eggb\u00fchlstrasse 21", "electric": 5, "id": "pb_363", "manual": 2, "name": "Wahlenpark", "provider": "publibike", "timeStamp": "02/04/2020, 15:28:14", "zip": 8050}, "type": "Feature"}, {"geometry": {"coordinates": [8.5595335, 47.3708387], "type": "Point"}, "properties": {"address": "Dolderstrasse 32", "electric": 3, "id": "pb_364", "manual": 1, "name": "Kinderspital", "provider": "publibike", "timeStamp": "02/04/2020, 15:28:14", "zip": 8032}, "type": "Feature"}, {"geometry": {"coordinates": [8.536433, 47.388689], "type": "Point"}, "properties": {"address": "Kornhausstrasse 30", "electric": 0, "id": "pb_365", "manual": 0, "name": "Kornhausstrasse", "provider": "publibike", "timeStamp": "02/04/2020, 15:28:14", "zip": 8006}, "type": "Feature"}, {"geometry": {"coordinates": [8.55033, 47.407098], "type": "Point"}, "properties": {"address": "Schwamendingenstrasse 41", "electric": 2, "id": "pb_366", "manual": 8, "name": "Dorflinde", "provider": "publibike", "timeStamp": "02/04/2020, 15:28:14", "zip": 8050}, "type": "Feature"}, {"geometry": {"coordinates": [8.560476, 47.368199], "type": "Point"}, "properties": {"address": "R\u00f6merhofplatz 5", "electric": 3, "id": "pb_367", "manual": 2, "name": "R\u00f6merhof", "provider": "publibike", "timeStamp": "02/04/2020, 15:28:14", "zip": 8032}, "type": "Feature"}, {"geometry": {"coordinates": [8.5609218, 47.3619068], "type": "Point"}, "properties": {"address": "Forchstrasse 99", "electric": 11, "id": "pb_368", "manual": 1, "name": "Hegibachplatz", "provider": "publibike", "timeStamp": "02/04/2020, 15:28:14", "zip": 8032}, "type": "Feature"}, {"geometry": {"coordinates": [8.5721264, 47.4039985], "type": "Point"}, "properties": {"address": "Winterthurerstrasse 519", "electric": 7, "id": "pb_370", "manual": 4, "name": "Schwamendingerplatz", "provider": "publibike", "timeStamp": "02/04/2020, 15:28:14", "zip": 8051}, "type": "Feature"}, {"geometry": {"coordinates": [8.520168, 47.378556], "type": "Point"}, "properties": {"address": "Herman-Greulich-Strasse 56", "electric": 3, "id": "pb_384", "manual": 6, "name": "Hermann-Greulich-Weg", "provider": "publibike", "timeStamp": "02/04/2020, 15:28:14", "zip": 8004}, "type": "Feature"}, {"geometry": {"coordinates": [8.547912, 47.384923], "type": "Point"}, "properties": {"address": "Culmannstrasse", "electric": 1, "id": "pb_386", "manual": 1, "name": "Rigiplatz", "provider": "publibike", "timeStamp": "02/04/2020, 15:28:14", "zip": 8006}, "type": "Feature"}, {"geometry": {"coordinates": [8.543768, 47.411057], "type": "Point"}, "properties": {"address": "Hofwiesenstrasse 369", "electric": 3, "id": "pb_387", "manual": 1, "name": "Bahnhof Oerlikon S\u00fcd", "provider": "publibike", "timeStamp": "02/04/2020, 15:28:14", "zip": 8050}, "type": "Feature"}, {"geometry": {"coordinates": [8.544185, 47.412732], "type": "Point"}, "properties": {"address": "Jungholzstrasse 6", "electric": 2, "id": "pb_388", "manual": 3, "name": "Max-Frisch-Platz", "provider": "publibike", "timeStamp": "02/04/2020, 15:28:14", "zip": 8050}, "type": "Feature"}, {"geometry": {"coordinates": [8.558096, 47.413032], "type": "Point"}, "properties": {"address": "Andreasstrasse", "electric": 0, "id": "pb_389", "manual": 7, "name": "Hunziker-Areal", "provider": "publibike", "timeStamp": "02/04/2020, 15:28:14", "zip": 8050}, "type": "Feature"}, {"geometry": {"coordinates": [8.533265, 47.412873], "type": "Point"}, "properties": {"address": "Regina-K\u00e4gi-Strasse 1", "electric": 6, "id": "pb_390", "manual": 5, "name": "Luis-H\u00e4fliger-Park", "provider": "publibike", "timeStamp": "02/04/2020, 15:28:14", "zip": 8050}, "type": "Feature"}, {"geometry": {"coordinates": [8.499265, 47.401852], "type": "Point"}, "properties": {"address": "Limmattalstrasse 177", "electric": 5, "id": "pb_391", "manual": 2, "name": "Meierhofplatz", "provider": "publibike", "timeStamp": "02/04/2020, 15:28:14", "zip": 8049}, "type": "Feature"}, {"geometry": {"coordinates": [8.528356, 47.393255], "type": "Point"}, "properties": {"address": "R\u00f6schibachstrasse 73", "electric": 4, "id": "pb_392", "manual": 11, "name": "R\u00f6schibachplatz", "provider": "publibike", "timeStamp": "02/04/2020, 15:28:14", "zip": 8037}, "type": "Feature"}, {"geometry": {"coordinates": [8.538067, 47.415721], "type": "Point"}, "properties": {"address": "Birchstrasse 191", "electric": 9, "id": "pb_393", "manual": 0, "name": "Oerliker Park", "provider": "publibike", "timeStamp": "02/04/2020, 15:28:14", "zip": 8050}, "type": "Feature"}, {"geometry": {"coordinates": [8.5420304, 47.3669233], "type": "Point"}, "properties": {"address": "Stadthausquai 1", "electric": 1, "id": "pb_395", "manual": 2, "name": "B\u00fcrkliplatz", "provider": "publibike", "timeStamp": "02/04/2020, 15:28:14", "zip": 8001}, "type": "Feature"}, {"geometry": {"coordinates": [8.535767, 47.409881], "type": "Point"}, "properties": {"address": "Regensbergstrasse 195", "electric": 4, "id": "pb_396", "manual": 1, "name": "Holunderhof", "provider": "publibike", "timeStamp": "02/04/2020, 15:28:14", "zip": 8050}, "type": "Feature"}, {"geometry": {"coordinates": [8.5116245, 47.3616199], "type": "Point"}, "properties": {"address": "Grubenstrasse 42", "electric": 4, "id": "pb_431", "manual": 1, "name": "Binz Center", "provider": "publibike", "timeStamp": "02/04/2020, 15:28:14", "zip": 8045}, "type": "Feature"}, {"geometry": {"coordinates": [8.547195, 47.382089], "type": "Point"}, "properties": {"address": "Nelkenstrasse 24", "electric": 2, "id": "pb_430", "manual": 0, "name": "Stapferstube", "provider": "publibike", "timeStamp": "02/04/2020, 15:28:14", "zip": 8006}, "type": "Feature"}, {"geometry": {"coordinates": [8.5787183, 47.4039845], "type": "Point"}, "properties": {"address": "Kronwiesenstrasse 35", "electric": 2, "id": "pb_426", "manual": 3, "name": "Kronwiesen", "provider": "publibike", "timeStamp": "02/04/2020, 15:28:14", "zip": 8051}, "type": "Feature"}, {"geometry": {"coordinates": [8.508131, 47.420757], "type": "Point"}, "properties": {"address": "Riedenhaldenstrasse 20-18", "electric": 12, "id": "pb_425", "manual": 0, "name": "Bahnhof Affoltern", "provider": "publibike", "timeStamp": "02/04/2020, 15:28:14", "zip": 8046}, "type": "Feature"}, {"geometry": {"coordinates": [8.532464, 47.406988], "type": "Point"}, "properties": {"address": "K\u00fcnzlistrasse 41", "electric": 3, "id": "pb_424", "manual": 1, "name": "Birchd\u00f6rfli", "provider": "publibike", "timeStamp": "02/04/2020, 15:28:14", "zip": 8057}, "type": "Feature"}, {"geometry": {"coordinates": [8.5777038, 47.4080095], "type": "Point"}, "properties": {"address": "Luegislandstrasse 412", "electric": 7, "id": "pb_429", "manual": 3, "name": "Luegisland", "provider": "publibike", "timeStamp": "02/04/2020, 15:28:14", "zip": 8051}, "type": "Feature"}, {"geometry": {"coordinates": [8.58841, 47.40158], "type": "Point"}, "properties": {"address": "Hirzenbachstrasse 2-4", "electric": 2, "id": "pb_428", "manual": 2, "name": "Hirzenbachstrasse", "provider": "publibike", "timeStamp": "02/04/2020, 15:28:14", "zip": 8051}, "type": "Feature"}, {"geometry": {"coordinates": [8.5563463, 47.4095467], "type": "Point"}, "properties": {"address": "K\u00fchriedweg", "electric": 3, "id": "pb_445", "manual": 6, "name": "Hallenbad Oerlikon", "provider": "publibike", "timeStamp": "02/04/2020, 15:28:14", "zip": 8050}, "type": "Feature"}, {"geometry": {"coordinates": [8.537971, 47.364871], "type": "Point"}, "properties": {"address": "General-Guisan-Quai 17", "electric": 0, "id": "pb_454", "manual": 5, "name": "General-Guisan-Quai", "provider": "publibike", "timeStamp": "02/04/2020, 15:28:14", "zip": 8002}, "type": "Feature"}, {"geometry": {"coordinates": [8.560587, 47.350578], "type": "Point"}, "properties": {"address": "Bellerivestrasse 245", "electric": 8, "id": "pb_450", "manual": 5, "name": "Bahnhof Tiefenbrunnen", "provider": "publibike", "timeStamp": "02/04/2020, 15:28:14", "zip": 8008}, "type": "Feature"}, {"geometry": {"coordinates": [8.5269416, 47.3563719], "type": "Point"}, "properties": {"address": "Waffenplatzstrasse 89", "electric": 2, "id": "pb_452", "manual": 6, "name": "Rieterplatz", "provider": "publibike", "timeStamp": "02/04/2020, 15:28:14", "zip": 8002}, "type": "Feature"}, {"geometry": {"coordinates": [8.514176, 47.3663708], "type": "Point"}, "properties": {"address": "Talwiesenstrasse 92", "electric": 3, "id": "pb_446", "manual": 3, "name": "Binzallee", "provider": "publibike", "timeStamp": "02/04/2020, 15:28:14", "zip": 8055}, "type": "Feature"}, {"geometry": {"coordinates": [8.5070564, 47.371455], "type": "Point"}, "properties": {"address": "Gutstrasse 87", "electric": 3, "id": "pb_447", "manual": 0, "name": "Gutstrasse", "provider": "publibike", "timeStamp": "02/04/2020, 15:28:14", "zip": 8055}, "type": "Feature"}, {"geometry": {"coordinates": [8.4941268, 47.3836391], "type": "Point"}, "properties": {"address": "Flurstrasse 62", "electric": 4, "id": "pb_453", "manual": 4, "name": "Flurpark", "provider": "publibike", "timeStamp": "02/04/2020, 15:28:14", "zip": 8048}, "type": "Feature"}, {"geometry": {"coordinates": [8.500343, 47.380778], "type": "Point"}, "properties": {"address": "Edelweissstrasse 32", "electric": 10, "id": "pb_448", "manual": 2, "name": "Bl\u00fcemliquartier", "provider": "publibike", "timeStamp": "02/04/2020, 15:28:14", "zip": 8048}, "type": "Feature"}, {"geometry": {"coordinates": [8.528796, 47.383858], "type": "Point"}, "properties": {"address": "Gasometerstrasse 24", "electric": 0, "id": "pb_449", "manual": 2, "name": "Gasometerstrasse", "provider": "publibike", "timeStamp": "02/04/2020, 15:28:14", "zip": 8005}, "type": "Feature"}, {"geometry": {"coordinates": [8.4981964, 47.3859194], "type": "Point"}, "properties": {"address": "Baslerstrasse 57", "electric": 11, "id": "pb_455", "manual": 4, "name": "Letzipark", "provider": "publibike", "timeStamp": "02/04/2020, 15:28:14", "zip": 8048}, "type": "Feature"}, {"geometry": {"coordinates": [8.515252, 47.381915], "type": "Point"}, "properties": {"address": "Sihlfeldstrasse 175", "electric": 0, "id": "pb_451", "manual": 4, "name": "Hardplatz", "provider": "publibike", "timeStamp": "02/04/2020, 15:28:14", "zip": 8004}, "type": "Feature"}, {"geometry": {"coordinates": [8.5064743, 47.4188324], "type": "Point"}, "properties": {"address": "Wehntalerstrasse 541", "electric": 4, "id": "pb_427", "manual": 5, "name": "Zehntenhausplatz", "provider": "publibike", "timeStamp": "02/04/2020, 15:28:14", "zip": 8046}, "type": "Feature"}, {"geometry": {"coordinates": [8.537729, 47.379719], "type": "Point"}, "properties": {"address": "Sihlquai/HB", "electric": 4, "id": "pb_513", "manual": 14, "name": "Sihlquai", "provider": "publibike", "timeStamp": "02/04/2020, 15:28:14", "zip": 8005}, "type": "Feature"}, {"geometry": {"coordinates": [8.596202, 47.397885], "type": "Point"}, "properties": {"address": "Bahnhof Stettbach", "electric": 5, "id": "pb_514", "manual": 2, "name": "Bahnhof Stettbach", "provider": "publibike", "timeStamp": "02/04/2020, 15:28:14", "zip": 8051}, "type": "Feature"}, {"geometry": {"coordinates": [8.5543974, 47.3690153], "type": "Point"}, "properties": {"address": "Kasinostrasse 10", "electric": 9, "id": "pb_515", "manual": 0, "name": "Hottingerplatz", "provider": "publibike", "timeStamp": "02/04/2020, 15:28:14", "zip": 8032}, "type": "Feature"}, {"geometry": {"coordinates": [8.534444, 47.351525], "type": "Point"}, "properties": {"address": "Mobile Station Z\u00fcrich 1", "electric": 0, "id": "pb_282", "manual": 0, "name": "Theaterspektakel", "provider": "publibike", "timeStamp": "02/04/2020, 15:28:14", "zip": 8002}, "type": "Feature"}, {"geometry": {"coordinates": [8.516257, 47.367656], "type": "Point"}, "properties": {"address": "Goldbrunnenstrasse 54", "electric": 3, "id": "pb_538", "manual": 0, "name": "Kirche B\u00fchl", "provider": "publibike", "timeStamp": "02/04/2020, 15:28:14", "zip": 8055}, "type": "Feature"}, {"geometry": {"coordinates": [8.555639, 47.416873], "type": "Point"}, "properties": {"address": "Leutschenbachstrasse 50", "electric": 0, "id": "pb_537", "manual": 4, "name": "Leutschenpark", "provider": "publibike", "timeStamp": "02/04/2020, 15:28:14", "zip": 8050}, "type": "Feature"}, {"geometry": {"coordinates": [8.546464, 47.403822], "type": "Point"}, "properties": {"address": "Berninastrasse 45", "electric": 3, "id": "pb_540", "manual": 1, "name": "Berninaplatz", "provider": "publibike", "timeStamp": "02/04/2020, 15:28:14", "zip": 8057}, "type": "Feature"}, {"geometry": {"coordinates": [8.523134, 47.369004], "type": "Point"}, "properties": {"address": "Erlachstrasse 3", "electric": 0, "id": "pb_385", "manual": 2, "name": "Aegerten", "provider": "publibike", "timeStamp": "02/04/2020, 15:28:14", "zip": 8003}, "type": "Feature"}, {"geometry": {"coordinates": [8.49038, 47.381591], "type": "Point"}, "properties": {"address": "Rautistrasse 60", "electric": 10, "id": "pb_536", "manual": 7, "name": "Freilager", "provider": "publibike", "timeStamp": "02/04/2020, 15:28:14", "zip": 8048}, "type": "Feature"}, {"geometry": {"coordinates": [8.496511, 47.375247], "type": "Point"}, "properties": {"address": "Letzigraben 139", "electric": 6, "id": "pb_444", "manual": 1, "name": "Sackzelg", "provider": "publibike", "timeStamp": "02/04/2020, 15:28:14", "zip": 8047}, "type": "Feature"}, {"geometry": {"coordinates": [8.58131, 47.402801], "type": "Point"}, "properties": {"address": "Altwiesenstrasse 104", "electric": 0, "id": "pb_539", "manual": 6, "name": "Glattwiesen", "provider": "publibike", "timeStamp": "02/04/2020, 15:28:14", "zip": 8051}, "type": "Feature"}, {"geometry": {"coordinates": [8.52689, 47.3767], "type": "Point"}, "properties": {"address": "Molkenstrasse 5", "electric": 1, "id": "pb_560", "manual": 9, "name": "Helvetiaplatz", "provider": "publibike", "timeStamp": "02/04/2020, 15:28:14", "zip": 8004}, "type": "Feature"}, {"geometry": {"coordinates": [8.525602, 47.374241], "type": "Point"}, "properties": {"address": "Badenerstrasse 90", "electric": 0, "id": "pb_559", "manual": 4, "name": "Bezirksgeb\u00e4ude", "provider": "publibike", "timeStamp": "02/04/2020, 15:28:14", "zip": 8004}, "type": "Feature"}, {"geometry": {"coordinates": [8.535082, 47.345248], "type": "Point"}, "properties": {"address": "Bachstrasse 15", "electric": 5, "id": "pb_564", "manual": 5, "name": "GZ Wollishofen", "provider": "publibike", "timeStamp": "02/04/2020, 15:28:14", "zip": 8038}, "type": "Feature"}, {"geometry": {"coordinates": [8.514841, 47.370238], "type": "Point"}, "properties": {"address": "Schrennengasse 37", "electric": 2, "id": "pb_562", "manual": 2, "name": "Goldbrunnenplatz", "provider": "publibike", "timeStamp": "02/04/2020, 15:28:14", "zip": 8003}, "type": "Feature"}, {"geometry": {"coordinates": [8.514138, 47.374206], "type": "Point"}, "properties": {"address": "Idaplatz 4", "electric": 0, "id": "pb_557", "manual": 4, "name": "Idaplatz", "provider": "publibike", "timeStamp": "02/04/2020, 15:28:14", "zip": 8003}, "type": "Feature"}, {"geometry": {"coordinates": [8.518432, 47.369549], "type": "Point"}, "properties": {"address": "Brinerstrasse 2", "electric": 0, "id": "pb_558", "manual": 10, "name": "Schmiede Wiedikon", "provider": "publibike", "timeStamp": "02/04/2020, 15:28:14", "zip": 8003}, "type": "Feature"}, {"geometry": {"coordinates": [8.537546, 47.391289], "type": "Point"}, "properties": {"address": "Rotbuchstrasse 15", "electric": 4, "id": "pb_556", "manual": 1, "name": "Schaffhauserplatz", "provider": "publibike", "timeStamp": "02/04/2020, 15:28:14", "zip": 8006}, "type": "Feature"}, {"geometry": {"coordinates": [8.541541, 47.413733], "type": "Point"}, "properties": {"address": "Therese-Giehse-Strasse 11", "electric": 5, "id": "pb_561", "manual": 1, "name": "Center Eleven", "provider": "publibike", "timeStamp": "02/04/2020, 15:28:14", "zip": 8050}, "type": "Feature"}, {"geometry": {"coordinates": [8.534227, 47.360004], "type": "Point"}, "properties": {"address": "Alfred Escher-Strasse 76", "electric": 11, "id": "pb_563", "manual": 2, "name": "Mythenschloss", "provider": "publibike", "timeStamp": "02/04/2020, 15:28:14", "zip": 8002}, "type": "Feature"}, {"geometry": {"coordinates": [8.50373, 47.396172], "type": "Point"}, "properties": {"address": "Hardeggstrasse 6", "electric": 2, "id": "pb_566", "manual": 3, "name": "Am Wasser", "provider": "publibike", "timeStamp": "02/04/2020, 15:28:14", "zip": 8049}, "type": "Feature"}, {"geometry": {"coordinates": [8.532432, 47.381174], "type": "Point"}, "properties": {"address": "Klingenstrasse 9", "electric": 2, "id": "pb_565", "manual": 10, "name": "Zollstrasse", "provider": "publibike", "timeStamp": "02/04/2020, 15:28:14", "zip": 8005}, "type": "Feature"}, {"geometry": {"coordinates": [8.497982, 47.381447], "type": "Point"}, "properties": {"address": "Dennlerstrasse 23", "electric": 11, "id": "pb_567", "manual": 0, "name": "Dennlerstrasse", "provider": "publibike", "timeStamp": "02/04/2020, 15:28:14", "zip": 8047}, "type": "Feature"}, {"geometry": {"coordinates": [8.528049, 47.347701], "type": "Point"}, "properties": {"address": "Mutschellenstrasse 114", "electric": 9, "id": "pb_568", "manual": 9, "name": "Jugendherberge", "provider": "publibike", "timeStamp": "02/04/2020, 15:28:14", "zip": 8038}, "type": "Feature"}, {"geometry": {"coordinates": [8.539016, 47.405751], "type": "Point"}, "properties": {"address": "Ringstrasse 82", "electric": 1, "id": "pb_569", "manual": 4, "name": "Freibad Allenmoos", "provider": "publibike", "timeStamp": "02/04/2020, 15:28:14", "zip": 8057}, "type": "Feature"}, {"geometry": {"coordinates": [8.534974, 47.402164], "type": "Point"}, "properties": {"address": "Brache Guggach", "electric": 3, "id": "pb_572", "manual": 3, "name": "Radiostudio", "provider": "publibike", "timeStamp": "02/04/2020, 15:28:14", "zip": 8057}, "type": "Feature"}, {"geometry": {"coordinates": [8.547901, 47.375556], "type": "Point"}, "properties": {"address": "Karl-Schmid-Strasse 4", "electric": 3, "id": "pb_571", "manual": 1, "name": "ETH/Zoologisches Museum", "provider": "publibike", "timeStamp": "02/04/2020, 15:28:14", "zip": 8006}, "type": "Feature"}, {"geometry": {"coordinates": [8.54524, 47.369325], "type": "Point"}, "properties": {"charge": 50, "id": "smide_2901", "name": "ZH 267278", "provider": "smide", "range": 25.0, "size": 20, "time": "02/04/2020, 15:29:46"}, "type": "Feature"}, {"geometry": {"coordinates": [8.48702, 47.388286], "type": "Point"}, "properties": {"charge": 97, "id": "smide_2880", "name": "ZH267289", "provider": "smide", "range": 48.0, "size": 17, "time": "02/04/2020, 15:29:46"}, "type": "Feature"}, {"geometry": {"coordinates": [8.518128, 47.388216], "type": "Point"}, "properties": {"charge": 21, "id": "smide_2871", "name": "ZH 267086", "provider": "smide", "range": 10.0, "size": 20, "time": "02/04/2020, 15:29:46"}, "type": "Feature"}, {"geometry": {"coordinates": [8.555585, 47.414553], "type": "Point"}, "properties": {"charge": 89, "id": "smide_2867", "name": "ZH 267090", "provider": "smide", "range": 44.0, "size": 20, "time": "02/04/2020, 15:29:46"}, "type": "Feature"}, {"geometry": {"coordinates": [8.52628, 47.387175], "type": "Point"}, "properties": {"charge": 67, "id": "smide_2861", "name": "ZH 267096", "provider": "smide", "range": 33.0, "size": 17, "time": "02/04/2020, 15:29:46"}, "type": "Feature"}, {"geometry": {"coordinates": [8.575928, 47.34986], "type": "Point"}, "properties": {"charge": 74, "id": "smide_2860", "name": "ZH 267097", "provider": "smide", "range": 37.0, "size": 17, "time": "02/04/2020, 15:29:46"}, "type": "Feature"}, {"geometry": {"coordinates": [8.510786, 47.371933], "type": "Point"}, "properties": {"charge": 66, "id": "smide_2859", "name": "ZH 267098", "provider": "smide", "range": 33.0, "size": 17, "time": "02/04/2020, 15:29:46"}, "type": "Feature"}, {"geometry": {"coordinates": [8.514035, 47.38221], "type": "Point"}, "properties": {"charge": 13, "id": "smide_2856", "name": "ZH 267101", "provider": "smide", "range": 6.0, "size": 17, "time": "02/04/2020, 15:29:46"}, "type": "Feature"}, {"geometry": {"coordinates": [8.54655, 47.36393], "type": "Point"}, "properties": {"charge": 32, "id": "smide_2855", "name": "ZH 267102", "provider": "smide", "range": 16.0, "size": 17, "time": "02/04/2020, 15:29:46"}, "type": "Feature"}, {"geometry": {"coordinates": [8.544988, 47.373921], "type": "Point"}, "properties": {"charge": 86, "id": "smide_2854", "name": "ZH 267103", "provider": "smide", "range": 43.0, "size": 17, "time": "02/04/2020, 15:29:46"}, "type": "Feature"}, {"geometry": {"coordinates": [8.518878, 47.372336], "type": "Point"}, "properties": {"charge": 100, "id": "smide_2833", "name": "ZH 267182", "provider": "smide", "range": 50.0, "size": 20, "time": "02/04/2020, 15:29:46"}, "type": "Feature"}, {"geometry": {"coordinates": [8.570078, 47.352375], "type": "Point"}, "properties": {"charge": 37, "id": "smide_2831", "name": "ZH 267180", "provider": "smide", "range": 18.0, "size": 20, "time": "02/04/2020, 15:29:46"}, "type": "Feature"}, {"geometry": {"coordinates": [8.569628, 47.351976], "type": "Point"}, "properties": {"charge": 38, "id": "smide_2829", "name": "ZH 267049", "provider": "smide", "range": 19.0, "size": 20, "time": "02/04/2020, 15:29:46"}, "type": "Feature"}, {"geometry": {"coordinates": [8.554075, 47.412206], "type": "Point"}, "properties": {"charge": 72, "id": "smide_2804", "name": "ZH266903", "provider": "smide", "range": 36.0, "size": 20, "time": "02/04/2020, 15:29:46"}, "type": "Feature"}, {"geometry": {"coordinates": [8.521348, 47.36177], "type": "Point"}, "properties": {"charge": 71, "id": "smide_2798", "name": "ZH266888", "provider": "smide", "range": 35.0, "size": 17, "time": "02/04/2020, 15:29:46"}, "type": "Feature"}, {"geometry": {"coordinates": [8.520086, 47.340085], "type": "Point"}, "properties": {"charge": 19, "id": "smide_2793", "name": "ZH266883", "provider": "smide", "range": 9.0, "size": 17, "time": "02/04/2020, 15:29:46"}, "type": "Feature"}, {"geometry": {"coordinates": [8.512781, 47.391225], "type": "Point"}, "properties": {"charge": 84, "id": "smide_2790", "name": "ZH266880", "provider": "smide", "range": 42.0, "size": 17, "time": "02/04/2020, 15:29:46"}, "type": "Feature"}, {"geometry": {"coordinates": [8.536463, 47.371541], "type": "Point"}, "properties": {"charge": 100, "id": "smide_2785", "name": "ZH266875", "provider": "smide", "range": 50.0, "size": 17, "time": "02/04/2020, 15:29:46"}, "type": "Feature"}, {"geometry": {"coordinates": [8.56386, 47.348041], "type": "Point"}, "properties": {"charge": 67, "id": "smide_2781", "name": "ZH 266871", "provider": "smide", "range": 33.0, "size": 17, "time": "02/04/2020, 15:29:46"}, "type": "Feature"}, {"geometry": {"coordinates": [8.518053, 47.388436], "type": "Point"}, "properties": {"charge": 80, "id": "smide_2780", "name": "ST1 X #1", "provider": "smide", "range": 40.0, "size": 17, "time": "02/04/2020, 15:29:46"}, "type": "Feature"}, {"geometry": {"coordinates": [8.540118, 47.37898], "type": "Point"}, "properties": {"charge": 100, "id": "smide_2775", "name": "ZH267283", "provider": "smide", "range": 50.0, "size": 20, "time": "02/04/2020, 15:29:46"}, "type": "Feature"}, {"geometry": {"coordinates": [8.56024, 47.382106], "type": "Point"}, "properties": {"charge": 100, "id": "smide_2761", "name": "ZH266642", "provider": "smide", "range": 50.0, "size": 20, "time": "02/04/2020, 15:29:46"}, "type": "Feature"}, {"geometry": {"coordinates": [8.524809, 47.394288], "type": "Point"}, "properties": {"charge": 52, "id": "smide_2758", "name": "ZH266638 M", "provider": "smide", "range": 26.0, "size": 17, "time": "02/04/2020, 15:29:46"}, "type": "Feature"}, {"geometry": {"coordinates": [8.493352, 47.382544], "type": "Point"}, "properties": {"charge": 52, "id": "smide_2752", "name": "BE343856", "provider": "smide", "range": 26.0, "size": 17, "time": "02/04/2020, 15:29:46"}, "type": "Feature"}, {"geometry": {"coordinates": [8.525864, 47.3652], "type": "Point"}, "properties": {"charge": 72, "id": "smide_2749", "name": "BE343867", "provider": "smide", "range": 36.0, "size": 17, "time": "02/04/2020, 15:29:46"}, "type": "Feature"}, {"geometry": {"coordinates": [8.475467, 47.385484], "type": "Point"}, "properties": {"charge": 59, "id": "smide_2748", "name": "BE335758", "provider": "smide", "range": 29.0, "size": 17, "time": "02/04/2020, 15:29:46"}, "type": "Feature"}, {"geometry": {"coordinates": [8.562489, 47.382928], "type": "Point"}, "properties": {"charge": 100, "id": "smide_2746", "name": "BE335817", "provider": "smide", "range": 50.0, "size": 17, "time": "02/04/2020, 15:29:46"}, "type": "Feature"}, {"geometry": {"coordinates": [8.553797, 47.398856], "type": "Point"}, "properties": {"charge": 83, "id": "smide_2747", "name": "BE335820", "provider": "smide", "range": 41.0, "size": 17, "time": "02/04/2020, 15:29:46"}, "type": "Feature"}, {"geometry": {"coordinates": [8.49314, 47.384572], "type": "Point"}, "properties": {"charge": 35, "id": "smide_2745", "name": "BE335818", "provider": "smide", "range": 17.0, "size": 17, "time": "02/04/2020, 15:29:46"}, "type": "Feature"}, {"geometry": {"coordinates": [8.506644, 47.407684], "type": "Point"}, "properties": {"charge": 77, "id": "smide_2743", "name": "BE343864", "provider": "smide", "range": 38.0, "size": 17, "time": "02/04/2020, 15:29:46"}, "type": "Feature"}, {"geometry": {"coordinates": [8.519183, 47.337328], "type": "Point"}, "properties": {"charge": 35, "id": "smide_2742", "name": "BE343866", "provider": "smide", "range": 17.0, "size": 17, "time": "02/04/2020, 15:29:46"}, "type": "Feature"}, {"geometry": {"coordinates": [8.535798, 47.36786], "type": "Point"}, "properties": {"charge": 58, "id": "smide_2741", "name": "BE343874", "provider": "smide", "range": 28.0, "size": 17, "time": "02/04/2020, 15:29:46"}, "type": "Feature"}, {"geometry": {"coordinates": [8.55094, 47.4148], "type": "Point"}, "properties": {"charge": 79, "id": "smide_2740", "name": "BE343875", "provider": "smide", "range": 39.0, "size": 17, "time": "02/04/2020, 15:29:46"}, "type": "Feature"}, {"geometry": {"coordinates": [8.530731, 47.378328], "type": "Point"}, "properties": {"charge": 92, "id": "smide_2738", "name": "BE343865", "provider": "smide", "range": 46.0, "size": 17, "time": "02/04/2020, 15:29:46"}, "type": "Feature"}, {"geometry": {"coordinates": [8.484807, 47.394048], "type": "Point"}, "properties": {"charge": 97, "id": "smide_2737", "name": "BE336149", "provider": "smide", "range": 48.0, "size": 17, "time": "02/04/2020, 15:29:46"}, "type": "Feature"}, {"geometry": {"coordinates": [8.544207, 47.366852], "type": "Point"}, "properties": {"charge": 74, "id": "smide_2736", "name": "BE346639", "provider": "smide", "range": 37.0, "size": 17, "time": "02/04/2020, 15:29:46"}, "type": "Feature"}, {"geometry": {"coordinates": [8.566473, 47.35182], "type": "Point"}, "properties": {"charge": 89, "id": "smide_2733", "name": "BE343873", "provider": "smide", "range": 44.0, "size": 17, "time": "02/04/2020, 15:29:46"}, "type": "Feature"}, {"geometry": {"coordinates": [8.507147, 47.407304], "type": "Point"}, "properties": {"charge": 100, "id": "smide_2732", "name": "BE343870", "provider": "smide", "range": 50.0, "size": 17, "time": "02/04/2020, 15:29:46"}, "type": "Feature"}, {"geometry": {"coordinates": [8.529819, 47.3763], "type": "Point"}, "properties": {"charge": 21, "id": "smide_2729", "name": "BE343878", "provider": "smide", "range": 10.0, "size": 17, "time": "02/04/2020, 15:29:46"}, "type": "Feature"}, {"geometry": {"coordinates": [8.556358, 47.419528], "type": "Point"}, "properties": {"charge": 69, "id": "smide_2725", "name": "ZH261545", "provider": "smide", "range": 34.0, "size": 0, "time": "02/04/2020, 15:29:46"}, "type": "Feature"}, {"geometry": {"coordinates": [8.56294, 47.382541], "type": "Point"}, "properties": {"charge": 100, "id": "smide_2718", "name": "ZH259019", "provider": "smide", "range": 50.0, "size": 20, "time": "02/04/2020, 15:29:46"}, "type": "Feature"}, {"geometry": {"coordinates": [8.544278, 47.391864], "type": "Point"}, "properties": {"charge": 98, "id": "smide_2717", "name": "ZH263287", "provider": "smide", "range": 49.0, "size": 17, "time": "02/04/2020, 15:29:46"}, "type": "Feature"}, {"geometry": {"coordinates": [8.529853, 47.390261], "type": "Point"}, "properties": {"charge": 71, "id": "smide_2716", "name": "ZH254606", "provider": "smide", "range": 35.0, "size": 17, "time": "02/04/2020, 15:29:46"}, "type": "Feature"}, {"geometry": {"coordinates": [8.529592, 47.385008], "type": "Point"}, "properties": {"charge": 95, "id": "smide_2715", "name": "ZH254605", "provider": "smide", "range": 47.0, "size": 17, "time": "02/04/2020, 15:29:46"}, "type": "Feature"}, {"geometry": {"coordinates": [8.527603, 47.376308], "type": "Point"}, "properties": {"charge": 48, "id": "smide_2710", "name": "ZH256460", "provider": "smide", "range": 24.0, "size": 17, "time": "02/04/2020, 15:29:46"}, "type": "Feature"}, {"geometry": {"coordinates": [8.521827, 47.389432], "type": "Point"}, "properties": {"charge": 55, "id": "smide_2712", "name": "ZH256462", "provider": "smide", "range": 27.0, "size": 17, "time": "02/04/2020, 15:29:46"}, "type": "Feature"}, {"geometry": {"coordinates": [8.534027, 47.34438], "type": "Point"}, "properties": {"charge": 84, "id": "smide_2711", "name": "ZH256463", "provider": "smide", "range": 42.0, "size": 17, "time": "02/04/2020, 15:29:46"}, "type": "Feature"}, {"geometry": {"coordinates": [8.563858, 47.34818], "type": "Point"}, "properties": {"charge": 74, "id": "smide_2709", "name": "ZH256466", "provider": "smide", "range": 37.0, "size": 20, "time": "02/04/2020, 15:29:46"}, "type": "Feature"}, {"geometry": {"coordinates": [8.55547, 47.414104], "type": "Point"}, "properties": {"charge": 53, "id": "smide_2707", "name": "ZH256467", "provider": "smide", "range": 26.0, "size": 20, "time": "02/04/2020, 15:29:46"}, "type": "Feature"}, {"geometry": {"coordinates": [8.539675, 47.399716], "type": "Point"}, "properties": {"charge": 64, "id": "smide_2708", "name": "ZH256464", "provider": "smide", "range": 32.0, "size": 17, "time": "02/04/2020, 15:29:46"}, "type": "Feature"}, {"geometry": {"coordinates": [8.53147, 47.395328], "type": "Point"}, "properties": {"charge": 67, "id": "smide_2701", "name": "ZH256468", "provider": "smide", "range": 33.0, "size": 20, "time": "02/04/2020, 15:29:46"}, "type": "Feature"}, {"geometry": {"coordinates": [8.572791, 47.38056], "type": "Point"}, "properties": {"charge": 97, "id": "smide_2699", "name": "ZH254611", "provider": "smide", "range": 48.0, "size": 20, "time": "02/04/2020, 15:29:46"}, "type": "Feature"}, {"geometry": {"coordinates": [8.569522, 47.359276], "type": "Point"}, "properties": {"charge": 83, "id": "smide_2697", "name": "ZH254629", "provider": "smide", "range": 41.0, "size": 20, "time": "02/04/2020, 15:29:46"}, "type": "Feature"}, {"geometry": {"coordinates": [8.553975, 47.373324], "type": "Point"}, "properties": {"charge": 41, "id": "smide_2696", "name": "ZH254616", "provider": "smide", "range": 20.0, "size": 20, "time": "02/04/2020, 15:29:46"}, "type": "Feature"}, {"geometry": {"coordinates": [8.551922, 47.389164], "type": "Point"}, "properties": {"charge": 78, "id": "smide_2694", "name": "ZH254610", "provider": "smide", "range": 39.0, "size": 20, "time": "02/04/2020, 15:29:46"}, "type": "Feature"}, {"geometry": {"coordinates": [8.558455, 47.40422], "type": "Point"}, "properties": {"charge": 100, "id": "smide_2691", "name": "ZH254622", "provider": "smide", "range": 50.0, "size": 20, "time": "02/04/2020, 15:29:46"}, "type": "Feature"}, {"geometry": {"coordinates": [8.555841, 47.41088], "type": "Point"}, "properties": {"charge": 48, "id": "smide_2690", "name": "ZH254625", "provider": "smide", "range": 24.0, "size": 20, "time": "02/04/2020, 15:29:46"}, "type": "Feature"}, {"geometry": {"coordinates": [8.555656, 47.3844], "type": "Point"}, "properties": {"charge": 100, "id": "smide_2689", "name": "ZH254623", "provider": "smide", "range": 50.0, "size": 20, "time": "02/04/2020, 15:29:46"}, "type": "Feature"}, {"geometry": {"coordinates": [8.559239, 47.379248], "type": "Point"}, "properties": {"charge": 62, "id": "smide_2684", "name": "ZH254626", "provider": "smide", "range": 31.0, "size": 20, "time": "02/04/2020, 15:29:46"}, "type": "Feature"}, {"geometry": {"coordinates": [8.568395, 47.351518], "type": "Point"}, "properties": {"charge": 76, "id": "smide_2683", "name": "ZH254620", "provider": "smide", "range": 38.0, "size": 20, "time": "02/04/2020, 15:29:46"}, "type": "Feature"}, {"geometry": {"coordinates": [8.540588, 47.383976], "type": "Point"}, "properties": {"charge": 100, "id": "smide_2680", "name": "ZH254619", "provider": "smide", "range": 50.0, "size": 20, "time": "02/04/2020, 15:29:46"}, "type": "Feature"}, {"geometry": {"coordinates": [8.576423, 47.351232], "type": "Point"}, "properties": {"charge": 72, "id": "smide_2679", "name": "ZH258489", "provider": "smide", "range": 36.0, "size": 17, "time": "02/04/2020, 15:29:46"}, "type": "Feature"}, {"geometry": {"coordinates": [8.543194, 47.400244], "type": "Point"}, "properties": {"charge": 56, "id": "smide_2674", "name": "ZH258654", "provider": "smide", "range": 28.0, "size": 17, "time": "02/04/2020, 15:29:46"}, "type": "Feature"}, {"geometry": {"coordinates": [8.519627, 47.337192], "type": "Point"}, "properties": {"charge": 30, "id": "smide_2666", "name": "ZH258653", "provider": "smide", "range": 15.0, "size": 17, "time": "02/04/2020, 15:29:46"}, "type": "Feature"}, {"geometry": {"coordinates": [8.554597, 47.40294], "type": "Point"}, "properties": {"charge": 95, "id": "smide_2665", "name": "ZH258644", "provider": "smide", "range": 47.0, "size": 17, "time": "02/04/2020, 15:29:46"}, "type": "Feature"}, {"geometry": {"coordinates": [8.516803, 47.3897], "type": "Point"}, "properties": {"charge": 31, "id": "smide_2664", "name": "ZH258652", "provider": "smide", "range": 15.0, "size": 17, "time": "02/04/2020, 15:29:46"}, "type": "Feature"}, {"geometry": {"coordinates": [8.553169, 47.413416], "type": "Point"}, "properties": {"charge": 62, "id": "smide_2663", "name": "ZH258649", "provider": "smide", "range": 31.0, "size": 17, "time": "02/04/2020, 15:29:46"}, "type": "Feature"}, {"geometry": {"coordinates": [8.568209, 47.367872], "type": "Point"}, "properties": {"charge": 100, "id": "smide_2662", "name": "ZH258643", "provider": "smide", "range": 50.0, "size": 17, "time": "02/04/2020, 15:29:46"}, "type": "Feature"}, {"geometry": {"coordinates": [8.569975, 47.352511], "type": "Point"}, "properties": {"charge": 35, "id": "smide_2657", "name": "ZH257936", "provider": "smide", "range": 17.0, "size": 17, "time": "02/04/2020, 15:29:46"}, "type": "Feature"}, {"geometry": {"coordinates": [8.516909, 47.384732], "type": "Point"}, "properties": {"charge": 24, "id": "smide_2647", "name": "ZH257932", "provider": "smide", "range": 12.0, "size": 20, "time": "02/04/2020, 15:29:46"}, "type": "Feature"}, {"geometry": {"coordinates": [8.506938, 47.407696], "type": "Point"}, "properties": {"charge": 74, "id": "smide_2645", "name": "ZH257933", "provider": "smide", "range": 37.0, "size": 20, "time": "02/04/2020, 15:29:46"}, "type": "Feature"}, {"geometry": {"coordinates": [8.537471, 47.366616], "type": "Point"}, "properties": {"charge": 42, "id": "smide_3", "name": "ZH253765", "provider": "smide", "range": 21.0, "size": 20, "time": "02/04/2020, 15:29:46"}, "type": "Feature"}, {"geometry": {"coordinates": [8.525895, 47.4085], "type": "Point"}, "properties": {"charge": 60, "id": "smide_105", "name": "ZH253804", "provider": "smide", "range": 30.0, "size": 17, "time": "02/04/2020, 15:29:46"}, "type": "Feature"}, {"geometry": {"coordinates": [8.542154, 47.4076], "type": "Point"}, "properties": {"charge": 91, "id": "smide_186", "name": "ZH253751", "provider": "smide", "range": 45.0, "size": 20, "time": "02/04/2020, 15:29:46"}, "type": "Feature"}, {"geometry": {"coordinates": [8.571157, 47.352504], "type": "Point"}, "properties": {"charge": 79, "id": "smide_173", "name": "ZH258501", "provider": "smide", "range": 39.0, "size": 17, "time": "02/04/2020, 15:29:46"}, "type": "Feature"}, {"geometry": {"coordinates": [8.559323, 47.405948], "type": "Point"}, "properties": {"charge": 73, "id": "smide_77", "name": "ZH261548", "provider": "smide", "range": 36.0, "size": 20, "time": "02/04/2020, 15:29:46"}, "type": "Feature"}, {"geometry": {"coordinates": [8.540605, 47.369528], "type": "Point"}, "properties": {"charge": 35, "id": "smide_200", "name": "ZH253801", "provider": "smide", "range": 17.0, "size": 20, "time": "02/04/2020, 15:29:46"}, "type": "Feature"}, {"geometry": {"coordinates": [8.540548, 47.373933], "type": "Point"}, "properties": {"charge": 93, "id": "smide_197", "name": "ZH253864", "provider": "smide", "range": 46.0, "size": 20, "time": "02/04/2020, 15:29:46"}, "type": "Feature"}, {"geometry": {"coordinates": [8.494804, 47.400096], "type": "Point"}, "properties": {"charge": 61, "id": "smide_8", "name": "ZH253861", "provider": "smide", "range": 30.0, "size": 17, "time": "02/04/2020, 15:29:46"}, "type": "Feature"}, {"geometry": {"coordinates": [8.566733, 47.35029], "type": "Point"}, "properties": {"charge": 13, "id": "smide_45", "name": "ZH253716", "provider": "smide", "range": 6.0, "size": 17, "time": "02/04/2020, 15:29:46"}, "type": "Feature"}, {"geometry": {"coordinates": [8.515449, 47.360552], "type": "Point"}, "properties": {"charge": 81, "id": "smide_188", "name": "ZH261543", "provider": "smide", "range": 40.0, "size": 20, "time": "02/04/2020, 15:29:46"}, "type": "Feature"}, {"geometry": {"coordinates": [8.450008, 47.397872], "type": "Point"}, "properties": {"charge": 46, "id": "smide_9", "name": "ZH253796", "provider": "smide", "range": 23.0, "size": 17, "time": "02/04/2020, 15:29:46"}, "type": "Feature"}, {"geometry": {"coordinates": [8.561132, 47.415848], "type": "Point"}, "properties": {"charge": 60, "id": "smide_143", "name": "ZH253778", "provider": "smide", "range": 30.0, "size": 17, "time": "02/04/2020, 15:29:46"}, "type": "Feature"}, {"geometry": {"coordinates": [8.54432, 47.41637], "type": "Point"}, "properties": {"charge": 85, "id": "smide_180", "name": "ZH253824", "provider": "smide", "range": 42.0, "size": 20, "time": "02/04/2020, 15:29:46"}, "type": "Feature"}, {"geometry": {"coordinates": [8.552237, 47.369948], "type": "Point"}, "properties": {"charge": 100, "id": "smide_20", "name": "ZH253770", "provider": "smide", "range": 50.0, "size": 20, "time": "02/04/2020, 15:29:46"}, "type": "Feature"}, {"geometry": {"coordinates": [8.560548, 47.351784], "type": "Point"}, "properties": {"charge": 99, "id": "smide_50", "name": "ZH253853", "provider": "smide", "range": 49.0, "size": 17, "time": "02/04/2020, 15:29:46"}, "type": "Feature"}, {"geometry": {"coordinates": [8.546096, 47.39784], "type": "Point"}, "properties": {"charge": 49, "id": "smide_30", "name": "ZH253813", "provider": "smide", "range": 24.0, "size": 20, "time": "02/04/2020, 15:29:46"}, "type": "Feature"}, {"geometry": {"coordinates": [8.526438, 47.397158], "type": "Point"}, "properties": {"charge": 53, "id": "smide_10", "name": "ZH253855", "provider": "smide", "range": 26.0, "size": 17, "time": "02/04/2020, 15:29:46"}, "type": "Feature"}, {"geometry": {"coordinates": [8.560295, 47.382108], "type": "Point"}, "properties": {"charge": 80, "id": "smide_84", "name": "ZH253733", "provider": "smide", "range": 40.0, "size": 17, "time": "02/04/2020, 15:29:46"}, "type": "Feature"}, {"geometry": {"coordinates": [8.544613, 47.375596], "type": "Point"}, "properties": {"charge": 94, "id": "smide_165", "name": "ZH253752", "provider": "smide", "range": 47.0, "size": 17, "time": "02/04/2020, 15:29:46"}, "type": "Feature"}, {"geometry": {"coordinates": [8.560796, 47.350504], "type": "Point"}, "properties": {"charge": 81, "id": "smide_119", "name": "ZH253686", "provider": "smide", "range": 40.0, "size": 20, "time": "02/04/2020, 15:29:46"}, "type": "Feature"}, {"geometry": {"coordinates": [8.566735, 47.364], "type": "Point"}, "properties": {"charge": 93, "id": "smide_76", "name": "ZH253764", "provider": "smide", "range": 46.0, "size": 17, "time": "02/04/2020, 15:29:46"}, "type": "Feature"}, {"geometry": {"coordinates": [8.516674, 47.38994], "type": "Point"}, "properties": {"charge": 49, "id": "smide_129", "name": "ZH261378", "provider": "smide", "range": 24.0, "size": 17, "time": "02/04/2020, 15:29:46"}, "type": "Feature"}, {"geometry": {"coordinates": [8.519095, 47.386795], "type": "Point"}, "properties": {"charge": 89, "id": "smide_49", "name": "ZH253873", "provider": "smide", "range": 44.0, "size": 17, "time": "02/04/2020, 15:29:46"}, "type": "Feature"}, {"geometry": {"coordinates": [8.563092, 47.382684], "type": "Point"}, "properties": {"charge": 100, "id": "smide_94", "name": "ZH253754", "provider": "smide", "range": 50.0, "size": 17, "time": "02/04/2020, 15:29:46"}, "type": "Feature"}, {"geometry": {"coordinates": [8.543568, 47.383252], "type": "Point"}, "properties": {"charge": 100, "id": "smide_37", "name": "ZH261377", "provider": "smide", "range": 50.0, "size": 20, "time": "02/04/2020, 15:29:46"}, "type": "Feature"}, {"geometry": {"coordinates": [8.54447, 47.369063], "type": "Point"}, "properties": {"charge": 71, "id": "smide_191", "name": "ZH253762", "provider": "smide", "range": 35.0, "size": 17, "time": "02/04/2020, 15:29:46"}, "type": "Feature"}, {"geometry": {"coordinates": [8.506965, 47.406851], "type": "Point"}, "properties": {"charge": 100, "id": "smide_202", "name": "ZH253830", "provider": "smide", "range": 50.0, "size": 17, "time": "02/04/2020, 15:29:46"}, "type": "Feature"}, {"geometry": {"coordinates": [8.547667, 47.363924], "type": "Point"}, "properties": {"charge": 14, "id": "smide_56", "name": "ZH261442", "provider": "smide", "range": 7.0, "size": 20, "time": "02/04/2020, 15:29:46"}, "type": "Feature"}, {"geometry": {"coordinates": [8.483181, 47.384711], "type": "Point"}, "properties": {"charge": 100, "id": "smide_47", "name": "ZH253858", "provider": "smide", "range": 50.0, "size": 17, "time": "02/04/2020, 15:29:46"}, "type": "Feature"}, {"geometry": {"coordinates": [8.501925, 47.369028], "type": "Point"}, "properties": {"charge": 90, "id": "smide_150", "name": "ZH253703", "provider": "smide", "range": 45.0, "size": 20, "time": "02/04/2020, 15:29:46"}, "type": "Feature"}, {"geometry": {"coordinates": [8.558508, 47.404028], "type": "Point"}, "properties": {"charge": 90, "id": "smide_66", "name": "ZH253818", "provider": "smide", "range": 45.0, "size": 20, "time": "02/04/2020, 15:29:46"}, "type": "Feature"}, {"geometry": {"coordinates": [8.508336, 47.4005], "type": "Point"}, "properties": {"charge": 73, "id": "smide_17", "name": "ZH253793", "provider": "smide", "range": 36.0, "size": 17, "time": "02/04/2020, 15:29:46"}, "type": "Feature"}, {"geometry": {"coordinates": [8.564076, 47.366412], "type": "Point"}, "properties": {"charge": 52, "id": "smide_127", "name": "ZH253808", "provider": "smide", "range": 26.0, "size": 20, "time": "02/04/2020, 15:29:46"}, "type": "Feature"}, {"geometry": {"coordinates": [8.539226, 47.415068], "type": "Point"}, "properties": {"charge": 69, "id": "smide_145", "name": "ZH253780", "provider": "smide", "range": 34.0, "size": 20, "time": "02/04/2020, 15:29:46"}, "type": "Feature"}, {"geometry": {"coordinates": [8.496576, 47.386068], "type": "Point"}, "properties": {"charge": 45, "id": "smide_114", "name": "ZH253878", "provider": "smide", "range": 22.0, "size": 20, "time": "02/04/2020, 15:29:46"}, "type": "Feature"}, {"geometry": {"coordinates": [8.560629, 47.36106], "type": "Point"}, "properties": {"charge": 37, "id": "smide_203", "name": "ZH261547", "provider": "smide", "range": 18.0, "size": 17, "time": "02/04/2020, 15:29:46"}, "type": "Feature"}, {"geometry": {"coordinates": [8.520079, 47.336996], "type": "Point"}, "properties": {"charge": 48, "id": "smide_21", "name": "ZH253841", "provider": "smide", "range": 24.0, "size": 17, "time": "02/04/2020, 15:29:46"}, "type": "Feature"}, {"geometry": {"coordinates": [8.548358, 47.377788], "type": "Point"}, "properties": {"charge": 89, "id": "smide_164", "name": "ZH253775", "provider": "smide", "range": 44.0, "size": 17, "time": "02/04/2020, 15:29:46"}, "type": "Feature"}, {"geometry": {"coordinates": [8.496857, 47.378416], "type": "Point"}, "properties": {"charge": 88, "id": "smide_189", "name": "ZH253845", "provider": "smide", "range": 44.0, "size": 20, "time": "02/04/2020, 15:29:46"}, "type": "Feature"}, {"geometry": {"coordinates": [8.494411, 47.383332], "type": "Point"}, "properties": {"charge": 73, "id": "smide_81", "name": "ZH253753", "provider": "smide", "range": 36.0, "size": 17, "time": "02/04/2020, 15:29:46"}, "type": "Feature"}, {"geometry": {"coordinates": [8.549154, 47.389748], "type": "Point"}, "properties": {"charge": 77, "id": "smide_171", "name": "ZH253689", "provider": "smide", "range": 38.0, "size": 20, "time": "02/04/2020, 15:29:46"}, "type": "Feature"}, {"geometry": {"coordinates": [8.521018, 47.358536], "type": "Point"}, "properties": {"charge": 100, "id": "smide_93", "name": "ZH253681", "provider": "smide", "range": 50.0, "size": 17, "time": "02/04/2020, 15:29:46"}, "type": "Feature"}, {"geometry": {"coordinates": [8.573466, 47.352656], "type": "Point"}, "properties": {"charge": 88, "id": "smide_67", "name": "ZH253779", "provider": "smide", "range": 44.0, "size": 17, "time": "02/04/2020, 15:29:46"}, "type": "Feature"}, {"geometry": {"coordinates": [8.568693, 47.373688], "type": "Point"}, "properties": {"charge": 100, "id": "smide_133", "name": "ZH253848", "provider": "smide", "range": 50.0, "size": 20, "time": "02/04/2020, 15:29:46"}, "type": "Feature"}, {"geometry": {"coordinates": [8.482725, 47.38581], "type": "Point"}, "properties": {"charge": 87, "id": "smide_118", "name": "ZH253759", "provider": "smide", "range": 43.0, "size": 20, "time": "02/04/2020, 15:29:46"}, "type": "Feature"}, {"geometry": {"coordinates": [8.564696, 47.37286], "type": "Point"}, "properties": {"charge": 60, "id": "smide_142", "name": "ZH258745", "provider": "smide", "range": 30.0, "size": 17, "time": "02/04/2020, 15:29:46"}, "type": "Feature"}, {"geometry": {"coordinates": [8.522168, 47.359012], "type": "Point"}, "properties": {"charge": 100, "id": "smide_126", "name": "ZH268400", "provider": "smide", "range": 50.0, "size": 17, "time": "02/04/2020, 15:29:46"}, "type": "Feature"}, {"geometry": {"coordinates": [8.494051, 47.38336], "type": "Point"}, "properties": {"charge": 100, "id": "smide_44", "name": "ZH253837", "provider": "smide", "range": 50.0, "size": 17, "time": "02/04/2020, 15:29:46"}, "type": "Feature"}, {"geometry": {"coordinates": [8.54682, 47.407683], "type": "Point"}, "properties": {"charge": 63, "id": "smide_98", "name": "ZH256321", "provider": "smide", "range": 31.0, "size": 17, "time": "02/04/2020, 15:29:46"}, "type": "Feature"}, {"geometry": {"coordinates": [8.548651, 47.376788], "type": "Point"}, "properties": {"charge": 52, "id": "smide_154", "name": "ZH253744", "provider": "smide", "range": 26.0, "size": 20, "time": "02/04/2020, 15:29:46"}, "type": "Feature"}, {"geometry": {"coordinates": [8.533259, 47.417112], "type": "Point"}, "properties": {"charge": 78, "id": "smide_7", "name": "ZH256289", "provider": "smide", "range": 39.0, "size": 20, "time": "02/04/2020, 15:29:46"}, "type": "Feature"}, {"geometry": {"coordinates": [8.515046, 47.414568], "type": "Point"}, "properties": {"charge": 53, "id": "smide_92", "name": "ZH253798", "provider": "smide", "range": 26.0, "size": 17, "time": "02/04/2020, 15:29:46"}, "type": "Feature"}, {"geometry": {"coordinates": [8.502212, 47.370196], "type": "Point"}, "properties": {"charge": 95, "id": "smide_65", "name": "ZH253810", "provider": "smide", "range": 47.0, "size": 17, "time": "02/04/2020, 15:29:46"}, "type": "Feature"}, {"geometry": {"coordinates": [8.571084, 47.358352], "type": "Point"}, "properties": {"charge": 16, "id": "smide_111", "name": "ZH253763", "provider": "smide", "range": 8.0, "size": 17, "time": "02/04/2020, 15:29:46"}, "type": "Feature"}, {"geometry": {"coordinates": [8.559381, 47.414724], "type": "Point"}, "properties": {"charge": 81, "id": "smide_40", "name": "ZH253690", "provider": "smide", "range": 40.0, "size": 20, "time": "02/04/2020, 15:29:46"}, "type": "Feature"}, {"geometry": {"coordinates": [8.563436, 47.348804], "type": "Point"}, "properties": {"charge": 84, "id": "smide_1", "name": "ZH253776", "provider": "smide", "range": 42.0, "size": 17, "time": "02/04/2020, 15:29:46"}, "type": "Feature"}, {"geometry": {"coordinates": [8.519975, 47.34003], "type": "Point"}, "properties": {"charge": 75, "id": "smide_14", "name": "ZH253749", "provider": "smide", "range": 37.0, "size": 20, "time": "02/04/2020, 15:29:46"}, "type": "Feature"}, {"geometry": {"coordinates": [8.49126, 47.379168], "type": "Point"}, "properties": {"charge": 93, "id": "smide_130", "name": "ZH253847", "provider": "smide", "range": 46.0, "size": 20, "time": "02/04/2020, 15:29:46"}, "type": "Feature"}, {"geometry": {"coordinates": [8.506722, 47.406848], "type": "Point"}, "properties": {"charge": 100, "id": "smide_24", "name": "ZH253696", "provider": "smide", "range": 50.0, "size": 20, "time": "02/04/2020, 15:29:46"}, "type": "Feature"}, {"geometry": {"coordinates": [8.517595, 47.367508], "type": "Point"}, "properties": {"charge": 99, "id": "smide_107", "name": "ZH253819", "provider": "smide", "range": 49.0, "size": 17, "time": "02/04/2020, 15:29:46"}, "type": "Feature"}, {"geometry": {"coordinates": [8.501971, 47.369024], "type": "Point"}, "properties": {"charge": 53, "id": "smide_136", "name": "ZH253682", "provider": "smide", "range": 26.0, "size": 17, "time": "02/04/2020, 15:29:46"}, "type": "Feature"}, {"geometry": {"coordinates": [8.51483, 47.389432], "type": "Point"}, "properties": {"charge": 79, "id": "smide_83", "name": "ZH253869", "provider": "smide", "range": 39.0, "size": 20, "time": "02/04/2020, 15:29:46"}, "type": "Feature"}, {"geometry": {"coordinates": [8.528976, 47.369948], "type": "Point"}, "properties": {"charge": 85, "id": "smide_193", "name": "ZH253738", "provider": "smide", "range": 42.0, "size": 20, "time": "02/04/2020, 15:29:46"}, "type": "Feature"}, {"geometry": {"coordinates": [8.507656, 47.390851], "type": "Point"}, "properties": {"charge": 100, "id": "smide_158", "name": "ZH253870", "provider": "smide", "range": 50.0, "size": 20, "time": "02/04/2020, 15:29:46"}, "type": "Feature"}, {"geometry": {"coordinates": [8.534175, 47.40446], "type": "Point"}, "properties": {"charge": 87, "id": "smide_100", "name": "ZH253862", "provider": "smide", "range": 43.0, "size": 20, "time": "02/04/2020, 15:29:46"}, "type": "Feature"}, {"geometry": {"coordinates": [8.533523, 47.405353], "type": "Point"}, "properties": {"charge": 69, "id": "smide_134", "name": "ZH253741", "provider": "smide", "range": 34.0, "size": 20, "time": "02/04/2020, 15:29:46"}, "type": "Feature"}, {"geometry": {"coordinates": [8.522121, 47.365798], "type": "Point"}, "properties": {"charge": 63, "id": "smide_141", "name": "ZH253800", "provider": "smide", "range": 31.0, "size": 20, "time": "02/04/2020, 15:29:46"}, "type": "Feature"}, {"geometry": {"coordinates": [8.48697, 47.375768], "type": "Point"}, "properties": {"charge": 91, "id": "smide_149", "name": "ZH253743", "provider": "smide", "range": 45.0, "size": 20, "time": "02/04/2020, 15:29:46"}, "type": "Feature"}, {"geometry": {"coordinates": [8.572669, 47.357496], "type": "Point"}, "properties": {"charge": 79, "id": "smide_16", "name": "ZH253713", "provider": "smide", "range": 39.0, "size": 20, "time": "02/04/2020, 15:29:46"}, "type": "Feature"}, {"geometry": {"coordinates": [8.562909, 47.366116], "type": "Point"}, "properties": {"charge": 44, "id": "smide_74", "name": "ZH253693", "provider": "smide", "range": 22.0, "size": 20, "time": "02/04/2020, 15:29:46"}, "type": "Feature"}, {"geometry": {"coordinates": [8.539726, 47.374713], "type": "Point"}, "properties": {"charge": 45, "id": "smide_33", "name": "ZH253782", "provider": "smide", "range": 22.0, "size": 20, "time": "02/04/2020, 15:29:46"}, "type": "Feature"}, {"geometry": {"coordinates": [8.550547, 47.39254], "type": "Point"}, "properties": {"charge": 100, "id": "smide_161", "name": "ZH253691", "provider": "smide", "range": 50.0, "size": 20, "time": "02/04/2020, 15:29:46"}, "type": "Feature"}, {"geometry": {"coordinates": [8.56801, 47.370076], "type": "Point"}, "properties": {"charge": 100, "id": "smide_42", "name": "ZH253846", "provider": "smide", "range": 50.0, "size": 20, "time": "02/04/2020, 15:29:46"}, "type": "Feature"}, {"geometry": {"coordinates": [8.511341, 47.408908], "type": "Point"}, "properties": {"charge": 100, "id": "smide_4", "name": "ZH253740", "provider": "smide", "range": 50.0, "size": 20, "time": "02/04/2020, 15:29:46"}, "type": "Feature"}, {"geometry": {"coordinates": [8.55981, 47.383148], "type": "Point"}, "properties": {"charge": 73, "id": "smide_160", "name": "ZH253722", "provider": "smide", "range": 36.0, "size": 17, "time": "02/04/2020, 15:29:46"}, "type": "Feature"}, {"geometry": {"coordinates": [8.575281, 47.349046], "type": "Point"}, "properties": {"charge": 79, "id": "smide_137", "name": "ZH258502", "provider": "smide", "range": 39.0, "size": 17, "time": "02/04/2020, 15:29:46"}, "type": "Feature"}, {"geometry": {"coordinates": [8.577404, 47.35304], "type": "Point"}, "properties": {"charge": 91, "id": "smide_178", "name": "ZH253803", "provider": "smide", "range": 45.0, "size": 17, "time": "02/04/2020, 15:29:46"}, "type": "Feature"}, {"geometry": {"coordinates": [8.538118, 47.389888], "type": "Point"}, "properties": {"charge": 77, "id": "smide_96", "name": "ZH256146", "provider": "smide", "range": 38.0, "size": 20, "time": "02/04/2020, 15:29:46"}, "type": "Feature"}, {"geometry": {"coordinates": [8.54951, 47.378772], "type": "Point"}, "properties": {"charge": 85, "id": "smide_58", "name": "ZH259246", "provider": "smide", "range": 42.0, "size": 20, "time": "02/04/2020, 15:29:46"}, "type": "Feature"}, {"geometry": {"coordinates": [8.516791, 47.389716], "type": "Point"}, "properties": {"charge": 72, "id": "smide_54", "name": "ZH253874", "provider": "smide", "range": 36.0, "size": 20, "time": "02/04/2020, 15:29:46"}, "type": "Feature"}, {"geometry": {"coordinates": [8.524337, 47.364712], "type": "Point"}, "properties": {"charge": 77, "id": "smide_175", "name": "ZH253730", "provider": "smide", "range": 38.0, "size": 17, "time": "02/04/2020, 15:29:46"}, "type": "Feature"}, {"geometry": {"coordinates": [8.510861, 47.366972], "type": "Point"}, "properties": {"charge": 71, "id": "smide_95", "name": "ZH253773", "provider": "smide", "range": 35.0, "size": 17, "time": "02/04/2020, 15:29:46"}, "type": "Feature"}, {"geometry": {"coordinates": [8.515015, 47.355364], "type": "Point"}, "properties": {"charge": 30, "id": "smide_112", "name": "ZH263530", "provider": "smide", "range": 15.0, "size": 20, "time": "02/04/2020, 15:29:46"}, "type": "Feature"}, {"geometry": {"coordinates": [8.530951, 47.364912], "type": "Point"}, "properties": {"charge": 84, "id": "smide_122", "name": "ZH253850", "provider": "smide", "range": 42.0, "size": 20, "time": "02/04/2020, 15:29:46"}, "type": "Feature"}, {"geometry": {"coordinates": [8.508981, 47.393626], "type": "Point"}, "properties": {"charge": 38, "id": "smide_38", "name": "ZH253851", "provider": "smide", "range": 19.0, "size": 20, "time": "02/04/2020, 15:29:46"}, "type": "Feature"}, {"geometry": {"coordinates": [8.557806, 47.404404], "type": "Point"}, "properties": {"charge": 83, "id": "smide_6", "name": "ZH253787", "provider": "smide", "range": 41.0, "size": 17, "time": "02/04/2020, 15:29:46"}, "type": "Feature"}, {"geometry": {"coordinates": [8.556944, 47.403768], "type": "Point"}, "properties": {"charge": 85, "id": "smide_18", "name": "ZH253859", "provider": "smide", "range": 42.0, "size": 17, "time": "02/04/2020, 15:29:46"}, "type": "Feature"}, {"geometry": {"coordinates": [8.499393, 47.40226], "type": "Point"}, "properties": {"charge": 42, "id": "smide_12", "name": "ZH253685", "provider": "smide", "range": 21.0, "size": 17, "time": "02/04/2020, 15:29:46"}, "type": "Feature"}, {"geometry": {"coordinates": [8.576284, 47.348772], "type": "Point"}, "properties": {"charge": 89, "id": "smide_192", "name": "ZH253706", "provider": "smide", "range": 44.0, "size": 20, "time": "02/04/2020, 15:29:46"}, "type": "Feature"}, {"geometry": {"coordinates": [8.555458, 47.367528], "type": "Point"}, "properties": {"charge": 50, "id": "smide_39", "name": "ZH253714", "provider": "smide", "range": 25.0, "size": 20, "time": "02/04/2020, 15:29:46"}, "type": "Feature"}, {"geometry": {"coordinates": [8.52055, 47.384918], "type": "Point"}, "properties": {"charge": 31, "id": "smide_5", "name": "ZH261443", "provider": "smide", "range": 15.0, "size": 20, "time": "02/04/2020, 15:29:46"}, "type": "Feature"}, {"geometry": {"coordinates": [8.541731, 47.399996], "type": "Point"}, "properties": {"charge": 81, "id": "smide_85", "name": "ZH253729", "provider": "smide", "range": 40.0, "size": 17, "time": "02/04/2020, 15:29:46"}, "type": "Feature"}, {"geometry": {"coordinates": [8.564578, 47.369388], "type": "Point"}, "properties": {"charge": 45, "id": "smide_29", "name": "ZH253723", "provider": "smide", "range": 22.0, "size": 17, "time": "02/04/2020, 15:29:46"}, "type": "Feature"}, {"geometry": {"coordinates": [8.532085, 47.385208], "type": "Point"}, "properties": {"charge": 98, "id": "smide_48", "name": "ZH253849", "provider": "smide", "range": 49.0, "size": 20, "time": "02/04/2020, 15:29:46"}, "type": "Feature"}, {"geometry": {"coordinates": [8.519083, 47.337208], "type": "Point"}, "properties": {"charge": 60, "id": "smide_46", "name": "ZH253843", "provider": "smide", "range": 30.0, "size": 20, "time": "02/04/2020, 15:29:46"}, "type": "Feature"}, {"geometry": {"coordinates": [8.52787666666667, 47.36356], "type": "Point"}, "properties": {"charge": 64, "id": "bird_9d295ab7-55ad-4c42-b4fc-8e28fbf9a937", "provider": "bird", "timeStamp": "02/04/2020, 15:29:46"}, "type": "Feature"}, {"geometry": {"coordinates": [8.54446833333333, 47.3667483333333], "type": "Point"}, "properties": {"charge": 75, "id": "bird_d21fc03b-5812-421f-89c2-270c63dab444", "provider": "bird", "timeStamp": "02/04/2020, 15:29:46"}, "type": "Feature"}, {"geometry": {"coordinates": [8.54618666666667, 47.3923033333333], "type": "Point"}, "properties": {"charge": 29, "id": "bird_315f3cc9-3b37-4e4d-8a7b-d1ac705af631", "provider": "bird", "timeStamp": "02/04/2020, 15:29:46"}, "type": "Feature"}, {"geometry": {"coordinates": [8.50935333333333, 47.3713416666667], "type": "Point"}, "properties": {"charge": 21, "id": "bird_1394f14d-6a3f-4e41-abf9-373b53cac6ce", "provider": "bird", "timeStamp": "02/04/2020, 15:29:46"}, "type": "Feature"}, {"geometry": {"coordinates": [8.54671166666667, 47.3682216666667], "type": "Point"}, "properties": {"charge": 22, "id": "bird_32df7be9-d2de-47d6-bbaf-d22e3225f059", "provider": "bird", "timeStamp": "02/04/2020, 15:29:46"}, "type": "Feature"}, {"geometry": {"coordinates": [8.524485, 47.395855], "type": "Point"}, "properties": {"charge": 49, "id": "bird_632f009f-108d-4dfb-a040-1fe92775445b", "provider": "bird", "timeStamp": "02/04/2020, 15:29:46"}, "type": "Feature"}, {"geometry": {"coordinates": [8.54622, 47.3681216666667], "type": "Point"}, "properties": {"charge": 15, "id": "bird_270bd5e9-d99f-4881-8403-2cba144568b4", "provider": "bird", "timeStamp": "02/04/2020, 15:29:46"}, "type": "Feature"}, {"geometry": {"coordinates": [8.55151333333333, 47.3869166666667], "type": "Point"}, "properties": {"charge": 54, "id": "bird_c24a5785-5dfb-4f28-8b7d-42bb6f19085e", "provider": "bird", "timeStamp": "02/04/2020, 15:29:46"}, "type": "Feature"}, {"geometry": {"coordinates": [8.52148, 47.3650733333333], "type": "Point"}, "properties": {"charge": 36, "id": "bird_dceb9f93-4de8-404c-8b13-f5bf0be3d704", "provider": "bird", "timeStamp": "02/04/2020, 15:29:46"}, "type": "Feature"}, {"geometry": {"coordinates": [8.52462166666667, 47.36443], "type": "Point"}, "properties": {"charge": 37, "id": "bird_f48deac4-f17f-42a3-9089-2da65393b72d", "provider": "bird", "timeStamp": "02/04/2020, 15:29:46"}, "type": "Feature"}, {"geometry": {"coordinates": [8.51136333333333, 47.3701866666667], "type": "Point"}, "properties": {"charge": 22, "id": "bird_8923fdaa-1309-48f5-a9f1-5191edd507e1", "provider": "bird", "timeStamp": "02/04/2020, 15:29:46"}, "type": "Feature"}, {"geometry": {"coordinates": [8.53316666666667, 47.3641783333333], "type": "Point"}, "properties": {"charge": 45, "id": "bird_8be218d8-8391-4170-9bd1-f5a952d3edc0", "provider": "bird", "timeStamp": "02/04/2020, 15:29:46"}, "type": "Feature"}, {"geometry": {"coordinates": [8.52860666666667, 47.364075], "type": "Point"}, "properties": {"charge": 43, "id": "bird_e3a0c617-37a7-4957-a968-cbb35bb2a5b9", "provider": "bird", "timeStamp": "02/04/2020, 15:29:46"}, "type": "Feature"}, {"geometry": {"coordinates": [8.51571333333333, 47.392685], "type": "Point"}, "properties": {"charge": 31, "id": "bird_105d0e8d-f3a4-4999-bc0e-ff46a374ddcb", "provider": "bird", "timeStamp": "02/04/2020, 15:29:46"}, "type": "Feature"}, {"geometry": {"coordinates": [8.51594333333333, 47.3927883333333], "type": "Point"}, "properties": {"charge": 82, "id": "bird_16d99184-1e8c-4d1f-8e69-6aee4467cfc6", "provider": "bird", "timeStamp": "02/04/2020, 15:29:46"}, "type": "Feature"}, {"geometry": {"coordinates": [8.54514666666667, 47.3678133333333], "type": "Point"}, "properties": {"charge": 51, "id": "bird_303ccbea-e4df-4e28-b691-de71c945c9e8", "provider": "bird", "timeStamp": "02/04/2020, 15:29:46"}, "type": "Feature"}, {"geometry": {"coordinates": [8.51221, 47.3697666666667], "type": "Point"}, "properties": {"charge": 36, "id": "bird_387d1314-7611-45d7-90c6-c8c343d1dd61", "provider": "bird", "timeStamp": "02/04/2020, 15:29:46"}, "type": "Feature"}, {"geometry": {"coordinates": [8.52747833333333, 47.3956066666667], "type": "Point"}, "properties": {"charge": 26, "id": "bird_38dc0fbb-6191-4514-9f93-513eff164a15", "provider": "bird", "timeStamp": "02/04/2020, 15:29:46"}, "type": "Feature"}, {"geometry": {"coordinates": [8.52585, 47.3954383333333], "type": "Point"}, "properties": {"charge": 46, "id": "bird_f63574ec-a941-469c-870e-7f168f0a5911", "provider": "bird", "timeStamp": "02/04/2020, 15:29:46"}, "type": "Feature"}, {"geometry": {"coordinates": [8.515725, 47.367725], "type": "Point"}, "properties": {"charge": 35, "id": "bird_a411a253-a0c9-4523-a930-8b5bf9a6b805", "provider": "bird", "timeStamp": "02/04/2020, 15:29:46"}, "type": "Feature"}, {"geometry": {"coordinates": [8.50701, 47.38015], "type": "Point"}, "properties": {"charge": 24, "id": "bird_c9ea2634-b3ba-41f0-93ed-30ac7e81d386", "provider": "bird", "timeStamp": "02/04/2020, 15:29:46"}, "type": "Feature"}, {"geometry": {"coordinates": [8.51338666666667, 47.3695866666667], "type": "Point"}, "properties": {"charge": 39, "id": "bird_32170f77-7285-4226-9bb6-2ed19bf3387d", "provider": "bird", "timeStamp": "02/04/2020, 15:29:46"}, "type": "Feature"}, {"geometry": {"coordinates": [8.544435, 47.3683783333333], "type": "Point"}, "properties": {"charge": 71, "id": "bird_36a69684-45ee-4181-9657-4e155efb6f70", "provider": "bird", "timeStamp": "02/04/2020, 15:29:46"}, "type": "Feature"}, {"geometry": {"coordinates": [8.54443166666667, 47.3684083333333], "type": "Point"}, "properties": {"charge": 73, "id": "bird_544a6fe4-9e8f-41dc-ad0f-d89e1edc597c", "provider": "bird", "timeStamp": "02/04/2020, 15:29:46"}, "type": "Feature"}, {"geometry": {"coordinates": [8.54637, 47.3699333333333], "type": "Point"}, "properties": {"charge": 24, "id": "bird_f9ead91f-5059-447d-88e0-5883bc8eb4a7", "provider": "bird", "timeStamp": "02/04/2020, 15:29:46"}, "type": "Feature"}, {"geometry": {"coordinates": [8.525685, 47.365345], "type": "Point"}, "properties": {"charge": 61, "id": "bird_c6061135-696f-47ac-9e1c-fc7ef8985ec7", "provider": "bird", "timeStamp": "02/04/2020, 15:29:46"}, "type": "Feature"}, {"geometry": {"coordinates": [8.513545, 47.370045], "type": "Point"}, "properties": {"charge": 24, "id": "bird_78a1bc18-b64d-4fa8-ad52-647f8b0e053d", "provider": "bird", "timeStamp": "02/04/2020, 15:29:46"}, "type": "Feature"}, {"geometry": {"coordinates": [8.52547166666667, 47.3945733333333], "type": "Point"}, "properties": {"charge": 11, "id": "bird_1c2615e9-009e-4744-9c2f-3ff9dac715fa", "provider": "bird", "timeStamp": "02/04/2020, 15:29:46"}, "type": "Feature"}, {"geometry": {"coordinates": [8.52550833333333, 47.3944433333333], "type": "Point"}, "properties": {"charge": 29, "id": "bird_c5e688c7-a50c-4449-b9a8-f3e48128203d", "provider": "bird", "timeStamp": "02/04/2020, 15:29:46"}, "type": "Feature"}, {"geometry": {"coordinates": [8.537805, 47.3934016666667], "type": "Point"}, "properties": {"charge": 36, "id": "bird_e8832a62-258a-4ea0-be44-1cef26e953dc", "provider": "bird", "timeStamp": "02/04/2020, 15:29:46"}, "type": "Feature"}, {"geometry": {"coordinates": [8.509105, 47.37799], "type": "Point"}, "properties": {"charge": 16, "id": "bird_446c37f7-adef-497b-b878-65ead02d73fa", "provider": "bird", "timeStamp": "02/04/2020, 15:29:46"}, "type": "Feature"}, {"geometry": {"coordinates": [8.51174666666667, 47.37286], "type": "Point"}, "properties": {"charge": 44, "id": "bird_52db6032-5e66-4e4a-a165-5a182caa43e6", "provider": "bird", "timeStamp": "02/04/2020, 15:29:46"}, "type": "Feature"}, {"geometry": {"coordinates": [8.50925, 47.3774866666667], "type": "Point"}, "properties": {"charge": 31, "id": "bird_888fa346-4d2e-4b95-a6bc-e032f984f6f7", "provider": "bird", "timeStamp": "02/04/2020, 15:29:46"}, "type": "Feature"}, {"geometry": {"coordinates": [8.51816333333333, 47.3915333333333], "type": "Point"}, "properties": {"charge": 26, "id": "bird_6031cb50-8172-461b-8bc2-27fc08f95d1c", "provider": "bird", "timeStamp": "02/04/2020, 15:29:46"}, "type": "Feature"}, {"geometry": {"coordinates": [8.54479333333333, 47.3703], "type": "Point"}, "properties": {"charge": 60, "id": "bird_82440f93-b196-4e48-8aac-66ea143ee492", "provider": "bird", "timeStamp": "02/04/2020, 15:29:46"}, "type": "Feature"}, {"geometry": {"coordinates": [8.54858666666667, 47.38588], "type": "Point"}, "properties": {"charge": 48, "id": "bird_dced39ad-18da-4914-abd7-9a1773523257", "provider": "bird", "timeStamp": "02/04/2020, 15:29:46"}, "type": "Feature"}, {"geometry": {"coordinates": [8.5486, 47.3858483333333], "type": "Point"}, "properties": {"charge": 48, "id": "bird_9947589e-9d79-4702-a49f-83f26d69dcf7", "provider": "bird", "timeStamp": "02/04/2020, 15:29:46"}, "type": "Feature"}, {"geometry": {"coordinates": [8.53499166666667, 47.3665583333333], "type": "Point"}, "properties": {"charge": 63, "id": "bird_fa5969b3-15b4-468c-b0bc-2fa9e9604c7c", "provider": "bird", "timeStamp": "02/04/2020, 15:29:46"}, "type": "Feature"}, {"geometry": {"coordinates": [8.52941833333333, 47.393745], "type": "Point"}, "properties": {"charge": 26, "id": "bird_8a5a106c-6d8d-4e6d-9099-dc7a862509ec", "provider": "bird", "timeStamp": "02/04/2020, 15:29:46"}, "type": "Feature"}, {"geometry": {"coordinates": [8.53906333333333, 47.3922233333333], "type": "Point"}, "properties": {"charge": 64, "id": "bird_7d37d55a-1d28-41de-a72b-d47c6d581ff8", "provider": "bird", "timeStamp": "02/04/2020, 15:29:46"}, "type": "Feature"}, {"geometry": {"coordinates": [8.51333333333333, 47.3724633333333], "type": "Point"}, "properties": {"charge": 44, "id": "bird_b27ba0f8-eadc-47eb-b416-b1c98c4621fd", "provider": "bird", "timeStamp": "02/04/2020, 15:29:46"}, "type": "Feature"}, {"geometry": {"coordinates": [8.52928666666667, 47.3934216666667], "type": "Point"}, "properties": {"charge": 26, "id": "bird_cb733e2d-c75e-40b9-93a8-f1c7ff4a401a", "provider": "bird", "timeStamp": "02/04/2020, 15:29:46"}, "type": "Feature"}, {"geometry": {"coordinates": [8.51018833333333, 47.38007], "type": "Point"}, "properties": {"charge": 15, "id": "bird_a64618a4-f71d-47e2-ae59-5d11e1061b5e", "provider": "bird", "timeStamp": "02/04/2020, 15:29:46"}, "type": "Feature"}, {"geometry": {"coordinates": [8.51292, 47.38676], "type": "Point"}, "properties": {"charge": 22, "id": "bird_b2c43b59-85ed-4653-9367-d6e5f83e2adf", "provider": "bird", "timeStamp": "02/04/2020, 15:29:46"}, "type": "Feature"}, {"geometry": {"coordinates": [8.52859333333333, 47.3933483333333], "type": "Point"}, "properties": {"charge": 48, "id": "bird_c0a6c764-8edc-4a54-b76d-d3920a4d42bc", "provider": "bird", "timeStamp": "02/04/2020, 15:29:46"}, "type": "Feature"}, {"geometry": {"coordinates": [8.51993833333333, 47.3684883333333], "type": "Point"}, "properties": {"charge": 29, "id": "bird_88ea6dc8-6f6c-4753-b3bd-a8d2f7c8ca71", "provider": "bird", "timeStamp": "02/04/2020, 15:29:46"}, "type": "Feature"}, {"geometry": {"coordinates": [8.51026, 47.3802916666667], "type": "Point"}, "properties": {"charge": 18, "id": "bird_3ca9900f-602f-433b-9069-8f2098b1554b", "provider": "bird", "timeStamp": "02/04/2020, 15:29:46"}, "type": "Feature"}, {"geometry": {"coordinates": [8.53387333333333, 47.3669083333333], "type": "Point"}, "properties": {"charge": 10, "id": "bird_31a13623-a1c4-4bb2-bb5e-92a5eb9ebce2", "provider": "bird", "timeStamp": "02/04/2020, 15:29:46"}, "type": "Feature"}, {"geometry": {"coordinates": [8.52858833333333, 47.39325], "type": "Point"}, "properties": {"charge": 48, "id": "bird_9d8ad0e4-e3fc-4e04-8532-ec1ccd210e16", "provider": "bird", "timeStamp": "02/04/2020, 15:29:46"}, "type": "Feature"}, {"geometry": {"coordinates": [8.53355666666667, 47.3669466666667], "type": "Point"}, "properties": {"charge": 61, "id": "bird_6fddb4e0-a9cb-48ca-ba64-9ececd2f9d7b", "provider": "bird", "timeStamp": "02/04/2020, 15:29:46"}, "type": "Feature"}, {"geometry": {"coordinates": [8.54438, 47.371025], "type": "Point"}, "properties": {"charge": 25, "id": "bird_9b554a85-8ec5-472c-a23f-bcb1186794a2", "provider": "bird", "timeStamp": "02/04/2020, 15:29:46"}, "type": "Feature"}, {"geometry": {"coordinates": [8.51295833333333, 47.3736383333333], "type": "Point"}, "properties": {"charge": 46, "id": "bird_f9c7de13-cf8b-48ac-8e67-d7046d913153", "provider": "bird", "timeStamp": "02/04/2020, 15:29:46"}, "type": "Feature"}, {"geometry": {"coordinates": [8.51074833333333, 47.3787916666667], "type": "Point"}, "properties": {"charge": 19, "id": "bird_69f11b62-138c-42b1-8fce-04583d53ed08", "provider": "bird", "timeStamp": "02/04/2020, 15:29:46"}, "type": "Feature"}, {"geometry": {"coordinates": [8.54825666666667, 47.384285], "type": "Point"}, "properties": {"charge": 53, "id": "bird_f37e70c7-68f3-4839-8088-28b750377278", "provider": "bird", "timeStamp": "02/04/2020, 15:29:46"}, "type": "Feature"}, {"geometry": {"coordinates": [8.54563666666667, 47.3723833333333], "type": "Point"}, "properties": {"charge": 42, "id": "bird_2a9b5f64-72ea-470f-b364-700d305c6d67", "provider": "bird", "timeStamp": "02/04/2020, 15:29:46"}, "type": "Feature"}, {"geometry": {"coordinates": [8.548765, 47.3828583333333], "type": "Point"}, "properties": {"charge": 20, "id": "bird_cca20380-889c-45ca-aae2-a7edf31a3672", "provider": "bird", "timeStamp": "02/04/2020, 15:29:46"}, "type": "Feature"}, {"geometry": {"coordinates": [8.54033166666667, 47.3691183333333], "type": "Point"}, "properties": {"charge": 28, "id": "bird_68199eac-7cb6-453c-81a9-8da838b5dd15", "provider": "bird", "timeStamp": "02/04/2020, 15:29:46"}, "type": "Feature"}, {"geometry": {"coordinates": [8.511235, 47.377975], "type": "Point"}, "properties": {"charge": 24, "id": "bird_bbee87a2-f47d-419a-9101-c44e6f2d14ad", "provider": "bird", "timeStamp": "02/04/2020, 15:29:46"}, "type": "Feature"}, {"geometry": {"coordinates": [8.542915, 47.370575], "type": "Point"}, "properties": {"charge": 16, "id": "bird_4147f791-2a56-43f5-8794-e18d8ae68dee", "provider": "bird", "timeStamp": "02/04/2020, 15:29:46"}, "type": "Feature"}, {"geometry": {"coordinates": [8.52557666666667, 47.3924866666667], "type": "Point"}, "properties": {"charge": 34, "id": "bird_8b15f396-ef00-4ef8-9814-468099bd81ac", "provider": "bird", "timeStamp": "02/04/2020, 15:29:46"}, "type": "Feature"}, {"geometry": {"coordinates": [8.54691666666667, 47.3857383333333], "type": "Point"}, "properties": {"charge": 51, "id": "bird_20075318-0504-4d8c-8521-80cb08be83e3", "provider": "bird", "timeStamp": "02/04/2020, 15:29:46"}, "type": "Feature"}, {"geometry": {"coordinates": [8.52558333333333, 47.392395], "type": "Point"}, "properties": {"charge": 51, "id": "bird_1b988910-e478-4678-b5bf-5c5eda0e5b91", "provider": "bird", "timeStamp": "02/04/2020, 15:29:46"}, "type": "Feature"}, {"geometry": {"coordinates": [8.52564333333333, 47.3923983333333], "type": "Point"}, "properties": {"charge": 48, "id": "bird_35f271b5-9608-44d5-96a5-d9bdcbdcc1e9", "provider": "bird", "timeStamp": "02/04/2020, 15:29:46"}, "type": "Feature"}, {"geometry": {"coordinates": [8.546185, 47.3863183333333], "type": "Point"}, "properties": {"charge": 31, "id": "bird_6784c22b-bf72-4584-9450-0b23e80571da", "provider": "bird", "timeStamp": "02/04/2020, 15:29:46"}, "type": "Feature"}, {"geometry": {"coordinates": [8.536695, 47.3682166666667], "type": "Point"}, "properties": {"charge": 78, "id": "bird_b3c2806a-04c7-4a2c-8568-28dbf1465895", "provider": "bird", "timeStamp": "02/04/2020, 15:29:46"}, "type": "Feature"}, {"geometry": {"coordinates": [8.53897333333333, 47.3910633333333], "type": "Point"}, "properties": {"charge": 30, "id": "bird_ddee5d92-16f2-49c2-8061-6585e67f89f0", "provider": "bird", "timeStamp": "02/04/2020, 15:29:46"}, "type": "Feature"}, {"geometry": {"coordinates": [8.546435, 47.3741533333333], "type": "Point"}, "properties": {"charge": 20, "id": "bird_c5fc56ee-b2e7-4182-bb9d-602c5aad1b6a", "provider": "bird", "timeStamp": "02/04/2020, 15:29:46"}, "type": "Feature"}, {"geometry": {"coordinates": [8.53663666666667, 47.3682633333333], "type": "Point"}, "properties": {"charge": 21, "id": "bird_3873a2b3-f41b-48bb-8f89-659ed085cf30", "provider": "bird", "timeStamp": "02/04/2020, 15:29:46"}, "type": "Feature"}, {"geometry": {"coordinates": [8.54326166666667, 47.3712733333333], "type": "Point"}, "properties": {"charge": 57, "id": "bird_0bbf78d7-54e5-4aee-aabb-c0aaedbda00d", "provider": "bird", "timeStamp": "02/04/2020, 15:29:46"}, "type": "Feature"}, {"geometry": {"coordinates": [8.54142, 47.3898466666667], "type": "Point"}, "properties": {"charge": 52, "id": "bird_42a508ee-b653-48ea-ba06-68a6b21636a0", "provider": "bird", "timeStamp": "02/04/2020, 15:29:46"}, "type": "Feature"}, {"geometry": {"coordinates": [8.53335833333333, 47.3922533333333], "type": "Point"}, "properties": {"charge": 19, "id": "bird_d068bd1f-ae9e-4499-8006-cb0a89aa75fa", "provider": "bird", "timeStamp": "02/04/2020, 15:29:46"}, "type": "Feature"}, {"geometry": {"coordinates": [8.51227833333333, 47.3768766666667], "type": "Point"}, "properties": {"charge": 55, "id": "bird_d5f4b41b-e9ba-48e7-8bbb-af0a7e0c62c3", "provider": "bird", "timeStamp": "02/04/2020, 15:29:46"}, "type": "Feature"}, {"geometry": {"coordinates": [8.53145166666667, 47.3678433333333], "type": "Point"}, "properties": {"charge": 51, "id": "bird_48a4cbfb-b938-48d6-8135-39a8437b5d84", "provider": "bird", "timeStamp": "02/04/2020, 15:29:46"}, "type": "Feature"}, {"geometry": {"coordinates": [8.54564333333333, 47.3859866666667], "type": "Point"},