{"features": [{"geometry": {"coordinates": [8.540062, 47.374392], "type": "Point"}, "properties": {"address": "Uraniastrasse 7", "electric": 0, "id": "pb_60", "manual": 6, "name": "Demo Station Werdm\u00fchleplatz", "provider": "publibike", "timeStamp": "02/12/2020, 13:59:20", "zip": 8001}, "type": "Feature"}, {"geometry": {"coordinates": [8.5452956, 47.4099615], "type": "Point"}, "properties": {"address": "Querstrasse 8", "electric": 6, "id": "pb_61", "manual": 3, "name": "Marktplatz", "provider": "publibike", "timeStamp": "02/12/2020, 13:59:20", "zip": 8050}, "type": "Feature"}, {"geometry": {"coordinates": [8.5156327, 47.3795837], "type": "Point"}, "properties": {"address": "Bullingerstrasse 5", "electric": 0, "id": "pb_80", "manual": 2, "name": "Bullingerplatz", "provider": "publibike", "timeStamp": "02/12/2020, 13:59:20", "zip": 8004}, "type": "Feature"}, {"geometry": {"coordinates": [8.5104051, 47.3899342], "type": "Point"}, "properties": {"address": "Pfingstweidstrasse 96e", "electric": 6, "id": "pb_81", "manual": 4, "name": "Herdern", "provider": "publibike", "timeStamp": "02/12/2020, 13:59:20", "zip": 8001}, "type": "Feature"}, {"geometry": {"coordinates": [8.535718, 47.359675], "type": "Point"}, "properties": {"address": "Mythenquai 50", "electric": 19, "id": "pb_82", "manual": 3, "name": "Hafen Enge", "provider": "publibike", "timeStamp": "02/12/2020, 13:59:20", "zip": 8002}, "type": "Feature"}, {"geometry": {"coordinates": [8.520370505, 47.358663827], "type": "Point"}, "properties": {"address": "Bubenbergstrasse 1", "electric": 2, "id": "pb_83", "manual": 2, "name": "Comerge", "provider": "publibike", "timeStamp": "02/12/2020, 13:59:20", "zip": 8045}, "type": "Feature"}, {"geometry": {"coordinates": [8.5412505, 47.3789825], "type": "Point"}, "properties": {"address": "Museumstrasse 2", "electric": 8, "id": "pb_84", "manual": 20, "name": "Landesmuseum", "provider": "publibike", "timeStamp": "02/12/2020, 13:59:20", "zip": 8001}, "type": "Feature"}, {"geometry": {"coordinates": [8.5235479, 47.3716661], "type": "Point"}, "properties": {"address": "Birmensdorferstrasse 80", "electric": 0, "id": "pb_85", "manual": 0, "name": "Bahnhof Wiedikon", "provider": "publibike", "timeStamp": "02/12/2020, 13:59:20", "zip": 8003}, "type": "Feature"}, {"geometry": {"coordinates": [8.506822854, 47.40781197], "type": "Point"}, "properties": {"address": "Stefano-Franscini-Platz 5", "electric": 14, "id": "pb_86", "manual": 0, "name": "ETH H\u00f6nggerberg", "provider": "publibike", "timeStamp": "02/12/2020, 13:59:20", "zip": 8093}, "type": "Feature"}, {"geometry": {"coordinates": [8.536101, 47.371083], "type": "Point"}, "properties": {"address": "Pelikanplatz 5", "electric": 9, "id": "pb_87", "manual": 18, "name": "Pelikanplatz", "provider": "publibike", "timeStamp": "02/12/2020, 13:59:20", "zip": 8001}, "type": "Feature"}, {"geometry": {"coordinates": [8.5257822, 47.3651936], "type": "Point"}, "properties": {"address": "H\u00fcrlimannplatz 90", "electric": 34, "id": "pb_88", "manual": 17, "name": "H\u00fcrlimannplatz", "provider": "publibike", "timeStamp": "02/12/2020, 13:59:20", "zip": 8002}, "type": "Feature"}, {"geometry": {"coordinates": [8.5313344, 47.3713591], "type": "Point"}, "properties": {"address": "Selnaustrasse 32", "electric": 6, "id": "pb_89", "manual": 1, "name": "Stauffacherbr\u00fccke", "provider": "publibike", "timeStamp": "02/12/2020, 13:59:20", "zip": 8001}, "type": "Feature"}, {"geometry": {"coordinates": [8.5056978, 47.3917964], "type": "Point"}, "properties": {"address": "Sportweg 25", "electric": 2, "id": "pb_90", "manual": 5, "name": "Sportweg", "provider": "publibike", "timeStamp": "02/12/2020, 13:59:20", "zip": 8005}, "type": "Feature"}, {"geometry": {"coordinates": [8.5181701, 47.3917837], "type": "Point"}, "properties": {"address": "Hardturmstrasse 11", "electric": 3, "id": "pb_91", "manual": 1, "name": "Puls 5", "provider": "publibike", "timeStamp": "02/12/2020, 13:59:20", "zip": 8005}, "type": "Feature"}, {"geometry": {"coordinates": [8.5286468, 47.3820827], "type": "Point"}, "properties": {"address": "R\u00f6ntgenstrasse 6", "electric": 4, "id": "pb_92", "manual": 11, "name": "R\u00f6ntgenstrasse", "provider": "publibike", "timeStamp": "02/12/2020, 13:59:20", "zip": 8005}, "type": "Feature"}, {"geometry": {"coordinates": [8.531935, 47.384918], "type": "Point"}, "properties": {"address": "Kornhausbr\u00fccke 1", "electric": 1, "id": "pb_93", "manual": 8, "name": "Limmatplatz", "provider": "publibike", "timeStamp": "02/12/2020, 13:59:20", "zip": 8005}, "type": "Feature"}, {"geometry": {"coordinates": [8.5354006, 47.3758639], "type": "Point"}, "properties": {"address": "Gessnerallee 15", "electric": 1, "id": "pb_94", "manual": 2, "name": "Gessnerallee", "provider": "publibike", "timeStamp": "02/12/2020, 13:59:20", "zip": 8001}, "type": "Feature"}, {"geometry": {"coordinates": [8.523818, 47.377148], "type": "Point"}, "properties": {"address": "Stauffacherstrasse 127", "electric": 6, "id": "pb_95", "manual": 6, "name": "B\u00e4ckeranlage", "provider": "publibike", "timeStamp": "02/12/2020, 13:59:20", "zip": 8004}, "type": "Feature"}, {"geometry": {"coordinates": [8.531836, 47.378548], "type": "Point"}, "properties": {"address": "Lagerstrasse 44", "electric": 8, "id": "pb_96", "manual": 4, "name": "Gustav-Gull-Platz", "provider": "publibike", "timeStamp": "02/12/2020, 13:59:20", "zip": 8004}, "type": "Feature"}, {"geometry": {"coordinates": [8.5104883, 47.3771535], "type": "Point"}, "properties": {"address": "Zurlindenstrasse 291", "electric": 1, "id": "pb_97", "manual": 7, "name": "Zurlindenstrasse", "provider": "publibike", "timeStamp": "02/12/2020, 13:59:20", "zip": 8003}, "type": "Feature"}, {"geometry": {"coordinates": [8.5333139, 47.3731102], "type": "Point"}, "properties": {"address": "Sihlstrasse 81", "electric": 10, "id": "pb_98", "manual": 11, "name": "Sihlstrasse", "provider": "publibike", "timeStamp": "02/12/2020, 13:59:20", "zip": 8001}, "type": "Feature"}, {"geometry": {"coordinates": [8.520532, 47.374951], "type": "Point"}, "properties": {"address": "Feldstrasse 24", "electric": 6, "id": "pb_99", "manual": 3, "name": "Kalkbreite", "provider": "publibike", "timeStamp": "02/12/2020, 13:59:20", "zip": 8004}, "type": "Feature"}, {"geometry": {"coordinates": [8.539046, 47.368064], "type": "Point"}, "properties": {"address": "Talstrasse 12", "electric": 2, "id": "pb_100", "manual": 5, "name": "Z\u00fcrcher Kantonalbank", "provider": "publibike", "timeStamp": "02/12/2020, 13:59:20", "zip": 8001}, "type": "Feature"}, {"geometry": {"coordinates": [8.5348427, 47.3625938], "type": "Point"}, "properties": {"address": "Breitingerstrasse 5", "electric": 1, "id": "pb_101", "manual": 1, "name": "Rentenanstalt", "provider": "publibike", "timeStamp": "02/12/2020, 13:59:20", "zip": 8002}, "type": "Feature"}, {"geometry": {"coordinates": [8.5166922, 47.3897772], "type": "Point"}, "properties": {"address": "Technoparkstrasse 4", "electric": 2, "id": "pb_102", "manual": 3, "name": "Turbinenplatz", "provider": "publibike", "timeStamp": "02/12/2020, 13:59:20", "zip": 8005}, "type": "Feature"}, {"geometry": {"coordinates": [8.539312, 47.3739964], "type": "Point"}, "properties": {"address": "Oetenbachgasse 14", "electric": 1, "id": "pb_104", "manual": 7, "name": "Rennweg", "provider": "publibike", "timeStamp": "02/12/2020, 13:59:20", "zip": 8001}, "type": "Feature"}, {"geometry": {"coordinates": [8.5360685, 47.3775022], "type": "Point"}, "properties": {"address": "Kasernenstrasse 101", "electric": 18, "id": "pb_105", "manual": 20, "name": "Sihlpost", "provider": "publibike", "timeStamp": "02/12/2020, 13:59:20", "zip": 8004}, "type": "Feature"}, {"geometry": {"coordinates": [8.53545, 47.382798], "type": "Point"}, "properties": {"address": "Ausstellungsstrasse 44", "electric": 5, "id": "pb_106", "manual": 12, "name": "Museum f\u00fcr Gestaltung", "provider": "publibike", "timeStamp": "02/12/2020, 13:59:20", "zip": 8005}, "type": "Feature"}, {"geometry": {"coordinates": [8.5306155, 47.3647902], "type": "Point"}, "properties": {"address": "Gutenbergstrasse 1", "electric": 1, "id": "pb_107", "manual": 9, "name": "Bederbr\u00fccke", "provider": "publibike", "timeStamp": "02/12/2020, 13:59:20", "zip": 8002}, "type": "Feature"}, {"geometry": {"coordinates": [8.518982, 47.386741], "type": "Point"}, "properties": {"address": "Geroldstrasse 4", "electric": 8, "id": "pb_108", "manual": 5, "name": "Bahnhof Hardbr\u00fccke", "provider": "publibike", "timeStamp": "02/12/2020, 13:59:20", "zip": 8005}, "type": "Feature"}, {"geometry": {"coordinates": [8.53001018, 47.37247535], "type": "Point"}, "properties": {"address": "Werdstrasse 21", "electric": 11, "id": "pb_109", "manual": 3, "name": "Tamedia", "provider": "publibike", "timeStamp": "02/12/2020, 13:59:20", "zip": 8004}, "type": "Feature"}, {"geometry": {"coordinates": [8.4860017, 47.396401], "type": "Point"}, "properties": {"address": "Gr\u00fcnauring 37", "electric": 9, "id": "pb_110", "manual": 1, "name": "Gr\u00fcnau", "provider": "publibike", "timeStamp": "02/12/2020, 13:59:20", "zip": 8064}, "type": "Feature"}, {"geometry": {"coordinates": [8.548519, 47.376756], "type": "Point"}, "properties": {"address": "R\u00e4mistrasse 101", "electric": 27, "id": "pb_111", "manual": 1, "name": "ETH Zentrum", "provider": "publibike", "timeStamp": "02/12/2020, 13:59:20", "zip": 8006}, "type": "Feature"}, {"geometry": {"coordinates": [8.520449, 47.388151], "type": "Point"}, "properties": {"address": "Josefstrasse 224", "electric": 5, "id": "pb_112", "manual": 2, "name": "Steinfelsareal", "provider": "publibike", "timeStamp": "02/12/2020, 13:59:20", "zip": 8005}, "type": "Feature"}, {"geometry": {"coordinates": [8.520482, 47.37209], "type": "Point"}, "properties": {"address": "Weststrasse 115", "electric": 2, "id": "pb_124", "manual": 3, "name": "Weststrasse", "provider": "publibike", "timeStamp": "02/12/2020, 13:59:20", "zip": 8003}, "type": "Feature"}, {"geometry": {"coordinates": [8.496727, 47.378521], "type": "Point"}, "properties": {"address": "Albisriederstrasse 200", "electric": 5, "id": "pb_125", "manual": 2, "name": "Utogrund", "provider": "publibike", "timeStamp": "02/12/2020, 13:59:20", "zip": 8047}, "type": "Feature"}, {"geometry": {"coordinates": [8.510418, 47.381356], "type": "Point"}, "properties": {"address": "Bullingerstrasse 73", "electric": 0, "id": "pb_126", "manual": 6, "name": "Hardau", "provider": "publibike", "timeStamp": "02/12/2020, 13:59:20", "zip": 8004}, "type": "Feature"}, {"geometry": {"coordinates": [8.525525, 47.361567], "type": "Point"}, "properties": {"address": "Klopstockstrasse 23", "electric": 2, "id": "pb_127", "manual": 4, "name": "Klopstockwiese", "provider": "publibike", "timeStamp": "02/12/2020, 13:59:20", "zip": 8002}, "type": "Feature"}, {"geometry": {"coordinates": [8.518143, 47.363148], "type": "Point"}, "properties": {"address": "Haldenstrasse 8", "electric": 2, "id": "pb_128", "manual": 1, "name": "Binz", "provider": "publibike", "timeStamp": "02/12/2020, 13:59:20", "zip": 8045}, "type": "Feature"}, {"geometry": {"coordinates": [8.542726, 47.379952], "type": "Point"}, "properties": {"address": "Walchestrasse 11", "electric": 1, "id": "pb_129", "manual": 2, "name": "Stampfenbachplatz", "provider": "publibike", "timeStamp": "02/12/2020, 13:59:20", "zip": 8006}, "type": "Feature"}, {"geometry": {"coordinates": [8.488108, 47.391366], "type": "Point"}, "properties": {"address": "Altstetterplatz 1", "electric": 7, "id": "pb_130", "manual": 5, "name": "Bahnhof Altstetten", "provider": "publibike", "timeStamp": "02/12/2020, 13:59:20", "zip": 8048}, "type": "Feature"}, {"geometry": {"coordinates": [8.554114, 47.365119], "type": "Point"}, "properties": {"address": "Kreuzplatz 2", "electric": 0, "id": "pb_131", "manual": 4, "name": "Kreuzplatz", "provider": "publibike", "timeStamp": "02/12/2020, 13:59:20", "zip": 8032}, "type": "Feature"}, {"geometry": {"coordinates": [8.549852, 47.35594], "type": "Point"}, "properties": {"address": "H\u00f6schgasse 3", "electric": 3, "id": "pb_132", "manual": 9, "name": "Blatterwiese", "provider": "publibike", "timeStamp": "02/12/2020, 13:59:20", "zip": 8008}, "type": "Feature"}, {"geometry": {"coordinates": [8.554501, 47.36162], "type": "Point"}, "properties": {"address": "Feldeggstrasse 80", "electric": 3, "id": "pb_133", "manual": 2, "name": "Villa Bleuler", "provider": "publibike", "timeStamp": "02/12/2020, 13:59:20", "zip": 8008}, "type": "Feature"}, {"geometry": {"coordinates": [8.557088, 47.358557], "type": "Point"}, "properties": {"address": "M\u00fchlebachstrasse 131", "electric": 3, "id": "pb_134", "manual": 0, "name": "M\u00fchlebachstrasse", "provider": "publibike", "timeStamp": "02/12/2020, 13:59:20", "zip": 8008}, "type": "Feature"}, {"geometry": {"coordinates": [8.547639, 47.361266], "type": "Point"}, "properties": {"address": "Utoquai 50", "electric": 0, "id": "pb_135", "manual": 0, "name": "Seebad Utoquai", "provider": "publibike", "timeStamp": "02/12/2020, 13:59:20", "zip": 8008}, "type": "Feature"}, {"geometry": {"coordinates": [8.548045, 47.370869], "type": "Point"}, "properties": {"address": "Heimplatz 1", "electric": 5, "id": "pb_137", "manual": 0, "name": "Kunsthaus", "provider": "publibike", "timeStamp": "02/12/2020, 13:59:20", "zip": 8001}, "type": "Feature"}, {"geometry": {"coordinates": [8.543447, 47.375933], "type": "Point"}, "properties": {"address": "Limmatquai 138", "electric": 3, "id": "pb_138", "manual": 4, "name": "Central", "provider": "publibike", "timeStamp": "02/12/2020, 13:59:20", "zip": 8001}, "type": "Feature"}, {"geometry": {"coordinates": [8.549356, 47.408827], "type": "Point"}, "properties": {"address": "Tramstrasse 35", "electric": 2, "id": "pb_139", "manual": 4, "name": "ewz Tramstrasse", "provider": "publibike", "timeStamp": "02/12/2020, 13:59:20", "zip": 8050}, "type": "Feature"}, {"geometry": {"coordinates": [8.533736, 47.366904], "type": "Point"}, "properties": {"address": "Bleicherweg 33", "electric": 0, "id": "pb_140", "manual": 8, "name": "Bleicherweg", "provider": "publibike", "timeStamp": "02/12/2020, 13:59:20", "zip": 8002}, "type": "Feature"}, {"geometry": {"coordinates": [8.544935, 47.366752], "type": "Point"}, "properties": {"address": "Bellevueplatz 2", "electric": 13, "id": "pb_141", "manual": 27, "name": "Bellevue", "provider": "publibike", "timeStamp": "02/12/2020, 13:59:20", "zip": 8001}, "type": "Feature"}, {"geometry": {"coordinates": [8.5285533, 47.3742296], "type": "Point"}, "properties": {"address": "Stauffacherstrasse 41", "electric": 3, "id": "pb_142", "manual": 6, "name": "Stauffacher", "provider": "publibike", "timeStamp": "02/12/2020, 13:59:20", "zip": 8004}, "type": "Feature"}, {"geometry": {"coordinates": [8.523722, 47.3899], "type": "Point"}, "properties": {"address": "Limmatstrasse 310", "electric": 0, "id": "pb_143", "manual": 8, "name": "Escher-Wyss-Platz", "provider": "publibike", "timeStamp": "02/12/2020, 13:59:20", "zip": 8005}, "type": "Feature"}, {"geometry": {"coordinates": [8.491061, 47.392336], "type": "Point"}, "properties": {"address": "Vulkanplatz 1", "electric": 1, "id": "pb_149", "manual": 5, "name": "Vulkanplatz", "provider": "publibike", "timeStamp": "02/12/2020, 13:59:20", "zip": 8048}, "type": "Feature"}, {"geometry": {"coordinates": [8.52306, 47.359872], "type": "Point"}, "properties": {"address": "Giessh\u00fcbelstrasse 15", "electric": 5, "id": "pb_150", "manual": 1, "name": "Utoplatz", "provider": "publibike", "timeStamp": "02/12/2020, 13:59:20", "zip": 8045}, "type": "Feature"}, {"geometry": {"coordinates": [8.486284, 47.387685], "type": "Point"}, "properties": {"address": "Lindenplatz 1", "electric": 5, "id": "pb_151", "manual": 5, "name": "Lindenplatz", "provider": "publibike", "timeStamp": "02/12/2020, 13:59:20", "zip": 8048}, "type": "Feature"}, {"geometry": {"coordinates": [8.49163, 47.389823], "type": "Point"}, "properties": {"address": "Hohlstrasse 563", "electric": 1, "id": "pb_152", "manual": 0, "name": "Luggweg", "provider": "publibike", "timeStamp": "02/12/2020, 13:59:20", "zip": 8048}, "type": "Feature"}, {"geometry": {"coordinates": [8.52174, 47.365272], "type": "Point"}, "properties": {"address": "Manessestrasse 87", "electric": 0, "id": "pb_153", "manual": 1, "name": "Manesseplatz", "provider": "publibike", "timeStamp": "02/12/2020, 13:59:20", "zip": 8045}, "type": "Feature"}, {"geometry": {"coordinates": [8.52714, 47.372329], "type": "Point"}, "properties": {"address": "Werdstrasse 75", "electric": 1, "id": "pb_154", "manual": 6, "name": "Werd", "provider": "publibike", "timeStamp": "02/12/2020, 13:59:20", "zip": 8004}, "type": "Feature"}, {"geometry": {"coordinates": [8.543042, 47.374711], "type": "Point"}, "properties": {"address": "Limmatquai 100", "electric": 0, "id": "pb_155", "manual": 0, "name": "Rudolf-Brun-Br\u00fccke", "provider": "publibike", "timeStamp": "02/12/2020, 13:59:20", "zip": 8001}, "type": "Feature"}, {"geometry": {"coordinates": [8.490837, 47.386596], "type": "Point"}, "properties": {"address": "Badenerstrasse 627", "electric": 6, "id": "pb_156", "manual": 0, "name": "Luggwegstrasse VBZ", "provider": "publibike", "timeStamp": "02/12/2020, 13:59:20", "zip": 8048}, "type": "Feature"}, {"geometry": {"coordinates": [8.535119, 47.355189], "type": "Point"}, "properties": {"address": "Mythenquai 95", "electric": 0, "id": "pb_157", "manual": 2, "name": "Strandbad Mythenquai", "provider": "publibike", "timeStamp": "02/12/2020, 13:59:20", "zip": 8002}, "type": "Feature"}, {"geometry": {"coordinates": [8.545505, 47.373675], "type": "Point"}, "properties": {"address": "Predigerpatz 21", "electric": 8, "id": "pb_158", "manual": 8, "name": "Predigerplatz", "provider": "publibike", "timeStamp": "02/12/2020, 13:59:20", "zip": 8001}, "type": "Feature"}, {"geometry": {"coordinates": [8.515558, 47.371868], "type": "Point"}, "properties": {"address": "Aemtlerstrasse 23", "electric": 0, "id": "pb_159", "manual": 6, "name": "Zwinglihaus", "provider": "publibike", "timeStamp": "02/12/2020, 13:59:20", "zip": 8003}, "type": "Feature"}, {"geometry": {"coordinates": [8.524629, 47.386072], "type": "Point"}, "properties": {"address": "Josefstrasse 188", "electric": 5, "id": "pb_160", "manual": 5, "name": "Josefwiese", "provider": "publibike", "timeStamp": "02/12/2020, 13:59:20", "zip": 8005}, "type": "Feature"}, {"geometry": {"coordinates": [8.527138, 47.387531], "type": "Point"}, "properties": {"address": "R\u00f6ntgenstrasse 87", "electric": 0, "id": "pb_164", "manual": 2, "name": "Markthalle", "provider": "publibike", "timeStamp": "02/12/2020, 13:59:20", "zip": 8005}, "type": "Feature"}, {"geometry": {"coordinates": [8.552717, 47.359978], "type": "Point"}, "properties": {"address": "Seefeldstrasse 96", "electric": 9, "id": "pb_263", "manual": 12, "name": "Feldeggstrasse", "provider": "publibike", "timeStamp": "02/12/2020, 13:59:20", "zip": 8008}, "type": "Feature"}, {"geometry": {"coordinates": [8.553189, 47.353198], "type": "Point"}, "properties": {"address": "Bellerivestrasse 170", "electric": 6, "id": "pb_264", "manual": 0, "name": "Lake Side", "provider": "publibike", "timeStamp": "02/12/2020, 13:59:20", "zip": 8008}, "type": "Feature"}, {"geometry": {"coordinates": [8.543437, 47.369256], "type": "Point"}, "properties": {"address": "Limmatquai 18", "electric": 0, "id": "pb_265", "manual": 0, "name": "Helmhaus", "provider": "publibike", "timeStamp": "02/12/2020, 13:59:20", "zip": 8032}, "type": "Feature"}, {"geometry": {"coordinates": [8.516676, 47.375819], "type": "Point"}, "properties": {"address": "Badenerstrasse 246", "electric": 0, "id": "pb_266", "manual": 4, "name": "Lochergut", "provider": "publibike", "timeStamp": "02/12/2020, 13:59:20", "zip": 8004}, "type": "Feature"}, {"geometry": {"coordinates": [8.514605, 47.389862], "type": "Point"}, "properties": {"address": "Pfingstweidstrasse 60", "electric": 4, "id": "pb_273", "manual": 3, "name": "Westpark", "provider": "publibike", "timeStamp": "02/12/2020, 13:59:20", "zip": 8005}, "type": "Feature"}, {"geometry": {"coordinates": [8.541239126, 47.375991201], "type": "Point"}, "properties": {"address": "Beatenplatz 1", "electric": 3, "id": "pb_274", "manual": 5, "name": "Beatenplatz", "provider": "publibike", "timeStamp": "02/12/2020, 13:59:20", "zip": 8001}, "type": "Feature"}, {"geometry": {"coordinates": [8.5417135, 47.3942197], "type": "Point"}, "properties": {"address": "Scheuchzerstrasse 181", "electric": 1, "id": "pb_275", "manual": 1, "name": "Pauluskirche", "provider": "publibike", "timeStamp": "02/12/2020, 13:59:20", "zip": 8057}, "type": "Feature"}, {"geometry": {"coordinates": [8.5528182, 47.414558], "type": "Point"}, "properties": {"address": "Hagenholzstrasse 51", "electric": 5, "id": "pb_276", "manual": 7, "name": "Airgate", "provider": "publibike", "timeStamp": "02/12/2020, 13:59:20", "zip": 8050}, "type": "Feature"}, {"geometry": {"coordinates": [8.537816, 47.413514], "type": "Point"}, "properties": {"address": "Birchstrasse 183", "electric": 7, "id": "pb_277", "manual": 1, "name": "Lamprechtweg", "provider": "publibike", "timeStamp": "02/12/2020, 13:59:20", "zip": 8050}, "type": "Feature"}, {"geometry": {"coordinates": [8.545602, 47.417701], "type": "Point"}, "properties": {"address": "Felsenrainstrasse 2", "electric": 2, "id": "pb_278", "manual": 3, "name": "Emil-Oberh\u00e4nsli", "provider": "publibike", "timeStamp": "02/12/2020, 13:59:20", "zip": 8050}, "type": "Feature"}, {"geometry": {"coordinates": [8.533647, 47.39808], "type": "Point"}, "properties": {"address": "Bucheggplatz 2", "electric": 3, "id": "pb_279", "manual": 4, "name": "Bucheggplatz", "provider": "publibike", "timeStamp": "02/12/2020, 13:59:20", "zip": 8057}, "type": "Feature"}, {"geometry": {"coordinates": [8.523549, 47.392347], "type": "Point"}, "properties": {"address": "Wipkingerplatz 4", "electric": 1, "id": "pb_280", "manual": 2, "name": "Wipkingerplatz", "provider": "publibike", "timeStamp": "02/12/2020, 13:59:20", "zip": 8037}, "type": "Feature"}, {"geometry": {"coordinates": [8.548562, 47.36691], "type": "Point"}, "properties": {"address": "Galerie \u00fcber Gleis 2/3", "electric": 5, "id": "pb_285", "manual": 8, "name": "Bahnhof Stadelhofen", "provider": "publibike", "timeStamp": "02/12/2020, 13:59:20", "zip": 8001}, "type": "Feature"}, {"geometry": {"coordinates": [8.493822, 47.3985553], "type": "Point"}, "properties": {"address": "Meierwiesenstrasse 12-4", "electric": 1, "id": "pb_286", "manual": 2, "name": "T\u00fcffenwies", "provider": "publibike", "timeStamp": "02/12/2020, 13:59:20", "zip": 8064}, "type": "Feature"}, {"geometry": {"coordinates": [8.552432, 47.3801757], "type": "Point"}, "properties": {"address": "Hochstrasse 34", "electric": 5, "id": "pb_356", "manual": 0, "name": "Siriuswiese", "provider": "publibike", "timeStamp": "02/12/2020, 13:59:20", "zip": 8044}, "type": "Feature"}, {"geometry": {"coordinates": [8.527298, 47.370141], "type": "Point"}, "properties": {"address": "Hallwylstrasse 71", "electric": 0, "id": "pb_357", "manual": 2, "name": "Hallwylstrasse", "provider": "publibike", "timeStamp": "02/12/2020, 13:59:20", "zip": 8004}, "type": "Feature"}, {"geometry": {"coordinates": [8.5414185, 47.3972455], "type": "Point"}, "properties": {"address": "Schaffhauserstrasse 137", "electric": 4, "id": "pb_358", "manual": 0, "name": "Milchbuck", "provider": "publibike", "timeStamp": "02/12/2020, 13:59:20", "zip": 8057}, "type": "Feature"}, {"geometry": {"coordinates": [8.512381, 47.393409], "type": "Point"}, "properties": {"address": "Hardturmstrasse 161", "electric": 2, "id": "pb_359", "manual": 5, "name": "Fischerweg", "provider": "publibike", "timeStamp": "02/12/2020, 13:59:20", "zip": 8005}, "type": "Feature"}, {"geometry": {"coordinates": [8.5421457, 47.3876979], "type": "Point"}, "properties": {"address": "Turnerstrasse 47", "electric": 2, "id": "pb_360", "manual": 0, "name": "Kirche Unterstrass", "provider": "publibike", "timeStamp": "02/12/2020, 13:59:20", "zip": 8006}, "type": "Feature"}, {"geometry": {"coordinates": [8.522117, 47.394554], "type": "Point"}, "properties": {"address": "Dorfstrasse 40", "electric": 3, "id": "pb_361", "manual": 4, "name": "Dorfstrasse", "provider": "publibike", "timeStamp": "02/12/2020, 13:59:20", "zip": 8037}, "type": "Feature"}, {"geometry": {"coordinates": [8.530437, 47.37271], "type": "Point"}, "properties": {"address": "Werdstrasse 25", "electric": 4, "id": "pb_362", "manual": 5, "name": "Stauffachertor", "provider": "publibike", "timeStamp": "02/12/2020, 13:59:20", "zip": 8004}, "type": "Feature"}, {"geometry": {"coordinates": [8.541712, 47.416155], "type": "Point"}, "properties": {"address": "Eggb\u00fchlstrasse 21", "electric": 11, "id": "pb_363", "manual": 1, "name": "Wahlenpark", "provider": "publibike", "timeStamp": "02/12/2020, 13:59:20", "zip": 8050}, "type": "Feature"}, {"geometry": {"coordinates": [8.5595335, 47.3708387], "type": "Point"}, "properties": {"address": "Dolderstrasse 32", "electric": 0, "id": "pb_364", "manual": 0, "name": "Kinderspital", "provider": "publibike", "timeStamp": "02/12/2020, 13:59:20", "zip": 8032}, "type": "Feature"}, {"geometry": {"coordinates": [8.536433, 47.388689], "type": "Point"}, "properties": {"address": "Kornhausstrasse 30", "electric": 3, "id": "pb_365", "manual": 0, "name": "Kornhausstrasse", "provider": "publibike", "timeStamp": "02/12/2020, 13:59:20", "zip": 8006}, "type": "Feature"}, {"geometry": {"coordinates": [8.55033, 47.407098], "type": "Point"}, "properties": {"address": "Schwamendingenstrasse 41", "electric": 6, "id": "pb_366", "manual": 10, "name": "Dorflinde", "provider": "publibike", "timeStamp": "02/12/2020, 13:59:20", "zip": 8050}, "type": "Feature"}, {"geometry": {"coordinates": [8.560476, 47.368199], "type": "Point"}, "properties": {"address": "R\u00f6merhofplatz 5", "electric": 5, "id": "pb_367", "manual": 0, "name": "R\u00f6merhof", "provider": "publibike", "timeStamp": "02/12/2020, 13:59:20", "zip": 8032}, "type": "Feature"}, {"geometry": {"coordinates": [8.5609218, 47.3619068], "type": "Point"}, "properties": {"address": "Forchstrasse 99", "electric": 1, "id": "pb_368", "manual": 2, "name": "Hegibachplatz", "provider": "publibike", "timeStamp": "02/12/2020, 13:59:20", "zip": 8032}, "type": "Feature"}, {"geometry": {"coordinates": [8.5721264, 47.4039985], "type": "Point"}, "properties": {"address": "Winterthurerstrasse 519", "electric": 4, "id": "pb_370", "manual": 6, "name": "Schwamendingerplatz", "provider": "publibike", "timeStamp": "02/12/2020, 13:59:20", "zip": 8051}, "type": "Feature"}, {"geometry": {"coordinates": [8.520168, 47.378556], "type": "Point"}, "properties": {"address": "Herman-Greulich-Strasse 56", "electric": 0, "id": "pb_384", "manual": 6, "name": "Hermann-Greulich-Weg", "provider": "publibike", "timeStamp": "02/12/2020, 13:59:20", "zip": 8004}, "type": "Feature"}, {"geometry": {"coordinates": [8.547912, 47.384923], "type": "Point"}, "properties": {"address": "Culmannstrasse", "electric": 2, "id": "pb_386", "manual": 4, "name": "Rigiplatz", "provider": "publibike", "timeStamp": "02/12/2020, 13:59:20", "zip": 8006}, "type": "Feature"}, {"geometry": {"coordinates": [8.543768, 47.411057], "type": "Point"}, "properties": {"address": "Hofwiesenstrasse 369", "electric": 1, "id": "pb_387", "manual": 2, "name": "Bahnhof Oerlikon S\u00fcd", "provider": "publibike", "timeStamp": "02/12/2020, 13:59:20", "zip": 8050}, "type": "Feature"}, {"geometry": {"coordinates": [8.544185, 47.412732], "type": "Point"}, "properties": {"address": "Jungholzstrasse 6", "electric": 8, "id": "pb_388", "manual": 8, "name": "Max-Frisch-Platz", "provider": "publibike", "timeStamp": "02/12/2020, 13:59:20", "zip": 8050}, "type": "Feature"}, {"geometry": {"coordinates": [8.558096, 47.413032], "type": "Point"}, "properties": {"address": "Andreasstrasse", "electric": 7, "id": "pb_389", "manual": 8, "name": "Hunziker-Areal", "provider": "publibike", "timeStamp": "02/12/2020, 13:59:20", "zip": 8050}, "type": "Feature"}, {"geometry": {"coordinates": [8.533265, 47.412873], "type": "Point"}, "properties": {"address": "Regina-K\u00e4gi-Strasse 1", "electric": 5, "id": "pb_390", "manual": 6, "name": "Luis-H\u00e4fliger-Park", "provider": "publibike", "timeStamp": "02/12/2020, 13:59:20", "zip": 8050}, "type": "Feature"}, {"geometry": {"coordinates": [8.499265, 47.401852], "type": "Point"}, "properties": {"address": "Limmattalstrasse 177", "electric": 1, "id": "pb_391", "manual": 2, "name": "Meierhofplatz", "provider": "publibike", "timeStamp": "02/12/2020, 13:59:20", "zip": 8049}, "type": "Feature"}, {"geometry": {"coordinates": [8.528356, 47.393255], "type": "Point"}, "properties": {"address": "R\u00f6schibachstrasse 73", "electric": 3, "id": "pb_392", "manual": 3, "name": "R\u00f6schibachplatz", "provider": "publibike", "timeStamp": "02/12/2020, 13:59:20", "zip": 8037}, "type": "Feature"}, {"geometry": {"coordinates": [8.538067, 47.415721], "type": "Point"}, "properties": {"address": "Birchstrasse 191", "electric": 2, "id": "pb_393", "manual": 2, "name": "Oerliker Park", "provider": "publibike", "timeStamp": "02/12/2020, 13:59:20", "zip": 8050}, "type": "Feature"}, {"geometry": {"coordinates": [8.5420304, 47.3669233], "type": "Point"}, "properties": {"address": "Stadthausquai 1", "electric": 0, "id": "pb_395", "manual": 3, "name": "B\u00fcrkliplatz", "provider": "publibike", "timeStamp": "02/12/2020, 13:59:20", "zip": 8001}, "type": "Feature"}, {"geometry": {"coordinates": [8.535767, 47.409881], "type": "Point"}, "properties": {"address": "Regensbergstrasse 195", "electric": 2, "id": "pb_396", "manual": 1, "name": "Holunderhof", "provider": "publibike", "timeStamp": "02/12/2020, 13:59:20", "zip": 8050}, "type": "Feature"}, {"geometry": {"coordinates": [8.5116245, 47.3616199], "type": "Point"}, "properties": {"address": "Grubenstrasse 42", "electric": 8, "id": "pb_431", "manual": 1, "name": "Binz Center", "provider": "publibike", "timeStamp": "02/12/2020, 13:59:20", "zip": 8045}, "type": "Feature"}, {"geometry": {"coordinates": [8.547195, 47.382089], "type": "Point"}, "properties": {"address": "Nelkenstrasse 24", "electric": 8, "id": "pb_430", "manual": 2, "name": "Stapferstube", "provider": "publibike", "timeStamp": "02/12/2020, 13:59:20", "zip": 8006}, "type": "Feature"}, {"geometry": {"coordinates": [8.5787183, 47.4039845], "type": "Point"}, "properties": {"address": "Kronwiesenstrasse 35", "electric": 0, "id": "pb_426", "manual": 4, "name": "Kronwiesen", "provider": "publibike", "timeStamp": "02/12/2020, 13:59:20", "zip": 8051}, "type": "Feature"}, {"geometry": {"coordinates": [8.508131, 47.420757], "type": "Point"}, "properties": {"address": "Riedenhaldenstrasse 20-18", "electric": 5, "id": "pb_425", "manual": 2, "name": "Bahnhof Affoltern", "provider": "publibike", "timeStamp": "02/12/2020, 13:59:20", "zip": 8046}, "type": "Feature"}, {"geometry": {"coordinates": [8.532464, 47.406988], "type": "Point"}, "properties": {"address": "K\u00fcnzlistrasse 41", "electric": 3, "id": "pb_424", "manual": 1, "name": "Birchd\u00f6rfli", "provider": "publibike", "timeStamp": "02/12/2020, 13:59:20", "zip": 8057}, "type": "Feature"}, {"geometry": {"coordinates": [8.5777038, 47.4080095], "type": "Point"}, "properties": {"address": "Luegislandstrasse 412", "electric": 3, "id": "pb_429", "manual": 2, "name": "Luegisland", "provider": "publibike", "timeStamp": "02/12/2020, 13:59:20", "zip": 8051}, "type": "Feature"}, {"geometry": {"coordinates": [8.58841, 47.40158], "type": "Point"}, "properties": {"address": "Hirzenbachstrasse 2-4", "electric": 1, "id": "pb_428", "manual": 3, "name": "Hirzenbachstrasse", "provider": "publibike", "timeStamp": "02/12/2020, 13:59:20", "zip": 8051}, "type": "Feature"}, {"geometry": {"coordinates": [8.5563463, 47.4095467], "type": "Point"}, "properties": {"address": "K\u00fchriedweg", "electric": 1, "id": "pb_445", "manual": 8, "name": "Hallenbad Oerlikon", "provider": "publibike", "timeStamp": "02/12/2020, 13:59:20", "zip": 8050}, "type": "Feature"}, {"geometry": {"coordinates": [8.537971, 47.364871], "type": "Point"}, "properties": {"address": "General-Guisan-Quai 17", "electric": 1, "id": "pb_454", "manual": 4, "name": "General-Guisan-Quai", "provider": "publibike", "timeStamp": "02/12/2020, 13:59:20", "zip": 8002}, "type": "Feature"}, {"geometry": {"coordinates": [8.560587, 47.350578], "type": "Point"}, "properties": {"address": "Bellerivestrasse 245", "electric": 6, "id": "pb_450", "manual": 8, "name": "Bahnhof Tiefenbrunnen", "provider": "publibike", "timeStamp": "02/12/2020, 13:59:20", "zip": 8008}, "type": "Feature"}, {"geometry": {"coordinates": [8.5269416, 47.3563719], "type": "Point"}, "properties": {"address": "Waffenplatzstrasse 89", "electric": 1, "id": "pb_452", "manual": 3, "name": "Rieterplatz", "provider": "publibike", "timeStamp": "02/12/2020, 13:59:20", "zip": 8002}, "type": "Feature"}, {"geometry": {"coordinates": [8.514176, 47.3663708], "type": "Point"}, "properties": {"address": "Talwiesenstrasse 92", "electric": 7, "id": "pb_446", "manual": 1, "name": "Binzallee", "provider": "publibike", "timeStamp": "02/12/2020, 13:59:20", "zip": 8055}, "type": "Feature"}, {"geometry": {"coordinates": [8.5070564, 47.371455], "type": "Point"}, "properties": {"address": "Gutstrasse 87", "electric": 3, "id": "pb_447", "manual": 1, "name": "Gutstrasse", "provider": "publibike", "timeStamp": "02/12/2020, 13:59:20", "zip": 8055}, "type": "Feature"}, {"geometry": {"coordinates": [8.4941268, 47.3836391], "type": "Point"}, "properties": {"address": "Flurstrasse 62", "electric": 0, "id": "pb_453", "manual": 4, "name": "Flurpark", "provider": "publibike", "timeStamp": "02/12/2020, 13:59:20", "zip": 8048}, "type": "Feature"}, {"geometry": {"coordinates": [8.500343, 47.380778], "type": "Point"}, "properties": {"address": "Edelweissstrasse 32", "electric": 7, "id": "pb_448", "manual": 4, "name": "Bl\u00fcemliquartier", "provider": "publibike", "timeStamp": "02/12/2020, 13:59:20", "zip": 8048}, "type": "Feature"}, {"geometry": {"coordinates": [8.528796, 47.383858], "type": "Point"}, "properties": {"address": "Gasometerstrasse 24", "electric": 2, "id": "pb_449", "manual": 4, "name": "Gasometerstrasse", "provider": "publibike", "timeStamp": "02/12/2020, 13:59:20", "zip": 8005}, "type": "Feature"}, {"geometry": {"coordinates": [8.4981964, 47.3859194], "type": "Point"}, "properties": {"address": "Baslerstrasse 57", "electric": 2, "id": "pb_455", "manual": 7, "name": "Letzipark", "provider": "publibike", "timeStamp": "02/12/2020, 13:59:20", "zip": 8048}, "type": "Feature"}, {"geometry": {"coordinates": [8.515252, 47.381915], "type": "Point"}, "properties": {"address": "Sihlfeldstrasse 175", "electric": 0, "id": "pb_451", "manual": 2, "name": "Hardplatz", "provider": "publibike", "timeStamp": "02/12/2020, 13:59:20", "zip": 8004}, "type": "Feature"}, {"geometry": {"coordinates": [8.5064743, 47.4188324], "type": "Point"}, "properties": {"address": "Wehntalerstrasse 541", "electric": 0, "id": "pb_427", "manual": 10, "name": "Zehntenhausplatz", "provider": "publibike", "timeStamp": "02/12/2020, 13:59:20", "zip": 8046}, "type": "Feature"}, {"geometry": {"coordinates": [8.537729, 47.379719], "type": "Point"}, "properties": {"address": "Sihlquai/HB", "electric": 3, "id": "pb_513", "manual": 5, "name": "Sihlquai", "provider": "publibike", "timeStamp": "02/12/2020, 13:59:20", "zip": 8005}, "type": "Feature"}, {"geometry": {"coordinates": [8.596202, 47.397885], "type": "Point"}, "properties": {"address": "Bahnhof Stettbach", "electric": 14, "id": "pb_514", "manual": 3, "name": "Bahnhof Stettbach", "provider": "publibike", "timeStamp": "02/12/2020, 13:59:20", "zip": 8051}, "type": "Feature"}, {"geometry": {"coordinates": [8.5543974, 47.3690153], "type": "Point"}, "properties": {"address": "Kasinostrasse 10", "electric": 3, "id": "pb_515", "manual": 1, "name": "Hottingerplatz", "provider": "publibike", "timeStamp": "02/12/2020, 13:59:20", "zip": 8032}, "type": "Feature"}, {"geometry": {"coordinates": [8.534444, 47.351525], "type": "Point"}, "properties": {"address": "Mobile Station Z\u00fcrich 1", "electric": 0, "id": "pb_282", "manual": 0, "name": "Theaterspektakel", "provider": "publibike", "timeStamp": "02/12/2020, 13:59:20", "zip": 8002}, "type": "Feature"}, {"geometry": {"coordinates": [8.516257, 47.367656], "type": "Point"}, "properties": {"address": "Goldbrunnenstrasse 54", "electric": 0, "id": "pb_538", "manual": 0, "name": "Kirche B\u00fchl", "provider": "publibike", "timeStamp": "02/12/2020, 13:59:20", "zip": 8055}, "type": "Feature"}, {"geometry": {"coordinates": [8.555639, 47.416873], "type": "Point"}, "properties": {"address": "Leutschenbachstrasse 50", "electric": 4, "id": "pb_537", "manual": 5, "name": "Leutschenpark", "provider": "publibike", "timeStamp": "02/12/2020, 13:59:20", "zip": 8050}, "type": "Feature"}, {"geometry": {"coordinates": [8.546464, 47.403822], "type": "Point"}, "properties": {"address": "Berninastrasse 45", "electric": 3, "id": "pb_540", "manual": 3, "name": "Berninaplatz", "provider": "publibike", "timeStamp": "02/12/2020, 13:59:20", "zip": 8057}, "type": "Feature"}, {"geometry": {"coordinates": [8.523134, 47.369004], "type": "Point"}, "properties": {"address": "Erlachstrasse 3", "electric": 1, "id": "pb_385", "manual": 3, "name": "Aegerten", "provider": "publibike", "timeStamp": "02/12/2020, 13:59:20", "zip": 8003}, "type": "Feature"}, {"geometry": {"coordinates": [8.49038, 47.381591], "type": "Point"}, "properties": {"address": "Rautistrasse 60", "electric": 7, "id": "pb_536", "manual": 4, "name": "Freilager", "provider": "publibike", "timeStamp": "02/12/2020, 13:59:20", "zip": 8048}, "type": "Feature"}, {"geometry": {"coordinates": [8.496511, 47.375247], "type": "Point"}, "properties": {"address": "Letzigraben 139", "electric": 6, "id": "pb_444", "manual": 3, "name": "Sackzelg", "provider": "publibike", "timeStamp": "02/12/2020, 13:59:20", "zip": 8047}, "type": "Feature"}, {"geometry": {"coordinates": [8.58131, 47.402801], "type": "Point"}, "properties": {"address": "Altwiesenstrasse 104", "electric": 3, "id": "pb_539", "manual": 2, "name": "Glattwiesen", "provider": "publibike", "timeStamp": "02/12/2020, 13:59:20", "zip": 8051}, "type": "Feature"}, {"geometry": {"coordinates": [8.52689, 47.3767], "type": "Point"}, "properties": {"address": "Molkenstrasse 5", "electric": 0, "id": "pb_560", "manual": 4, "name": "Helvetiaplatz", "provider": "publibike", "timeStamp": "02/12/2020, 13:59:20", "zip": 8004}, "type": "Feature"}, {"geometry": {"coordinates": [8.525602, 47.374241], "type": "Point"}, "properties": {"address": "Badenerstrasse 90", "electric": 4, "id": "pb_559", "manual": 2, "name": "Bezirksgeb\u00e4ude", "provider": "publibike", "timeStamp": "02/12/2020, 13:59:20", "zip": 8004}, "type": "Feature"}, {"geometry": {"coordinates": [8.535082, 47.345248], "type": "Point"}, "properties": {"address": "Bachstrasse 15", "electric": 4, "id": "pb_564", "manual": 5, "name": "GZ Wollishofen", "provider": "publibike", "timeStamp": "02/12/2020, 13:59:20", "zip": 8038}, "type": "Feature"}, {"geometry": {"coordinates": [8.514841, 47.370238], "type": "Point"}, "properties": {"address": "Schrennengasse 37", "electric": 1, "id": "pb_562", "manual": 3, "name": "Goldbrunnenplatz", "provider": "publibike", "timeStamp": "02/12/2020, 13:59:20", "zip": 8003}, "type": "Feature"}, {"geometry": {"coordinates": [8.514138, 47.374206], "type": "Point"}, "properties": {"address": "Idaplatz 4", "electric": 0, "id": "pb_557", "manual": 10, "name": "Idaplatz", "provider": "publibike", "timeStamp": "02/12/2020, 13:59:20", "zip": 8003}, "type": "Feature"}, {"geometry": {"coordinates": [8.518432, 47.369549], "type": "Point"}, "properties": {"address": "Brinerstrasse 2", "electric": 0, "id": "pb_558", "manual": 6, "name": "Schmiede Wiedikon", "provider": "publibike", "timeStamp": "02/12/2020, 13:59:20", "zip": 8003}, "type": "Feature"}, {"geometry": {"coordinates": [8.537546, 47.391289], "type": "Point"}, "properties": {"address": "Rotbuchstrasse 15", "electric": 4, "id": "pb_556", "manual": 3, "name": "Schaffhauserplatz", "provider": "publibike", "timeStamp": "02/12/2020, 13:59:20", "zip": 8006}, "type": "Feature"}, {"geometry": {"coordinates": [8.541541, 47.413733], "type": "Point"}, "properties": {"address": "Therese-Giehse-Strasse 11", "electric": 8, "id": "pb_561", "manual": 1, "name": "Center Eleven", "provider": "publibike", "timeStamp": "02/12/2020, 13:59:20", "zip": 8050}, "type": "Feature"}, {"geometry": {"coordinates": [8.534227, 47.360004], "type": "Point"}, "properties": {"address": "Alfred Escher-Strasse 76", "electric": 13, "id": "pb_563", "manual": 5, "name": "Mythenschloss", "provider": "publibike", "timeStamp": "02/12/2020, 13:59:20", "zip": 8002}, "type": "Feature"}, {"geometry": {"coordinates": [8.50373, 47.396172], "type": "Point"}, "properties": {"address": "Hardeggstrasse 6", "electric": 9, "id": "pb_566", "manual": 6, "name": "Am Wasser", "provider": "publibike", "timeStamp": "02/12/2020, 13:59:20", "zip": 8049}, "type": "Feature"}, {"geometry": {"coordinates": [8.532432, 47.381174], "type": "Point"}, "properties": {"address": "Klingenstrasse 9", "electric": 1, "id": "pb_565", "manual": 6, "name": "Zollstrasse", "provider": "publibike", "timeStamp": "02/12/2020, 13:59:20", "zip": 8005}, "type": "Feature"}, {"geometry": {"coordinates": [8.497982, 47.381447], "type": "Point"}, "properties": {"address": "Dennlerstrasse 23", "electric": 3, "id": "pb_567", "manual": 2, "name": "Dennlerstrasse", "provider": "publibike", "timeStamp": "02/12/2020, 13:59:20", "zip": 8047}, "type": "Feature"}, {"geometry": {"coordinates": [8.528049, 47.347701], "type": "Point"}, "properties": {"address": "Mutschellenstrasse 114", "electric": 9, "id": "pb_568", "manual": 3, "name": "Jugendherberge", "provider": "publibike", "timeStamp": "02/12/2020, 13:59:20", "zip": 8038}, "type": "Feature"}, {"geometry": {"coordinates": [8.539016, 47.405751], "type": "Point"}, "properties": {"address": "Ringstrasse 82", "electric": 0, "id": "pb_569", "manual": 4, "name": "Freibad Allenmoos", "provider": "publibike", "timeStamp": "02/12/2020, 13:59:20", "zip": 8057}, "type": "Feature"}, {"geometry": {"coordinates": [8.534974, 47.402164], "type": "Point"}, "properties": {"address": "Brache Guggach", "electric": 1, "id": "pb_572", "manual": 2, "name": "Radiostudio", "provider": "publibike", "timeStamp": "02/12/2020, 13:59:20", "zip": 8057}, "type": "Feature"}, {"geometry": {"coordinates": [8.547901, 47.375556], "type": "Point"}, "properties": {"address": "Karl-Schmid-Strasse 4", "electric": 7, "id": "pb_571", "manual": 1, "name": "ETH/Zoologisches Museum", "provider": "publibike", "timeStamp": "02/12/2020, 13:59:20", "zip": 8006}, "type": "Feature"}, {"geometry": {"coordinates": [8.559243, 47.379093], "type": "Point"}, "properties": {"charge": 56, "id": "smide_2901", "name": "ZH 267278", "provider": "smide", "range": 28.0, "size": 20, "time": "02/12/2020, 13:58:52"}, "type": "Feature"}, {"geometry": {"coordinates": [8.520891, 47.423765], "type": "Point"}, "properties": {"charge": 45, "id": "smide_2895", "name": "ZH 267279", "provider": "smide", "range": 22.0, "size": 20, "time": "02/12/2020, 13:58:52"}, "type": "Feature"}, {"geometry": {"coordinates": [8.548213, 47.368615], "type": "Point"}, "properties": {"charge": 45, "id": "smide_2880", "name": "ZH267289", "provider": "smide", "range": 22.0, "size": 17, "time": "02/12/2020, 13:58:52"}, "type": "Feature"}, {"geometry": {"coordinates": [8.558381, 47.356348], "type": "Point"}, "properties": {"charge": 93, "id": "smide_2871", "name": "ZH 267086", "provider": "smide", "range": 46.0, "size": 20, "time": "02/12/2020, 13:58:52"}, "type": "Feature"}, {"geometry": {"coordinates": [8.515991, 47.428305], "type": "Point"}, "properties": {"charge": 18, "id": "smide_2867", "name": "ZH 267090", "provider": "smide", "range": 9.0, "size": 20, "time": "02/12/2020, 13:58:52"}, "type": "Feature"}, {"geometry": {"coordinates": [8.518821, 47.372276], "type": "Point"}, "properties": {"charge": 51, "id": "smide_2861", "name": "ZH 267096", "provider": "smide", "range": 25.0, "size": 17, "time": "02/12/2020, 13:58:52"}, "type": "Feature"}, {"geometry": {"coordinates": [8.542493, 47.372488], "type": "Point"}, "properties": {"charge": 45, "id": "smide_2856", "name": "ZH 267101", "provider": "smide", "range": 22.0, "size": 17, "time": "02/12/2020, 13:58:52"}, "type": "Feature"}, {"geometry": {"coordinates": [8.501691, 47.370428], "type": "Point"}, "properties": {"charge": 71, "id": "smide_2854", "name": "ZH 267103", "provider": "smide", "range": 35.0, "size": 17, "time": "02/12/2020, 13:58:52"}, "type": "Feature"}, {"geometry": {"coordinates": [8.555826, 47.384333], "type": "Point"}, "properties": {"charge": 89, "id": "smide_2833", "name": "ZH 267182", "provider": "smide", "range": 44.0, "size": 20, "time": "02/12/2020, 13:58:52"}, "type": "Feature"}, {"geometry": {"coordinates": [8.536675, 47.387816], "type": "Point"}, "properties": {"charge": 90, "id": "smide_2831", "name": "ZH 267180", "provider": "smide", "range": 45.0, "size": 20, "time": "02/12/2020, 13:58:52"}, "type": "Feature"}, {"geometry": {"coordinates": [8.574371, 47.348243], "type": "Point"}, "properties": {"charge": 98, "id": "smide_2804", "name": "ZH266903", "provider": "smide", "range": 49.0, "size": 20, "time": "02/12/2020, 13:58:52"}, "type": "Feature"}, {"geometry": {"coordinates": [8.494631, 47.368165], "type": "Point"}, "properties": {"charge": 90, "id": "smide_2793", "name": "ZH266883", "provider": "smide", "range": 45.0, "size": 17, "time": "02/12/2020, 13:58:52"}, "type": "Feature"}, {"geometry": {"coordinates": [8.50314, 47.403493], "type": "Point"}, "properties": {"charge": 100, "id": "smide_2790", "name": "ZH266880", "provider": "smide", "range": 50.0, "size": 17, "time": "02/12/2020, 13:58:52"}, "type": "Feature"}, {"geometry": {"coordinates": [8.540948, 47.397728], "type": "Point"}, "properties": {"charge": 72, "id": "smide_2785", "name": "ZH266875", "provider": "smide", "range": 36.0, "size": 17, "time": "02/12/2020, 13:58:52"}, "type": "Feature"}, {"geometry": {"coordinates": [8.53316, 47.352883], "type": "Point"}, "properties": {"charge": 76, "id": "smide_2780", "name": "ST1 X #1", "provider": "smide", "range": 38.0, "size": 17, "time": "02/12/2020, 13:58:52"}, "type": "Feature"}, {"geometry": {"coordinates": [8.483227, 47.388368], "type": "Point"}, "properties": {"charge": 100, "id": "smide_2775", "name": "ZH267283", "provider": "smide", "range": 50.0, "size": 20, "time": "02/12/2020, 13:58:52"}, "type": "Feature"}, {"geometry": {"coordinates": [8.498778, 47.388156], "type": "Point"}, "properties": {"charge": 100, "id": "smide_2773", "name": "ZH266561", "provider": "smide", "range": 50.0, "size": 17, "time": "02/12/2020, 13:58:52"}, "type": "Feature"}, {"geometry": {"coordinates": [8.503928, 47.399164], "type": "Point"}, "properties": {"charge": 92, "id": "smide_2771", "name": "ZH266559", "provider": "smide", "range": 46.0, "size": 17, "time": "02/12/2020, 13:58:52"}, "type": "Feature"}, {"geometry": {"coordinates": [8.50194, 47.398072], "type": "Point"}, "properties": {"charge": 97, "id": "smide_2763", "name": "ZH266641", "provider": "smide", "range": 48.0, "size": 17, "time": "02/12/2020, 13:58:52"}, "type": "Feature"}, {"geometry": {"coordinates": [8.555595, 47.384378], "type": "Point"}, "properties": {"charge": 81, "id": "smide_2761", "name": "ZH266642", "provider": "smide", "range": 40.0, "size": 20, "time": "02/12/2020, 13:58:52"}, "type": "Feature"}, {"geometry": {"coordinates": [8.507245, 47.378864], "type": "Point"}, "properties": {"charge": 51, "id": "smide_2759", "name": "ZH266639", "provider": "smide", "range": 25.0, "size": 17, "time": "02/12/2020, 13:58:52"}, "type": "Feature"}, {"geometry": {"coordinates": [8.574176, 47.348244], "type": "Point"}, "properties": {"charge": 98, "id": "smide_2758", "name": "ZH266638 M", "provider": "smide", "range": 49.0, "size": 17, "time": "02/12/2020, 13:58:52"}, "type": "Feature"}, {"geometry": {"coordinates": [8.566692, 47.347348], "type": "Point"}, "properties": {"charge": 85, "id": "smide_2752", "name": "BE343856", "provider": "smide", "range": 42.0, "size": 17, "time": "02/12/2020, 13:58:52"}, "type": "Feature"}, {"geometry": {"coordinates": [8.503483, 47.39664], "type": "Point"}, "properties": {"charge": 89, "id": "smide_2751", "name": "BE343857", "provider": "smide", "range": 44.0, "size": 17, "time": "02/12/2020, 13:58:52"}, "type": "Feature"}, {"geometry": {"coordinates": [8.512903, 47.366236], "type": "Point"}, "properties": {"charge": 90, "id": "smide_2749", "name": "BE343867", "provider": "smide", "range": 45.0, "size": 17, "time": "02/12/2020, 13:58:52"}, "type": "Feature"}, {"geometry": {"coordinates": [8.4751, 47.385504], "type": "Point"}, "properties": {"charge": 57, "id": "smide_2748", "name": "BE335758", "provider": "smide", "range": 28.0, "size": 17, "time": "02/12/2020, 13:58:52"}, "type": "Feature"}, {"geometry": {"coordinates": [8.567091, 47.382832], "type": "Point"}, "properties": {"charge": 100, "id": "smide_2746", "name": "BE335817", "provider": "smide", "range": 50.0, "size": 17, "time": "02/12/2020, 13:58:52"}, "type": "Feature"}, {"geometry": {"coordinates": [8.482609, 47.384644], "type": "Point"}, "properties": {"charge": 81, "id": "smide_2747", "name": "BE335820", "provider": "smide", "range": 40.0, "size": 17, "time": "02/12/2020, 13:58:52"}, "type": "Feature"}, {"geometry": {"coordinates": [8.494771, 47.383804], "type": "Point"}, "properties": {"charge": 30, "id": "smide_2745", "name": "BE335818", "provider": "smide", "range": 15.0, "size": 17, "time": "02/12/2020, 13:58:52"}, "type": "Feature"}, {"geometry": {"coordinates": [8.572551, 47.38082], "type": "Point"}, "properties": {"charge": 75, "id": "smide_2742", "name": "BE343866", "provider": "smide", "range": 37.0, "size": 17, "time": "02/12/2020, 13:58:52"}, "type": "Feature"}, {"geometry": {"coordinates": [8.543258, 47.372836], "type": "Point"}, "properties": {"charge": 75, "id": "smide_2740", "name": "BE343875", "provider": "smide", "range": 37.0, "size": 17, "time": "02/12/2020, 13:58:52"}, "type": "Feature"}, {"geometry": {"coordinates": [8.53613, 47.371501], "type": "Point"}, "properties": {"charge": 38, "id": "smide_2738", "name": "BE343865", "provider": "smide", "range": 19.0, "size": 17, "time": "02/12/2020, 13:58:52"}, "type": "Feature"}, {"geometry": {"coordinates": [8.540231, 47.378884], "type": "Point"}, "properties": {"charge": 100, "id": "smide_2737", "name": "BE336149", "provider": "smide", "range": 50.0, "size": 17, "time": "02/12/2020, 13:58:52"}, "type": "Feature"}, {"geometry": {"coordinates": [8.517941, 47.385692], "type": "Point"}, "properties": {"charge": 85, "id": "smide_2733", "name": "BE343873", "provider": "smide", "range": 42.0, "size": 17, "time": "02/12/2020, 13:58:52"}, "type": "Feature"}, {"geometry": {"coordinates": [8.574639, 47.352384], "type": "Point"}, "properties": {"charge": 61, "id": "smide_2729", "name": "BE343878", "provider": "smide", "range": 30.0, "size": 17, "time": "02/12/2020, 13:58:52"}, "type": "Feature"}, {"geometry": {"coordinates": [8.544768, 47.37402], "type": "Point"}, "properties": {"charge": 100, "id": "smide_2725", "name": "ZH261545", "provider": "smide", "range": 50.0, "size": 0, "time": "02/12/2020, 13:58:52"}, "type": "Feature"}, {"geometry": {"coordinates": [8.536841, 47.373791], "type": "Point"}, "properties": {"charge": 98, "id": "smide_2718", "name": "ZH259019", "provider": "smide", "range": 49.0, "size": 20, "time": "02/12/2020, 13:58:52"}, "type": "Feature"}, {"geometry": {"coordinates": [8.512426, 47.394053], "type": "Point"}, "properties": {"charge": 50, "id": "smide_2716", "name": "ZH254606", "provider": "smide", "range": 25.0, "size": 17, "time": "02/12/2020, 13:58:52"}, "type": "Feature"}, {"geometry": {"coordinates": [8.533535, 47.36046], "type": "Point"}, "properties": {"charge": 34, "id": "smide_2711", "name": "ZH256463", "provider": "smide", "range": 17.0, "size": 17, "time": "02/12/2020, 13:58:52"}, "type": "Feature"}, {"geometry": {"coordinates": [8.49702, 47.368475], "type": "Point"}, "properties": {"charge": 100, "id": "smide_2709", "name": "ZH256466", "provider": "smide", "range": 50.0, "size": 20, "time": "02/12/2020, 13:58:52"}, "type": "Feature"}, {"geometry": {"coordinates": [8.547765, 47.368908], "type": "Point"}, "properties": {"charge": 61, "id": "smide_2707", "name": "ZH256467", "provider": "smide", "range": 30.0, "size": 20, "time": "02/12/2020, 13:58:52"}, "type": "Feature"}, {"geometry": {"coordinates": [8.49834, 47.377436], "type": "Point"}, "properties": {"charge": 75, "id": "smide_2708", "name": "ZH256464", "provider": "smide", "range": 37.0, "size": 17, "time": "02/12/2020, 13:58:52"}, "type": "Feature"}, {"geometry": {"coordinates": [8.517709, 47.414332], "type": "Point"}, "properties": {"charge": 69, "id": "smide_2699", "name": "ZH254611", "provider": "smide", "range": 34.0, "size": 20, "time": "02/12/2020, 13:58:52"}, "type": "Feature"}, {"geometry": {"coordinates": [8.484166, 47.397052], "type": "Point"}, "properties": {"charge": 20, "id": "smide_2697", "name": "ZH254629", "provider": "smide", "range": 10.0, "size": 20, "time": "02/12/2020, 13:58:52"}, "type": "Feature"}, {"geometry": {"coordinates": [8.544896, 47.41896], "type": "Point"}, "properties": {"charge": 93, "id": "smide_2696", "name": "ZH254616", "provider": "smide", "range": 46.0, "size": 20, "time": "02/12/2020, 13:58:52"}, "type": "Feature"}, {"geometry": {"coordinates": [8.573928, 47.352784], "type": "Point"}, "properties": {"charge": 98, "id": "smide_2694", "name": "ZH254610", "provider": "smide", "range": 49.0, "size": 20, "time": "02/12/2020, 13:58:52"}, "type": "Feature"}, {"geometry": {"coordinates": [8.572593, 47.380793], "type": "Point"}, "properties": {"charge": 100, "id": "smide_2691", "name": "ZH254622", "provider": "smide", "range": 50.0, "size": 20, "time": "02/12/2020, 13:58:52"}, "type": "Feature"}, {"geometry": {"coordinates": [8.536156, 47.399738], "type": "Point"}, "properties": {"charge": 67, "id": "smide_2690", "name": "ZH254625", "provider": "smide", "range": 33.0, "size": 20, "time": "02/12/2020, 13:58:52"}, "type": "Feature"}, {"geometry": {"coordinates": [8.524578, 47.371628], "type": "Point"}, "properties": {"charge": 62, "id": "smide_2687", "name": "ZH263529", "provider": "smide", "range": 31.0, "size": 20, "time": "02/12/2020, 13:58:52"}, "type": "Feature"}, {"geometry": {"coordinates": [8.528728, 47.378512], "type": "Point"}, "properties": {"charge": 21, "id": "smide_2686", "name": "ZH263288", "provider": "smide", "range": 10.0, "size": 20, "time": "02/12/2020, 13:58:52"}, "type": "Feature"}, {"geometry": {"coordinates": [8.544944, 47.36834], "type": "Point"}, "properties": {"charge": 37, "id": "smide_2684", "name": "ZH254626", "provider": "smide", "range": 18.0, "size": 20, "time": "02/12/2020, 13:58:52"}, "type": "Feature"}, {"geometry": {"coordinates": [8.5402, 47.378826], "type": "Point"}, "properties": {"charge": 100, "id": "smide_2683", "name": "ZH254620", "provider": "smide", "range": 50.0, "size": 20, "time": "02/12/2020, 13:58:52"}, "type": "Feature"}, {"geometry": {"coordinates": [8.561867, 47.36286], "type": "Point"}, "properties": {"charge": 90, "id": "smide_2680", "name": "ZH254619", "provider": "smide", "range": 45.0, "size": 20, "time": "02/12/2020, 13:58:52"}, "type": "Feature"}, {"geometry": {"coordinates": [8.569541, 47.352076], "type": "Point"}, "properties": {"charge": 84, "id": "smide_2679", "name": "ZH258489", "provider": "smide", "range": 42.0, "size": 17, "time": "02/12/2020, 13:58:52"}, "type": "Feature"}, {"geometry": {"coordinates": [8.560868, 47.384204], "type": "Point"}, "properties": {"charge": 100, "id": "smide_2674", "name": "ZH258654", "provider": "smide", "range": 50.0, "size": 17, "time": "02/12/2020, 13:58:52"}, "type": "Feature"}, {"geometry": {"coordinates": [8.539663, 47.399692], "type": "Point"}, "properties": {"charge": 67, "id": "smide_2671", "name": "ZH258645", "provider": "smide", "range": 33.0, "size": 17, "time": "02/12/2020, 13:58:52"}, "type": "Feature"}, {"geometry": {"coordinates": [8.505746, 47.381184], "type": "Point"}, "properties": {"charge": 94, "id": "smide_2669", "name": "ZH263294", "provider": "smide", "range": 47.0, "size": 17, "time": "02/12/2020, 13:58:52"}, "type": "Feature"}, {"geometry": {"coordinates": [8.502097, 47.368888], "type": "Point"}, "properties": {"charge": 79, "id": "smide_2666", "name": "ZH258653", "provider": "smide", "range": 39.0, "size": 17, "time": "02/12/2020, 13:58:52"}, "type": "Feature"}, {"geometry": {"coordinates": [8.572841, 47.352896], "type": "Point"}, "properties": {"charge": 100, "id": "smide_2665", "name": "ZH258644", "provider": "smide", "range": 50.0, "size": 17, "time": "02/12/2020, 13:58:52"}, "type": "Feature"}, {"geometry": {"coordinates": [8.523378, 47.378684], "type": "Point"}, "properties": {"charge": 88, "id": "smide_2664", "name": "ZH258652", "provider": "smide", "range": 44.0, "size": 17, "time": "02/12/2020, 13:58:52"}, "type": "Feature"}, {"geometry": {"coordinates": [8.533566, 47.412196], "type": "Point"}, "properties": {"charge": 52, "id": "smide_2663", "name": "ZH258649", "provider": "smide", "range": 26.0, "size": 17, "time": "02/12/2020, 13:58:52"}, "type": "Feature"}, {"geometry": {"coordinates": [8.569053, 47.373076], "type": "Point"}, "properties": {"charge": 61, "id": "smide_2662", "name": "ZH258643", "provider": "smide", "range": 30.0, "size": 17, "time": "02/12/2020, 13:58:52"}, "type": "Feature"}, {"geometry": {"coordinates": [8.487625, 47.385132], "type": "Point"}, "properties": {"charge": 70, "id": "smide_2660", "name": "ZH258647", "provider": "smide", "range": 35.0, "size": 17, "time": "02/12/2020, 13:58:52"}, "type": "Feature"}, {"geometry": {"coordinates": [8.525921, 47.365048], "type": "Point"}, "properties": {"charge": 91, "id": "smide_2648", "name": "ZH257930", "provider": "smide", "range": 45.0, "size": 20, "time": "02/12/2020, 13:58:52"}, "type": "Feature"}, {"geometry": {"coordinates": [8.547684, 47.412356], "type": "Point"}, "properties": {"charge": 62, "id": "smide_2647", "name": "ZH257932", "provider": "smide", "range": 31.0, "size": 20, "time": "02/12/2020, 13:58:52"}, "type": "Feature"}, {"geometry": {"coordinates": [8.502063, 47.368915], "type": "Point"}, "properties": {"charge": 95, "id": "smide_3", "name": "ZH253765", "provider": "smide", "range": 47.0, "size": 20, "time": "02/12/2020, 13:58:52"}, "type": "Feature"}, {"geometry": {"coordinates": [8.511366, 47.408958], "type": "Point"}, "properties": {"charge": 91, "id": "smide_105", "name": "ZH253804", "provider": "smide", "range": 45.0, "size": 17, "time": "02/12/2020, 13:58:52"}, "type": "Feature"}, {"geometry": {"coordinates": [8.50194, 47.3979], "type": "Point"}, "properties": {"charge": 26, "id": "smide_186", "name": "ZH253751", "provider": "smide", "range": 13.0, "size": 20, "time": "02/12/2020, 13:58:52"}, "type": "Feature"}, {"geometry": {"coordinates": [8.559241, 47.40598], "type": "Point"}, "properties": {"charge": 93, "id": "smide_77", "name": "ZH261548", "provider": "smide", "range": 46.0, "size": 20, "time": "02/12/2020, 13:58:52"}, "type": "Feature"}, {"geometry": {"coordinates": [8.501013, 47.369461], "type": "Point"}, "properties": {"charge": 100, "id": "smide_197", "name": "ZH253864", "provider": "smide", "range": 50.0, "size": 20, "time": "02/12/2020, 13:58:52"}, "type": "Feature"}, {"geometry": {"coordinates": [8.532178, 47.371931], "type": "Point"}, "properties": {"charge": 85, "id": "smide_199", "name": "ZH253766", "provider": "smide", "range": 42.0, "size": 20, "time": "02/12/2020, 13:58:52"}, "type": "Feature"}, {"geometry": {"coordinates": [8.503483, 47.38648], "type": "Point"}, "properties": {"charge": 93, "id": "smide_8", "name": "ZH253861", "provider": "smide", "range": 46.0, "size": 17, "time": "02/12/2020, 13:58:52"}, "type": "Feature"}, {"geometry": {"coordinates": [8.490025, 47.381433], "type": "Point"}, "properties": {"charge": 83, "id": "smide_201", "name": "ZH253698", "provider": "smide", "range": 41.0, "size": 17, "time": "02/12/2020, 13:58:52"}, "type": "Feature"}, {"geometry": {"coordinates": [8.536635, 47.365256], "type": "Point"}, "properties": {"charge": 21, "id": "smide_71", "name": "ZH253742", "provider": "smide", "range": 10.0, "size": 20, "time": "02/12/2020, 13:58:52"}, "type": "Feature"}, {"geometry": {"coordinates": [8.544956, 47.373868], "type": "Point"}, "properties": {"charge": 67, "id": "smide_101", "name": "ZH253814", "provider": "smide", "range": 33.0, "size": 17, "time": "02/12/2020, 13:58:52"}, "type": "Feature"}, {"geometry": {"coordinates": [8.531487, 47.391032], "type": "Point"}, "properties": {"charge": 45, "id": "smide_9", "name": "ZH253796", "provider": "smide", "range": 22.0, "size": 17, "time": "02/12/2020, 13:58:52"}, "type": "Feature"}, {"geometry": {"coordinates": [8.523522, 47.37116], "type": "Point"}, "properties": {"charge": 28, "id": "smide_143", "name": "ZH253778", "provider": "smide", "range": 14.0, "size": 17, "time": "02/12/2020, 13:58:52"}, "type": "Feature"}, {"geometry": {"coordinates": [8.54567, 47.374833], "type": "Point"}, "properties": {"charge": 65, "id": "smide_180", "name": "ZH253824", "provider": "smide", "range": 32.0, "size": 20, "time": "02/12/2020, 13:58:52"}, "type": "Feature"}, {"geometry": {"coordinates": [8.532654, 47.364964], "type": "Point"}, "properties": {"charge": 100, "id": "smide_20", "name": "ZH253770", "provider": "smide", "range": 50.0, "size": 20, "time": "02/12/2020, 13:58:52"}, "type": "Feature"}, {"geometry": {"coordinates": [8.525751, 47.365225], "type": "Point"}, "properties": {"charge": 60, "id": "smide_30", "name": "ZH253813", "provider": "smide", "range": 30.0, "size": 20, "time": "02/12/2020, 13:58:52"}, "type": "Feature"}, {"geometry": {"coordinates": [8.558685, 47.414833], "type": "Point"}, "properties": {"charge": 97, "id": "smide_10", "name": "ZH253855", "provider": "smide", "range": 48.0, "size": 17, "time": "02/12/2020, 13:58:52"}, "type": "Feature"}, {"geometry": {"coordinates": [8.507953, 47.398324], "type": "Point"}, "properties": {"charge": 100, "id": "smide_179", "name": "ZH253687", "provider": "smide", "range": 50.0, "size": 20, "time": "02/12/2020, 13:58:52"}, "type": "Feature"}, {"geometry": {"coordinates": [8.563071, 47.372112], "type": "Point"}, "properties": {"charge": 100, "id": "smide_84", "name": "ZH253733", "provider": "smide", "range": 50.0, "size": 17, "time": "02/12/2020, 13:58:52"}, "type": "Feature"}, {"geometry": {"coordinates": [8.529159, 47.3749], "type": "Point"}, "properties": {"charge": 67, "id": "smide_35", "name": "ZH253755", "provider": "smide", "range": 33.0, "size": 20, "time": "02/12/2020, 13:58:52"}, "type": "Feature"}, {"geometry": {"coordinates": [8.546422, 47.374196], "type": "Point"}, "properties": {"charge": 16, "id": "smide_119", "name": "ZH253686", "provider": "smide", "range": 8.0, "size": 20, "time": "02/12/2020, 13:58:52"}, "type": "Feature"}, {"geometry": {"coordinates": [8.496373, 47.366384], "type": "Point"}, "properties": {"charge": 91, "id": "smide_76", "name": "ZH253764", "provider": "smide", "range": 45.0, "size": 17, "time": "02/12/2020, 13:58:52"}, "type": "Feature"}, {"geometry": {"coordinates": [8.564235, 47.369244], "type": "Point"}, "properties": {"charge": 89, "id": "smide_129", "name": "ZH261378", "provider": "smide", "range": 44.0, "size": 17, "time": "02/12/2020, 13:58:52"}, "type": "Feature"}, {"geometry": {"coordinates": [8.501496, 47.422632], "type": "Point"}, "properties": {"charge": 22, "id": "smide_37", "name": "ZH261377", "provider": "smide", "range": 11.0, "size": 20, "time": "02/12/2020, 13:58:52"}, "type": "Feature"}, {"geometry": {"coordinates": [8.538508, 47.374011], "type": "Point"}, "properties": {"charge": 65, "id": "smide_191", "name": "ZH253762", "provider": "smide", "range": 32.0, "size": 17, "time": "02/12/2020, 13:58:52"}, "type": "Feature"}, {"geometry": {"coordinates": [8.536436, 47.371325], "type": "Point"}, "properties": {"charge": 53, "id": "smide_202", "name": "ZH253830", "provider": "smide", "range": 26.0, "size": 17, "time": "02/12/2020, 13:58:52"}, "type": "Feature"}, {"geometry": {"coordinates": [8.478477, 47.389588], "type": "Point"}, "properties": {"charge": 91, "id": "smide_66", "name": "ZH253818", "provider": "smide", "range": 45.0, "size": 20, "time": "02/12/2020, 13:58:52"}, "type": "Feature"}, {"geometry": {"coordinates": [8.49692, 47.362715], "type": "Point"}, "properties": {"charge": 85, "id": "smide_17", "name": "ZH253793", "provider": "smide", "range": 42.0, "size": 17, "time": "02/12/2020, 13:58:52"}, "type": "Feature"}, {"geometry": {"coordinates": [8.553253, 47.376171], "type": "Point"}, "properties": {"charge": 89, "id": "smide_145", "name": "ZH253780", "provider": "smide", "range": 44.0, "size": 20, "time": "02/12/2020, 13:58:52"}, "type": "Feature"}, {"geometry": {"coordinates": [8.533225, 47.417128], "type": "Point"}, "properties": {"charge": 20, "id": "smide_203", "name": "ZH261547", "provider": "smide", "range": 10.0, "size": 17, "time": "02/12/2020, 13:58:52"}, "type": "Feature"}, {"geometry": {"coordinates": [8.497677, 47.384056], "type": "Point"}, "properties": {"charge": 61, "id": "smide_21", "name": "ZH253841", "provider": "smide", "range": 30.0, "size": 17, "time": "02/12/2020, 13:58:52"}, "type": "Feature"}, {"geometry": {"coordinates": [8.476818, 47.387364], "type": "Point"}, "properties": {"charge": 93, "id": "smide_164", "name": "ZH253775", "provider": "smide", "range": 46.0, "size": 17, "time": "02/12/2020, 13:58:52"}, "type": "Feature"}, {"geometry": {"coordinates": [8.513263, 47.391864], "type": "Point"}, "properties": {"charge": 62, "id": "smide_189", "name": "ZH253845", "provider": "smide", "range": 31.0, "size": 20, "time": "02/12/2020, 13:58:52"}, "type": "Feature"}, {"geometry": {"coordinates": [8.527701, 47.384588], "type": "Point"}, "properties": {"charge": 76, "id": "smide_81", "name": "ZH253753", "provider": "smide", "range": 38.0, "size": 17, "time": "02/12/2020, 13:58:52"}, "type": "Feature"}, {"geometry": {"coordinates": [8.546336, 47.36726], "type": "Point"}, "properties": {"charge": 46, "id": "smide_171", "name": "ZH253689", "provider": "smide", "range": 23.0, "size": 20, "time": "02/12/2020, 13:58:52"}, "type": "Feature"}, {"geometry": {"coordinates": [8.536469, 47.380364], "type": "Point"}, "properties": {"charge": 80, "id": "smide_93", "name": "ZH253681", "provider": "smide", "range": 40.0, "size": 17, "time": "02/12/2020, 13:58:52"}, "type": "Feature"}, {"geometry": {"coordinates": [8.514657, 47.35548], "type": "Point"}, "properties": {"charge": 87, "id": "smide_67", "name": "ZH253779", "provider": "smide", "range": 43.0, "size": 17, "time": "02/12/2020, 13:58:52"}, "type": "Feature"}, {"geometry": {"coordinates": [8.548384, 47.362024], "type": "Point"}, "properties": {"charge": 100, "id": "smide_133", "name": "ZH253848", "provider": "smide", "range": 50.0, "size": 20, "time": "02/12/2020, 13:58:52"}, "type": "Feature"}, {"geometry": {"coordinates": [8.491521, 47.386225], "type": "Point"}, "properties": {"charge": 79, "id": "smide_118", "name": "ZH253759", "provider": "smide", "range": 39.0, "size": 20, "time": "02/12/2020, 13:58:52"}, "type": "Feature"}, {"geometry": {"coordinates": [8.502086, 47.368948], "type": "Point"}, "properties": {"charge": 71, "id": "smide_142", "name": "ZH258745", "provider": "smide", "range": 35.0, "size": 17, "time": "02/12/2020, 13:58:52"}, "type": "Feature"}, {"geometry": {"coordinates": [8.53732, 47.40712], "type": "Point"}, "properties": {"charge": 81, "id": "smide_166", "name": "ZH253728", "provider": "smide", "range": 40.0, "size": 17, "time": "02/12/2020, 13:58:52"}, "type": "Feature"}, {"geometry": {"coordinates": [8.550666, 47.362576], "type": "Point"}, "properties": {"charge": 45, "id": "smide_126", "name": "ZH268400", "provider": "smide", "range": 22.0, "size": 17, "time": "02/12/2020, 13:58:52"}, "type": "Feature"}, {"geometry": {"coordinates": [8.524818, 47.341151], "type": "Point"}, "properties": {"charge": 94, "id": "smide_44", "name": "ZH253837", "provider": "smide", "range": 47.0, "size": 17, "time": "02/12/2020, 13:58:52"}, "type": "Feature"}, {"geometry": {"coordinates": [8.517926, 47.377565], "type": "Point"}, "properties": {"charge": 92, "id": "smide_98", "name": "ZH256321", "provider": "smide", "range": 46.0, "size": 17, "time": "02/12/2020, 13:58:52"}, "type": "Feature"}, {"geometry": {"coordinates": [8.527246, 47.397332], "type": "Point"}, "properties": {"charge": 55, "id": "smide_92", "name": "ZH253798", "provider": "smide", "range": 27.0, "size": 17, "time": "02/12/2020, 13:58:52"}, "type": "Feature"}, {"geometry": {"coordinates": [8.553591, 47.397624], "type": "Point"}, "properties": {"charge": 49, "id": "smide_65", "name": "ZH253810", "provider": "smide", "range": 24.0, "size": 17, "time": "02/12/2020, 13:58:52"}, "type": "Feature"}, {"geometry": {"coordinates": [8.54316, 47.40248], "type": "Point"}, "properties": {"charge": 88, "id": "smide_111", "name": "ZH253763", "provider": "smide", "range": 44.0, "size": 17, "time": "02/12/2020, 13:58:52"}, "type": "Feature"}, {"geometry": {"coordinates": [8.576255, 47.348864], "type": "Point"}, "properties": {"charge": 100, "id": "smide_40", "name": "ZH253690", "provider": "smide", "range": 50.0, "size": 20, "time": "02/12/2020, 13:58:52"}, "type": "Feature"}, {"geometry": {"coordinates": [8.516661, 47.389908], "type": "Point"}, "properties": {"charge": 38, "id": "smide_1", "name": "ZH253776", "provider": "smide", "range": 19.0, "size": 17, "time": "02/12/2020, 13:58:52"}, "type": "Feature"}, {"geometry": {"coordinates": [8.519968, 47.340138], "type": "Point"}, "properties": {"charge": 77, "id": "smide_14", "name": "ZH253749", "provider": "smide", "range": 38.0, "size": 20, "time": "02/12/2020, 13:58:52"}, "type": "Feature"}, {"geometry": {"coordinates": [8.499907, 47.370572], "type": "Point"}, "properties": {"charge": 74, "id": "smide_130", "name": "ZH253847", "provider": "smide", "range": 37.0, "size": 20, "time": "02/12/2020, 13:58:52"}, "type": "Feature"}, {"geometry": {"coordinates": [8.531864, 47.373256], "type": "Point"}, "properties": {"charge": 60, "id": "smide_107", "name": "ZH253819", "provider": "smide", "range": 30.0, "size": 17, "time": "02/12/2020, 13:58:52"}, "type": "Feature"}, {"geometry": {"coordinates": [8.51769, 47.391952], "type": "Point"}, "properties": {"charge": 88, "id": "smide_136", "name": "ZH253682", "provider": "smide", "range": 44.0, "size": 17, "time": "02/12/2020, 13:58:52"}, "type": "Feature"}, {"geometry": {"coordinates": [8.569489, 47.352048], "type": "Point"}, "properties": {"charge": 65, "id": "smide_83", "name": "ZH253869", "provider": "smide", "range": 32.0, "size": 20, "time": "02/12/2020, 13:58:52"}, "type": "Feature"}, {"geometry": {"coordinates": [8.549504, 47.3633], "type": "Point"}, "properties": {"charge": 56, "id": "smide_205", "name": "ZH253805", "provider": "smide", "range": 28.0, "size": 17, "time": "02/12/2020, 13:58:52"}, "type": "Feature"}, {"geometry": {"coordinates": [8.540063, 47.37901], "type": "Point"}, "properties": {"charge": 100, "id": "smide_158", "name": "ZH253870", "provider": "smide", "range": 50.0, "size": 20, "time": "02/12/2020, 13:58:52"}, "type": "Feature"}, {"geometry": {"coordinates": [8.502038, 47.37917], "type": "Point"}, "properties": {"charge": 60, "id": "smide_134", "name": "ZH253741", "provider": "smide", "range": 30.0, "size": 20, "time": "02/12/2020, 13:58:52"}, "type": "Feature"}, {"geometry": {"coordinates": [8.547751, 47.36489], "type": "Point"}, "properties": {"charge": 37, "id": "smide_141", "name": "ZH253800", "provider": "smide", "range": 18.0, "size": 20, "time": "02/12/2020, 13:58:52"}, "type": "Feature"}, {"geometry": {"coordinates": [8.573003, 47.351572], "type": "Point"}, "properties": {"charge": 61, "id": "smide_16", "name": "ZH253713", "provider": "smide", "range": 30.0, "size": 20, "time": "02/12/2020, 13:58:52"}, "type": "Feature"}, {"geometry": {"coordinates": [8.582226, 47.351888], "type": "Point"}, "properties": {"charge": 87, "id": "smide_74", "name": "ZH253693", "provider": "smide", "range": 43.0, "size": 20, "time": "02/12/2020, 13:58:52"}, "type": "Feature"}, {"geometry": {"coordinates": [8.528358, 47.387088], "type": "Point"}, "properties": {"charge": 84, "id": "smide_161", "name": "ZH253691", "provider": "smide", "range": 42.0, "size": 20, "time": "02/12/2020, 13:58:52"}, "type": "Feature"}, {"geometry": {"coordinates": [8.54539, 47.370776], "type": "Point"}, "properties": {"charge": 33, "id": "smide_42", "name": "ZH253846", "provider": "smide", "range": 16.0, "size": 20, "time": "02/12/2020, 13:58:52"}, "type": "Feature"}, {"geometry": {"coordinates": [8.534189, 47.380276], "type": "Point"}, "properties": {"charge": 100, "id": "smide_4", "name": "ZH253740", "provider": "smide", "range": 50.0, "size": 20, "time": "02/12/2020, 13:58:52"}, "type": "Feature"}, {"geometry": {"coordinates": [8.49699, 47.392236], "type": "Point"}, "properties": {"charge": 92, "id": "smide_160", "name": "ZH253722", "provider": "smide", "range": 46.0, "size": 17, "time": "02/12/2020, 13:58:52"}, "type": "Feature"}, {"geometry": {"coordinates": [8.514308, 47.357181], "type": "Point"}, "properties": {"charge": 72, "id": "smide_137", "name": "ZH258502", "provider": "smide", "range": 36.0, "size": 17, "time": "02/12/2020, 13:58:52"}, "type": "Feature"}, {"geometry": {"coordinates": [8.541971, 47.424548], "type": "Point"}, "properties": {"charge": 69, "id": "smide_178", "name": "ZH253803", "provider": "smide", "range": 34.0, "size": 17, "time": "02/12/2020, 13:58:52"}, "type": "Feature"}, {"geometry": {"coordinates": [8.553708, 47.397435], "type": "Point"}, "properties": {"charge": 46, "id": "smide_55", "name": "ZH253875", "provider": "smide", "range": 23.0, "size": 17, "time": "02/12/2020, 13:58:52"}, "type": "Feature"}, {"geometry": {"coordinates": [8.557801, 47.404436], "type": "Point"}, "properties": {"charge": 93, "id": "smide_96", "name": "ZH256146", "provider": "smide", "range": 46.0, "size": 20, "time": "02/12/2020, 13:58:52"}, "type": "Feature"}, {"geometry": {"coordinates": [8.520637, 47.384844], "type": "Point"}, "properties": {"charge": 89, "id": "smide_58", "name": "ZH259246", "provider": "smide", "range": 44.0, "size": 20, "time": "02/12/2020, 13:58:52"}, "type": "Feature"}, {"geometry": {"coordinates": [8.501321, 47.383996], "type": "Point"}, "properties": {"charge": 79, "id": "smide_54", "name": "ZH253874", "provider": "smide", "range": 39.0, "size": 20, "time": "02/12/2020, 13:58:52"}, "type": "Feature"}, {"geometry": {"coordinates": [8.522197, 47.394508], "type": "Point"}, "properties": {"charge": 97, "id": "smide_175", "name": "ZH253730", "provider": "smide", "range": 48.0, "size": 17, "time": "02/12/2020, 13:58:52"}, "type": "Feature"}, {"geometry": {"coordinates": [8.537401, 47.368426], "type": "Point"}, "properties": {"charge": 86, "id": "smide_162", "name": "ZH253760", "provider": "smide", "range": 43.0, "size": 17, "time": "02/12/2020, 13:58:52"}, "type": "Feature"}, {"geometry": {"coordinates": [8.509434, 47.395252], "type": "Point"}, "properties": {"charge": 80, "id": "smide_95", "name": "ZH253773", "provider": "smide", "range": 40.0, "size": 17, "time": "02/12/2020, 13:58:52"}, "type": "Feature"}, {"geometry": {"coordinates": [8.523734, 47.358628], "type": "Point"}, "properties": {"charge": 70, "id": "smide_163", "name": "ZH256147", "provider": "smide", "range": 35.0, "size": 20, "time": "02/12/2020, 13:58:52"}, "type": "Feature"}, {"geometry": {"coordinates": [8.534434, 47.416804], "type": "Point"}, "properties": {"charge": 48, "id": "smide_112", "name": "ZH263530", "provider": "smide", "range": 24.0, "size": 20, "time": "02/12/2020, 13:58:52"}, "type": "Feature"}, {"geometry": {"coordinates": [8.56207, 47.415], "type": "Point"}, "properties": {"charge": 89, "id": "smide_38", "name": "ZH253851", "provider": "smide", "range": 44.0, "size": 20, "time": "02/12/2020, 13:58:52"}, "type": "Feature"}, {"geometry": {"coordinates": [8.551448, 47.385488], "type": "Point"}, "properties": {"charge": 65, "id": "smide_18", "name": "ZH253859", "provider": "smide", "range": 32.0, "size": 17, "time": "02/12/2020, 13:58:52"}, "type": "Feature"}, {"geometry": {"coordinates": [8.498226, 47.358304], "type": "Point"}, "properties": {"charge": 61, "id": "smide_12", "name": "ZH253685", "provider": "smide", "range": 30.0, "size": 17, "time": "02/12/2020, 13:58:52"}, "type": "Feature"}, {"geometry": {"coordinates": [8.545766, 47.375112], "type": "Point"}, "properties": {"charge": 93, "id": "smide_192", "name": "ZH253706", "provider": "smide", "range": 46.0, "size": 20, "time": "02/12/2020, 13:58:52"}, "type": "Feature"}, {"geometry": {"coordinates": [8.538669, 47.372248], "type": "Point"}, "properties": {"charge": 74, "id": "smide_39", "name": "ZH253714", "provider": "smide", "range": 37.0, "size": 20, "time": "02/12/2020, 13:58:52"}, "type": "Feature"}, {"geometry": {"coordinates": [8.50832, 47.420896], "type": "Point"}, "properties": {"charge": 24, "id": "smide_5", "name": "ZH261443", "provider": "smide", "range": 12.0, "size": 20, "time": "02/12/2020, 13:58:52"}, "type": "Feature"}, {"geometry": {"coordinates": [8.528458, 47.382872], "type": "Point"}, "properties": {"charge": 88, "id": "smide_29", "name": "ZH253723", "provider": "smide", "range": 44.0, "size": 17, "time": "02/12/2020, 13:58:52"}, "type": "Feature"}, {"geometry": {"coordinates": [8.560296, 47.4058], "type": "Point"}, "properties": {"charge": 37, "id": "smide_46", "name": "ZH253843", "provider": "smide", "range": 18.0, "size": 20, "time": "02/12/2020, 13:58:52"}, "type": "Feature"}, {"geometry": {"coordinates": [8.53906833333333, 47.389515], "type": "Point"}, "properties": {"charge": 34, "id": "bird_627a716b-6e82-4cf9-9e67-09e9c735c56e", "provider": "bird", "timeStamp": "02/12/2020, 13:58:51"}, "type": "Feature"}, {"geometry": {"coordinates": [8.544915, 47.3750533333333], "type": "Point"}, "properties": {"charge": 49, "id": "bird_830d2b92-44c8-423b-a3aa-82fc02bacbec", "provider": "bird", "timeStamp": "02/12/2020, 13:58:51"}, "type": "Feature"}, {"geometry": {"coordinates": [8.53742666666667, 47.3699416666667], "type": "Point"}, "properties": {"charge": 46, "id": "bird_2dc33569-e87c-4cfd-8962-ff8eb2d95a88", "provider": "bird", "timeStamp": "02/12/2020, 13:58:51"}, "type": "Feature"}, {"geometry": {"coordinates": [8.52323, 47.3697433333333], "type": "Point"}, "properties": {"charge": 36, "id": "bird_5d8ccc00-57bb-46d3-90db-e116201193bb", "provider": "bird", "timeStamp": "02/12/2020, 13:58:51"}, "type": "Feature"}, {"geometry": {"coordinates": [8.537645, 47.3700416666667], "type": "Point"}, "properties": {"charge": 69, "id": "bird_b7ad87e7-029d-46de-a306-b7cf0b5ce7ef", "provider": "bird", "timeStamp": "02/12/2020, 13:58:51"}, "type": "Feature"}, {"geometry": {"coordinates": [8.54459833333333, 47.3748816666667], "type": "Point"}, "properties": {"charge": 40, "id": "bird_14313ebb-8cc9-4a21-857a-393625e2d950", "provider": "bird", "timeStamp": "02/12/2020, 13:58:51"}, "type": "Feature"}, {"geometry": {"coordinates": [8.53666, 47.3698583333333], "type": "Point"}, "properties": {"charge": 60, "id": "bird_d4032e5e-f6f9-41ad-931a-85cf642d211e", "provider": "bird", "timeStamp": "02/12/2020, 13:58:51"}, "type": "Feature"}, {"geometry": {"coordinates": [8.53767333333333, 47.3702283333333], "type": "Point"}, "properties": {"charge": 57, "id": "bird_a2d7cede-6cbd-4ef3-b7fd-dd49fbcd6d8e", "provider": "bird", "timeStamp": "02/12/2020, 13:58:51"}, "type": "Feature"}, {"geometry": {"coordinates": [8.53663166666667, 47.3698966666667], "type": "Point"}, "properties": {"charge": 71, "id": "bird_662570ed-d2df-4555-b521-d77ffdcb1f63", "provider": "bird", "timeStamp": "02/12/2020, 13:58:51"}, "type": "Feature"}, {"geometry": {"coordinates": [8.51956, 47.3884733333333], "type": "Point"}, "properties": {"charge": 53, "id": "bird_64be3f7a-78b8-4717-af56-759cfbaa588e", "provider": "bird", "timeStamp": "02/12/2020, 13:58:51"}, "type": "Feature"}, {"geometry": {"coordinates": [8.51535666666667, 47.375275], "type": "Point"}, "properties": {"charge": 80, "id": "bird_bc319415-146a-4f69-a629-1d001145d682", "provider": "bird", "timeStamp": "02/12/2020, 13:58:51"}, "type": "Feature"}, {"geometry": {"coordinates": [8.52251666666667, 47.3702616666667], "type": "Point"}, "properties": {"charge": 62, "id": "bird_a447bcba-3a26-4087-938f-a5707973ba49", "provider": "bird", "timeStamp": "02/12/2020, 13:58:51"}, "type": "Feature"}, {"geometry": {"coordinates": [8.52003333333333, 47.3885766666667], "type": "Point"}, "properties": {"charge": 88, "id": "bird_b1ff54f5-8be3-4aa5-ba5c-b6ef903fae8b", "provider": "bird", "timeStamp": "02/12/2020, 13:58:51"}, "type": "Feature"}, {"geometry": {"coordinates": [8.52008, 47.3885533333333], "type": "Point"}, "properties": {"charge": 69, "id": "bird_feaa967a-a38d-45b1-8cff-6c08cd53c22d", "provider": "bird", "timeStamp": "02/12/2020, 13:58:51"}, "type": "Feature"}, {"geometry": {"coordinates": [8.543715, 47.38562], "type": "Point"}, "properties": {"charge": 24, "id": "bird_19838b78-da42-4269-9ded-3cf123b234b2", "provider": "bird", "timeStamp": "02/12/2020, 13:58:51"}, "type": "Feature"}, {"geometry": {"coordinates": [8.51981, 47.3883583333333], "type": "Point"}, "properties": {"charge": 80, "id": "bird_f19ea90d-d06d-4611-b72b-5907cc2ceba9", "provider": "bird", "timeStamp": "02/12/2020, 13:58:51"