{"features": [{"geometry": {"coordinates": [8.540062, 47.374392], "type": "Point"}, "properties": {"address": "Uraniastrasse 7", "electric": 3, "id": "pb_60", "manual": 11, "name": "Demo Station Werdm\u00fchleplatz", "provider": "publibike", "timeStamp": "02/19/2020, 10:59:32", "zip": 8001}, "type": "Feature"}, {"geometry": {"coordinates": [8.5452956, 47.4099615], "type": "Point"}, "properties": {"address": "Querstrasse 8", "electric": 1, "id": "pb_61", "manual": 10, "name": "Marktplatz", "provider": "publibike", "timeStamp": "02/19/2020, 10:59:32", "zip": 8050}, "type": "Feature"}, {"geometry": {"coordinates": [8.5156327, 47.3795837], "type": "Point"}, "properties": {"address": "Bullingerstrasse 5", "electric": 0, "id": "pb_80", "manual": 1, "name": "Bullingerplatz", "provider": "publibike", "timeStamp": "02/19/2020, 10:59:32", "zip": 8004}, "type": "Feature"}, {"geometry": {"coordinates": [8.5104051, 47.3899342], "type": "Point"}, "properties": {"address": "Pfingstweidstrasse 96e", "electric": 4, "id": "pb_81", "manual": 3, "name": "Herdern", "provider": "publibike", "timeStamp": "02/19/2020, 10:59:32", "zip": 8001}, "type": "Feature"}, {"geometry": {"coordinates": [8.535718, 47.359675], "type": "Point"}, "properties": {"address": "Mythenquai 50", "electric": 19, "id": "pb_82", "manual": 11, "name": "Hafen Enge", "provider": "publibike", "timeStamp": "02/19/2020, 10:59:32", "zip": 8002}, "type": "Feature"}, {"geometry": {"coordinates": [8.520370505, 47.358663827], "type": "Point"}, "properties": {"address": "Bubenbergstrasse 1", "electric": 1, "id": "pb_83", "manual": 10, "name": "Comerge", "provider": "publibike", "timeStamp": "02/19/2020, 10:59:32", "zip": 8045}, "type": "Feature"}, {"geometry": {"coordinates": [8.5412505, 47.3789825], "type": "Point"}, "properties": {"address": "Museumstrasse 2", "electric": 14, "id": "pb_84", "manual": 9, "name": "Landesmuseum", "provider": "publibike", "timeStamp": "02/19/2020, 10:59:32", "zip": 8001}, "type": "Feature"}, {"geometry": {"coordinates": [8.5235479, 47.3716661], "type": "Point"}, "properties": {"address": "Birmensdorferstrasse 80", "electric": 0, "id": "pb_85", "manual": 6, "name": "Bahnhof Wiedikon", "provider": "publibike", "timeStamp": "02/19/2020, 10:59:32", "zip": 8003}, "type": "Feature"}, {"geometry": {"coordinates": [8.506822854, 47.40781197], "type": "Point"}, "properties": {"address": "Stefano-Franscini-Platz 5", "electric": 21, "id": "pb_86", "manual": 2, "name": "ETH H\u00f6nggerberg", "provider": "publibike", "timeStamp": "02/19/2020, 10:59:32", "zip": 8093}, "type": "Feature"}, {"geometry": {"coordinates": [8.536101, 47.371083], "type": "Point"}, "properties": {"address": "Pelikanplatz 5", "electric": 2, "id": "pb_87", "manual": 5, "name": "Pelikanplatz", "provider": "publibike", "timeStamp": "02/19/2020, 10:59:32", "zip": 8001}, "type": "Feature"}, {"geometry": {"coordinates": [8.5257822, 47.3651936], "type": "Point"}, "properties": {"address": "H\u00fcrlimannplatz 90", "electric": 19, "id": "pb_88", "manual": 4, "name": "H\u00fcrlimannplatz", "provider": "publibike", "timeStamp": "02/19/2020, 10:59:32", "zip": 8002}, "type": "Feature"}, {"geometry": {"coordinates": [8.5313344, 47.3713591], "type": "Point"}, "properties": {"address": "Selnaustrasse 32", "electric": 3, "id": "pb_89", "manual": 6, "name": "Stauffacherbr\u00fccke", "provider": "publibike", "timeStamp": "02/19/2020, 10:59:32", "zip": 8001}, "type": "Feature"}, {"geometry": {"coordinates": [8.5056978, 47.3917964], "type": "Point"}, "properties": {"address": "Sportweg 25", "electric": 4, "id": "pb_90", "manual": 9, "name": "Sportweg", "provider": "publibike", "timeStamp": "02/19/2020, 10:59:32", "zip": 8005}, "type": "Feature"}, {"geometry": {"coordinates": [8.5181701, 47.3917837], "type": "Point"}, "properties": {"address": "Hardturmstrasse 11", "electric": 3, "id": "pb_91", "manual": 3, "name": "Puls 5", "provider": "publibike", "timeStamp": "02/19/2020, 10:59:32", "zip": 8005}, "type": "Feature"}, {"geometry": {"coordinates": [8.5286468, 47.3820827], "type": "Point"}, "properties": {"address": "R\u00f6ntgenstrasse 6", "electric": 3, "id": "pb_92", "manual": 9, "name": "R\u00f6ntgenstrasse", "provider": "publibike", "timeStamp": "02/19/2020, 10:59:32", "zip": 8005}, "type": "Feature"}, {"geometry": {"coordinates": [8.531935, 47.384918], "type": "Point"}, "properties": {"address": "Kornhausbr\u00fccke 1", "electric": 4, "id": "pb_93", "manual": 1, "name": "Limmatplatz", "provider": "publibike", "timeStamp": "02/19/2020, 10:59:32", "zip": 8005}, "type": "Feature"}, {"geometry": {"coordinates": [8.5354006, 47.3758639], "type": "Point"}, "properties": {"address": "Gessnerallee 15", "electric": 1, "id": "pb_94", "manual": 2, "name": "Gessnerallee", "provider": "publibike", "timeStamp": "02/19/2020, 10:59:32", "zip": 8001}, "type": "Feature"}, {"geometry": {"coordinates": [8.523818, 47.377148], "type": "Point"}, "properties": {"address": "Stauffacherstrasse 127", "electric": 0, "id": "pb_95", "manual": 5, "name": "B\u00e4ckeranlage", "provider": "publibike", "timeStamp": "02/19/2020, 10:59:32", "zip": 8004}, "type": "Feature"}, {"geometry": {"coordinates": [8.531836, 47.378548], "type": "Point"}, "properties": {"address": "Lagerstrasse 44", "electric": 7, "id": "pb_96", "manual": 12, "name": "Gustav-Gull-Platz", "provider": "publibike", "timeStamp": "02/19/2020, 10:59:32", "zip": 8004}, "type": "Feature"}, {"geometry": {"coordinates": [8.5104883, 47.3771535], "type": "Point"}, "properties": {"address": "Zurlindenstrasse 291", "electric": 0, "id": "pb_97", "manual": 3, "name": "Zurlindenstrasse", "provider": "publibike", "timeStamp": "02/19/2020, 10:59:32", "zip": 8003}, "type": "Feature"}, {"geometry": {"coordinates": [8.5333139, 47.3731102], "type": "Point"}, "properties": {"address": "Sihlstrasse 81", "electric": 2, "id": "pb_98", "manual": 10, "name": "Sihlstrasse", "provider": "publibike", "timeStamp": "02/19/2020, 10:59:32", "zip": 8001}, "type": "Feature"}, {"geometry": {"coordinates": [8.520532, 47.374951], "type": "Point"}, "properties": {"address": "Feldstrasse 24", "electric": 1, "id": "pb_99", "manual": 1, "name": "Kalkbreite", "provider": "publibike", "timeStamp": "02/19/2020, 10:59:32", "zip": 8004}, "type": "Feature"}, {"geometry": {"coordinates": [8.539046, 47.368064], "type": "Point"}, "properties": {"address": "Talstrasse 12", "electric": 3, "id": "pb_100", "manual": 7, "name": "Z\u00fcrcher Kantonalbank", "provider": "publibike", "timeStamp": "02/19/2020, 10:59:32", "zip": 8001}, "type": "Feature"}, {"geometry": {"coordinates": [8.5348427, 47.3625938], "type": "Point"}, "properties": {"address": "Breitingerstrasse 5", "electric": 7, "id": "pb_101", "manual": 5, "name": "Rentenanstalt", "provider": "publibike", "timeStamp": "02/19/2020, 10:59:32", "zip": 8002}, "type": "Feature"}, {"geometry": {"coordinates": [8.5166922, 47.3897772], "type": "Point"}, "properties": {"address": "Technoparkstrasse 4", "electric": 4, "id": "pb_102", "manual": 5, "name": "Turbinenplatz", "provider": "publibike", "timeStamp": "02/19/2020, 10:59:32", "zip": 8005}, "type": "Feature"}, {"geometry": {"coordinates": [8.539312, 47.3739964], "type": "Point"}, "properties": {"address": "Oetenbachgasse 14", "electric": 7, "id": "pb_104", "manual": 7, "name": "Rennweg", "provider": "publibike", "timeStamp": "02/19/2020, 10:59:32", "zip": 8001}, "type": "Feature"}, {"geometry": {"coordinates": [8.5360685, 47.3775022], "type": "Point"}, "properties": {"address": "Kasernenstrasse 101", "electric": 9, "id": "pb_105", "manual": 34, "name": "Sihlpost", "provider": "publibike", "timeStamp": "02/19/2020, 10:59:32", "zip": 8004}, "type": "Feature"}, {"geometry": {"coordinates": [8.53545, 47.382798], "type": "Point"}, "properties": {"address": "Ausstellungsstrasse 44", "electric": 2, "id": "pb_106", "manual": 11, "name": "Museum f\u00fcr Gestaltung", "provider": "publibike", "timeStamp": "02/19/2020, 10:59:32", "zip": 8005}, "type": "Feature"}, {"geometry": {"coordinates": [8.5306155, 47.3647902], "type": "Point"}, "properties": {"address": "Gutenbergstrasse 1", "electric": 0, "id": "pb_107", "manual": 2, "name": "Bederbr\u00fccke", "provider": "publibike", "timeStamp": "02/19/2020, 10:59:32", "zip": 8002}, "type": "Feature"}, {"geometry": {"coordinates": [8.518982, 47.386741], "type": "Point"}, "properties": {"address": "Geroldstrasse 4", "electric": 1, "id": "pb_108", "manual": 22, "name": "Bahnhof Hardbr\u00fccke", "provider": "publibike", "timeStamp": "02/19/2020, 10:59:32", "zip": 8005}, "type": "Feature"}, {"geometry": {"coordinates": [8.53001018, 47.37247535], "type": "Point"}, "properties": {"address": "Werdstrasse 21", "electric": 14, "id": "pb_109", "manual": 0, "name": "Tamedia", "provider": "publibike", "timeStamp": "02/19/2020, 10:59:32", "zip": 8004}, "type": "Feature"}, {"geometry": {"coordinates": [8.4860017, 47.396401], "type": "Point"}, "properties": {"address": "Gr\u00fcnauring 37", "electric": 12, "id": "pb_110", "manual": 1, "name": "Gr\u00fcnau", "provider": "publibike", "timeStamp": "02/19/2020, 10:59:32", "zip": 8064}, "type": "Feature"}, {"geometry": {"coordinates": [8.548519, 47.376756], "type": "Point"}, "properties": {"address": "R\u00e4mistrasse 101", "electric": 71, "id": "pb_111", "manual": 1, "name": "ETH Zentrum", "provider": "publibike", "timeStamp": "02/19/2020, 10:59:32", "zip": 8006}, "type": "Feature"}, {"geometry": {"coordinates": [8.520449, 47.388151], "type": "Point"}, "properties": {"address": "Josefstrasse 224", "electric": 5, "id": "pb_112", "manual": 4, "name": "Steinfelsareal", "provider": "publibike", "timeStamp": "02/19/2020, 10:59:32", "zip": 8005}, "type": "Feature"}, {"geometry": {"coordinates": [8.520482, 47.37209], "type": "Point"}, "properties": {"address": "Weststrasse 115", "electric": 0, "id": "pb_124", "manual": 6, "name": "Weststrasse", "provider": "publibike", "timeStamp": "02/19/2020, 10:59:32", "zip": 8003}, "type": "Feature"}, {"geometry": {"coordinates": [8.496727, 47.378521], "type": "Point"}, "properties": {"address": "Albisriederstrasse 200", "electric": 3, "id": "pb_125", "manual": 0, "name": "Utogrund", "provider": "publibike", "timeStamp": "02/19/2020, 10:59:32", "zip": 8047}, "type": "Feature"}, {"geometry": {"coordinates": [8.510418, 47.381356], "type": "Point"}, "properties": {"address": "Bullingerstrasse 73", "electric": 0, "id": "pb_126", "manual": 8, "name": "Hardau", "provider": "publibike", "timeStamp": "02/19/2020, 10:59:32", "zip": 8004}, "type": "Feature"}, {"geometry": {"coordinates": [8.525525, 47.361567], "type": "Point"}, "properties": {"address": "Klopstockstrasse 23", "electric": 2, "id": "pb_127", "manual": 2, "name": "Klopstockwiese", "provider": "publibike", "timeStamp": "02/19/2020, 10:59:32", "zip": 8002}, "type": "Feature"}, {"geometry": {"coordinates": [8.518143, 47.363148], "type": "Point"}, "properties": {"address": "Haldenstrasse 8", "electric": 7, "id": "pb_128", "manual": 1, "name": "Binz", "provider": "publibike", "timeStamp": "02/19/2020, 10:59:32", "zip": 8045}, "type": "Feature"}, {"geometry": {"coordinates": [8.542726, 47.379952], "type": "Point"}, "properties": {"address": "Walchestrasse 11", "electric": 4, "id": "pb_129", "manual": 2, "name": "Stampfenbachplatz", "provider": "publibike", "timeStamp": "02/19/2020, 10:59:32", "zip": 8006}, "type": "Feature"}, {"geometry": {"coordinates": [8.488108, 47.391366], "type": "Point"}, "properties": {"address": "Altstetterplatz 1", "electric": 7, "id": "pb_130", "manual": 4, "name": "Bahnhof Altstetten", "provider": "publibike", "timeStamp": "02/19/2020, 10:59:32", "zip": 8048}, "type": "Feature"}, {"geometry": {"coordinates": [8.554114, 47.365119], "type": "Point"}, "properties": {"address": "Kreuzplatz 2", "electric": 4, "id": "pb_131", "manual": 0, "name": "Kreuzplatz", "provider": "publibike", "timeStamp": "02/19/2020, 10:59:32", "zip": 8032}, "type": "Feature"}, {"geometry": {"coordinates": [8.549852, 47.35594], "type": "Point"}, "properties": {"address": "H\u00f6schgasse 3", "electric": 6, "id": "pb_132", "manual": 1, "name": "Blatterwiese", "provider": "publibike", "timeStamp": "02/19/2020, 10:59:32", "zip": 8008}, "type": "Feature"}, {"geometry": {"coordinates": [8.554501, 47.36162], "type": "Point"}, "properties": {"address": "Feldeggstrasse 80", "electric": 1, "id": "pb_133", "manual": 6, "name": "Villa Bleuler", "provider": "publibike", "timeStamp": "02/19/2020, 10:59:32", "zip": 8008}, "type": "Feature"}, {"geometry": {"coordinates": [8.557088, 47.358557], "type": "Point"}, "properties": {"address": "M\u00fchlebachstrasse 131", "electric": 0, "id": "pb_134", "manual": 2, "name": "M\u00fchlebachstrasse", "provider": "publibike", "timeStamp": "02/19/2020, 10:59:32", "zip": 8008}, "type": "Feature"}, {"geometry": {"coordinates": [8.547639, 47.361266], "type": "Point"}, "properties": {"address": "Utoquai 50", "electric": 4, "id": "pb_135", "manual": 8, "name": "Seebad Utoquai", "provider": "publibike", "timeStamp": "02/19/2020, 10:59:32", "zip": 8008}, "type": "Feature"}, {"geometry": {"coordinates": [8.548045, 47.370869], "type": "Point"}, "properties": {"address": "Heimplatz 1", "electric": 1, "id": "pb_137", "manual": 3, "name": "Kunsthaus", "provider": "publibike", "timeStamp": "02/19/2020, 10:59:32", "zip": 8001}, "type": "Feature"}, {"geometry": {"coordinates": [8.543447, 47.375933], "type": "Point"}, "properties": {"address": "Limmatquai 138", "electric": 6, "id": "pb_138", "manual": 19, "name": "Central", "provider": "publibike", "timeStamp": "02/19/2020, 10:59:32", "zip": 8001}, "type": "Feature"}, {"geometry": {"coordinates": [8.549356, 47.408827], "type": "Point"}, "properties": {"address": "Tramstrasse 35", "electric": 4, "id": "pb_139", "manual": 3, "name": "ewz Tramstrasse", "provider": "publibike", "timeStamp": "02/19/2020, 10:59:32", "zip": 8050}, "type": "Feature"}, {"geometry": {"coordinates": [8.533736, 47.366904], "type": "Point"}, "properties": {"address": "Bleicherweg 33", "electric": 4, "id": "pb_140", "manual": 14, "name": "Bleicherweg", "provider": "publibike", "timeStamp": "02/19/2020, 10:59:32", "zip": 8002}, "type": "Feature"}, {"geometry": {"coordinates": [8.544935, 47.366752], "type": "Point"}, "properties": {"address": "Bellevueplatz 2", "electric": 12, "id": "pb_141", "manual": 20, "name": "Bellevue", "provider": "publibike", "timeStamp": "02/19/2020, 10:59:32", "zip": 8001}, "type": "Feature"}, {"geometry": {"coordinates": [8.5285533, 47.3742296], "type": "Point"}, "properties": {"address": "Stauffacherstrasse 41", "electric": 2, "id": "pb_142", "manual": 3, "name": "Stauffacher", "provider": "publibike", "timeStamp": "02/19/2020, 10:59:32", "zip": 8004}, "type": "Feature"}, {"geometry": {"coordinates": [8.523722, 47.3899], "type": "Point"}, "properties": {"address": "Limmatstrasse 310", "electric": 2, "id": "pb_143", "manual": 5, "name": "Escher-Wyss-Platz", "provider": "publibike", "timeStamp": "02/19/2020, 10:59:32", "zip": 8005}, "type": "Feature"}, {"geometry": {"coordinates": [8.491061, 47.392336], "type": "Point"}, "properties": {"address": "Vulkanplatz 1", "electric": 8, "id": "pb_149", "manual": 7, "name": "Vulkanplatz", "provider": "publibike", "timeStamp": "02/19/2020, 10:59:32", "zip": 8048}, "type": "Feature"}, {"geometry": {"coordinates": [8.52306, 47.359872], "type": "Point"}, "properties": {"address": "Giessh\u00fcbelstrasse 15", "electric": 0, "id": "pb_150", "manual": 0, "name": "Utoplatz", "provider": "publibike", "timeStamp": "02/19/2020, 10:59:32", "zip": 8045}, "type": "Feature"}, {"geometry": {"coordinates": [8.486284, 47.387685], "type": "Point"}, "properties": {"address": "Lindenplatz 1", "electric": 0, "id": "pb_151", "manual": 8, "name": "Lindenplatz", "provider": "publibike", "timeStamp": "02/19/2020, 10:59:32", "zip": 8048}, "type": "Feature"}, {"geometry": {"coordinates": [8.49163, 47.389823], "type": "Point"}, "properties": {"address": "Hohlstrasse 563", "electric": 5, "id": "pb_152", "manual": 1, "name": "Luggweg", "provider": "publibike", "timeStamp": "02/19/2020, 10:59:32", "zip": 8048}, "type": "Feature"}, {"geometry": {"coordinates": [8.52174, 47.365272], "type": "Point"}, "properties": {"address": "Manessestrasse 87", "electric": 0, "id": "pb_153", "manual": 3, "name": "Manesseplatz", "provider": "publibike", "timeStamp": "02/19/2020, 10:59:32", "zip": 8045}, "type": "Feature"}, {"geometry": {"coordinates": [8.52714, 47.372329], "type": "Point"}, "properties": {"address": "Werdstrasse 75", "electric": 0, "id": "pb_154", "manual": 6, "name": "Werd", "provider": "publibike", "timeStamp": "02/19/2020, 10:59:32", "zip": 8004}, "type": "Feature"}, {"geometry": {"coordinates": [8.543042, 47.374711], "type": "Point"}, "properties": {"address": "Limmatquai 100", "electric": 0, "id": "pb_155", "manual": 0, "name": "Rudolf-Brun-Br\u00fccke", "provider": "publibike", "timeStamp": "02/19/2020, 10:59:32", "zip": 8001}, "type": "Feature"}, {"geometry": {"coordinates": [8.490837, 47.386596], "type": "Point"}, "properties": {"address": "Badenerstrasse 627", "electric": 7, "id": "pb_156", "manual": 4, "name": "Luggwegstrasse VBZ", "provider": "publibike", "timeStamp": "02/19/2020, 10:59:32", "zip": 8048}, "type": "Feature"}, {"geometry": {"coordinates": [8.535119, 47.355189], "type": "Point"}, "properties": {"address": "Mythenquai 95", "electric": 2, "id": "pb_157", "manual": 3, "name": "Strandbad Mythenquai", "provider": "publibike", "timeStamp": "02/19/2020, 10:59:32", "zip": 8002}, "type": "Feature"}, {"geometry": {"coordinates": [8.545505, 47.373675], "type": "Point"}, "properties": {"address": "Predigerpatz 21", "electric": 2, "id": "pb_158", "manual": 8, "name": "Predigerplatz", "provider": "publibike", "timeStamp": "02/19/2020, 10:59:32", "zip": 8001}, "type": "Feature"}, {"geometry": {"coordinates": [8.515558, 47.371868], "type": "Point"}, "properties": {"address": "Aemtlerstrasse 23", "electric": 0, "id": "pb_159", "manual": 0, "name": "Zwinglihaus", "provider": "publibike", "timeStamp": "02/19/2020, 10:59:32", "zip": 8003}, "type": "Feature"}, {"geometry": {"coordinates": [8.524629, 47.386072], "type": "Point"}, "properties": {"address": "Josefstrasse 188", "electric": 0, "id": "pb_160", "manual": 0, "name": "Josefwiese", "provider": "publibike", "timeStamp": "02/19/2020, 10:59:32", "zip": 8005}, "type": "Feature"}, {"geometry": {"coordinates": [8.527138, 47.387531], "type": "Point"}, "properties": {"address": "R\u00f6ntgenstrasse 87", "electric": 3, "id": "pb_164", "manual": 3, "name": "Markthalle", "provider": "publibike", "timeStamp": "02/19/2020, 10:59:32", "zip": 8005}, "type": "Feature"}, {"geometry": {"coordinates": [8.552717, 47.359978], "type": "Point"}, "properties": {"address": "Seefeldstrasse 96", "electric": 4, "id": "pb_263", "manual": 7, "name": "Feldeggstrasse", "provider": "publibike", "timeStamp": "02/19/2020, 10:59:32", "zip": 8008}, "type": "Feature"}, {"geometry": {"coordinates": [8.553189, 47.353198], "type": "Point"}, "properties": {"address": "Bellerivestrasse 170", "electric": 5, "id": "pb_264", "manual": 3, "name": "Lake Side", "provider": "publibike", "timeStamp": "02/19/2020, 10:59:32", "zip": 8008}, "type": "Feature"}, {"geometry": {"coordinates": [8.543437, 47.369256], "type": "Point"}, "properties": {"address": "Limmatquai 18", "electric": 0, "id": "pb_265", "manual": 0, "name": "Helmhaus", "provider": "publibike", "timeStamp": "02/19/2020, 10:59:32", "zip": 8032}, "type": "Feature"}, {"geometry": {"coordinates": [8.516676, 47.375819], "type": "Point"}, "properties": {"address": "Badenerstrasse 246", "electric": 4, "id": "pb_266", "manual": 7, "name": "Lochergut", "provider": "publibike", "timeStamp": "02/19/2020, 10:59:32", "zip": 8004}, "type": "Feature"}, {"geometry": {"coordinates": [8.514605, 47.389862], "type": "Point"}, "properties": {"address": "Pfingstweidstrasse 60", "electric": 4, "id": "pb_273", "manual": 6, "name": "Westpark", "provider": "publibike", "timeStamp": "02/19/2020, 10:59:32", "zip": 8005}, "type": "Feature"}, {"geometry": {"coordinates": [8.541239126, 47.375991201], "type": "Point"}, "properties": {"address": "Beatenplatz 1", "electric": 5, "id": "pb_274", "manual": 6, "name": "Beatenplatz", "provider": "publibike", "timeStamp": "02/19/2020, 10:59:32", "zip": 8001}, "type": "Feature"}, {"geometry": {"coordinates": [8.5417135, 47.3942197], "type": "Point"}, "properties": {"address": "Scheuchzerstrasse 181", "electric": 0, "id": "pb_275", "manual": 0, "name": "Pauluskirche", "provider": "publibike", "timeStamp": "02/19/2020, 10:59:32", "zip": 8057}, "type": "Feature"}, {"geometry": {"coordinates": [8.5528182, 47.414558], "type": "Point"}, "properties": {"address": "Hagenholzstrasse 51", "electric": 2, "id": "pb_276", "manual": 5, "name": "Airgate", "provider": "publibike", "timeStamp": "02/19/2020, 10:59:32", "zip": 8050}, "type": "Feature"}, {"geometry": {"coordinates": [8.537816, 47.413514], "type": "Point"}, "properties": {"address": "Birchstrasse 183", "electric": 4, "id": "pb_277", "manual": 1, "name": "Lamprechtweg", "provider": "publibike", "timeStamp": "02/19/2020, 10:59:32", "zip": 8050}, "type": "Feature"}, {"geometry": {"coordinates": [8.545602, 47.417701], "type": "Point"}, "properties": {"address": "Felsenrainstrasse 2", "electric": 5, "id": "pb_278", "manual": 5, "name": "Emil-Oberh\u00e4nsli", "provider": "publibike", "timeStamp": "02/19/2020, 10:59:32", "zip": 8050}, "type": "Feature"}, {"geometry": {"coordinates": [8.533647, 47.39808], "type": "Point"}, "properties": {"address": "Bucheggplatz 2", "electric": 1, "id": "pb_279", "manual": 0, "name": "Bucheggplatz", "provider": "publibike", "timeStamp": "02/19/2020, 10:59:32", "zip": 8057}, "type": "Feature"}, {"geometry": {"coordinates": [8.523549, 47.392347], "type": "Point"}, "properties": {"address": "Wipkingerplatz 4", "electric": 2, "id": "pb_280", "manual": 0, "name": "Wipkingerplatz", "provider": "publibike", "timeStamp": "02/19/2020, 10:59:32", "zip": 8037}, "type": "Feature"}, {"geometry": {"coordinates": [8.548562, 47.36691], "type": "Point"}, "properties": {"address": "Galerie \u00fcber Gleis 2/3", "electric": 5, "id": "pb_285", "manual": 1, "name": "Bahnhof Stadelhofen", "provider": "publibike", "timeStamp": "02/19/2020, 10:59:32", "zip": 8001}, "type": "Feature"}, {"geometry": {"coordinates": [8.493822, 47.3985553], "type": "Point"}, "properties": {"address": "Meierwiesenstrasse 12-4", "electric": 8, "id": "pb_286", "manual": 3, "name": "T\u00fcffenwies", "provider": "publibike", "timeStamp": "02/19/2020, 10:59:32", "zip": 8064}, "type": "Feature"}, {"geometry": {"coordinates": [8.552432, 47.3801757], "type": "Point"}, "properties": {"address": "Hochstrasse 34", "electric": 6, "id": "pb_356", "manual": 0, "name": "Siriuswiese", "provider": "publibike", "timeStamp": "02/19/2020, 10:59:32", "zip": 8044}, "type": "Feature"}, {"geometry": {"coordinates": [8.527298, 47.370141], "type": "Point"}, "properties": {"address": "Hallwylstrasse 71", "electric": 0, "id": "pb_357", "manual": 2, "name": "Hallwylstrasse", "provider": "publibike", "timeStamp": "02/19/2020, 10:59:32", "zip": 8004}, "type": "Feature"}, {"geometry": {"coordinates": [8.5414185, 47.3972455], "type": "Point"}, "properties": {"address": "Schaffhauserstrasse 137", "electric": 0, "id": "pb_358", "manual": 0, "name": "Milchbuck", "provider": "publibike", "timeStamp": "02/19/2020, 10:59:32", "zip": 8057}, "type": "Feature"}, {"geometry": {"coordinates": [8.512381, 47.393409], "type": "Point"}, "properties": {"address": "Hardturmstrasse 161", "electric": 1, "id": "pb_359", "manual": 0, "name": "Fischerweg", "provider": "publibike", "timeStamp": "02/19/2020, 10:59:32", "zip": 8005}, "type": "Feature"}, {"geometry": {"coordinates": [8.5421457, 47.3876979], "type": "Point"}, "properties": {"address": "Turnerstrasse 47", "electric": 0, "id": "pb_360", "manual": 1, "name": "Kirche Unterstrass", "provider": "publibike", "timeStamp": "02/19/2020, 10:59:32", "zip": 8006}, "type": "Feature"}, {"geometry": {"coordinates": [8.522117, 47.394554], "type": "Point"}, "properties": {"address": "Dorfstrasse 40", "electric": 2, "id": "pb_361", "manual": 2, "name": "Dorfstrasse", "provider": "publibike", "timeStamp": "02/19/2020, 10:59:32", "zip": 8037}, "type": "Feature"}, {"geometry": {"coordinates": [8.530437, 47.37271], "type": "Point"}, "properties": {"address": "Werdstrasse 25", "electric": 3, "id": "pb_362", "manual": 4, "name": "Stauffachertor", "provider": "publibike", "timeStamp": "02/19/2020, 10:59:32", "zip": 8004}, "type": "Feature"}, {"geometry": {"coordinates": [8.541712, 47.416155], "type": "Point"}, "properties": {"address": "Eggb\u00fchlstrasse 21", "electric": 7, "id": "pb_363", "manual": 0, "name": "Wahlenpark", "provider": "publibike", "timeStamp": "02/19/2020, 10:59:32", "zip": 8050}, "type": "Feature"}, {"geometry": {"coordinates": [8.5595335, 47.3708387], "type": "Point"}, "properties": {"address": "Dolderstrasse 32", "electric": 1, "id": "pb_364", "manual": 0, "name": "Kinderspital", "provider": "publibike", "timeStamp": "02/19/2020, 10:59:32", "zip": 8032}, "type": "Feature"}, {"geometry": {"coordinates": [8.536433, 47.388689], "type": "Point"}, "properties": {"address": "Kornhausstrasse 30", "electric": 4, "id": "pb_365", "manual": 3, "name": "Kornhausstrasse", "provider": "publibike", "timeStamp": "02/19/2020, 10:59:32", "zip": 8006}, "type": "Feature"}, {"geometry": {"coordinates": [8.55033, 47.407098], "type": "Point"}, "properties": {"address": "Schwamendingenstrasse 41", "electric": 1, "id": "pb_366", "manual": 1, "name": "Dorflinde", "provider": "publibike", "timeStamp": "02/19/2020, 10:59:32", "zip": 8050}, "type": "Feature"}, {"geometry": {"coordinates": [8.560476, 47.368199], "type": "Point"}, "properties": {"address": "R\u00f6merhofplatz 5", "electric": 3, "id": "pb_367", "manual": 3, "name": "R\u00f6merhof", "provider": "publibike", "timeStamp": "02/19/2020, 10:59:32", "zip": 8032}, "type": "Feature"}, {"geometry": {"coordinates": [8.5609218, 47.3619068], "type": "Point"}, "properties": {"address": "Forchstrasse 99", "electric": 2, "id": "pb_368", "manual": 2, "name": "Hegibachplatz", "provider": "publibike", "timeStamp": "02/19/2020, 10:59:32", "zip": 8032}, "type": "Feature"}, {"geometry": {"coordinates": [8.5721264, 47.4039985], "type": "Point"}, "properties": {"address": "Winterthurerstrasse 519", "electric": 2, "id": "pb_370", "manual": 5, "name": "Schwamendingerplatz", "provider": "publibike", "timeStamp": "02/19/2020, 10:59:32", "zip": 8051}, "type": "Feature"}, {"geometry": {"coordinates": [8.520168, 47.378556], "type": "Point"}, "properties": {"address": "Herman-Greulich-Strasse 56", "electric": 4, "id": "pb_384", "manual": 4, "name": "Hermann-Greulich-Weg", "provider": "publibike", "timeStamp": "02/19/2020, 10:59:32", "zip": 8004}, "type": "Feature"}, {"geometry": {"coordinates": [8.547912, 47.384923], "type": "Point"}, "properties": {"address": "Culmannstrasse", "electric": 8, "id": "pb_386", "manual": 0, "name": "Rigiplatz", "provider": "publibike", "timeStamp": "02/19/2020, 10:59:32", "zip": 8006}, "type": "Feature"}, {"geometry": {"coordinates": [8.543768, 47.411057], "type": "Point"}, "properties": {"address": "Hofwiesenstrasse 369", "electric": 6, "id": "pb_387", "manual": 9, "name": "Bahnhof Oerlikon S\u00fcd", "provider": "publibike", "timeStamp": "02/19/2020, 10:59:32", "zip": 8050}, "type": "Feature"}, {"geometry": {"coordinates": [8.544185, 47.412732], "type": "Point"}, "properties": {"address": "Jungholzstrasse 6", "electric": 6, "id": "pb_388", "manual": 0, "name": "Max-Frisch-Platz", "provider": "publibike", "timeStamp": "02/19/2020, 10:59:32", "zip": 8050}, "type": "Feature"}, {"geometry": {"coordinates": [8.558096, 47.413032], "type": "Point"}, "properties": {"address": "Andreasstrasse", "electric": 0, "id": "pb_389", "manual": 1, "name": "Hunziker-Areal", "provider": "publibike", "timeStamp": "02/19/2020, 10:59:32", "zip": 8050}, "type": "Feature"}, {"geometry": {"coordinates": [8.533265, 47.412873], "type": "Point"}, "properties": {"address": "Regina-K\u00e4gi-Strasse 1", "electric": 4, "id": "pb_390", "manual": 6, "name": "Luis-H\u00e4fliger-Park", "provider": "publibike", "timeStamp": "02/19/2020, 10:59:32", "zip": 8050}, "type": "Feature"}, {"geometry": {"coordinates": [8.499265, 47.401852], "type": "Point"}, "properties": {"address": "Limmattalstrasse 177", "electric": 0, "id": "pb_391", "manual": 3, "name": "Meierhofplatz", "provider": "publibike", "timeStamp": "02/19/2020, 10:59:32", "zip": 8049}, "type": "Feature"}, {"geometry": {"coordinates": [8.528356, 47.393255], "type": "Point"}, "properties": {"address": "R\u00f6schibachstrasse 73", "electric": 11, "id": "pb_392", "manual": 0, "name": "R\u00f6schibachplatz", "provider": "publibike", "timeStamp": "02/19/2020, 10:59:32", "zip": 8037}, "type": "Feature"}, {"geometry": {"coordinates": [8.538067, 47.415721], "type": "Point"}, "properties": {"address": "Birchstrasse 191", "electric": 6, "id": "pb_393", "manual": 0, "name": "Oerliker Park", "provider": "publibike", "timeStamp": "02/19/2020, 10:59:32", "zip": 8050}, "type": "Feature"}, {"geometry": {"coordinates": [8.5420304, 47.3669233], "type": "Point"}, "properties": {"address": "Stadthausquai 1", "electric": 0, "id": "pb_395", "manual": 0, "name": "B\u00fcrkliplatz", "provider": "publibike", "timeStamp": "02/19/2020, 10:59:32", "zip": 8001}, "type": "Feature"}, {"geometry": {"coordinates": [8.535767, 47.409881], "type": "Point"}, "properties": {"address": "Regensbergstrasse 195", "electric": 0, "id": "pb_396", "manual": 2, "name": "Holunderhof", "provider": "publibike", "timeStamp": "02/19/2020, 10:59:32", "zip": 8050}, "type": "Feature"}, {"geometry": {"coordinates": [8.5116245, 47.3616199], "type": "Point"}, "properties": {"address": "Grubenstrasse 42", "electric": 5, "id": "pb_431", "manual": 1, "name": "Binz Center", "provider": "publibike", "timeStamp": "02/19/2020, 10:59:32", "zip": 8045}, "type": "Feature"}, {"geometry": {"coordinates": [8.547195, 47.382089], "type": "Point"}, "properties": {"address": "Nelkenstrasse 24", "electric": 1, "id": "pb_430", "manual": 0, "name": "Stapferstube", "provider": "publibike", "timeStamp": "02/19/2020, 10:59:32", "zip": 8006}, "type": "Feature"}, {"geometry": {"coordinates": [8.5787183, 47.4039845], "type": "Point"}, "properties": {"address": "Kronwiesenstrasse 35", "electric": 1, "id": "pb_426", "manual": 2, "name": "Kronwiesen", "provider": "publibike", "timeStamp": "02/19/2020, 10:59:32", "zip": 8051}, "type": "Feature"}, {"geometry": {"coordinates": [8.508131, 47.420757], "type": "Point"}, "properties": {"address": "Riedenhaldenstrasse 20-18", "electric": 6, "id": "pb_425", "manual": 2, "name": "Bahnhof Affoltern", "provider": "publibike", "timeStamp": "02/19/2020, 10:59:32", "zip": 8046}, "type": "Feature"}, {"geometry": {"coordinates": [8.532464, 47.406988], "type": "Point"}, "properties": {"address": "K\u00fcnzlistrasse 41", "electric": 4, "id": "pb_424", "manual": 2, "name": "Birchd\u00f6rfli", "provider": "publibike", "timeStamp": "02/19/2020, 10:59:32", "zip": 8057}, "type": "Feature"}, {"geometry": {"coordinates": [8.5777038, 47.4080095], "type": "Point"}, "properties": {"address": "Luegislandstrasse 412", "electric": 0, "id": "pb_429", "manual": 1, "name": "Luegisland", "provider": "publibike", "timeStamp": "02/19/2020, 10:59:32", "zip": 8051}, "type": "Feature"}, {"geometry": {"coordinates": [8.58841, 47.40158], "type": "Point"}, "properties": {"address": "Hirzenbachstrasse 2-4", "electric": 4, "id": "pb_428", "manual": 1, "name": "Hirzenbachstrasse", "provider": "publibike", "timeStamp": "02/19/2020, 10:59:32", "zip": 8051}, "type": "Feature"}, {"geometry": {"coordinates": [8.5563463, 47.4095467], "type": "Point"}, "properties": {"address": "K\u00fchriedweg", "electric": 2, "id": "pb_445", "manual": 5, "name": "Hallenbad Oerlikon", "provider": "publibike", "timeStamp": "02/19/2020, 10:59:32", "zip": 8050}, "type": "Feature"}, {"geometry": {"coordinates": [8.537971, 47.364871], "type": "Point"}, "properties": {"address": "General-Guisan-Quai 17", "electric": 1, "id": "pb_454", "manual": 10, "name": "General-Guisan-Quai", "provider": "publibike", "timeStamp": "02/19/2020, 10:59:32", "zip": 8002}, "type": "Feature"}, {"geometry": {"coordinates": [8.560587, 47.350578], "type": "Point"}, "properties": {"address": "Bellerivestrasse 245", "electric": 3, "id": "pb_450", "manual": 4, "name": "Bahnhof Tiefenbrunnen", "provider": "publibike", "timeStamp": "02/19/2020, 10:59:32", "zip": 8008}, "type": "Feature"}, {"geometry": {"coordinates": [8.5269416, 47.3563719], "type": "Point"}, "properties": {"address": "Waffenplatzstrasse 89", "electric": 4, "id": "pb_452", "manual": 4, "name": "Rieterplatz", "provider": "publibike", "timeStamp": "02/19/2020, 10:59:32", "zip": 8002}, "type": "Feature"}, {"geometry": {"coordinates": [8.514176, 47.3663708], "type": "Point"}, "properties": {"address": "Talwiesenstrasse 92", "electric": 6, "id": "pb_446", "manual": 2, "name": "Binzallee", "provider": "publibike", "timeStamp": "02/19/2020, 10:59:32", "zip": 8055}, "type": "Feature"}, {"geometry": {"coordinates": [8.5070564, 47.371455], "type": "Point"}, "properties": {"address": "Gutstrasse 87", "electric": 5, "id": "pb_447", "manual": 1, "name": "Gutstrasse", "provider": "publibike", "timeStamp": "02/19/2020, 10:59:32", "zip": 8055}, "type": "Feature"}, {"geometry": {"coordinates": [8.4941268, 47.3836391], "type": "Point"}, "properties": {"address": "Flurstrasse 62", "electric": 2, "id": "pb_453", "manual": 6, "name": "Flurpark", "provider": "publibike", "timeStamp": "02/19/2020, 10:59:32", "zip": 8048}, "type": "Feature"}, {"geometry": {"coordinates": [8.500343, 47.380778], "type": "Point"}, "properties": {"address": "Edelweissstrasse 32", "electric": 6, "id": "pb_448", "manual": 2, "name": "Bl\u00fcemliquartier", "provider": "publibike", "timeStamp": "02/19/2020, 10:59:32", "zip": 8048}, "type": "Feature"}, {"geometry": {"coordinates": [8.528796, 47.383858], "type": "Point"}, "properties": {"address": "Gasometerstrasse 24", "electric": 1, "id": "pb_449", "manual": 5, "name": "Gasometerstrasse", "provider": "publibike", "timeStamp": "02/19/2020, 10:59:32", "zip": 8005}, "type": "Feature"}, {"geometry": {"coordinates": [8.4981964, 47.3859194], "type": "Point"}, "properties": {"address": "Baslerstrasse 57", "electric": 7, "id": "pb_455", "manual": 13, "name": "Letzipark", "provider": "publibike", "timeStamp": "02/19/2020, 10:59:32", "zip": 8048}, "type": "Feature"}, {"geometry": {"coordinates": [8.515252, 47.381915], "type": "Point"}, "properties": {"address": "Sihlfeldstrasse 175", "electric": 2, "id": "pb_451", "manual": 0, "name": "Hardplatz", "provider": "publibike", "timeStamp": "02/19/2020, 10:59:32", "zip": 8004}, "type": "Feature"}, {"geometry": {"coordinates": [8.5064743, 47.4188324], "type": "Point"}, "properties": {"address": "Wehntalerstrasse 541", "electric": 2, "id": "pb_427", "manual": 1, "name": "Zehntenhausplatz", "provider": "publibike", "timeStamp": "02/19/2020, 10:59:32", "zip": 8046}, "type": "Feature"}, {"geometry": {"coordinates": [8.537729, 47.379719], "type": "Point"}, "properties": {"address": "Sihlquai/HB", "electric": 3, "id": "pb_513", "manual": 7, "name": "Sihlquai", "provider": "publibike", "timeStamp": "02/19/2020, 10:59:32", "zip": 8005}, "type": "Feature"}, {"geometry": {"coordinates": [8.596202, 47.397885], "type": "Point"}, "properties": {"address": "Bahnhof Stettbach", "electric": 3, "id": "pb_514", "manual": 0, "name": "Bahnhof Stettbach", "provider": "publibike", "timeStamp": "02/19/2020, 10:59:32", "zip": 8051}, "type": "Feature"}, {"geometry": {"coordinates": [8.5543974, 47.3690153], "type": "Point"}, "properties": {"address": "Kasinostrasse 10", "electric": 2, "id": "pb_515", "manual": 1, "name": "Hottingerplatz", "provider": "publibike", "timeStamp": "02/19/2020, 10:59:32", "zip": 8032}, "type": "Feature"}, {"geometry": {"coordinates": [8.534444, 47.351525], "type": "Point"}, "properties": {"address": "Mobile Station Z\u00fcrich 1", "electric": 0, "id": "pb_282", "manual": 0, "name": "Theaterspektakel", "provider": "publibike", "timeStamp": "02/19/2020, 10:59:32", "zip": 8002}, "type": "Feature"}, {"geometry": {"coordinates": [8.516257, 47.367656], "type": "Point"}, "properties": {"address": "Goldbrunnenstrasse 54", "electric": 3, "id": "pb_538", "manual": 2, "name": "Kirche B\u00fchl", "provider": "publibike", "timeStamp": "02/19/2020, 10:59:32", "zip": 8055}, "type": "Feature"}, {"geometry": {"coordinates": [8.555639, 47.416873], "type": "Point"}, "properties": {"address": "Leutschenbachstrasse 50", "electric": 3, "id": "pb_537", "manual": 4, "name": "Leutschenpark", "provider": "publibike", "timeStamp": "02/19/2020, 10:59:32", "zip": 8050}, "type": "Feature"}, {"geometry": {"coordinates": [8.546464, 47.403822], "type": "Point"}, "properties": {"address": "Berninastrasse 45", "electric": 0, "id": "pb_540", "manual": 0, "name": "Berninaplatz", "provider": "publibike", "timeStamp": "02/19/2020, 10:59:32", "zip": 8057}, "type": "Feature"}, {"geometry": {"coordinates": [8.523134, 47.369004], "type": "Point"}, "properties": {"address": "Erlachstrasse 3", "electric": 0, "id": "pb_385", "manual": 0, "name": "Aegerten", "provider": "publibike", "timeStamp": "02/19/2020, 10:59:32", "zip": 8003}, "type": "Feature"}, {"geometry": {"coordinates": [8.49038, 47.381591], "type": "Point"}, "properties": {"address": "Rautistrasse 60", "electric": 3, "id": "pb_536", "manual": 1, "name": "Freilager", "provider": "publibike", "timeStamp": "02/19/2020, 10:59:32", "zip": 8048}, "type": "Feature"}, {"geometry": {"coordinates": [8.496511, 47.375247], "type": "Point"}, "properties": {"address": "Letzigraben 139", "electric": 5, "id": "pb_444", "manual": 6, "name": "Sackzelg", "provider": "publibike", "timeStamp": "02/19/2020, 10:59:32", "zip": 8047}, "type": "Feature"}, {"geometry": {"coordinates": [8.58131, 47.402801], "type": "Point"}, "properties": {"address": "Altwiesenstrasse 104", "electric": 4, "id": "pb_539", "manual": 1, "name": "Glattwiesen", "provider": "publibike", "timeStamp": "02/19/2020, 10:59:32", "zip": 8051}, "type": "Feature"}, {"geometry": {"coordinates": [8.52689, 47.3767], "type": "Point"}, "properties": {"address": "Molkenstrasse 5", "electric": 7, "id": "pb_560", "manual": 7, "name": "Helvetiaplatz", "provider": "publibike", "timeStamp": "02/19/2020, 10:59:32", "zip": 8004}, "type": "Feature"}, {"geometry": {"coordinates": [8.525602, 47.374241], "type": "Point"}, "properties": {"address": "Badenerstrasse 90", "electric": 6, "id": "pb_559", "manual": 3, "name": "Bezirksgeb\u00e4ude", "provider": "publibike", "timeStamp": "02/19/2020, 10:59:32", "zip": 8004}, "type": "Feature"}, {"geometry": {"coordinates": [8.535082, 47.345248], "type": "Point"}, "properties": {"address": "Bachstrasse 15", "electric": 4, "id": "pb_564", "manual": 5, "name": "GZ Wollishofen", "provider": "publibike", "timeStamp": "02/19/2020, 10:59:32", "zip": 8038}, "type": "Feature"}, {"geometry": {"coordinates": [8.514841, 47.370238], "type": "Point"}, "properties": {"address": "Schrennengasse 37", "electric": 2, "id": "pb_562", "manual": 4, "name": "Goldbrunnenplatz", "provider": "publibike", "timeStamp": "02/19/2020, 10:59:32", "zip": 8003}, "type": "Feature"}, {"geometry": {"coordinates": [8.514138, 47.374206], "type": "Point"}, "properties": {"address": "Idaplatz 4", "electric": 0, "id": "pb_557", "manual": 9, "name": "Idaplatz", "provider": "publibike", "timeStamp": "02/19/2020, 10:59:32", "zip": 8003}, "type": "Feature"}, {"geometry": {"coordinates": [8.518432, 47.369549], "type": "Point"}, "properties": {"address": "Brinerstrasse 2", "electric": 0, "id": "pb_558", "manual": 2, "name": "Schmiede Wiedikon", "provider": "publibike", "timeStamp": "02/19/2020, 10:59:32", "zip": 8003}, "type": "Feature"}, {"geometry": {"coordinates": [8.537546, 47.391289], "type": "Point"}, "properties": {"address": "Rotbuchstrasse 15", "electric": 0, "id": "pb_556", "manual": 0, "name": "Schaffhauserplatz", "provider": "publibike", "timeStamp": "02/19/2020, 10:59:32", "zip": 8006}, "type": "Feature"}, {"geometry": {"coordinates": [8.541541, 47.413733], "type": "Point"}, "properties": {"address": "Therese-Giehse-Strasse 11", "electric": 2, "id": "pb_561", "manual": 1, "name": "Center Eleven", "provider": "publibike", "timeStamp": "02/19/2020, 10:59:32", "zip": 8050}, "type": "Feature"}, {"geometry": {"coordinates": [8.534227, 47.360004], "type": "Point"}, "properties": {"address": "Alfred Escher-Strasse 76", "electric": 10, "id": "pb_563", "manual": 4, "name": "Mythenschloss", "provider": "publibike", "timeStamp": "02/19/2020, 10:59:32", "zip": 8002}, "type": "Feature"}, {"geometry": {"coordinates": [8.50373, 47.396172], "type": "Point"}, "properties": {"address": "Hardeggstrasse 6", "electric": 3, "id": "pb_566", "manual": 4, "name": "Am Wasser", "provider": "publibike", "timeStamp": "02/19/2020, 10:59:32", "zip": 8049}, "type": "Feature"}, {"geometry": {"coordinates": [8.532432, 47.381174], "type": "Point"}, "properties": {"address": "Klingenstrasse 9", "electric": 0, "id": "pb_565", "manual": 8, "name": "Zollstrasse", "provider": "publibike", "timeStamp": "02/19/2020, 10:59:32", "zip": 8005}, "type": "Feature"}, {"geometry": {"coordinates": [8.497982, 47.381447], "type": "Point"}, "properties": {"address": "Dennlerstrasse 23", "electric": 3, "id": "pb_567", "manual": 1, "name": "Dennlerstrasse", "provider": "publibike", "timeStamp": "02/19/2020, 10:59:32", "zip": 8047}, "type": "Feature"}, {"geometry": {"coordinates": [8.528049, 47.347701], "type": "Point"}, "properties": {"address": "Mutschellenstrasse 114", "electric": 5, "id": "pb_568", "manual": 7, "name": "Jugendherberge", "provider": "publibike", "timeStamp": "02/19/2020, 10:59:32", "zip": 8038}, "type": "Feature"}, {"geometry": {"coordinates": [8.539016, 47.405751], "type": "Point"}, "properties": {"address": "Ringstrasse 82", "electric": 2, "id": "pb_569", "manual": 1, "name": "Freibad Allenmoos", "provider": "publibike", "timeStamp": "02/19/2020, 10:59:32", "zip": 8057}, "type": "Feature"}, {"geometry": {"coordinates": [8.534974, 47.402164], "type": "Point"}, "properties": {"address": "Brache Guggach", "electric": 7, "id": "pb_572", "manual": 3, "name": "Radiostudio", "provider": "publibike", "timeStamp": "02/19/2020, 10:59:32", "zip": 8057}, "type": "Feature"}, {"geometry": {"coordinates": [8.547901, 47.375556], "type": "Point"}, "properties": {"address": "Karl-Schmid-Strasse 4", "electric": 2, "id": "pb_571", "manual": 1, "name": "ETH/Zoologisches Museum", "provider": "publibike", "timeStamp": "02/19/2020, 10:59:32", "zip": 8006}, "type": "Feature"}, {"geometry": {"coordinates": [8.517686, 47.358785], "type": "Point"}, "properties": {"charge": 100, "id": "smide_2880", "name": "ZH267289", "provider": "smide", "range": 50.0, "size": 17, "time": "02/19/2020, 10:58:59"}, "type": "Feature"}, {"geometry": {"coordinates": [8.516171, 47.428521], "type": "Point"}, "properties": {"charge": 61, "id": "smide_2867", "name": "ZH 267090", "provider": "smide", "range": 30.0, "size": 20, "time": "02/19/2020, 10:58:59"}, "type": "Feature"}, {"geometry": {"coordinates": [8.514765, 47.38636], "type": "Point"}, "properties": {"charge": 64, "id": "smide_2861", "name": "ZH 267096", "provider": "smide", "range": 32.0, "size": 17, "time": "02/19/2020, 10:58:59"}, "type": "Feature"}, {"geometry": {"coordinates": [8.53281, 47.336865], "type": "Point"}, "properties": {"charge": 34, "id": "smide_2856", "name": "ZH 267101", "provider": "smide", "range": 17.0, "size": 17, "time": "02/19/2020, 10:58:59"}, "type": "Feature"}, {"geometry": {"coordinates": [8.515796, 47.370265], "type": "Point"}, "properties": {"charge": 93, "id": "smide_2854", "name": "ZH 267103", "provider": "smide", "range": 46.0, "size": 17, "time": "02/19/2020, 10:58:59"}, "type": "Feature"}, {"geometry": {"coordinates": [8.525963, 47.337003], "type": "Point"}, "properties": {"charge": 85, "id": "smide_2831", "name": "ZH 267180", "provider": "smide", "range": 42.0, "size": 20, "time": "02/19/2020, 10:58:59"}, "type": "Feature"}, {"geometry": {"coordinates": [8.55924, 47.415008], "type": "Point"}, "properties": {"charge": 100, "id": "smide_2795", "name": "ZH 266885", "provider": "smide", "range": 50.0, "size": 17, "time": "02/19/2020, 10:58:59"}, "type": "Feature"}, {"geometry": {"coordinates": [8.537063, 47.419075], "type": "Point"}, "properties": {"charge": 70, "id": "smide_2793", "name": "ZH266883", "provider": "smide", "range": 35.0, "size": 17, "time": "02/19/2020, 10:58:59"}, "type": "Feature"}, {"geometry": {"coordinates": [8.547946, 47.366255], "type": "Point"}, "properties": {"charge": 97, "id": "smide_2785", "name": "ZH266875", "provider": "smide", "range": 48.0, "size": 17, "time": "02/19/2020, 10:58:59"}, "type": "Feature"}, {"geometry": {"coordinates": [8.533333, 47.377561], "type": "Point"}, "properties": {"charge": 24, "id": "smide_2780", "name": "ST1 X #1", "provider": "smide", "range": 12.0, "size": 17, "time": "02/19/2020, 10:58:59"}, "type": "Feature"}, {"geometry": {"coordinates": [8.518456, 47.36302], "type": "Point"}, "properties": {"charge": 77, "id": "smide_2775", "name": "ZH267283", "provider": "smide", "range": 38.0, "size": 20, "time": "02/19/2020, 10:58:59"}, "type": "Feature"}, {"geometry": {"coordinates": [8.527411, 47.354112], "type": "Point"}, "properties": {"charge": 70, "id": "smide_2773", "name": "ZH266561", "provider": "smide", "range": 35.0, "size": 17, "time": "02/19/2020, 10:58:59"}, "type": "Feature"}, {"geometry": {"coordinates": [8.52982, 47.37122], "type": "Point"}, "properties": {"charge": 70, "id": "smide_2771", "name": "ZH266559", "provider": "smide", "range": 35.0, "size": 17, "time": "02/19/2020, 10:58:59"}, "type": "Feature"}, {"geometry": {"coordinates": [8.543168, 47.372932], "type": "Point"}, "properties": {"charge": 51, "id": "smide_2763", "name": "ZH266641", "provider": "smide", "range": 25.0, "size": 17, "time": "02/19/2020, 10:58:59"}, "type": "Feature"}, {"geometry": {"coordinates": [8.495935, 47.382576], "type": "Point"}, "properties": {"charge": 87, "id": "smide_2761", "name": "ZH266642", "provider": "smide", "range": 43.0, "size": 20, "time": "02/19/2020, 10:58:59"}, "type": "Feature"}, {"geometry": {"coordinates": [8.513137, 47.391872], "type": "Point"}, "properties": {"charge": 59, "id": "smide_2758", "name": "ZH266638 M", "provider": "smide", "range": 29.0, "size": 17, "time": "02/19/2020, 10:58:59"}, "type": "Feature"}, {"geometry": {"coordinates": [8.484082, 47.38356], "type": "Point"}, "properties": {"charge": 53, "id": "smide_2751", "name": "BE343857", "provider": "smide", "range": 26.0, "size": 17, "time": "02/19/2020, 10:58:59"}, "type": "Feature"}, {"geometry": {"coordinates": [8.535758, 47.377248], "type": "Point"}, "properties": {"charge": 89, "id": "smide_2749", "name": "BE343867", "provider": "smide", "range": 44.0, "size": 17, "time": "02/19/2020, 10:58:59"}, "type": "Feature"}, {"geometry": {"coordinates": [8.494215, 47.38678], "type": "Point"}, "properties": {"charge": 93, "id": "smide_2747", "name": "BE335820", "provider": "smide", "range": 46.0, "size": 17, "time": "02/19/2020, 10:58:59"}, "type": "Feature"}, {"geometry": {"coordinates": [8.510638, 47.398464], "type": "Point"}, "properties": {"charge": 61, "id": "smide_2743", "name": "BE343864", "provider": "smide", "range": 30.0, "size": 17, "time": "02/19/2020, 10:58:59"}, "type": "Feature"}, {"geometry": {"coordinates": [8.535543, 47.363472], "type": "Point"}, "properties": {"charge": 33, "id": "smide_2741", "name": "BE343874", "provider": "smide", "range": 16.0, "size": 17, "time": "02/19/2020, 10:58:59"}, "type": "Feature"}, {"geometry": {"coordinates": [8.499318, 47.401833], "type": "Point"}, "properties": {"charge": 29, "id": "smide_2738", "name": "BE343865", "provider": "smide", "range": 14.0, "size": 17, "time": "02/19/2020, 10:58:59"}, "type": "Feature"}, {"geometry": {"coordinates": [8.502133, 47.369084], "type": "Point"}, "properties": {"charge": 20, "id": "smide_2737", "name": "BE336149", "provider": "smide", "range": 10.0, "size": 17, "time": "02/19/2020, 10:58:59"}, "type": "Feature"}, {"geometry": {"coordinates": [8.494859, 47.368148], "type": "Point"}, "properties": {"charge": 100, "id": "smide_2734", "name": "BE343876", "provider": "smide", "range": 50.0, "size": 17, "time": "02/19/2020, 10:58:59"}, "type": "Feature"}, {"geometry": {"coordinates": [8.546615, 47.408248], "type": "Point"}, "properties": {"charge": 59, "id": "smide_2733", "name": "BE343873", "provider": "smide", "range": 29.0, "size": 17, "time": "02/19/2020, 10:58:59"}, "type": "Feature"}, {"geometry": {"coordinates": [8.536835, 47.369596], "type": "Point"}, "properties": {"charge": 89, "id": "smide_2732", "name": "BE343870", "provider": "smide", "range": 44.0, "size": 17, "time": "02/19/2020, 10:58:59"}, "type": "Feature"}, {"geometry": {"coordinates": [8.580085, 47.350876], "type": "Point"}, "properties": {"charge": 36, "id": "smide_2729", "name": "BE343878", "provider": "smide", "range": 18.0, "size": 17, "time": "02/19/2020, 10:58:59"}, "type": "Feature"}, {"geometry": {"coordinates": [8.518735, 47.366635], "type": "Point"}, "properties": {"charge": 89, "id": "smide_2725", "name": "ZH261545", "provider": "smide", "range": 44.0, "size": 0, "time": "02/19/2020, 10:58:59"}, "type": "Feature"}, {"geometry": {"coordinates": [8.55975, 47.38325], "type": "Point"}, "properties": {"charge": 20, "id": "smide_2716", "name": "ZH254606", "provider": "smide", "range": 10.0, "size": 17, "time": "02/19/2020, 10:58:59"}, "type": "Feature"}, {"geometry": {"coordinates": [8.498255, 47.358156], "type": "Point"}, "properties": {"charge": 60, "id": "smide_2715", "name": "ZH254605", "provider": "smide", "range": 30.0, "size": 17, "time": "02/19/2020, 10:58:59"}, "type": "Feature"}, {"geometry": {"coordinates": [8.544836, 47.366308], "type": "Point"}, "properties": {"charge": 97, "id": "smide_2710", "name": "ZH256460", "provider": "smide", "range": 48.0, "size": 17, "time": "02/19/2020, 10:58:59"}, "type": "Feature"}, {"geometry": {"coordinates": [8.518274, 47.338944], "type": "Point"}, "properties": {"charge": 77, "id": "smide_2712", "name": "ZH256462", "provider": "smide", "range": 38.0, "size": 17, "time": "02/19/2020, 10:58:59"}, "type": "Feature"}, {"geometry": {"coordinates": [8.548885, 47.379904], "type": "Point"}, "properties": {"charge": 84, "id": "smide_2711", "name": "ZH256463", "provider": "smide", "range": 42.0, "size": 17, "time": "02/19/2020, 10:58:59"}, "type": "Feature"}, {"geometry": {"coordinates": [8.5401, 47.39877], "type": "Point"}, "properties": {"charge": 30, "id": "smide_2709", "name": "ZH256466", "provider": "smide", "range": 15.0, "size": 20, "time": "02/19/2020, 10:58:59"}, "type": "Feature"}, {"geometry": {"coordinates": [8.552257, 47.381984], "type": "Point"}, "properties": {"charge": 55, "id": "smide_2707", "name": "ZH256467", "provider": "smide", "range": 27.0, "size": 20, "time": "02/19/2020, 10:58:59"}, "type": "Feature"}, {"geometry": {"coordinates": [8.563455, 47.409376], "type": "Point"}, "properties": {"charge": 42, "id": "smide_2708", "name": "ZH256464", "provider": "smide", "range": 21.0, "size": 17, "time": "02/19/2020, 10:58:59"}, "type": "Feature"}, {"geometry": {"coordinates": [8.544155, 47.379816], "type": "Point"}, "properties": {"charge": 66, "id": "smide_2706", "name": "ZH256322", "provider": "smide", "range": 33.0, "size": 20, "time": "02/19/2020, 10:58:59"}, "type": "Feature"}, {"geometry": {"coordinates": [8.539181, 47.369788], "type": "Point"}, "properties": {"charge": 65, "id": "smide_2701", "name": "ZH256468", "provider": "smide", "range": 32.0, "size": 20, "time": "02/19/2020, 10:58:59"}, "type": "Feature"}, {"geometry": {"coordinates": [8.539659, 47.369444], "type": "Point"}, "properties": {"charge": 55, "id": "smide_2700", "name": "ZH256470", "provider": "smide", "range": 27.0, "size": 20, "time": "02/19/2020, 10:58:59"}, "type": "Feature"}, {"geometry": {"coordinates": [8.54503, 47.400992], "type": "Point"}, "properties": {"charge": 97, "id": "smide_2697", "name": "ZH254629", "provider": "smide", "range": 48.0, "size": 20, "time": "02/19/2020, 10:58:59"}, "type": "Feature"}, {"geometry": {"coordinates": [8.553978, 47.413068], "type": "Point"}, "properties": {"charge": 98, "id": "smide_2696", "name": "ZH254616", "provider": "smide", "range": 49.0, "size": 20, "time": "02/19/2020, 10:58:59"}, "type": "Feature"}, {"geometry": {"coordinates": [8.500948, 47.36893], "type": "Point"}, "properties": {"charge": 36, "id": "smide_2691", "name": "ZH254622", "provider": "smide", "range": 18.0, "size": 20, "time": "02/19/2020, 10:58:59"}, "type": "Feature"}, {"geometry": {"coordinates": [8.476938, 47.387425], "type": "Point"}, "properties": {"charge": 20, "id": "smide_2690", "name": "ZH254625", "provider": "smide", "range": 10.0, "size": 20, "time": "02/19/2020, 10:58:59"}, "type": "Feature"}, {"geometry": {"coordinates": [8.547379, 47.377344], "type": "Point"}, "properties": {"charge": 40, "id": "smide_2684", "name": "ZH254626", "provider": "smide", "range": 20.0, "size": 20, "time": "02/19/2020, 10:58:59"}, "type": "Feature"}, {"geometry": {"coordinates": [8.557296, 47.37248], "type": "Point"}, "properties": {"charge": 32, "id": "smide_2680", "name": "ZH254619", "provider": "smide", "range": 16.0, "size": 20, "time": "02/19/2020, 10:58:59"}, "type": "Feature"}, {"geometry": {"coordinates": [8.573929, 47.352732], "type": "Point"}, "properties": {"charge": 77, "id": "smide_2679", "name": "ZH258489", "provider": "smide", "range": 38.0, "size": 17, "time": "02/19/2020, 10:58:59"}, "type": "Feature"}, {"geometry": {"coordinates": [8.509685, 47.392008], "type": "Point"}, "properties": {"charge": 81, "id": "smide_2674", "name": "ZH258654", "provider": "smide", "range": 40.0, "size": 17, "time": "02/19/2020, 10:58:59"}, "type": "Feature"}, {"geometry": {"coordinates": [8.540085, 47.378932], "type": "Point"}, "properties": {"charge": 100, "id": "smide_2671", "name": "ZH258645", "provider": "smide", "range": 50.0, "size": 17, "time": "02/19/2020, 10:58:59"}, "type": "Feature"}, {"geometry": {"coordinates": [8.51439, 47.357352], "type": "Point"}, "properties": {"charge": 84, "id": "smide_2669", "name": "ZH263294", "provider": "smide", "range": 42.0, "size": 17, "time": "02/19/2020, 10:58:59"}, "type": "Feature"}, {"geometry": {"coordinates": [8.570404, 47.410784], "type": "Point"}, "properties": {"charge": 56, "id": "smide_2666", "name": "ZH258653", "provider": "smide", "range": 28.0, "size": 17, "time": "02/19/2020, 10:58:59"}, "type": "Feature"}, {"geometry": {"coordinates": [8.582792, 47.35098], "type": "Point"}, "properties": {"charge": 89, "id": "smide_2665", "name": "ZH258644", "provider": "smide", "range": 44.0, "size": 17, "time": "02/19/2020, 10:58:59"}, "type": "Feature"}, {"geometry": {"coordinates": [8.55912, 47.414912], "type": "Point"}, "properties": {"charge": 100, "id": "smide_2664", "name": "ZH258652", "provider": "smide", "range": 50.0, "size": 17, "time": "02/19/2020, 10:58:59"}, "type": "Feature"}, {"geometry": {"coordinates": [8.475227, 47.385484], "type": "Point"}, "properties": {"charge": 66, "id": "smide_2663", "name": "ZH258649", "provider": "smide", "range": 33.0, "size": 17, "time": "02/19/2020, 10:58:59"}, "type": "Feature"}, {"geometry": {"coordinates": [8.549151, 47.378808], "type": "Point"}, "properties": {"charge": 80, "id": "smide_2662", "name": "ZH258643", "provider": "smide", "range": 40.0, "size": 17, "time": "02/19/2020, 10:58:59"}, "type": "Feature"}, {"geometry": {"coordinates": [8.537176, 47.371408], "type": "Point"}, "properties": {"charge": 92, "id": "smide_2660", "name": "ZH258647", "provider": "smide", "range": 46.0, "size": 17, "time": "02/19/2020, 10:58:59"}, "type": "Feature"}, {"geometry": {"coordinates": [8.522797, 47.36088], "type": "Point"}, "properties": {"charge": 87, "id": "smide_2648", "name": "ZH257930", "provider": "smide", "range": 43.0, "size": 20, "time": "02/19/2020, 10:58:59"}, "type": "Feature"}, {"geometry": {"coordinates": [8.570238, 47.352273], "type": "Point"}, "properties": {"charge": 52, "id": "smide_2657", "name": "ZH257936", "provider": "smide", "range": 26.0, "size": 17, "time": "02/19/2020, 10:58:59"}, "type": "Feature"}, {"geometry": {"coordinates": [8.549126, 47.366736], "type": "Point"}, "properties": {"charge": 64, "id": "smide_2647", "name": "ZH257932", "provider": "smide", "range": 32.0, "size": 20, "time": "02/19/2020, 10:58:59"}, "type": "Feature"}, {"geometry": {"coordinates": [8.560718, 47.382996], "type": "Point"}, "properties": {"charge": 77, "id": "smide_3", "name": "ZH253765", "provider": "smide", "range": 38.0, "size": 20, "time": "02/19/2020, 10:58:59"}, "type": "Feature"}, {"geometry": {"coordinates": [8.511315, 47.361388], "type": "Point"}, "properties": {"charge": 85, "id": "smide_105", "name": "ZH253804", "provider": "smide", "range": 42.0, "size": 17, "time": "02/19/2020, 10:58:59"}, "type": "Feature"}, {"geometry": {"coordinates": [8.549744, 47.40182], "type": "Point"}, "properties": {"charge": 47, "id": "smide_200", "name": "ZH253801", "provider": "smide", "range": 23.0, "size": 20, "time": "02/19/2020, 10:58:59"}, "type": "Feature"}, {"geometry": {"coordinates": [8.500538, 47.369655], "type": "Point"}, "properties": {"charge": 100, "id": "smide_197", "name": "ZH253864", "provider": "smide", "range": 50.0, "size": 20, "time": "02/19/2020, 10:58:59"}, "type": "Feature"}, {"geometry": {"coordinates": [8.557171, 47.370643], "type": "Point"}, "properties": {"charge": 56, "id": "smide_199", "name": "ZH253766", "provider": "smide", "range": 28.0, "size": 20, "time": "02/19/2020, 10:58:59"}, "type": "Feature"}, {"geometry": {"coordinates": [8.502122, 47.369116], "type": "Point"}, "properties": {"charge": 70, "id": "smide_8", "name": "ZH253861", "provider": "smide", "range": 35.0, "size": 17, "time": "02/19/2020, 10:58:59"}, "type": "Feature"}, {"geometry": {"coordinates": [8.522998, 47.394268], "type": "Point"}, "properties": {"charge": 66, "id": "smide_71", "name": "ZH253742", "provider": "smide", "range": 33.0, "size": 20, "time": "02/19/2020, 10:58:59"}, "type": "Feature"}, {"geometry": {"coordinates": [8.488367, 47.374476], "type": "Point"}, "properties": {"charge": 71, "id": "smide_101", "name": "ZH253814", "provider": "smide", "range": 35.0, "size": 17, "time": "02/19/2020, 10:58:59"}, "type": "Feature"}, {"geometry": {"coordinates": [8.515771, 47.370572], "type": "Point"}, "properties": {"charge": 84, "id": "smide_9", "name": "ZH253796", "provider": "smide", "range": 42.0, "size": 17, "time": "02/19/2020, 10:58:59"}, "type": "Feature"}, {"geometry": {"coordinates": [8.531919, 47.362064], "type": "Point"}, "properties": {"charge": 40, "id": "smide_143", "name": "ZH253778", "provider": "smide", "range": 20.0, "size": 17, "time": "02/19/2020, 10:58:59"}, "type": "Feature"}, {"geometry": {"coordinates": [8.527496, 47.367223], "type": "Point"}, "properties": {"charge": 100, "id": "smide_180", "name": "ZH253824", "provider": "smide", "range": 50.0, "size": 20, "time": "02/19/2020, 10:58:59"}, "type": "Feature"}, {"geometry": {"coordinates": [8.551998, 47.414592], "type": "Point"}, "properties": {"charge": 100, "id": "smide_20", "name": "ZH253770", "provider": "smide", "range": 50.0, "size": 20, "time": "02/19/2020, 10:58:59"}, "type": "Feature"}, {"geometry": {"coordinates": [8.50343, 47.369156], "type": "Point"}, "properties": {"charge": 86, "id": "smide_50", "name": "ZH253853", "provider": "smide", "range": 43.0, "size": 17, "time": "02/19/2020, 10:58:59"}, "type": "Feature"}, {"geometry": {"coordinates": [8.575905, 47.353023], "type": "Point"}, "properties": {"charge": 100, "id": "smide_30", "name": "ZH253813", "provider": "smide", "range": 50.0, "size": 20, "time": "02/19/2020, 10:58:59"}, "type": "Feature"}, {"geometry": {"coordinates": [8.511376, 47.409011], "type": "Point"}, "properties": {"charge": 62, "id": "smide_10", "name": "ZH253855", "provider": "smide", "range": 31.0, "size": 17, "time": "02/19/2020, 10:58:59"}, "type": "Feature"}, {"geometry": {"coordinates": [8.543873, 47.370464], "type": "Point"}, "properties": {"charge": 73, "id": "smide_179", "name": "ZH253687", "provider": "smide", "range": 36.0, "size": 20, "time": "02/19/2020, 10:58:59"}, "type": "Feature"}, {"geometry": {"coordinates": [8.538578, 47.385112], "type": "Point"}, "properties": {"charge": 94, "id": "smide_84", "name": "ZH253733", "provider": "smide", "range": 47.0, "size": 17, "time": "02/19/2020, 10:58:59"}, "type": "Feature"}, {"geometry": {"coordinates": [8.496612, 47.378412], "type": "Point"}, "properties": {"charge": 81, "id": "smide_165", "name": "ZH253752", "provider": "smide", "range": 40.0, "size": 17, "time": "02/19/2020, 10:58:59"}, "type": "Feature"}, {"geometry": {"coordinates": [8.543962, 47.378848], "type": "Point"}, "properties": {"charge": 80, "id": "smide_35", "name": "ZH253755", "provider": "smide", "range": 40.0, "size": 20, "time": "02/19/2020, 10:58:59"}, "type": "Feature"}, {"geometry": {"coordinates": [8.545311, 47.37074], "type": "Point"}, "properties": {"charge": 79, "id": "smide_76", "name": "ZH253764", "provider": "smide", "range": 39.0, "size": 17, "time": "02/19/2020, 10:58:59"}, "type": "Feature"}, {"geometry": {"coordinates": [8.525303, 47.394804], "type": "Point"}, "properties": {"charge": 42, "id": "smide_129", "name": "ZH261378", "provider": "smide", "range": 21.0, "size": 17, "time": "02/19/2020, 10:58:59"}, "type": "Feature"}, {"geometry": {"coordinates": [8.490711, 47.381191], "type": "Point"}, "properties": {"charge": 52, "id": "smide_49", "name": "ZH253873", "provider": "smide", "range": 26.0, "size": 17, "time": "02/19/2020, 10:58:59"}, "type": "Feature"}, {"geometry": {"coordinates": [8.547805, 47.39732], "type": "Point"}, "properties": {"charge": 64, "id": "smide_94", "name": "ZH253754", "provider": "smide", "range": 32.0, "size": 17, "time": "02/19/2020, 10:58:59"}, "type": "Feature"}, {"geometry": {"coordinates": [8.518964, 47.365976], "type": "Point"}, "properties": {"charge": 95, "id": "smide_37", "name": "ZH261377", "provider": "smide", "range": 47.0, "size": 20, "time": "02/19/2020, 10:58:59"}, "type": "Feature"}, {"geometry": {"coordinates": [8.560685, 47.38269], "type": "Point"}, "properties": {"charge": 95, "id": "smide_191", "name": "ZH253762", "provider": "smide", "range": 47.0, "size": 17, "time": "02/19/2020, 10:58:59"}, "type": "Feature"}, {"geometry": {"coordinates": [8.474726, 47.38585], "type": "Point"}, "properties": {"charge": 67, "id": "smide_202", "name": "ZH253830", "provider": "smide", "range": 33.0, "size": 17, "time": "02/19/2020, 10:58:59"}, "type": "Feature"}, {"geometry": {"coordinates": [8.51816, 47.388268], "type": "Point"}, "properties": {"charge": 75, "id": "smide_56", "name": "ZH261442", "provider": "smide", "range": 37.0, "size": 20, "time": "02/19/2020, 10:58:59"}, "type": "Feature"}, {"geometry": {"coordinates": [8.518348, 47.33883], "type": "Point"}, "properties": {"charge": 69, "id": "smide_47", "name": "ZH253858", "provider": "smide", "range": 34.0, "size": 17, "time": "02/19/2020, 10:58:59"}, "type": "Feature"}, {"geometry": {"coordinates": [8.513528, 47.393288], "type": "Point"}, "properties": {"charge": 85, "id": "smide_150", "name": "ZH253703", "provider": "smide", "range": 42.0, "size": 20, "time": "02/19/2020, 10:58:59"}, "type": "Feature"}, {"geometry": {"coordinates": [8.522201, 47.359356], "type": "Point"}, "properties": {"charge": 50, "id": "smide_66", "name": "ZH253818", "provider": "smide", "range": 25.0, "size": 20, "time": "02/19/2020, 10:58:59"}, "type": "Feature"}, {"geometry": {"coordinates": [8.496401, 47.362733], "type": "Point"}, "properties": {"charge": 53, "id": "smide_17", "name": "ZH253793", "provider": "smide", "range": 26.0, "size": 17, "time": "02/19/2020, 10:58:59"}, "type": "Feature"}, {"geometry": {"coordinates": [8.531856, 47.36507], "type": "Point"}, "properties": {"charge": 22, "id": "smide_145", "name": "ZH253780", "provider": "smide", "range": 11.0, "size": 20, "time": "02/19/2020, 10:58:59"}, "type": "Feature"}, {"geometry": {"coordinates": [8.573423, 47.352312], "type": "Point"}, "properties": {"charge": 42, "id": "smide_203", "name": "ZH261547", "provider": "smide", "range": 21.0, "size": 17, "time": "02/19/2020, 10:58:59"}, "type": "Feature"}, {"geometry": {"coordinates": [8.50077, 47.36888], "type": "Point"}, "properties": {"charge": 24, "id": "smide_21", "name": "ZH253841", "provider": "smide", "range": 12.0, "size": 17, "time": "02/19/2020, 10:58:59"}, "type": "Feature"}, {"geometry": {"coordinates": [8.545718, 47.375136], "type": "Point"}, "properties": {"charge": 31, "id": "smide_164", "name": "ZH253775", "provider": "smide", "range": 15.0, "size": 17, "time": "02/19/2020, 10:58:59"}, "type": "Feature"}, {"geometry": {"coordinates": [8.537508, 47.41242], "type": "Point"}, "properties": {"charge": 72, "id": "smide_189", "name": "ZH253845", "provider": "smide", "range": 36.0, "size": 20, "time": "02/19/2020, 10:58:59"}, "type": "Feature"}, {"geometry": {"coordinates": [8.519077, 47.39896], "type": "Point"}, "properties": {"charge": 45, "id": "smide_81", "name": "ZH253753", "provider": "smide", "range": 22.0, "size": 17, "time": "02/19/2020, 10:58:59"}, "type": "Feature"}, {"geometry": {"coordinates": [8.539382, 47.38854], "type": "Point"}, "properties": {"charge": 89, "id": "smide_171", "name": "ZH253689", "provider": "smide", "range": 44.0, "size": 20, "time": "02/19/2020, 10:58:59"}, "type": "Feature"}, {"geometry": {"coordinates": [8.50272, 47.36534], "type": "Point"}, "properties": {"charge": 98, "id": "smide_93", "name": "ZH253681", "provider": "smide", "range": 49.0, "size": 17, "time": "02/19/2020, 10:58:59"}, "type": "Feature"}, {"geometry": {"coordinates": [8.550728, 47.42222], "type": "Point"}, "properties": {"charge": 56, "id": "smide_67", "name": "ZH253779", "provider": "smide", "range": 28.0, "size": 17, "time": "02/19/2020, 10:58:59"}, "type": "Feature"}, {"geometry": {"coordinates": [8.476741, 47.389815], "type": "Point"}, "properties": {"charge": 84, "id": "smide_118", "name": "ZH253759", "provider": "smide", "range": 42.0, "size": 20, "time": "02/19/2020, 10:58:59"}, "type": "Feature"}, {"geometry": {"coordinates": [8.530696, 47.34816], "type": "Point"}, "properties": {"charge": 100, "id": "smide_142", "name": "ZH258745", "provider": "smide", "range": 50.0, "size": 17, "time": "02/19/2020, 10:58:59"}, "type": "Feature"}, {"geometry": {"coordinates": [8.552255, 47.377393], "type": "Point"}, "properties": {"charge": 77, "id": "smide_166", "name": "ZH253728", "provider": "smide", "range": 38.0, "size": 17, "time": "02/19/2020, 10:58:59"}, "type": "Feature"}, {"geometry": {"coordinates": [8.554851, 47.378768], "type": "Point"}, "properties": {"charge": 100, "id": "smide_126", "name": "ZH268400", "provider": "smide", "range": 50.0, "size": 17, "time": "02/19/2020, 10:58:59"}, "type": "Feature"}, {"geometry": {"coordinates": [8.510065, 47.390471], "type": "Point"}, "properties": {"charge": 69, "id": "smide_44", "name": "ZH253837", "provider": "smide", "range": 34.0, "size": 17, "time": "02/19/2020, 10:58:59"}, "type": "Feature"}, {"geometry": {"coordinates": [8.530356, 47.390316], "type": "Point"}, "properties": {"charge": 32, "id": "smide_98", "name": "ZH256321", "provider": "smide", "range": 16.0, "size": 17, "time": "02/19/2020, 10:58:59"}, "type": "Feature"}, {"geometry": {"coordinates": [8.576303, 47.353108], "type": "Point"}, "properties": {"charge": 85, "id": "smide_154", "name": "ZH253744", "provider": "smide", "range": 42.0, "size": 20, "time": "02/19/2020, 10:58:59"}, "type": "Feature"}, {"geometry": {"coordinates": [8.548625, 47.384776], "type": "Point"}, "properties": {"charge": 42, "id": "smide_7", "name": "ZH256289", "provider": "smide", "range": 21.0, "size": 20, "time": "02/19/2020, 10:58:59"}, "type": "Feature"}, {"geometry": {"coordinates": [8.512905, 47.39176], "type": "Point"}, "properties": {"charge": 91, "id": "smide_92", "name": "ZH253798", "provider": "smide", "range": 45.0, "size": 17, "time": "02/19/2020, 10:58:59"}, "type": "Feature"}, {"geometry": {"coordinates": [8.514352, 47.357316], "type": "Point"}, "properties": {"charge": 69, "id": "smide_111", "name": "ZH253763", "provider": "smide", "range": 34.0, "size": 17, "time": "02/19/2020, 10:58:59"}, "type": "Feature"}, {"geometry": {"coordinates": [8.510843, 47.366928], "type": "Point"}, "properties": {"charge": 100, "id": "smide_1", "name": "ZH253776", "provider": "smide", "range": 50.0, "size": 17, "time": "02/19/2020, 10:58:59"}, "type": "Feature"}, {"geometry": {"coordinates": [8.545891, 47.364464], "type": "Point"}, "properties": {"charge": 61, "id": "smide_28", "name": "ZH253831", "provider": "smide", "range": 30.0, "size": 17, "time": "02/19/2020, 10:58:59"}, "type": "Feature"}, {"geometry": {"coordinates": [8.551283, 47.408776], "type": "Point"}, "properties": {"charge": 98, "id": "smide_14", "name": "ZH253749", "provider": "smide", "range": 49.0, "size": 20, "time": "02/19/2020, 10:58:59"}, "type": "Feature"}, {"geometry": {"coordinates": [8.551946, 47.376604], "type": "Point"}, "properties": {"charge": 85, "id": "smide_130", "name": "ZH253847", "provider": "smide", "range": 42.0, "size": 20, "time": "02/19/2020, 10:58:59"}, "type": "Feature"}, {"geometry": {"coordinates": [8.510861, 47.361491], "type": "Point"}, "properties": {"charge": 88, "id": "smide_24", "name": "ZH253696", "provider": "smide", "range": 44.0, "size": 20, "time": "02/19/2020, 10:58:59"}, "type": "Feature"}, {"geometry": {"coordinates": [8.574436, 47.347928], "type": "Point"}, "properties": {"charge": 57, "id": "smide_107", "name": "ZH253819", "provider": "smide", "range": 28.0, "size": 17, "time": "02/19/2020, 10:58:59"}, "type": "Feature"}, {"geometry": {"coordinates": [8.517147, 47.36356], "type": "Point"}, "properties": {"charge": 94, "id": "smide_136", "name": "ZH253682", "provider": "smide", "range": 47.0, "size": 17, "time": "02/19/2020, 10:58:59"}, "type": "Feature"}, {"geometry": {"coordinates": [8.538998, 47.393728], "type": "Point"}, "properties": {"charge": 80, "id": "smide_83", "name": "ZH253869", "provider": "smide", "range": 40.0, "size": 20, "time": "02/19/2020, 10:58:59"}, "type": "Feature"}, {"geometry": {"coordinates": [8.511789, 47.397024], "type": "Point"}, "properties": {"charge": 81, "id": "smide_205", "name": "ZH253805", "provider": "smide", "range": 40.0, "size": 17, "time": "02/19/2020, 10:58:59"}, "type": "Feature"}, {"geometry": {"coordinates": [8.522154, 47.35944], "type": "Point"}, "properties": {"charge": 58, "id": "smide_193", "name": "ZH253738", "provider": "smide", "range": 28.0, "size": 20, "time": "02/19/2020, 10:58:59"}, "type": "Feature"}, {"geometry": {"coordinates": [8.56433, 47.409168], "type": "Point"}, "properties": {"charge": 69, "id": "smide_73", "name": "ZH261379", "provider": "smide", "range": 34.0, "size": 20, "time": "02/19/2020, 10:58:59"}, "type": "Feature"}, {"geometry": {"coordinates": [8.490274, 47.381024], "type": "Point"}, "properties": {"charge": 13, "id": "smide_100", "name": "ZH253862", "provider": "smide", "range": 6.0, "size": 20, "time": "02/19/2020, 10:58:59"}, "type": "Feature"}, {"geometry": {"coordinates": [8.51463, 47.357241], "type": "Point"}, "properties": {"charge": 21, "id": "smide_134", "name": "ZH253741", "provider": "smide", "range": 10.0, "size": 20, "time": "02/19/2020, 10:58:59"}, "type": "Feature"}, {"geometry": {"coordinates": [8.511326, 47.409015], "type": "Point"}, "properties": {"charge": 91, "id": "smide_141", "name": "ZH253800", "provider": "smide", "range": 45.0, "size": 20, "time": "02/19/2020, 10:58:59"}, "type": "Feature"}, {"geometry": {"coordinates": [8.559136, 47.414631], "type": "Point"}, "properties": {"charge": 88, "id": "smide_149", "name": "ZH253743", "provider": "smide", "range": 44.0, "size": 20, "time": "02/19/2020, 10:58:59"}, "type": "Feature"}, {"geometry": {"coordinates": [8.573018, 47.351308], "type": "Point"}, "properties": {"charge": 55, "id": "smide_16", "name": "ZH253713", "provider": "smide", "range": 27.0, "size": 20, "time": "02/19/2020, 10:58:59"}, "type": "Feature"}, {"geometry": {"coordinates": [8.569406, 47.351978], "type": "Point"}, "properties": {"charge": 62, "id": "smide_33", "name": "ZH253782", "provider": "smide", "range": 31.0, "size": 20, "time": "02/19/2020, 10:58:59"}, "type": "Feature"}, {"geometry": {"coordinates": [8.544413, 47.403128], "type": "Point"}, "properties": {"charge": 77, "id": "smide_161", "name": "ZH253691", "provider": "smide", "range": 38.0, "size": 20, "time": "02/19/2020, 10:58:59"}, "type": "Feature"}, {"geometry": {"coordinates": [8.5021, 47.369024], "type": "Point"}, "properties": {"charge": 38, "id": "smide_42", "name": "ZH253846", "provider": "smide", "range": 19.0, "size": 20, "time": "02/19/2020, 10:58:59"}, "type": "Feature"}, {"geometry": {"coordinates": [8.531475, 47.340468], "type": "Point"}, "properties": {"charge": 12, "id": "smide_4", "name": "ZH253740", "provider": "smide", "range": 6.0, "size": 20, "time": "02/19/2020, 10:58:59"}, "type": "Feature"}, {"geometry": {"coordinates": [8.550032, 47.421916], "type": "Point"}, "properties": {"charge": 61, "id": "smide_160", "name": "ZH253722", "provider": "smide", "range": 30.0, "size": 17, "time": "02/19/2020, 10:58:59"}, "type": "Feature"}, {"geometry": {"coordinates": [8.477581, 47.389931], "type": "Point"}, "properties": {"charge": 100, "id": "smide_137", "name": "ZH258502", "provider": "smide", "range": 50.0, "size": 17, "time": "02/19/2020, 10:58:59"}, "type": "Feature"}, {"geometry": {"coordinates": [8.543728, 47.41968], "type": "Point"}, "properties": {"charge": 100, "id": "smide_178", "name": "ZH253803", "provider": "smide", "range": 50.0, "size": 17, "time": "02/19/2020, 10:58:59"}, "type": "Feature"}, {"geometry": {"coordinates": [8.545628, 47.371111], "type": "Point"}, "properties": {"charge": 54, "id": "smide_55", "name": "ZH253875", "provider": "smide", "range": 27.0, "size": 17, "time": "02/19/2020, 10:58:59"}, "type": "Feature"}, {"geometry": {"coordinates": [8.478237, 47.39176], "type": "Point"}, "properties": {"charge": 38, "id": "smide_96", "name": "ZH256146", "provider": "smide", "range": 19.0, "size": 20, "time": "02/19/2020, 10:58:59"}, "type": "Feature"}, {"geometry": {"coordinates": [8.519121, 47.337288], "type": "Point"}, "properties": {"charge": 12, "id": "smide_58", "name": "ZH259246", "provider": "smide", "range": 6.0, "size": 20, "time": "02/19/2020, 10:58:59"}, "type": "Feature"}, {"geometry": {"coordinates": [8.550735, 47.375088], "type": "Point"}, "properties": {"charge": 32, "id": "smide_54", "name": "ZH253874", "provider": "smide", "range": 16.0, "size": 20, "time": "02/19/2020, 10:58:59"}, "type": "Feature"}, {"geometry": {"coordinates": [8.510504, 47.395164], "type": "Point"}, "properties": {"charge": 75, "id": "smide_175", "name": "ZH253730", "provider": "smide", "range": 37.0, "size": 17, "time": "02/19/2020, 10:58:59"}, "type": "Feature"}, {"geometry": {"coordinates": [8.516225, 47.428495], "type": "Point"}, "properties": {"charge": 100, "id": "smide_162", "name": "ZH253760", "provider": "smide", "range": 50.0, "size": 17, "time": "02/19/2020, 10:58:59"}, "type": "Feature"}, {"geometry": {"coordinates": [8.534921, 47.373448], "type": "Point"}, "properties": {"charge": 57, "id": "smide_95", "name": "ZH253773", "provider": "smide", "range": 28.0, "size": 17, "time": "02/19/2020, 10:58:59"}, "type": "Feature"}, {"geometry": {"coordinates": [8.509109, 47.384752], "type": "Point"}, "properties": {"charge": 67, "id": "smide_163", "name": "ZH256147", "provider": "smide", "range": 33.0, "size": 20, "time": "02/19/2020, 10:58:59"}, "type": "Feature"}, {"geometry": {"coordinates": [8.510213, 47.38412], "type": "Point"}, "properties": {"charge": 55, "id": "smide_112", "name": "ZH263530", "provider": "smide", "range": 27.0, "size": 20, "time": "02/19/2020, 10:58:59"}, "type": "Feature"}, {"geometry": {"coordinates": [8.48753, 47.39076], "type": "Point"}, "properties": {"charge": 45, "id": "smide_38", "name": "ZH253851", "provider": "smide", "range": 22.0, "size": 20, "time": "02/19/2020, 10:58:59"}, "type": "Feature"}, {"geometry": {"coordinates": [8.568245, 47.367832], "type": "Point"}, "properties": {"charge": 87, "id": "smide_6", "name": "ZH253787", "provider": "smide", "range": 43.0, "size": 17, "time": "02/19/2020, 10:58:59"}, "type": "Feature"}, {"geometry": {"coordinates": [8.50874, 47.38396], "type": "Point"}, "properties": {"charge": 88, "id": "smide_18", "name": "ZH253859", "provider": "smide", "range": 44.0, "size": 17, "time": "02/19/2020, 10:58:59"}, "type": "Feature"}, {"geometry": {"coordinates": [8.549253, 47.365804], "type": "Point"}, "properties": {"charge": 84, "id": "smide_12", "name": "ZH253685", "provider": "smide", "range": 42.0, "size": 17, "time": "02/19/2020, 10:58:59"}, "type": "Feature"}, {"geometry": {"coordinates": [8.494523, 47.36584], "type": "Point"}, "properties": {"charge": 62, "id": "smide_192", "name": "ZH253706", "provider": "smide", "range": 31.0, "size": 20, "time": "02/19/2020, 10:58:59"}, "type": "Feature"}, {"geometry": {"coordinates": [8.535913, 47.399752], "type": "Point"}, "properties": {"charge": 74, "id": "smide_39", "name": "ZH253714", "provider": "smide", "range": 37.0, "size": 20, "time": "02/19/2020, 10:58:59"}, "type": "Feature"}, {"geometry": {"coordinates": [8.554525, 47.402575], "type": "Point"}, "properties": {"charge": 85, "id": "smide_5", "name": "ZH261443", "provider": "smide", "range": 42.0, "size": 20, "time": "02/19/2020, 10:58:59"}, "type": "Feature"}, {"geometry": {"coordinates": [8.536093, 47.3773], "type": "Point"}, "properties": {"charge": 100, "id": "smide_85", "name": "ZH253729", "provider": "smide", "range": 50.0, "size": 17, "time": "02/19/2020, 10:58:59"}, "type": "Feature"}, {"geometry": {"coordinates": [8.560315, 47.405684], "type": "Point"}, "properties": {"charge": 100, "id": "smide_46", "name": "ZH253843", "provider": "smide", "range": 50.0, "size": 20, "time": "02/19/2020, 10:58:59"}, "type": "Feature"}, {"geometry": {"coordinates": [8.54310833333333, 47.3742866666667], "type": "Point"}, "properties": {"charge": 52, "id": "bird_7ef43942-2f8f-4ebf-bf27-c30050a47435", "provider": "bird", "timeStamp": "02/19/2020, 10:58:59"}, "type": "Feature"}, {"geometry": {"coordinates": [8.54476333333333, 47.3767933333333], "type": "Point"}, "properties": {"charge": 89, "id": "bird_d84dcd1b-cab5-46c5-9942-645566954208", "provider": "bird", "timeStamp": "02/19/2020, 10:58:59"}, "type": "Feature"}, {"geometry": {"coordinates": [8.54476166666667, 47.376835], "type": "Point"}, "properties": {"charge": 93, "id": "bird_0919f7bb-3747-4296-861b-7e8069300332", "provider": "bird", "timeStamp": "02/19/2020, 10:58:59"}, "type": "Feature"}, {"geometry": {"coordinates": [8.51989333333333, 47.387925], "type": "Point"}, "properties": {"charge": 63, "id": "bird_acc1b79e-3888-4950-a381-4d8c7711cb9b", "provider": "bird", "timeStamp": "02/19/2020, 10:58:59"}, "type": "Feature"}, {"geometry": {"coordinates": [8.543105, 47.3744733333333], "type": "Point"}, "properties": {"charge": 64, "id": "bird_42d3dd5f-c510-4bca-9649-e76f5833a5ed", "provider": "bird", "timeStamp": "02/19/2020, 10:58:59"}, "type": "Feature"}, {"geometry": {"coordinates": [8.518135, 47.386685], "type": "Point"}, "properties": {"charge": 76, "id": "bird_a1dca6e3-41f8-4f38-9a01-36d5da4b50b6", "provider": "bird", "timeStamp": "02/19/2020, 10:58:59"}, "type": "Feature"}, {"geometry": {"coordinates": [8.54466, 47.3767583333333], "type": "Point"}, "properties": {"charge": 88, "id": "bird_4364a479-4701-4dac-b817-607f404cd21b", "provider": "bird", "timeStamp": "02/19/2020, 10:58:59"}, "type": "Feature"}, {"geometry": {"coordinates": [8.54409666666667, 47.3758166666667], "type": "Point"}, "properties": {"charge": 16, "id": "bird_2b5051f9-7db6-4ec0-ba37-89aa92dc87e7", "provider": "bird", "timeStamp": "02/19/2020, 10:58:59"}, "type": "Feature"}, {"geometry": {"coordinates": [8.544615, 47.3767783333333], "type": "Point"}, "properties": {"charge": 84, "id": "bird_32c5d92c-9dbc-44df-930b-d0c2c1603ea9", "provider": "bird", "timeStamp": "02/19/2020, 10:58:59"}, "type": "Feature"}, {"geometry": {"coordinates": [8.54335166666667, 47.3748466666667], "type": "Point"}, "properties": {"charge": 48, "id": "bird_6698d074-f1f8-40b6-a09e-3ffc2dfa113d", "provider": "bird", "timeStamp": "02/19/2020, 10:58:59"}, "type": "Feature"}, {"geometry": {"coordinates": [8.53440333333333, 47.3700483333333], "type": "Point"}, "properties": {"charge": 47, "id": "bird_0a26dae4-80ab-4eef-987e-c864db17618f", "provider": "bird", "timeStamp": "02/19/2020, 10:58:59"}, "type": "Feature"}, {"geometry": {"coordinates": [8.5345, 47.3898616666667], "type": "Point"}, "properties": {"charge": 80, "id": "bird_6a1810ad-04a2-4715-82c9-3882820ddfc4", "provider": "bird", "timeStamp": "02/19/2020, 10:58:59"}, "type": "Feature"}, {"geometry": {"coordinates": [8.51784185754768, 47.3861017473897], "type": "Point"}, "properties": {"charge": 54, "id": "bird_28f412b2-4a13-4051-b035-a02caac07e92", "provider": "bird", "timeStamp": "02/19/2020, 10:58:59"}, "type": "Feature"}, {"geometry": {"coordinates": [8.51539666666667, 47.377315], "type": "Point"}, "properties": {"charge": 67, "id": "bird_71062b50-d91b-4866-9d1c-ffe7ec5c4e30", "provider": "bird", "timeStamp": "02/19/2020, 10:58:59"}, "type": "Feature"}, {"geometry": {"coordinates": [8.54361333333333, 47.37553], "type": "Point"}, "properties": {"charge": 69, "id": "bird_3071b1d7-fdb1-4e52-b38a-f1c745c46746", "provider": "bird", "timeStamp": "02/19/2020, 10:58:59"}, "type": "Feature"}, {"geometry": {"coordinates": [8.54343333333333, 47.37529], "type": "Point"}, "properties": {"charge": 45, "id": "bird_29976ceb-0f80-4faa-9951-74130fe83df1", "provider": "bird", "timeStamp": "02/19/2020, 10:58:59"}, "type": "Feature"}, {"geometry": {"coordinates": [8.54422833333333, 47.3765416666667], "type": "Point"}, "properties": {"charge": 91, "id": "bird_e459d95b-c597-4488-b252-bf21aae4c9c8", "provider": "bird", "timeStamp": "02/19/2020, 10:58:59"}, "type": "Feature"}, {"geometry": {"coordinates": [8.51526333333333, 47.3821533333333], "type": "Point"}, "properties": {"charge": 91, "id": "bird_afcddd82-65ea-4b50-909c-6f9a1e1ee961", "provider": "bird", "timeStamp": "02/19/2020, 10:58:59"}, "type": "Feature"}, {"geometry": {"coordinates": [8.51934666666667, 47.372795], "type": "Point"}, "properties": {"charge": 81, "id": "bird_f88042b2-0541-4f0f-8c6c-0c15924d2499", "provider": "bird", "timeStamp": "02/19/2020, 10:58:59"}, "type": "Feature"}, {"geometry": {"coordinates": [8.527685, 47.3699333333333], "type": "Point"}, "properties": {"charge": 60, "id": "bird_15e5eb89-a81d-4cbb-8ffa-35892d3d4d6f", "provider": "bird", "timeStamp": "02/19/2020, 10:58:59"}, "type": "Feature"}, {"geometry": {"coordinates": [8.54415166666667, 47.37656], "type": "Point"}, "properties": {"charge": 84, "id": "bird_fbefdbd9-b934-4d99-ba04-a26351cd70a1", "provider": "bird", "timeStamp": "02/19/2020, 10:58:59"}, "type": "Feature"}, {"geometry": {"coordinates": [8.517655, 47.3858033333333], "type": "Point"}, "properties": {"charge": 53, "id": "bird_b4a386cb-7783-4a40-84ce-51c6320e191c", "provider": "bird", "timeStamp": "02/19/2020, 10:58:59"}, "type": "Feature"}, {"geometry": {"coordinates": [8.51532666666666, 47.382175], "type": "Point"}, "properties": {"charge": 89, "id": "bird_ed2d49e9-ae29-4cc8-a59c-337776fdd2c2", "provider": "bird", "timeStamp": "02/19/2020, 10:58:59"}, "type": "Feature"}, {"geometry": {"coordinates": [8.515335, 47.382195], "type": "Point"}, "properties": {"charge": 89, "id": "bird_1c3147c6-a910-4e6d-bb60-53cf5749300f", "provider": "bird", "timeStamp": "02/19/2020, 10:58:59"}, "type": "Feature"}, {"geometry": {"coordinates": [8.51926, 47.3870733333333], "type": "Point"}, "properties": {"charge": 76, "id": "bird_e594ca43-7d44-40f5-81b5-077f6f2ad953", "provider": "bird", "timeStamp": "02/19/2020, 10:58:59"}, "type": "Feature"}, {"geometry": {"coordinates": [8.51813166666667, 47.386185], "type": "Point"}, "properties": {"charge": 31, "id": "bird_dddc552b-e6dc-4baf-8fe5-390ea07e1333", "provider": "bird", "timeStamp": "02/19/2020, 10:58:59"}, "type": "Feature"}, {"geometry": {"coordinates": [8.51657, 47.3755266666667], "type": "Point"}, "properties": {"charge": 73, "id": "bird_9fe71094-4996-4840-89ce-7489c7c38852", "provider": "bird", "timeStamp": "02/19/2020, 10:58:59"}, "type": "Feature"}, {"geometry": {"coordinates": [8.52216666666667, 47.3886266666667], "type": "Point"}, "properties": {"charge": 39, "id": "bird_063b246e-f804-45fc-9ee5-e01f7f920c22", "provider": "bird", "timeStamp": "02/19/2020, 10:58:59"}, "type": "Feature"}, {"geometry": {"coordinates": [8.54407, 47.3765866666667], "type": "Point"}, "properties": {"charge": 91, "id": "bird_e970fd2e-5ddd-421e-b2d0-8526f194fdb4", "provider": "bird", "timeStamp": "02/19/2020, 10:58:59"}, "type": "Feature"}, {"geometry": {"coordinates": [8.522915, 47.3711133333333], "type": "Point"}, "properties": {"charge": 76, "id": "bird_328d4b12-4626-4f34-b179-330a74cd4cd8", "provider": "bird", "timeStamp": "02/19/2020, 10:58:59"}, "type": "Feature"}, {"geometry": {"coordinates": [8.544, 47.3765416666667], "type": "Point"}, "properties": {"charge": 96, "id": "bird_9f6f31f3-4031-47c9-aaf6-a91995e884e5", "provider": "bird", "timeStamp": "02/19/2020, 10:58:59"}, "type": "Feature"}, {"geometry": {"coordinates": [8.517115, 47.3850366666667], "type": "Point"}, "properties": {"charge": 89, "id": "bird_b6b94703-e063-42ab-8948-98355caa5196", "provider": "bird", "timeStamp": "02/19/2020, 10:58:59"}, "type": "Feature"}, {"geometry": {"coordinates": [8.51716833333333, 47.3850483333333], "type": "Point"}, "properties": {"charge": 24, "id": "bird_439338de-97b9-47b6-9970-f24f40b974bf", "provider": "bird", "timeStamp": "02/19/2020, 10:58:59"}, "type": "Feature"}, {"geometry": {"coordinates": [8.53303, 47.389835], "type": "Point"}, "properties": {"charge": 44, "id": "bird_93155b13-6565-48ec-b479-54675a6bece3", "provider": "bird", "timeStamp": "02/19/2020, 10:58:59"}, "type": "Feature"}, {"geometry": {"coordinates": [8.527075, 47.3701666666667], "type": "Point"}, "properties": {"charge": 45, "id": "bird_3349d46a-91ca-4763-9d86-16d93b348240", "provider": "bird", "timeStamp": "02/19/2020, 10:58:59"}, "type": "Feature"}, {"geometry": {"coordinates": [8.51746666666667, 47.3853383333333], "type": "Point"}, "properties": {"charge": 100, "id": "bird_4c518215-4414-4e1a-b9a3-696214496422", "provider": "bird", "timeStamp": "02/19/2020, 10:58:59"}, "type": "Feature"}, {"geometry": {"coordinates": [8.51679, 47.3754733333333], "type": "Point"}, "properties": {"charge": 87, "id": "bird_75d9812c-f445-4296-b9ec-0bbeb37200a4", "provider": "bird", "timeStamp": "02/19/2020, 10:58:59"}, "type": "Feature"}, {"geometry": {"coordinates": [8.51768833333333, 47.3855633333333], "type": "Point"}, "properties": {"charge": 100, "id": "bird_444df4b9-c3da-461e-9b16-e3f14ac6041a", "provider": "bird", "timeStamp": "02/19/2020, 10:58:59"}, "type": "Feature"}, {"geometry": {"coordinates": [8.53532166666667, 47.3706583333333], "type": "Point"}, "properties": {"charge": 21, "id": "bird_34efb98c-9f74-4008-b81d-4d06c24f6652", "provider": "bird", "timeStamp": "02/19/2020, 10:58:59"}, "type": "Feature"}, {"geometry": {"coordinates": [8.517235, 47.3850283333333], "type": "Point"}, "properties": {"charge": 82, "id": "bird_3e4cf8d8-50df-4652-9ddc-ddc2c9e558b3", "provider": "bird", "timeStamp": "02/19/2020, 10:58:59"}, "type": "Feature"}, {"geometry": {"coordinates": [8.52319, 47.3711283333333], "type": "Point"}, "properties": {"charge": 75, "id": "bird_4f8fbde0-15a3-4277-aca4-47a26316f8ef", "provider": "bird", "timeStamp": "02/19/2020, 10:58:59"}, "type": "Feature"}, {"geometry": {"coordinates": [8.517965, 47.3857883333333], "type": "Point"}, "properties": {"charge": 65, "id": "bird_367d5cf2-d85b-4525-9b77-786b3129cd26", "provider": "bird", "timeStamp": "02/19/2020, 10:58:59"}, "type": "Feature"}, {"geometry": {"coordinates": [8.52358333333333, 47.37101], "type": "Point"}, "properties": {"charge": 87, "id": "bird_1ad02816-eea0-49f1-9386-bd969377d47c", "provider": "bird", "timeStamp": "02/19/2020, 10:58:59"}, "type": "Feature"}, {"geometry": {"coordinates": [8.523855, 47.37093], "type": "Point"}, "properties": {"charge": 82, "id": "bird_7c14857e-1533-4ec4-96ed-b92e7ae06197", "provider": "bird", "timeStamp": "02/19/2020, 10:58:59"}, "type": "Feature"}, {"geometry": {"coordinates": [8.53524, 47.3707083333333], "type": "Point"}, "properties": {"charge": 40, "id": "bird_a74cce1c-6eeb-4fc2-9227-532bbd83c2fd", "provider": "bird", "timeStamp": "02/19/2020, 10:58:59"}, "type": "Feature"}, {"geometry": {"coordinates": [8.51817166666667, 47.385895], "type": "Point"}, "properties": {"charge": 100, "id": "bird_72b3a9f9-80fe-457b-bc35-852bd9841b77", "provider": "bird", "timeStamp": "02/19/2020, 10:58:59"}, "type": "Feature"}, {"geometry": {"coordinates": [8.53806, 47.3883133333333], "type": "Point"}, "properties": {"charge": 45, "id": "bird_8978f4b1-89c1-407b-ac91-60a0b4db561c", "provider": "bird", "timeStamp": "02/19/2020, 10:58:59"}, "type": "Feature"}, {"geometry": {"coordinates": [8.518075, 47.3857916666667], "type": "Point"}, "properties": {"charge": 100, "id": "bird_cb7722fe-fb6f-4540-a88a-2a1da2002e8d", "provider": "bird", "timeStamp": "02/19/2020, 10:58:59"}, "type": "Feature"}, {"geometry": {"coordinates": [8.51675166666667, 47.3757433333333], "type": "Point"}, "properties": {"charge": 33, "id": "bird_36dc4ff7-b7ef-4628-a6ca-950e5dab33c1", "provider": "bird", "timeStamp": "02/19/2020, 10:58:59"}, "type": "Feature"}, {"geometry": {"coordinates": [8.53527833333333, 47.3707733333333], "type": "Point"}, "properties": {"charge": 58, "id": "bird_17eab720-0628-4797-97a3-56e6bc1af213", "provider": "bird", "timeStamp": "02/19/2020, 10:58:59"}, "type": "Feature"}, {"geometry": {"coordinates": [8.52270166666667, 47.3715283333333], "type": "Point"}, "properties": {"charge": 79, "id": "bird_a9c22f8d-7f95-4dbc-8ba3-7763fa495582", "provider": "bird", "timeStamp": "02/19/2020, 10:58:59"}, "type": "Feature"}, {"geometry": {"coordinates": [8.51826666666667, 47.3855216666667], "type": "Point"}, "properties": {"charge": 100, "id": "bird_4260f924-69eb-428c-a9c8-ead4600bc44d", "provider": "bird", "timeStamp": "02/19/2020, 10:58:59"}, "type": "Feature"}, {"geometry": {"coordinates": [8.51825166666667, 47.38549], "type": "Point"}, "properties": {"charge": 100, "id": "bird_7e76bc32-d358-4e12-89da-bf6cc79a4a30", "provider": "bird", "timeStamp": "02/19/2020, 10:58:59"}, "type": "Feature"}, {"geometry": {"coordinates": [8.52172166666667, 47.3878333333333], "type": "Point"}, "properties": {"charge": 71, "id": "bird_9dbafdc3-788b-4958-8cc2-e52f8712013d", "provider": "bird", "timeStamp": "02/19/2020, 10:58:59"}, "type": "Feature"}, {"geometry": {"coordinates": [8.51582333333333, 47.37973], "type": "Point"}, "properties": {"charge": 97, "id": "bird_d0e018a3-8784-4a28-bd4a-25127c0a29bc", "provider": "bird", "timeStamp": "02/19/2020, 10:58:59"}, "type": "Feature"}, {"geometry": {"coordinates": [8.51585333333333, 47.37968], "type": "Point"}, "properties": {"charge": 91, "id": "bird_7ec22cec-6c58-434c-83fd-ade7fa3f4163", "provider": "bird", "timeStamp": "02/19/2020, 10:58:59"}, "type": "Feature"}, {"geometry": {"coordinates": [8.52409166666667, 47.3713033333333], "type": "Point"}, "properties": {"charge": 52, "id": "bird_52d61820-a645-474b-8120-d8f352195ee0", "provider": "bird", "timeStamp": "02/19/2020, 10:58:59"}, "type": "Feature"}, {"geometry": {"coordinates": [8.53671666666667, 47.3716133333333], "type": "Point"}, "properties": {"charge": 72, "id": "bird_f947e417-c360-4559-9504-e3747cf32dbb", "provider": "bird", "timeStamp": "02/19/2020, 10:58:59"}, "type": "Feature"}, {"geometry": {"coordinates": [8.52228, 47.3720583333333], "type": "Point"}, "properties": {"charge": 92, "id": "bird_18361c59-f45c-46b5-92ed-9c6592f00ec9", "provider": "bird", "timeStamp": "02/19/2020, 10:58:59"}, "type": "Feature"}, {"geometry": {"coordinates": [8.51899333333333, 47.3741383333333], "type": "Point"}, "properties": {"charge": 81, "id": "bird_e07c216e-e991-4f37-8ca4-d3fd25b2a040", "provider": "bird", "timeStamp": "02/19/2020, 10:58:59"}, "type": "Feature"}, {"geometry": {"coordinates": [8.51830833333333, 47.3851283333333], "type": "Point"}, "properties": {"charge": 13, "id": "bird_57edb333-68b1-4b6e-b04a-f676766bd0c7", "provider": "bird", "timeStamp": "02/19/2020, 10:58:59"}, "type": "Feature"}, {"geometry": {"coordinates": [8.53776333333333, 47.372235], "type": "Point"}, "properties": {"charge": 72, "id": "bird_e7835572-86dd-4b83-884a-2833bc83c384", "provider": "bird", "timeStamp": "02/19/2020, 10:58:59"}, "type": "Feature"}, {"geometry": {"coordinates": [8.52600333333333, 47.3711083333333], "type": "Point"}, "properties": {"charge": 79, "id": "bird_97a6f5de-4668-4030-b524-c37b164fbaa4", "provider": "bird", "timeStamp": "02/19/2020, 10:58:59"}, "type": "Feature"}, {"geometry": {"coordinates": [8.52617, 47.3887516666667], "type": "Point"}, "properties": {"charge": 29, "id": "bird_c3ef8dab-5fea-4087-b0ce-b845d483c704", "provider": "bird", "timeStamp": "02/19/2020, 10:58:59"}, "type": "Feature"}, {"geometry": {"coordinates": [8.53640666666667, 47.387925], "type": "Point"}, "properties": {"charge": 19, "id": "bird_844d9700-4128-4fb8-8976-08f9e2564f28", "provider": "bird", "timeStamp": "02/19/2020, 10:58:59"}, "type": "Feature"}, {"geometry": {"coordinates": [8.52357833333333, 47.387875], "type": "Point"}, "properties": {"charge": 33, "id": "bird_69da0387-1e73-418a-8279-65ee83d7a222", "provider": "bird", "timeStamp": "02/19/2020, 10:58:59"}, "type": "Feature"}, {"geometry": {"coordinates": [8.518815, 47.3752933333333], "type": "Point"}, "properties": {"charge": 85, "id": "bird_67762685-28f2-4b9a-8e7f-0367457b7541", "provider": "bird", "timeStamp": "02/19/2020, 10:58:59"}, "type": "Feature"}, {"geometry": {"coordinates": [8.54296833333333, 47.3801083333333], "type": "Point"}, "properties": {"charge": 93, "id": "bird_6a9ffb69-9b89-480a-803e-30dc1a732398", "provider": "bird", "timeStamp": "02/19/2020, 10:58:59"}, "type": "Feature"}, {"geometry": {"coordinates": [8.535, 47.3719016666667], "type": "Point"}, "properties": {"charge": 57, "id": "bird_d7d7a676-0120-451b-af7c-bd74942ff4d8", "provider": "bird", "timeStamp": "02/19/2020, 10:58:59"}, "type": "Feature"}, {"geometry": {"coordinates": [8.51726333333333, 47.3814133333333], "type": "Point"}, "properties": {"charge": 42, "id": "bird_9fd66be3-3db5-4bb6-b278-211e616045a3", "provider": "bird", "timeStamp": "02/19/2020, 10:58:59"}, "type": "Feature"}, {"geometry": {"coordinates": [8.53917, 47.3738516666667], "type": "Point"}, "properties": {"charge": 56, "id": "bird_fa85d8b5-fa46-44df-87a4-397bec7e869e", "provider": "bird", "timeStamp": "02/19/2020, 10:58:59"}, "type": "Feature"}, {"geometry": {"coordinates": [8.53014, 47.37127], "type": "Point"}, "properties": {"charge": 43, "id": "bird_599b7018-67ad-4f67-8b03-401b888a445d", "provider": "bird", "timeStamp": "02/19/2020, 10:58:59"}, "type": "Feature"}, {"geometry": {"coordinates": [8.54288166666667, 47.3800816666667], "type": "Point"}, "properties": {"charge": 93, "id": "bird_32bf8d08-086a-4410-b462-62147b24be92", "provider": "bird", "timeStamp": "02/19/2020, 10:58:59"}, "type": "Feature"}, {"geometry": {"coordinates": [8.53786166666667, 47.3732066666667], "type": "Point"}, "properties": {"charge": 61, "id": "bird_f0b8644d-eda6-4152-b900-808d8a524b18", "provider": "bird", "timeStamp": "02/19/2020, 10:58:59"}, "type": "Feature"}, {"geometry": {"coordinates": [8.54271166666667, 47.3802983333333], "type": "Point"}, "properties": {"charge": 93, "id": "bird_6c4df629-3e69-4beb-9445-89b8c6acf1aa", "provider": "bird", "timeStamp": "02/19/2020, 10:58:59"}, "type": "Feature"}, {"geometry": {"coordinates": [8.54265, 47.3802116666667], "type": "Point"}, "properties": {"charge": 93, "id": "bird_c446b392-5b4c-4ae3-bab1-48a873636743", "provider": "bird", "timeStamp": "02/19/2020, 10:58:59"}, "type": "Feature"}, {"geometry": {"coordinates": [8.52451, 47.3876883333333], "type": "Point"}, "properties": {"charge": 69, "id": "bird_a1dd847d-b0ca-4852-8d59-c6a8c5d8deb4", "provider": "bird", "timeStamp": "02/19/2020, 10:58:59"}, "type": "Feature"}, {"geometry": {"coordinates": [8.53685166666667, 47.37286], "type": "Point"}, "properties": {"charge": 81, "id": "bird_6e904d69-d055-4fc1-8329-b9f472e2b146", "provider": "bird", "timeStamp": "02/19/2020, 10:58:59"}, "type": "Feature"}, {"geometry": {"coordinates": [8.51778833333333, 47.38187], "type": "Point"}, "properties": {"charge": 34, "id": "bird_484368cc-7c1d-4416-876a-8c4c65b0ee27", "provider": "bird", "timeStamp": "02/19/2020, 10:58:59"}, "type": "Feature"}, {"geometry": {"coordinates": [8.53477333333333, 47.3877833333333], "type": "Point"}, "properties": {"charge": 63, "id": "bird_6b83a6c4-af46-4cef-9059-b9702965d973", "provider": "bird", "timeStamp": "02/19/2020, 10:58:59"}, "type": "Feature"}, {"geometry": {"coordinates": [8.53975, 47.3750116666667], "type": "Point"}, "properties": {"charge": 40, "id": "bird_15c3bd67-3930-43fd-874c-97dc96401018", "provider": "bird", "timeStamp": "02/19/2020, 10:58:59"}, "type": "Feature"}, {"geometry": {"coordinates": [8.54188333333333, 47.3817333333333], "type": "Point"}, "properties": {"charge": 51, "id": "bird_9d7120b2-986d-4354-9197-f86dd6f66a87", "provider": "bird", "timeStamp": "02/19/2020, 10:58:59"}, "type": "Feature"}, {"geometry": {"coordinates": [8.52063, 47.3748133333333], "type": "Point"}, "properties": {"charge": 80, "id": "bird_28d4266a-39a1-4f9a-92f3-76be45cf70f9", "provider": "bird", "timeStamp": "02/19/2020, 10:58:59"}, "type": "Feature"}, {"geometry": {"coordinates": [8.54061166666667, 47.37608], "type": "Point"}, "properties": {"charge": 90, "id": "bird_8400f1b4-3918-4321-9827-24aaf774b6e6", "provider": "bird", "timeStamp": "02/19/2020, 10:58:59"}, "type": "Feature"}, {"geometry": {"coordinates": [8.52128833333333, 47.3743283333333], "type": "Point"}, "properties": {"charge": 84, "id": "bird_f879b0b8-1a48-4ede-bbf8-e6c26d7fda03", "provider": "bird", "timeStamp": "02/19/2020, 10:58:59"}, "type": "Feature"}, {"geometry": {"coordinates": [8.52928, 47.3718416666667], "type": "Point"}, "properties": {"charge": 73, "id": "bird_0dcb5a96-9799-47ff-9577-a2355f019ad1", "provider": "bird", "timeStamp": "02/19/2020, 10:58:59"}, "type": "Feature"}, {"geometry": {"coordinates": [8.522605, 47.3864433333333], "type": "Point"}, "properties": {"charge": 46, "id": "bird_dba4e506-ea65-4e97-8965-d5249223f180", "provider": "bird", "timeStamp": "02/19/2020, 10:58:59"}, "type": "Feature"}, {"geometry": {"coordinates": [8.54124333333333, 47.3771133333333], "type": "Point"}, "properties": {"charge": 11, "id": "bird_684694df-1de0-4a2f-844f-e0e120ef034e", "provider": "bird", "timeStamp": "02/19/2020, 10:58:59"}, "type": "Feature"}, {"geometry": {"coordinates": [8.52337166666667, 47.3867383333333], "type": "Point"}, "properties": {"charge": 63, "id": "bird_f17e2df2-12c2-44cf-9ea9-92c8369cacd4", "provider": "bird", "timeStamp": "02/19/2020, 10:58:59"}, "type": "Feature"}, {"geometry": {"coordinates": [8.541245, 47.37727], "type": "Point"}, "properties": {"charge": 81, "id": "bird_c5340580-a53a-41fd-89b0-19070141a06f", "provider": "bird", "timeStamp": "02/19/2020, 10:58:59"}, "type": "Feature"}, {"geometry": {"coordinates": [8.52524, 47.3874133333333], "type": "Point"}, "properties": {"charge": 51, "id": "bird_a3da98be-bc07-4372-926b-4cf8803450b1", "provider": "bird", "timeStamp": "02/19/2020, 10:58:59"}, "type": "Feature"},