{"features": [{"geometry": {"coordinates": [8.540062, 47.374392], "type": "Point"}, "properties": {"address": "Uraniastrasse 7", "electric": 7, "id": "pb_60", "manual": 8, "name": "Demo Station Werdm\u00fchleplatz", "provider": "publibike", "timeStamp": "02/06/2020, 21:18:28", "zip": 8001}, "type": "Feature"}, {"geometry": {"coordinates": [8.5452956, 47.4099615], "type": "Point"}, "properties": {"address": "Querstrasse 8", "electric": 0, "id": "pb_61", "manual": 4, "name": "Marktplatz", "provider": "publibike", "timeStamp": "02/06/2020, 21:18:28", "zip": 8050}, "type": "Feature"}, {"geometry": {"coordinates": [8.5156327, 47.3795837], "type": "Point"}, "properties": {"address": "Bullingerstrasse 5", "electric": 5, "id": "pb_80", "manual": 6, "name": "Bullingerplatz", "provider": "publibike", "timeStamp": "02/06/2020, 21:18:28", "zip": 8004}, "type": "Feature"}, {"geometry": {"coordinates": [8.5104051, 47.3899342], "type": "Point"}, "properties": {"address": "Pfingstweidstrasse 96e", "electric": 1, "id": "pb_81", "manual": 2, "name": "Herdern", "provider": "publibike", "timeStamp": "02/06/2020, 21:18:28", "zip": 8001}, "type": "Feature"}, {"geometry": {"coordinates": [8.535718, 47.359675], "type": "Point"}, "properties": {"address": "Mythenquai 50", "electric": 0, "id": "pb_82", "manual": 1, "name": "Hafen Enge", "provider": "publibike", "timeStamp": "02/06/2020, 21:18:28", "zip": 8002}, "type": "Feature"}, {"geometry": {"coordinates": [8.520370505, 47.358663827], "type": "Point"}, "properties": {"address": "Bubenbergstrasse 1", "electric": 4, "id": "pb_83", "manual": 3, "name": "Comerge", "provider": "publibike", "timeStamp": "02/06/2020, 21:18:28", "zip": 8045}, "type": "Feature"}, {"geometry": {"coordinates": [8.5412505, 47.3789825], "type": "Point"}, "properties": {"address": "Museumstrasse 2", "electric": 3, "id": "pb_84", "manual": 12, "name": "Landesmuseum", "provider": "publibike", "timeStamp": "02/06/2020, 21:18:28", "zip": 8001}, "type": "Feature"}, {"geometry": {"coordinates": [8.5235479, 47.3716661], "type": "Point"}, "properties": {"address": "Birmensdorferstrasse 80", "electric": 2, "id": "pb_85", "manual": 8, "name": "Bahnhof Wiedikon", "provider": "publibike", "timeStamp": "02/06/2020, 21:18:28", "zip": 8003}, "type": "Feature"}, {"geometry": {"coordinates": [8.506822854, 47.40781197], "type": "Point"}, "properties": {"address": "Stefano-Franscini-Platz 5", "electric": 0, "id": "pb_86", "manual": 0, "name": "ETH H\u00f6nggerberg", "provider": "publibike", "timeStamp": "02/06/2020, 21:18:28", "zip": 8093}, "type": "Feature"}, {"geometry": {"coordinates": [8.536101, 47.371083], "type": "Point"}, "properties": {"address": "Pelikanplatz 5", "electric": 2, "id": "pb_87", "manual": 11, "name": "Pelikanplatz", "provider": "publibike", "timeStamp": "02/06/2020, 21:18:28", "zip": 8001}, "type": "Feature"}, {"geometry": {"coordinates": [8.5257822, 47.3651936], "type": "Point"}, "properties": {"address": "H\u00fcrlimannplatz 90", "electric": 1, "id": "pb_88", "manual": 1, "name": "H\u00fcrlimannplatz", "provider": "publibike", "timeStamp": "02/06/2020, 21:18:28", "zip": 8002}, "type": "Feature"}, {"geometry": {"coordinates": [8.5313344, 47.3713591], "type": "Point"}, "properties": {"address": "Selnaustrasse 32", "electric": 0, "id": "pb_89", "manual": 0, "name": "Stauffacherbr\u00fccke", "provider": "publibike", "timeStamp": "02/06/2020, 21:18:28", "zip": 8001}, "type": "Feature"}, {"geometry": {"coordinates": [8.5056978, 47.3917964], "type": "Point"}, "properties": {"address": "Sportweg 25", "electric": 1, "id": "pb_90", "manual": 7, "name": "Sportweg", "provider": "publibike", "timeStamp": "02/06/2020, 21:18:28", "zip": 8005}, "type": "Feature"}, {"geometry": {"coordinates": [8.5181701, 47.3917837], "type": "Point"}, "properties": {"address": "Hardturmstrasse 11", "electric": 0, "id": "pb_91", "manual": 0, "name": "Puls 5", "provider": "publibike", "timeStamp": "02/06/2020, 21:18:28", "zip": 8005}, "type": "Feature"}, {"geometry": {"coordinates": [8.5286468, 47.3820827], "type": "Point"}, "properties": {"address": "R\u00f6ntgenstrasse 6", "electric": 3, "id": "pb_92", "manual": 1, "name": "R\u00f6ntgenstrasse", "provider": "publibike", "timeStamp": "02/06/2020, 21:18:28", "zip": 8005}, "type": "Feature"}, {"geometry": {"coordinates": [8.531935, 47.384918], "type": "Point"}, "properties": {"address": "Kornhausbr\u00fccke 1", "electric": 0, "id": "pb_93", "manual": 0, "name": "Limmatplatz", "provider": "publibike", "timeStamp": "02/06/2020, 21:18:28", "zip": 8005}, "type": "Feature"}, {"geometry": {"coordinates": [8.5354006, 47.3758639], "type": "Point"}, "properties": {"address": "Gessnerallee 15", "electric": 1, "id": "pb_94", "manual": 0, "name": "Gessnerallee", "provider": "publibike", "timeStamp": "02/06/2020, 21:18:28", "zip": 8001}, "type": "Feature"}, {"geometry": {"coordinates": [8.523818, 47.377148], "type": "Point"}, "properties": {"address": "Stauffacherstrasse 127", "electric": 5, "id": "pb_95", "manual": 7, "name": "B\u00e4ckeranlage", "provider": "publibike", "timeStamp": "02/06/2020, 21:18:28", "zip": 8004}, "type": "Feature"}, {"geometry": {"coordinates": [8.531836, 47.378548], "type": "Point"}, "properties": {"address": "Lagerstrasse 44", "electric": 2, "id": "pb_96", "manual": 3, "name": "Gustav-Gull-Platz", "provider": "publibike", "timeStamp": "02/06/2020, 21:18:28", "zip": 8004}, "type": "Feature"}, {"geometry": {"coordinates": [8.5104883, 47.3771535], "type": "Point"}, "properties": {"address": "Zurlindenstrasse 291", "electric": 3, "id": "pb_97", "manual": 6, "name": "Zurlindenstrasse", "provider": "publibike", "timeStamp": "02/06/2020, 21:18:28", "zip": 8003}, "type": "Feature"}, {"geometry": {"coordinates": [8.5333139, 47.3731102], "type": "Point"}, "properties": {"address": "Sihlstrasse 81", "electric": 1, "id": "pb_98", "manual": 2, "name": "Sihlstrasse", "provider": "publibike", "timeStamp": "02/06/2020, 21:18:28", "zip": 8001}, "type": "Feature"}, {"geometry": {"coordinates": [8.520532, 47.374951], "type": "Point"}, "properties": {"address": "Feldstrasse 24", "electric": 1, "id": "pb_99", "manual": 7, "name": "Kalkbreite", "provider": "publibike", "timeStamp": "02/06/2020, 21:18:28", "zip": 8004}, "type": "Feature"}, {"geometry": {"coordinates": [8.539046, 47.368064], "type": "Point"}, "properties": {"address": "Talstrasse 12", "electric": 6, "id": "pb_100", "manual": 3, "name": "Z\u00fcrcher Kantonalbank", "provider": "publibike", "timeStamp": "02/06/2020, 21:18:28", "zip": 8001}, "type": "Feature"}, {"geometry": {"coordinates": [8.5348427, 47.3625938], "type": "Point"}, "properties": {"address": "Breitingerstrasse 5", "electric": 1, "id": "pb_101", "manual": 0, "name": "Rentenanstalt", "provider": "publibike", "timeStamp": "02/06/2020, 21:18:28", "zip": 8002}, "type": "Feature"}, {"geometry": {"coordinates": [8.5166922, 47.3897772], "type": "Point"}, "properties": {"address": "Technoparkstrasse 4", "electric": 1, "id": "pb_102", "manual": 2, "name": "Turbinenplatz", "provider": "publibike", "timeStamp": "02/06/2020, 21:18:28", "zip": 8005}, "type": "Feature"}, {"geometry": {"coordinates": [8.539312, 47.3739964], "type": "Point"}, "properties": {"address": "Oetenbachgasse 14", "electric": 4, "id": "pb_104", "manual": 2, "name": "Rennweg", "provider": "publibike", "timeStamp": "02/06/2020, 21:18:28", "zip": 8001}, "type": "Feature"}, {"geometry": {"coordinates": [8.5360685, 47.3775022], "type": "Point"}, "properties": {"address": "Kasernenstrasse 101", "electric": 25, "id": "pb_105", "manual": 27, "name": "Sihlpost", "provider": "publibike", "timeStamp": "02/06/2020, 21:18:28", "zip": 8004}, "type": "Feature"}, {"geometry": {"coordinates": [8.53545, 47.382798], "type": "Point"}, "properties": {"address": "Ausstellungsstrasse 44", "electric": 5, "id": "pb_106", "manual": 5, "name": "Museum f\u00fcr Gestaltung", "provider": "publibike", "timeStamp": "02/06/2020, 21:18:28", "zip": 8005}, "type": "Feature"}, {"geometry": {"coordinates": [8.5306155, 47.3647902], "type": "Point"}, "properties": {"address": "Gutenbergstrasse 1", "electric": 9, "id": "pb_107", "manual": 3, "name": "Bederbr\u00fccke", "provider": "publibike", "timeStamp": "02/06/2020, 21:18:28", "zip": 8002}, "type": "Feature"}, {"geometry": {"coordinates": [8.518982, 47.386741], "type": "Point"}, "properties": {"address": "Geroldstrasse 4", "electric": 1, "id": "pb_108", "manual": 10, "name": "Bahnhof Hardbr\u00fccke", "provider": "publibike", "timeStamp": "02/06/2020, 21:18:28", "zip": 8005}, "type": "Feature"}, {"geometry": {"coordinates": [8.53001018, 47.37247535], "type": "Point"}, "properties": {"address": "Werdstrasse 21", "electric": 0, "id": "pb_109", "manual": 2, "name": "Tamedia", "provider": "publibike", "timeStamp": "02/06/2020, 21:18:28", "zip": 8004}, "type": "Feature"}, {"geometry": {"coordinates": [8.4860017, 47.396401], "type": "Point"}, "properties": {"address": "Gr\u00fcnauring 37", "electric": 4, "id": "pb_110", "manual": 5, "name": "Gr\u00fcnau", "provider": "publibike", "timeStamp": "02/06/2020, 21:18:28", "zip": 8064}, "type": "Feature"}, {"geometry": {"coordinates": [8.548519, 47.376756], "type": "Point"}, "properties": {"address": "R\u00e4mistrasse 101", "electric": 0, "id": "pb_111", "manual": 1, "name": "ETH Zentrum", "provider": "publibike", "timeStamp": "02/06/2020, 21:18:28", "zip": 8006}, "type": "Feature"}, {"geometry": {"coordinates": [8.520449, 47.388151], "type": "Point"}, "properties": {"address": "Josefstrasse 224", "electric": 0, "id": "pb_112", "manual": 0, "name": "Steinfelsareal", "provider": "publibike", "timeStamp": "02/06/2020, 21:18:28", "zip": 8005}, "type": "Feature"}, {"geometry": {"coordinates": [8.520482, 47.37209], "type": "Point"}, "properties": {"address": "Weststrasse 115", "electric": 0, "id": "pb_124", "manual": 0, "name": "Weststrasse", "provider": "publibike", "timeStamp": "02/06/2020, 21:18:28", "zip": 8003}, "type": "Feature"}, {"geometry": {"coordinates": [8.496727, 47.378521], "type": "Point"}, "properties": {"address": "Albisriederstrasse 200", "electric": 1, "id": "pb_125", "manual": 4, "name": "Utogrund", "provider": "publibike", "timeStamp": "02/06/2020, 21:18:28", "zip": 8047}, "type": "Feature"}, {"geometry": {"coordinates": [8.510418, 47.381356], "type": "Point"}, "properties": {"address": "Bullingerstrasse 73", "electric": 4, "id": "pb_126", "manual": 9, "name": "Hardau", "provider": "publibike", "timeStamp": "02/06/2020, 21:18:28", "zip": 8004}, "type": "Feature"}, {"geometry": {"coordinates": [8.525525, 47.361567], "type": "Point"}, "properties": {"address": "Klopstockstrasse 23", "electric": 0, "id": "pb_127", "manual": 3, "name": "Klopstockwiese", "provider": "publibike", "timeStamp": "02/06/2020, 21:18:28", "zip": 8002}, "type": "Feature"}, {"geometry": {"coordinates": [8.518143, 47.363148], "type": "Point"}, "properties": {"address": "Haldenstrasse 8", "electric": 1, "id": "pb_128", "manual": 6, "name": "Binz", "provider": "publibike", "timeStamp": "02/06/2020, 21:18:28", "zip": 8045}, "type": "Feature"}, {"geometry": {"coordinates": [8.542726, 47.379952], "type": "Point"}, "properties": {"address": "Walchestrasse 11", "electric": 1, "id": "pb_129", "manual": 2, "name": "Stampfenbachplatz", "provider": "publibike", "timeStamp": "02/06/2020, 21:18:28", "zip": 8006}, "type": "Feature"}, {"geometry": {"coordinates": [8.488108, 47.391366], "type": "Point"}, "properties": {"address": "Altstetterplatz 1", "electric": 0, "id": "pb_130", "manual": 3, "name": "Bahnhof Altstetten", "provider": "publibike", "timeStamp": "02/06/2020, 21:18:28", "zip": 8048}, "type": "Feature"}, {"geometry": {"coordinates": [8.554114, 47.365119], "type": "Point"}, "properties": {"address": "Kreuzplatz 2", "electric": 8, "id": "pb_131", "manual": 5, "name": "Kreuzplatz", "provider": "publibike", "timeStamp": "02/06/2020, 21:18:28", "zip": 8032}, "type": "Feature"}, {"geometry": {"coordinates": [8.549852, 47.35594], "type": "Point"}, "properties": {"address": "H\u00f6schgasse 3", "electric": 6, "id": "pb_132", "manual": 9, "name": "Blatterwiese", "provider": "publibike", "timeStamp": "02/06/2020, 21:18:28", "zip": 8008}, "type": "Feature"}, {"geometry": {"coordinates": [8.554501, 47.36162], "type": "Point"}, "properties": {"address": "Feldeggstrasse 80", "electric": 2, "id": "pb_133", "manual": 4, "name": "Villa Bleuler", "provider": "publibike", "timeStamp": "02/06/2020, 21:18:28", "zip": 8008}, "type": "Feature"}, {"geometry": {"coordinates": [8.557088, 47.358557], "type": "Point"}, "properties": {"address": "M\u00fchlebachstrasse 131", "electric": 4, "id": "pb_134", "manual": 2, "name": "M\u00fchlebachstrasse", "provider": "publibike", "timeStamp": "02/06/2020, 21:18:28", "zip": 8008}, "type": "Feature"}, {"geometry": {"coordinates": [8.547639, 47.361266], "type": "Point"}, "properties": {"address": "Utoquai 50", "electric": 6, "id": "pb_135", "manual": 10, "name": "Seebad Utoquai", "provider": "publibike", "timeStamp": "02/06/2020, 21:18:28", "zip": 8008}, "type": "Feature"}, {"geometry": {"coordinates": [8.548045, 47.370869], "type": "Point"}, "properties": {"address": "Heimplatz 1", "electric": 13, "id": "pb_137", "manual": 3, "name": "Kunsthaus", "provider": "publibike", "timeStamp": "02/06/2020, 21:18:28", "zip": 8001}, "type": "Feature"}, {"geometry": {"coordinates": [8.543447, 47.375933], "type": "Point"}, "properties": {"address": "Limmatquai 138", "electric": 5, "id": "pb_138", "manual": 3, "name": "Central", "provider": "publibike", "timeStamp": "02/06/2020, 21:18:28", "zip": 8001}, "type": "Feature"}, {"geometry": {"coordinates": [8.549356, 47.408827], "type": "Point"}, "properties": {"address": "Tramstrasse 35", "electric": 5, "id": "pb_139", "manual": 3, "name": "ewz Tramstrasse", "provider": "publibike", "timeStamp": "02/06/2020, 21:18:28", "zip": 8050}, "type": "Feature"}, {"geometry": {"coordinates": [8.533736, 47.366904], "type": "Point"}, "properties": {"address": "Bleicherweg 33", "electric": 0, "id": "pb_140", "manual": 3, "name": "Bleicherweg", "provider": "publibike", "timeStamp": "02/06/2020, 21:18:28", "zip": 8002}, "type": "Feature"}, {"geometry": {"coordinates": [8.544935, 47.366752], "type": "Point"}, "properties": {"address": "Bellevueplatz 2", "electric": 37, "id": "pb_141", "manual": 21, "name": "Bellevue", "provider": "publibike", "timeStamp": "02/06/2020, 21:18:28", "zip": 8001}, "type": "Feature"}, {"geometry": {"coordinates": [8.5285533, 47.3742296], "type": "Point"}, "properties": {"address": "Stauffacherstrasse 41", "electric": 3, "id": "pb_142", "manual": 2, "name": "Stauffacher", "provider": "publibike", "timeStamp": "02/06/2020, 21:18:28", "zip": 8004}, "type": "Feature"}, {"geometry": {"coordinates": [8.523722, 47.3899], "type": "Point"}, "properties": {"address": "Limmatstrasse 310", "electric": 3, "id": "pb_143", "manual": 2, "name": "Escher-Wyss-Platz", "provider": "publibike", "timeStamp": "02/06/2020, 21:18:28", "zip": 8005}, "type": "Feature"}, {"geometry": {"coordinates": [8.491061, 47.392336], "type": "Point"}, "properties": {"address": "Vulkanplatz 1", "electric": 0, "id": "pb_149", "manual": 6, "name": "Vulkanplatz", "provider": "publibike", "timeStamp": "02/06/2020, 21:18:28", "zip": 8048}, "type": "Feature"}, {"geometry": {"coordinates": [8.52306, 47.359872], "type": "Point"}, "properties": {"address": "Giessh\u00fcbelstrasse 15", "electric": 10, "id": "pb_150", "manual": 6, "name": "Utoplatz", "provider": "publibike", "timeStamp": "02/06/2020, 21:18:28", "zip": 8045}, "type": "Feature"}, {"geometry": {"coordinates": [8.486284, 47.387685], "type": "Point"}, "properties": {"address": "Lindenplatz 1", "electric": 10, "id": "pb_151", "manual": 14, "name": "Lindenplatz", "provider": "publibike", "timeStamp": "02/06/2020, 21:18:28", "zip": 8048}, "type": "Feature"}, {"geometry": {"coordinates": [8.49163, 47.389823], "type": "Point"}, "properties": {"address": "Hohlstrasse 563", "electric": 2, "id": "pb_152", "manual": 5, "name": "Luggweg", "provider": "publibike", "timeStamp": "02/06/2020, 21:18:28", "zip": 8048}, "type": "Feature"}, {"geometry": {"coordinates": [8.52174, 47.365272], "type": "Point"}, "properties": {"address": "Manessestrasse 87", "electric": 8, "id": "pb_153", "manual": 1, "name": "Manesseplatz", "provider": "publibike", "timeStamp": "02/06/2020, 21:18:28", "zip": 8045}, "type": "Feature"}, {"geometry": {"coordinates": [8.52714, 47.372329], "type": "Point"}, "properties": {"address": "Werdstrasse 75", "electric": 1, "id": "pb_154", "manual": 0, "name": "Werd", "provider": "publibike", "timeStamp": "02/06/2020, 21:18:28", "zip": 8004}, "type": "Feature"}, {"geometry": {"coordinates": [8.543042, 47.374711], "type": "Point"}, "properties": {"address": "Limmatquai 100", "electric": 0, "id": "pb_155", "manual": 0, "name": "Rudolf-Brun-Br\u00fccke", "provider": "publibike", "timeStamp": "02/06/2020, 21:18:28", "zip": 8001}, "type": "Feature"}, {"geometry": {"coordinates": [8.490837, 47.386596], "type": "Point"}, "properties": {"address": "Badenerstrasse 627", "electric": 7, "id": "pb_156", "manual": 7, "name": "Luggwegstrasse VBZ", "provider": "publibike", "timeStamp": "02/06/2020, 21:18:28", "zip": 8048}, "type": "Feature"}, {"geometry": {"coordinates": [8.535119, 47.355189], "type": "Point"}, "properties": {"address": "Mythenquai 95", "electric": 0, "id": "pb_157", "manual": 5, "name": "Strandbad Mythenquai", "provider": "publibike", "timeStamp": "02/06/2020, 21:18:28", "zip": 8002}, "type": "Feature"}, {"geometry": {"coordinates": [8.545505, 47.373675], "type": "Point"}, "properties": {"address": "Predigerpatz 21", "electric": 2, "id": "pb_158", "manual": 4, "name": "Predigerplatz", "provider": "publibike", "timeStamp": "02/06/2020, 21:18:28", "zip": 8001}, "type": "Feature"}, {"geometry": {"coordinates": [8.515558, 47.371868], "type": "Point"}, "properties": {"address": "Aemtlerstrasse 23", "electric": 4, "id": "pb_159", "manual": 3, "name": "Zwinglihaus", "provider": "publibike", "timeStamp": "02/06/2020, 21:18:28", "zip": 8003}, "type": "Feature"}, {"geometry": {"coordinates": [8.524629, 47.386072], "type": "Point"}, "properties": {"address": "Josefstrasse 188", "electric": 3, "id": "pb_160", "manual": 3, "name": "Josefwiese", "provider": "publibike", "timeStamp": "02/06/2020, 21:18:28", "zip": 8005}, "type": "Feature"}, {"geometry": {"coordinates": [8.527138, 47.387531], "type": "Point"}, "properties": {"address": "R\u00f6ntgenstrasse 87", "electric": 2, "id": "pb_164", "manual": 18, "name": "Markthalle", "provider": "publibike", "timeStamp": "02/06/2020, 21:18:28", "zip": 8005}, "type": "Feature"}, {"geometry": {"coordinates": [8.552717, 47.359978], "type": "Point"}, "properties": {"address": "Seefeldstrasse 96", "electric": 0, "id": "pb_263", "manual": 8, "name": "Feldeggstrasse", "provider": "publibike", "timeStamp": "02/06/2020, 21:18:28", "zip": 8008}, "type": "Feature"}, {"geometry": {"coordinates": [8.553189, 47.353198], "type": "Point"}, "properties": {"address": "Bellerivestrasse 170", "electric": 7, "id": "pb_264", "manual": 1, "name": "Lake Side", "provider": "publibike", "timeStamp": "02/06/2020, 21:18:28", "zip": 8008}, "type": "Feature"}, {"geometry": {"coordinates": [8.543437, 47.369256], "type": "Point"}, "properties": {"address": "Limmatquai 18", "electric": 0, "id": "pb_265", "manual": 0, "name": "Helmhaus", "provider": "publibike", "timeStamp": "02/06/2020, 21:18:28", "zip": 8032}, "type": "Feature"}, {"geometry": {"coordinates": [8.516676, 47.375819], "type": "Point"}, "properties": {"address": "Badenerstrasse 246", "electric": 9, "id": "pb_266", "manual": 0, "name": "Lochergut", "provider": "publibike", "timeStamp": "02/06/2020, 21:18:28", "zip": 8004}, "type": "Feature"}, {"geometry": {"coordinates": [8.514605, 47.389862], "type": "Point"}, "properties": {"address": "Pfingstweidstrasse 60", "electric": 0, "id": "pb_273", "manual": 3, "name": "Westpark", "provider": "publibike", "timeStamp": "02/06/2020, 21:18:28", "zip": 8005}, "type": "Feature"}, {"geometry": {"coordinates": [8.541239126, 47.375991201], "type": "Point"}, "properties": {"address": "Beatenplatz 1", "electric": 1, "id": "pb_274", "manual": 10, "name": "Beatenplatz", "provider": "publibike", "timeStamp": "02/06/2020, 21:18:28", "zip": 8001}, "type": "Feature"}, {"geometry": {"coordinates": [8.5417135, 47.3942197], "type": "Point"}, "properties": {"address": "Scheuchzerstrasse 181", "electric": 1, "id": "pb_275", "manual": 0, "name": "Pauluskirche", "provider": "publibike", "timeStamp": "02/06/2020, 21:18:28", "zip": 8057}, "type": "Feature"}, {"geometry": {"coordinates": [8.5528182, 47.414558], "type": "Point"}, "properties": {"address": "Hagenholzstrasse 51", "electric": 2, "id": "pb_276", "manual": 7, "name": "Airgate", "provider": "publibike", "timeStamp": "02/06/2020, 21:18:28", "zip": 8050}, "type": "Feature"}, {"geometry": {"coordinates": [8.537816, 47.413514], "type": "Point"}, "properties": {"address": "Birchstrasse 183", "electric": 6, "id": "pb_277", "manual": 2, "name": "Lamprechtweg", "provider": "publibike", "timeStamp": "02/06/2020, 21:18:28", "zip": 8050}, "type": "Feature"}, {"geometry": {"coordinates": [8.545602, 47.417701], "type": "Point"}, "properties": {"address": "Felsenrainstrasse 2", "electric": 6, "id": "pb_278", "manual": 4, "name": "Emil-Oberh\u00e4nsli", "provider": "publibike", "timeStamp": "02/06/2020, 21:18:28", "zip": 8050}, "type": "Feature"}, {"geometry": {"coordinates": [8.533647, 47.39808], "type": "Point"}, "properties": {"address": "Bucheggplatz 2", "electric": 2, "id": "pb_279", "manual": 5, "name": "Bucheggplatz", "provider": "publibike", "timeStamp": "02/06/2020, 21:18:28", "zip": 8057}, "type": "Feature"}, {"geometry": {"coordinates": [8.523549, 47.392347], "type": "Point"}, "properties": {"address": "Wipkingerplatz 4", "electric": 2, "id": "pb_280", "manual": 8, "name": "Wipkingerplatz", "provider": "publibike", "timeStamp": "02/06/2020, 21:18:28", "zip": 8037}, "type": "Feature"}, {"geometry": {"coordinates": [8.548562, 47.36691], "type": "Point"}, "properties": {"address": "Galerie \u00fcber Gleis 2/3", "electric": 13, "id": "pb_285", "manual": 5, "name": "Bahnhof Stadelhofen", "provider": "publibike", "timeStamp": "02/06/2020, 21:18:28", "zip": 8001}, "type": "Feature"}, {"geometry": {"coordinates": [8.493822, 47.3985553], "type": "Point"}, "properties": {"address": "Meierwiesenstrasse 12-4", "electric": 4, "id": "pb_286", "manual": 2, "name": "T\u00fcffenwies", "provider": "publibike", "timeStamp": "02/06/2020, 21:18:28", "zip": 8064}, "type": "Feature"}, {"geometry": {"coordinates": [8.552432, 47.3801757], "type": "Point"}, "properties": {"address": "Hochstrasse 34", "electric": 4, "id": "pb_356", "manual": 0, "name": "Siriuswiese", "provider": "publibike", "timeStamp": "02/06/2020, 21:18:28", "zip": 8044}, "type": "Feature"}, {"geometry": {"coordinates": [8.527298, 47.370141], "type": "Point"}, "properties": {"address": "Hallwylstrasse 71", "electric": 3, "id": "pb_357", "manual": 1, "name": "Hallwylstrasse", "provider": "publibike", "timeStamp": "02/06/2020, 21:18:28", "zip": 8004}, "type": "Feature"}, {"geometry": {"coordinates": [8.5414185, 47.3972455], "type": "Point"}, "properties": {"address": "Schaffhauserstrasse 137", "electric": 2, "id": "pb_358", "manual": 0, "name": "Milchbuck", "provider": "publibike", "timeStamp": "02/06/2020, 21:18:28", "zip": 8057}, "type": "Feature"}, {"geometry": {"coordinates": [8.512381, 47.393409], "type": "Point"}, "properties": {"address": "Hardturmstrasse 161", "electric": 4, "id": "pb_359", "manual": 1, "name": "Fischerweg", "provider": "publibike", "timeStamp": "02/06/2020, 21:18:28", "zip": 8005}, "type": "Feature"}, {"geometry": {"coordinates": [8.5421457, 47.3876979], "type": "Point"}, "properties": {"address": "Turnerstrasse 47", "electric": 2, "id": "pb_360", "manual": 4, "name": "Kirche Unterstrass", "provider": "publibike", "timeStamp": "02/06/2020, 21:18:28", "zip": 8006}, "type": "Feature"}, {"geometry": {"coordinates": [8.522117, 47.394554], "type": "Point"}, "properties": {"address": "Dorfstrasse 40", "electric": 10, "id": "pb_361", "manual": 1, "name": "Dorfstrasse", "provider": "publibike", "timeStamp": "02/06/2020, 21:18:28", "zip": 8037}, "type": "Feature"}, {"geometry": {"coordinates": [8.530437, 47.37271], "type": "Point"}, "properties": {"address": "Werdstrasse 25", "electric": 0, "id": "pb_362", "manual": 4, "name": "Stauffachertor", "provider": "publibike", "timeStamp": "02/06/2020, 21:18:28", "zip": 8004}, "type": "Feature"}, {"geometry": {"coordinates": [8.541712, 47.416155], "type": "Point"}, "properties": {"address": "Eggb\u00fchlstrasse 21", "electric": 7, "id": "pb_363", "manual": 1, "name": "Wahlenpark", "provider": "publibike", "timeStamp": "02/06/2020, 21:18:28", "zip": 8050}, "type": "Feature"}, {"geometry": {"coordinates": [8.5595335, 47.3708387], "type": "Point"}, "properties": {"address": "Dolderstrasse 32", "electric": 3, "id": "pb_364", "manual": 0, "name": "Kinderspital", "provider": "publibike", "timeStamp": "02/06/2020, 21:18:28", "zip": 8032}, "type": "Feature"}, {"geometry": {"coordinates": [8.536433, 47.388689], "type": "Point"}, "properties": {"address": "Kornhausstrasse 30", "electric": 2, "id": "pb_365", "manual": 2, "name": "Kornhausstrasse", "provider": "publibike", "timeStamp": "02/06/2020, 21:18:28", "zip": 8006}, "type": "Feature"}, {"geometry": {"coordinates": [8.55033, 47.407098], "type": "Point"}, "properties": {"address": "Schwamendingenstrasse 41", "electric": 6, "id": "pb_366", "manual": 9, "name": "Dorflinde", "provider": "publibike", "timeStamp": "02/06/2020, 21:18:28", "zip": 8050}, "type": "Feature"}, {"geometry": {"coordinates": [8.560476, 47.368199], "type": "Point"}, "properties": {"address": "R\u00f6merhofplatz 5", "electric": 6, "id": "pb_367", "manual": 1, "name": "R\u00f6merhof", "provider": "publibike", "timeStamp": "02/06/2020, 21:18:28", "zip": 8032}, "type": "Feature"}, {"geometry": {"coordinates": [8.5609218, 47.3619068], "type": "Point"}, "properties": {"address": "Forchstrasse 99", "electric": 14, "id": "pb_368", "manual": 1, "name": "Hegibachplatz", "provider": "publibike", "timeStamp": "02/06/2020, 21:18:28", "zip": 8032}, "type": "Feature"}, {"geometry": {"coordinates": [8.5721264, 47.4039985], "type": "Point"}, "properties": {"address": "Winterthurerstrasse 519", "electric": 9, "id": "pb_370", "manual": 3, "name": "Schwamendingerplatz", "provider": "publibike", "timeStamp": "02/06/2020, 21:18:28", "zip": 8051}, "type": "Feature"}, {"geometry": {"coordinates": [8.520168, 47.378556], "type": "Point"}, "properties": {"address": "Herman-Greulich-Strasse 56", "electric": 8, "id": "pb_384", "manual": 7, "name": "Hermann-Greulich-Weg", "provider": "publibike", "timeStamp": "02/06/2020, 21:18:28", "zip": 8004}, "type": "Feature"}, {"geometry": {"coordinates": [8.547912, 47.384923], "type": "Point"}, "properties": {"address": "Culmannstrasse", "electric": 1, "id": "pb_386", "manual": 2, "name": "Rigiplatz", "provider": "publibike", "timeStamp": "02/06/2020, 21:18:28", "zip": 8006}, "type": "Feature"}, {"geometry": {"coordinates": [8.543768, 47.411057], "type": "Point"}, "properties": {"address": "Hofwiesenstrasse 369", "electric": 3, "id": "pb_387", "manual": 0, "name": "Bahnhof Oerlikon S\u00fcd", "provider": "publibike", "timeStamp": "02/06/2020, 21:18:28", "zip": 8050}, "type": "Feature"}, {"geometry": {"coordinates": [8.544185, 47.412732], "type": "Point"}, "properties": {"address": "Jungholzstrasse 6", "electric": 2, "id": "pb_388", "manual": 0, "name": "Max-Frisch-Platz", "provider": "publibike", "timeStamp": "02/06/2020, 21:18:28", "zip": 8050}, "type": "Feature"}, {"geometry": {"coordinates": [8.558096, 47.413032], "type": "Point"}, "properties": {"address": "Andreasstrasse", "electric": 6, "id": "pb_389", "manual": 11, "name": "Hunziker-Areal", "provider": "publibike", "timeStamp": "02/06/2020, 21:18:28", "zip": 8050}, "type": "Feature"}, {"geometry": {"coordinates": [8.533265, 47.412873], "type": "Point"}, "properties": {"address": "Regina-K\u00e4gi-Strasse 1", "electric": 5, "id": "pb_390", "manual": 4, "name": "Luis-H\u00e4fliger-Park", "provider": "publibike", "timeStamp": "02/06/2020, 21:18:28", "zip": 8050}, "type": "Feature"}, {"geometry": {"coordinates": [8.499265, 47.401852], "type": "Point"}, "properties": {"address": "Limmattalstrasse 177", "electric": 4, "id": "pb_391", "manual": 0, "name": "Meierhofplatz", "provider": "publibike", "timeStamp": "02/06/2020, 21:18:28", "zip": 8049}, "type": "Feature"}, {"geometry": {"coordinates": [8.528356, 47.393255], "type": "Point"}, "properties": {"address": "R\u00f6schibachstrasse 73", "electric": 10, "id": "pb_392", "manual": 8, "name": "R\u00f6schibachplatz", "provider": "publibike", "timeStamp": "02/06/2020, 21:18:28", "zip": 8037}, "type": "Feature"}, {"geometry": {"coordinates": [8.538067, 47.415721], "type": "Point"}, "properties": {"address": "Birchstrasse 191", "electric": 5, "id": "pb_393", "manual": 1, "name": "Oerliker Park", "provider": "publibike", "timeStamp": "02/06/2020, 21:18:28", "zip": 8050}, "type": "Feature"}, {"geometry": {"coordinates": [8.5420304, 47.3669233], "type": "Point"}, "properties": {"address": "Stadthausquai 1", "electric": 3, "id": "pb_395", "manual": 8, "name": "B\u00fcrkliplatz", "provider": "publibike", "timeStamp": "02/06/2020, 21:18:28", "zip": 8001}, "type": "Feature"}, {"geometry": {"coordinates": [8.535767, 47.409881], "type": "Point"}, "properties": {"address": "Regensbergstrasse 195", "electric": 2, "id": "pb_396", "manual": 3, "name": "Holunderhof", "provider": "publibike", "timeStamp": "02/06/2020, 21:18:28", "zip": 8050}, "type": "Feature"}, {"geometry": {"coordinates": [8.5116245, 47.3616199], "type": "Point"}, "properties": {"address": "Grubenstrasse 42", "electric": 0, "id": "pb_431", "manual": 0, "name": "Binz Center", "provider": "publibike", "timeStamp": "02/06/2020, 21:18:28", "zip": 8045}, "type": "Feature"}, {"geometry": {"coordinates": [8.547195, 47.382089], "type": "Point"}, "properties": {"address": "Nelkenstrasse 24", "electric": 2, "id": "pb_430", "manual": 0, "name": "Stapferstube", "provider": "publibike", "timeStamp": "02/06/2020, 21:18:28", "zip": 8006}, "type": "Feature"}, {"geometry": {"coordinates": [8.5787183, 47.4039845], "type": "Point"}, "properties": {"address": "Kronwiesenstrasse 35", "electric": 1, "id": "pb_426", "manual": 4, "name": "Kronwiesen", "provider": "publibike", "timeStamp": "02/06/2020, 21:18:28", "zip": 8051}, "type": "Feature"}, {"geometry": {"coordinates": [8.508131, 47.420757], "type": "Point"}, "properties": {"address": "Riedenhaldenstrasse 20-18", "electric": 14, "id": "pb_425", "manual": 2, "name": "Bahnhof Affoltern", "provider": "publibike", "timeStamp": "02/06/2020, 21:18:28", "zip": 8046}, "type": "Feature"}, {"geometry": {"coordinates": [8.532464, 47.406988], "type": "Point"}, "properties": {"address": "K\u00fcnzlistrasse 41", "electric": 3, "id": "pb_424", "manual": 1, "name": "Birchd\u00f6rfli", "provider": "publibike", "timeStamp": "02/06/2020, 21:18:28", "zip": 8057}, "type": "Feature"}, {"geometry": {"coordinates": [8.5777038, 47.4080095], "type": "Point"}, "properties": {"address": "Luegislandstrasse 412", "electric": 9, "id": "pb_429", "manual": 4, "name": "Luegisland", "provider": "publibike", "timeStamp": "02/06/2020, 21:18:28", "zip": 8051}, "type": "Feature"}, {"geometry": {"coordinates": [8.58841, 47.40158], "type": "Point"}, "properties": {"address": "Hirzenbachstrasse 2-4", "electric": 6, "id": "pb_428", "manual": 2, "name": "Hirzenbachstrasse", "provider": "publibike", "timeStamp": "02/06/2020, 21:18:28", "zip": 8051}, "type": "Feature"}, {"geometry": {"coordinates": [8.5563463, 47.4095467], "type": "Point"}, "properties": {"address": "K\u00fchriedweg", "electric": 3, "id": "pb_445", "manual": 3, "name": "Hallenbad Oerlikon", "provider": "publibike", "timeStamp": "02/06/2020, 21:18:28", "zip": 8050}, "type": "Feature"}, {"geometry": {"coordinates": [8.537971, 47.364871], "type": "Point"}, "properties": {"address": "General-Guisan-Quai 17", "electric": 3, "id": "pb_454", "manual": 2, "name": "General-Guisan-Quai", "provider": "publibike", "timeStamp": "02/06/2020, 21:18:28", "zip": 8002}, "type": "Feature"}, {"geometry": {"coordinates": [8.560587, 47.350578], "type": "Point"}, "properties": {"address": "Bellerivestrasse 245", "electric": 9, "id": "pb_450", "manual": 5, "name": "Bahnhof Tiefenbrunnen", "provider": "publibike", "timeStamp": "02/06/2020, 21:18:28", "zip": 8008}, "type": "Feature"}, {"geometry": {"coordinates": [8.5269416, 47.3563719], "type": "Point"}, "properties": {"address": "Waffenplatzstrasse 89", "electric": 8, "id": "pb_452", "manual": 7, "name": "Rieterplatz", "provider": "publibike", "timeStamp": "02/06/2020, 21:18:28", "zip": 8002}, "type": "Feature"}, {"geometry": {"coordinates": [8.514176, 47.3663708], "type": "Point"}, "properties": {"address": "Talwiesenstrasse 92", "electric": 6, "id": "pb_446", "manual": 4, "name": "Binzallee", "provider": "publibike", "timeStamp": "02/06/2020, 21:18:28", "zip": 8055}, "type": "Feature"}, {"geometry": {"coordinates": [8.5070564, 47.371455], "type": "Point"}, "properties": {"address": "Gutstrasse 87", "electric": 5, "id": "pb_447", "manual": 1, "name": "Gutstrasse", "provider": "publibike", "timeStamp": "02/06/2020, 21:18:28", "zip": 8055}, "type": "Feature"}, {"geometry": {"coordinates": [8.4941268, 47.3836391], "type": "Point"}, "properties": {"address": "Flurstrasse 62", "electric": 2, "id": "pb_453", "manual": 3, "name": "Flurpark", "provider": "publibike", "timeStamp": "02/06/2020, 21:18:28", "zip": 8048}, "type": "Feature"}, {"geometry": {"coordinates": [8.500343, 47.380778], "type": "Point"}, "properties": {"address": "Edelweissstrasse 32", "electric": 7, "id": "pb_448", "manual": 2, "name": "Bl\u00fcemliquartier", "provider": "publibike", "timeStamp": "02/06/2020, 21:18:28", "zip": 8048}, "type": "Feature"}, {"geometry": {"coordinates": [8.528796, 47.383858], "type": "Point"}, "properties": {"address": "Gasometerstrasse 24", "electric": 5, "id": "pb_449", "manual": 7, "name": "Gasometerstrasse", "provider": "publibike", "timeStamp": "02/06/2020, 21:18:28", "zip": 8005}, "type": "Feature"}, {"geometry": {"coordinates": [8.4981964, 47.3859194], "type": "Point"}, "properties": {"address": "Baslerstrasse 57", "electric": 8, "id": "pb_455", "manual": 6, "name": "Letzipark", "provider": "publibike", "timeStamp": "02/06/2020, 21:18:28", "zip": 8048}, "type": "Feature"}, {"geometry": {"coordinates": [8.515252, 47.381915], "type": "Point"}, "properties": {"address": "Sihlfeldstrasse 175", "electric": 3, "id": "pb_451", "manual": 3, "name": "Hardplatz", "provider": "publibike", "timeStamp": "02/06/2020, 21:18:28", "zip": 8004}, "type": "Feature"}, {"geometry": {"coordinates": [8.5064743, 47.4188324], "type": "Point"}, "properties": {"address": "Wehntalerstrasse 541", "electric": 6, "id": "pb_427", "manual": 5, "name": "Zehntenhausplatz", "provider": "publibike", "timeStamp": "02/06/2020, 21:18:28", "zip": 8046}, "type": "Feature"}, {"geometry": {"coordinates": [8.537729, 47.379719], "type": "Point"}, "properties": {"address": "Sihlquai/HB", "electric": 8, "id": "pb_513", "manual": 8, "name": "Sihlquai", "provider": "publibike", "timeStamp": "02/06/2020, 21:18:28", "zip": 8005}, "type": "Feature"}, {"geometry": {"coordinates": [8.596202, 47.397885], "type": "Point"}, "properties": {"address": "Bahnhof Stettbach", "electric": 2, "id": "pb_514", "manual": 1, "name": "Bahnhof Stettbach", "provider": "publibike", "timeStamp": "02/06/2020, 21:18:28", "zip": 8051}, "type": "Feature"}, {"geometry": {"coordinates": [8.5543974, 47.3690153], "type": "Point"}, "properties": {"address": "Kasinostrasse 10", "electric": 12, "id": "pb_515", "manual": 3, "name": "Hottingerplatz", "provider": "publibike", "timeStamp": "02/06/2020, 21:18:28", "zip": 8032}, "type": "Feature"}, {"geometry": {"coordinates": [8.534444, 47.351525], "type": "Point"}, "properties": {"address": "Mobile Station Z\u00fcrich 1", "electric": 0, "id": "pb_282", "manual": 0, "name": "Theaterspektakel", "provider": "publibike", "timeStamp": "02/06/2020, 21:18:28", "zip": 8002}, "type": "Feature"}, {"geometry": {"coordinates": [8.516257, 47.367656], "type": "Point"}, "properties": {"address": "Goldbrunnenstrasse 54", "electric": 2, "id": "pb_538", "manual": 0, "name": "Kirche B\u00fchl", "provider": "publibike", "timeStamp": "02/06/2020, 21:18:28", "zip": 8055}, "type": "Feature"}, {"geometry": {"coordinates": [8.555639, 47.416873], "type": "Point"}, "properties": {"address": "Leutschenbachstrasse 50", "electric": 1, "id": "pb_537", "manual": 4, "name": "Leutschenpark", "provider": "publibike", "timeStamp": "02/06/2020, 21:18:28", "zip": 8050}, "type": "Feature"}, {"geometry": {"coordinates": [8.546464, 47.403822], "type": "Point"}, "properties": {"address": "Berninastrasse 45", "electric": 9, "id": "pb_540", "manual": 1, "name": "Berninaplatz", "provider": "publibike", "timeStamp": "02/06/2020, 21:18:28", "zip": 8057}, "type": "Feature"}, {"geometry": {"coordinates": [8.523134, 47.369004], "type": "Point"}, "properties": {"address": "Erlachstrasse 3", "electric": 1, "id": "pb_385", "manual": 3, "name": "Aegerten", "provider": "publibike", "timeStamp": "02/06/2020, 21:18:28", "zip": 8003}, "type": "Feature"}, {"geometry": {"coordinates": [8.49038, 47.381591], "type": "Point"}, "properties": {"address": "Rautistrasse 60", "electric": 7, "id": "pb_536", "manual": 7, "name": "Freilager", "provider": "publibike", "timeStamp": "02/06/2020, 21:18:28", "zip": 8048}, "type": "Feature"}, {"geometry": {"coordinates": [8.496511, 47.375247], "type": "Point"}, "properties": {"address": "Letzigraben 139", "electric": 4, "id": "pb_444", "manual": 0, "name": "Sackzelg", "provider": "publibike", "timeStamp": "02/06/2020, 21:18:28", "zip": 8047}, "type": "Feature"}, {"geometry": {"coordinates": [8.58131, 47.402801], "type": "Point"}, "properties": {"address": "Altwiesenstrasse 104", "electric": 0, "id": "pb_539", "manual": 4, "name": "Glattwiesen", "provider": "publibike", "timeStamp": "02/06/2020, 21:18:28", "zip": 8051}, "type": "Feature"}, {"geometry": {"coordinates": [8.52689, 47.3767], "type": "Point"}, "properties": {"address": "Molkenstrasse 5", "electric": 1, "id": "pb_560", "manual": 15, "name": "Helvetiaplatz", "provider": "publibike", "timeStamp": "02/06/2020, 21:18:28", "zip": 8004}, "type": "Feature"}, {"geometry": {"coordinates": [8.525602, 47.374241], "type": "Point"}, "properties": {"address": "Badenerstrasse 90", "electric": 0, "id": "pb_559", "manual": 3, "name": "Bezirksgeb\u00e4ude", "provider": "publibike", "timeStamp": "02/06/2020, 21:18:28", "zip": 8004}, "type": "Feature"}, {"geometry": {"coordinates": [8.535082, 47.345248], "type": "Point"}, "properties": {"address": "Bachstrasse 15", "electric": 7, "id": "pb_564", "manual": 2, "name": "GZ Wollishofen", "provider": "publibike", "timeStamp": "02/06/2020, 21:18:28", "zip": 8038}, "type": "Feature"}, {"geometry": {"coordinates": [8.514841, 47.370238], "type": "Point"}, "properties": {"address": "Schrennengasse 37", "electric": 3, "id": "pb_562", "manual": 1, "name": "Goldbrunnenplatz", "provider": "publibike", "timeStamp": "02/06/2020, 21:18:28", "zip": 8003}, "type": "Feature"}, {"geometry": {"coordinates": [8.514138, 47.374206], "type": "Point"}, "properties": {"address": "Idaplatz 4", "electric": 2, "id": "pb_557", "manual": 3, "name": "Idaplatz", "provider": "publibike", "timeStamp": "02/06/2020, 21:18:28", "zip": 8003}, "type": "Feature"}, {"geometry": {"coordinates": [8.518432, 47.369549], "type": "Point"}, "properties": {"address": "Brinerstrasse 2", "electric": 8, "id": "pb_558", "manual": 14, "name": "Schmiede Wiedikon", "provider": "publibike", "timeStamp": "02/06/2020, 21:18:28", "zip": 8003}, "type": "Feature"}, {"geometry": {"coordinates": [8.537546, 47.391289], "type": "Point"}, "properties": {"address": "Rotbuchstrasse 15", "electric": 2, "id": "pb_556", "manual": 0, "name": "Schaffhauserplatz", "provider": "publibike", "timeStamp": "02/06/2020, 21:18:28", "zip": 8006}, "type": "Feature"}, {"geometry": {"coordinates": [8.541541, 47.413733], "type": "Point"}, "properties": {"address": "Therese-Giehse-Strasse 11", "electric": 6, "id": "pb_561", "manual": 0, "name": "Center Eleven", "provider": "publibike", "timeStamp": "02/06/2020, 21:18:28", "zip": 8050}, "type": "Feature"}, {"geometry": {"coordinates": [8.534227, 47.360004], "type": "Point"}, "properties": {"address": "Alfred Escher-Strasse 76", "electric": 0, "id": "pb_563", "manual": 0, "name": "Mythenschloss", "provider": "publibike", "timeStamp": "02/06/2020, 21:18:28", "zip": 8002}, "type": "Feature"}, {"geometry": {"coordinates": [8.50373, 47.396172], "type": "Point"}, "properties": {"address": "Hardeggstrasse 6", "electric": 4, "id": "pb_566", "manual": 4, "name": "Am Wasser", "provider": "publibike", "timeStamp": "02/06/2020, 21:18:28", "zip": 8049}, "type": "Feature"}, {"geometry": {"coordinates": [8.532432, 47.381174], "type": "Point"}, "properties": {"address": "Klingenstrasse 9", "electric": 1, "id": "pb_565", "manual": 7, "name": "Zollstrasse", "provider": "publibike", "timeStamp": "02/06/2020, 21:18:28", "zip": 8005}, "type": "Feature"}, {"geometry": {"coordinates": [8.497982, 47.381447], "type": "Point"}, "properties": {"address": "Dennlerstrasse 23", "electric": 14, "id": "pb_567", "manual": 5, "name": "Dennlerstrasse", "provider": "publibike", "timeStamp": "02/06/2020, 21:18:28", "zip": 8047}, "type": "Feature"}, {"geometry": {"coordinates": [8.528049, 47.347701], "type": "Point"}, "properties": {"address": "Mutschellenstrasse 114", "electric": 7, "id": "pb_568", "manual": 6, "name": "Jugendherberge", "provider": "publibike", "timeStamp": "02/06/2020, 21:18:28", "zip": 8038}, "type": "Feature"}, {"geometry": {"coordinates": [8.539016, 47.405751], "type": "Point"}, "properties": {"address": "Ringstrasse 82", "electric": 1, "id": "pb_569", "manual": 3, "name": "Freibad Allenmoos", "provider": "publibike", "timeStamp": "02/06/2020, 21:18:28", "zip": 8057}, "type": "Feature"}, {"geometry": {"coordinates": [8.534974, 47.402164], "type": "Point"}, "properties": {"address": "Brache Guggach", "electric": 3, "id": "pb_572", "manual": 5, "name": "Radiostudio", "provider": "publibike", "timeStamp": "02/06/2020, 21:18:28", "zip": 8057}, "type": "Feature"}, {"geometry": {"coordinates": [8.547901, 47.375556], "type": "Point"}, "properties": {"address": "Karl-Schmid-Strasse 4", "electric": 1, "id": "pb_571", "manual": 1, "name": "ETH/Zoologisches Museum", "provider": "publibike", "timeStamp": "02/06/2020, 21:18:28", "zip": 8006}, "type": "Feature"}, {"geometry": {"coordinates": [8.562086, 47.382933], "type": "Point"}, "properties": {"charge": 30, "id": "smide_2901", "name": "ZH 267278", "provider": "smide", "range": 15.0, "size": 20, "time": "02/06/2020, 21:18:02"}, "type": "Feature"}, {"geometry": {"coordinates": [8.491006, 47.376833], "type": "Point"}, "properties": {"charge": 61, "id": "smide_2895", "name": "ZH 267279", "provider": "smide", "range": 30.0, "size": 20, "time": "02/06/2020, 21:18:02"}, "type": "Feature"}, {"geometry": {"coordinates": [8.55414, 47.402066], "type": "Point"}, "properties": {"charge": 34, "id": "smide_2880", "name": "ZH267289", "provider": "smide", "range": 17.0, "size": 17, "time": "02/06/2020, 21:18:02"}, "type": "Feature"}, {"geometry": {"coordinates": [8.533536, 47.39217], "type": "Point"}, "properties": {"charge": 71, "id": "smide_2874", "name": "ZH 267288", "provider": "smide", "range": 35.0, "size": 17, "time": "02/06/2020, 21:18:02"}, "type": "Feature"}, {"geometry": {"coordinates": [8.534238, 47.377048], "type": "Point"}, "properties": {"charge": 69, "id": "smide_2871", "name": "ZH 267086", "provider": "smide", "range": 34.0, "size": 20, "time": "02/06/2020, 21:18:02"}, "type": "Feature"}, {"geometry": {"coordinates": [8.515431, 47.42912], "type": "Point"}, "properties": {"charge": 55, "id": "smide_2867", "name": "ZH 267090", "provider": "smide", "range": 27.0, "size": 20, "time": "02/06/2020, 21:18:02"}, "type": "Feature"}, {"geometry": {"coordinates": [8.547773, 47.382171], "type": "Point"}, "properties": {"charge": 100, "id": "smide_2861", "name": "ZH 267096", "provider": "smide", "range": 50.0, "size": 17, "time": "02/06/2020, 21:18:02"}, "type": "Feature"}, {"geometry": {"coordinates": [8.520538, 47.379156], "type": "Point"}, "properties": {"charge": 19, "id": "smide_2859", "name": "ZH 267098", "provider": "smide", "range": 9.0, "size": 17, "time": "02/06/2020, 21:18:02"}, "type": "Feature"}, {"geometry": {"coordinates": [8.54874, 47.369825], "type": "Point"}, "properties": {"charge": 92, "id": "smide_2856", "name": "ZH 267101", "provider": "smide", "range": 46.0, "size": 17, "time": "02/06/2020, 21:18:02"}, "type": "Feature"}, {"geometry": {"coordinates": [8.524343, 47.398051], "type": "Point"}, "properties": {"charge": 86, "id": "smide_2855", "name": "ZH 267102", "provider": "smide", "range": 43.0, "size": 17, "time": "02/06/2020, 21:18:02"}, "type": "Feature"}, {"geometry": {"coordinates": [8.537045, 47.38], "type": "Point"}, "properties": {"charge": 86, "id": "smide_2854", "name": "ZH 267103", "provider": "smide", "range": 43.0, "size": 17, "time": "02/06/2020, 21:18:02"}, "type": "Feature"}, {"geometry": {"coordinates": [8.529211, 47.35201], "type": "Point"}, "properties": {"charge": 62, "id": "smide_2833", "name": "ZH 267182", "provider": "smide", "range": 31.0, "size": 20, "time": "02/06/2020, 21:18:02"}, "type": "Feature"}, {"geometry": {"coordinates": [8.502088, 47.370245], "type": "Point"}, "properties": {"charge": 64, "id": "smide_2831", "name": "ZH 267180", "provider": "smide", "range": 32.0, "size": 20, "time": "02/06/2020, 21:18:02"}, "type": "Feature"}, {"geometry": {"coordinates": [8.564006, 47.416008], "type": "Point"}, "properties": {"charge": 97, "id": "smide_2804", "name": "ZH266903", "provider": "smide", "range": 48.0, "size": 20, "time": "02/06/2020, 21:18:02"}, "type": "Feature"}, {"geometry": {"coordinates": [8.519818, 47.340083], "type": "Point"}, "properties": {"charge": 64, "id": "smide_2793", "name": "ZH266883", "provider": "smide", "range": 32.0, "size": 17, "time": "02/06/2020, 21:18:02"}, "type": "Feature"}, {"geometry": {"coordinates": [8.532343, 47.397385], "type": "Point"}, "properties": {"charge": 59, "id": "smide_2790", "name": "ZH266880", "provider": "smide", "range": 29.0, "size": 17, "time": "02/06/2020, 21:18:02"}, "type": "Feature"}, {"geometry": {"coordinates": [8.544235, 47.38201], "type": "Point"}, "properties": {"charge": 66, "id": "smide_2785", "name": "ZH266875", "provider": "smide", "range": 33.0, "size": 17, "time": "02/06/2020, 21:18:02"}, "type": "Feature"}, {"geometry": {"coordinates": [8.51092, 47.366948], "type": "Point"}, "properties": {"charge": 100, "id": "smide_2780", "name": "ST1 X #1", "provider": "smide", "range": 50.0, "size": 17, "time": "02/06/2020, 21:18:02"}, "type": "Feature"}, {"geometry": {"coordinates": [8.494788, 47.382316], "type": "Point"}, "properties": {"charge": 84, "id": "smide_2773", "name": "ZH266561", "provider": "smide", "range": 42.0, "size": 17, "time": "02/06/2020, 21:18:02"}, "type": "Feature"}, {"geometry": {"coordinates": [8.5466, 47.376676], "type": "Point"}, "properties": {"charge": 88, "id": "smide_2763", "name": "ZH266641", "provider": "smide", "range": 44.0, "size": 17, "time": "02/06/2020, 21:18:02"}, "type": "Feature"}, {"geometry": {"coordinates": [8.555921, 47.384391], "type": "Point"}, "properties": {"charge": 69, "id": "smide_2761", "name": "ZH266642", "provider": "smide", "range": 34.0, "size": 20, "time": "02/06/2020, 21:18:02"}, "type": "Feature"}, {"geometry": {"coordinates": [8.508595, 47.415324], "type": "Point"}, "properties": {"charge": 48, "id": "smide_2751", "name": "BE343857", "provider": "smide", "range": 24.0, "size": 17, "time": "02/06/2020, 21:18:02"}, "type": "Feature"}, {"geometry": {"coordinates": [8.521504, 47.365116], "type": "Point"}, "properties": {"charge": 64, "id": "smide_2749", "name": "BE343867", "provider": "smide", "range": 32.0, "size": 17, "time": "02/06/2020, 21:18:02"}, "type": "Feature"}, {"geometry": {"coordinates": [8.47544, 47.385456], "type": "Point"}, "properties": {"charge": 59, "id": "smide_2748", "name": "BE335758", "provider": "smide", "range": 29.0, "size": 17, "time": "02/06/2020, 21:18:02"}, "type": "Feature"}, {"geometry": {"coordinates": [8.56247, 47.382976], "type": "Point"}, "properties": {"charge": 100, "id": "smide_2746", "name": "BE335817", "provider": "smide", "range": 50.0, "size": 17, "time": "02/06/2020, 21:18:02"}, "type": "Feature"}, {"geometry": {"coordinates": [8.51805, 47.367576], "type": "Point"}, "properties": {"charge": 71, "id": "smide_2745", "name": "BE335818", "provider": "smide", "range": 35.0, "size": 17, "time": "02/06/2020, 21:18:02"}, "type": "Feature"}, {"geometry": {"coordinates": [8.488636, 47.380752], "type": "Point"}, "properties": {"charge": 48, "id": "smide_2743", "name": "BE343864", "provider": "smide", "range": 24.0, "size": 17, "time": "02/06/2020, 21:18:02"}, "type": "Feature"}, {"geometry": {"coordinates": [8.519512, 47.337208], "type": "Point"}, "properties": {"charge": 89, "id": "smide_2742", "name": "BE343866", "provider": "smide", "range": 44.0, "size": 17, "time": "02/06/2020, 21:18:02"}, "type": "Feature"}, {"geometry": {"coordinates": [8.496661, 47.423872], "type": "Point"}, "properties": {"charge": 100, "id": "smide_2741", "name": "BE343874", "provider": "smide", "range": 50.0, "size": 17, "time": "02/06/2020, 21:18:02"}, "type": "Feature"}, {"geometry": {"coordinates": [8.521946, 47.35796], "type": "Point"}, "properties": {"charge": 63, "id": "smide_2740", "name": "BE343875", "provider": "smide", "range": 31.0, "size": 17, "time": "02/06/2020, 21:18:02"}, "type": "Feature"}, {"geometry": {"coordinates": [8.551928, 47.38926], "type": "Point"}, "properties": {"charge": 78, "id": "smide_2738", "name": "BE343865", "provider": "smide", "range": 39.0, "size": 17, "time": "02/06/2020, 21:18:02"}, "type": "Feature"}, {"geometry": {"coordinates": [8.568292, 47.367804], "type": "Point"}, "properties": {"charge": 41, "id": "smide_2737", "name": "BE336149", "provider": "smide", "range": 20.0, "size": 17, "time": "02/06/2020, 21:18:02"}, "type": "Feature"}, {"geometry": {"coordinates": [8.530704, 47.378336], "type": "Point"}, "properties": {"charge": 23, "id": "smide_2736", "name": "BE346639", "provider": "smide", "range": 11.0, "size": 17, "time": "02/06/2020, 21:18:02"}, "type": "Feature"}, {"geometry": {"coordinates": [8.55577, 47.384244], "type": "Point"}, "properties": {"charge": 37, "id": "smide_2734", "name": "BE343876", "provider": "smide", "range": 18.0, "size": 17, "time": "02/06/2020, 21:18:02"}, "type": "Feature"}, {"geometry": {"coordinates": [8.535851, 47.356268], "type": "Point"}, "properties": {"charge": 89, "id": "smide_2729", "name": "BE343878", "provider": "smide", "range": 44.0, "size": 17, "time": "02/06/2020, 21:18:02"}, "type": "Feature"}, {"geometry": {"coordinates": [8.510588, 47.398316], "type": "Point"}, "properties": {"charge": 46, "id": "smide_2725", "name": "ZH261545", "provider": "smide", "range": 23.0, "size": 0, "time": "02/06/2020, 21:18:02"}, "type": "Feature"}, {"geometry": {"coordinates": [8.54009, 47.378938], "type": "Point"}, "properties": {"charge": 49, "id": "smide_2718", "name": "ZH259019", "provider": "smide", "range": 24.0, "size": 20, "time": "02/06/2020, 21:18:02"}, "type": "Feature"}, {"geometry": {"coordinates": [8.55181, 47.389284], "type": "Point"}, "properties": {"charge": 70, "id": "smide_2717", "name": "ZH263287", "provider": "smide", "range": 35.0, "size": 17, "time": "02/06/2020, 21:18:02"}, "type": "Feature"}, {"geometry": {"coordinates": [8.53381, 47.391236], "type": "Point"}, "properties": {"charge": 47, "id": "smide_2716", "name": "ZH254606", "provider": "smide", "range": 23.0, "size": 17, "time": "02/06/2020, 21:18:02"}, "type": "Feature"}, {"geometry": {"coordinates": [8.52677, 47.368888], "type": "Point"}, "properties": {"charge": 27, "id": "smide_2715", "name": "ZH254605", "provider": "smide", "range": 13.0, "size": 17, "time": "02/06/2020, 21:18:02"}, "type": "Feature"}, {"geometry": {"coordinates": [8.547021, 47.4116], "type": "Point"}, "properties": {"charge": 99, "id": "smide_2710", "name": "ZH256460", "provider": "smide", "range": 49.0, "size": 17, "time": "02/06/2020, 21:18:02"}, "type": "Feature"}, {"geometry": {"coordinates": [8.553558, 47.397624], "type": "Point"}, "properties": {"charge": 41, "id": "smide_2712", "name": "ZH256462", "provider": "smide", "range": 20.0, "size": 17, "time": "02/06/2020, 21:18:02"}, "type": "Feature"}, {"geometry": {"coordinates": [8.564661, 47.372848], "type": "Point"}, "properties": {"charge": 65, "id": "smide_2711", "name": "ZH256463", "provider": "smide", "range": 32.0, "size": 17, "time": "02/06/2020, 21:18:02"}, "type": "Feature"}, {"geometry": {"coordinates": [8.564025, 47.34804], "type": "Point"}, "properties": {"charge": 97, "id": "smide_2709", "name": "ZH256466", "provider": "smide", "range": 48.0, "size": 20, "time": "02/06/2020, 21:18:02"}, "type": "Feature"}, {"geometry": {"coordinates": [8.560196, 47.415732], "type": "Point"}, "properties": {"charge": 45, "id": "smide_2707", "name": "ZH256467", "provider": "smide", "range": 22.0, "size": 20, "time": "02/06/2020, 21:18:02"}, "type": "Feature"}, {"geometry": {"coordinates": [8.527485, 47.358564], "type": "Point"}, "properties": {"charge": 46, "id": "smide_2708", "name": "ZH256464", "provider": "smide", "range": 23.0, "size": 17, "time": "02/06/2020, 21:18:02"}, "type": "Feature"}, {"geometry": {"coordinates": [8.552263, 47.378276], "type": "Point"}, "properties": {"charge": 24, "id": "smide_2701", "name": "ZH256468", "provider": "smide", "range": 12.0, "size": 20, "time": "02/06/2020, 21:18:02"}, "type": "Feature"}, {"geometry": {"coordinates": [8.553605, 47.387344], "type": "Point"}, "properties": {"charge": 83, "id": "smide_2699", "name": "ZH254611", "provider": "smide", "range": 41.0, "size": 20, "time": "02/06/2020, 21:18:02"}, "type": "Feature"}, {"geometry": {"coordinates": [8.53744, 47.386812], "type": "Point"}, "properties": {"charge": 42, "id": "smide_2697", "name": "ZH254629", "provider": "smide", "range": 21.0, "size": 20, "time": "02/06/2020, 21:18:02"}, "type": "Feature"}, {"geometry": {"coordinates": [8.556769, 47.419844], "type": "Point"}, "properties": {"charge": 100, "id": "smide_2696", "name": "ZH254616", "provider": "smide", "range": 50.0, "size": 20, "time": "02/06/2020, 21:18:02"}, "type": "Feature"}, {"geometry": {"coordinates": [8.520008, 47.369948], "type": "Point"}, "properties": {"charge": 62, "id": "smide_2694", "name": "ZH254610", "provider": "smide", "range": 31.0, "size": 20, "time": "02/06/2020, 21:18:02"}, "type": "Feature"}, {"geometry": {"coordinates": [8.558373, 47.403755], "type": "Point"}, "properties": {"charge": 93, "id": "smide_2691", "name": "ZH254622", "provider": "smide", "range": 46.0, "size": 20, "time": "02/06/2020, 21:18:02"}, "type": "Feature"}, {"geometry": {"coordinates": [8.527991, 47.35876], "type": "Point"}, "properties": {"charge": 46, "id": "smide_2690", "name": "ZH254625", "provider": "smide", "range": 23.0, "size": 20, "time": "02/06/2020, 21:18:02"}, "type": "Feature"}, {"geometry": {"coordinates": [8.555627, 47.384436], "type": "Point"}, "properties": {"charge": 100, "id": "smide_2689", "name": "ZH254623", "provider": "smide", "range": 50.0, "size": 20, "time": "02/06/2020, 21:18:02"}, "type": "Feature"}, {"geometry": {"coordinates": [8.52563, 47.389412], "type": "Point"}, "properties": {"charge": 47, "id": "smide_2687", "name": "ZH263529", "provider": "smide", "range": 23.0, "size": 20, "time": "02/06/2020, 21:18:02"}, "type": "Feature"}, {"geometry": {"coordinates": [8.523968, 47.36466], "type": "Point"}, "properties": {"charge": 92, "id": "smide_2684", "name": "ZH254626", "provider": "smide", "range": 46.0, "size": 20, "time": "02/06/2020, 21:18:02"}, "type": "Feature"}, {"geometry": {"coordinates": [8.499477, 47.387128], "type": "Point"}, "properties": {"charge": 52, "id": "smide_2680", "name": "ZH254619", "provider": "smide", "range": 26.0, "size": 20, "time": "02/06/2020, 21:18:02"}, "type": "Feature"}, {"geometry": {"coordinates": [8.495007, 47.398504], "type": "Point"}, "properties": {"charge": 65, "id": "smide_2677", "name": "ZH258487", "provider": "smide", "range": 32.0, "size": 17, "time": "02/06/2020, 21:18:02"}, "type": "Feature"}, {"geometry": {"coordinates": [8.552446, 47.380312], "type": "Point"}, "properties": {"charge": 17, "id": "smide_2674", "name": "ZH258654", "provider": "smide", "range": 8.0, "size": 17, "time": "02/06/2020, 21:18:02"}, "type": "Feature"}, {"geometry": {"coordinates": [8.492312, 47.369112], "type": "Point"}, "properties": {"charge": 73, "id": "smide_2671", "name": "ZH258645", "provider": "smide", "range": 36.0, "size": 17, "time": "02/06/2020, 21:18:02"}, "type": "Feature"}, {"geometry": {"coordinates": [8.53693, 47.407256], "type": "Point"}, "properties": {"charge": 83, "id": "smide_2669", "name": "ZH263294", "provider": "smide", "range": 41.0, "size": 17, "time": "02/06/2020, 21:18:02"}, "type": "Feature"}, {"geometry": {"coordinates": [8.535486, 47.337744], "type": "Point"}, "properties": {"charge": 75, "id": "smide_2666", "name": "ZH258653", "provider": "smide", "range": 37.0, "size": 17, "time": "02/06/2020, 21:18:02"}, "type": "Feature"}, {"geometry": {"coordinates": [8.578768, 47.353596], "type": "Point"}, "properties": {"charge": 63, "id": "smide_2665", "name": "ZH258644", "provider": "smide", "range": 31.0, "size": 17, "time": "02/06/2020, 21:18:02"}, "type": "Feature"}, {"geometry": {"coordinates": [8.54405, 47.391928], "type": "Point"}, "properties": {"charge": 99, "id": "smide_2663", "name": "ZH258649", "provider": "smide", "range": 49.0, "size": 17, "time": "02/06/2020, 21:18:02"}, "type": "Feature"}, {"geometry": {"coordinates": [8.572758, 47.380564], "type": "Point"}, "properties": {"charge": 79, "id": "smide_2662", "name": "ZH258643", "provider": "smide", "range": 39.0, "size": 17, "time": "02/06/2020, 21:18:02"}, "type": "Feature"}, {"geometry": {"coordinates": [8.532868, 47.336876], "type": "Point"}, "properties": {"charge": 89, "id": "smide_2660", "name": "ZH258647", "provider": "smide", "range": 44.0, "size": 17, "time": "02/06/2020, 21:18:02"}, "type": "Feature"}, {"geometry": {"coordinates": [8.486634, 47.38826], "type": "Point"}, "properties": {"charge": 15, "id": "smide_2648", "name": "ZH257930", "provider": "smide", "range": 7.0, "size": 20, "time": "02/06/2020, 21:18:02"}, "type": "Feature"}, {"geometry": {"coordinates": [8.542171, 47.387604], "type": "Point"}, "properties": {"charge": 45, "id": "smide_2647", "name": "ZH257932", "provider": "smide", "range": 22.0, "size": 20, "time": "02/06/2020, 21:18:02"}, "type": "Feature"}, {"geometry": {"coordinates": [8.5444, 47.369784], "type": "Point"}, "properties": {"charge": 53, "id": "smide_2645", "name": "ZH257933", "provider": "smide", "range": 26.0, "size": 20, "time": "02/06/2020, 21:18:02"}, "type": "Feature"}, {"geometry": {"coordinates": [8.541115, 47.378098], "type": "Point"}, "properties": {"charge": 84, "id": "smide_3", "name": "ZH253765", "provider": "smide", "range": 42.0, "size": 20, "time": "02/06/2020, 21:18:02"}, "type": "Feature"}, {"geometry": {"coordinates": [8.526006, 47.408451], "type": "Point"}, "properties": {"charge": 44, "id": "smide_105", "name": "ZH253804", "provider": "smide", "range": 22.0, "size": 17, "time": "02/06/2020, 21:18:02"}, "type": "Feature"}, {"geometry": {"coordinates": [8.542059, 47.40764], "type": "Point"}, "properties": {"charge": 84, "id": "smide_186", "name": "ZH253751", "provider": "smide", "range": 42.0, "size": 20, "time": "02/06/2020, 21:18:02"}, "type": "Feature"}, {"geometry": {"coordinates": [8.527916, 47.380308], "type": "Point"}, "properties": {"charge": 51, "id": "smide_173", "name": "ZH258501", "provider": "smide", "range": 25.0, "size": 17, "time": "02/06/2020, 21:18:02"}, "type": "Feature"}, {"geometry": {"coordinates": [8.559214, 47.406056], "type": "Point"}, "properties": {"charge": 73, "id": "smide_77", "name": "ZH261548", "provider": "smide", "range": 36.0, "size": 20, "time": "02/06/2020, 21:18:02"}, "type": "Feature"}, {"geometry": {"coordinates": [8.562923, 47.382564], "type": "Point"}, "properties": {"charge": 66, "id": "smide_200", "name": "ZH253801", "provider": "smide", "range": 33.0, "size": 20, "time": "02/06/2020, 21:18:02"}, "type": "Feature"}, {"geometry": {"coordinates": [8.477926, 47.392645], "type": "Point"}, "properties": {"charge": 46, "id": "smide_197", "name": "ZH253864", "provider": "smide", "range": 23.0, "size": 20, "time": "02/06/2020, 21:18:02"}, "type": "Feature"}, {"geometry": {"coordinates": [8.517404, 47.375512], "type": "Point"}, "properties": {"charge": 43, "id": "smide_199", "name": "ZH253766", "provider": "smide", "range": 21.0, "size": 20, "time": "02/06/2020, 21:18:02"}, "type": "Feature"}, {"geometry": {"coordinates": [8.521002, 47.374204], "type": "Point"}, "properties": {"charge": 89, "id": "smide_8", "name": "ZH253861", "provider": "smide", "range": 44.0, "size": 17, "time": "02/06/2020, 21:18:02"}, "type": "Feature"}, {"geometry": {"coordinates": [8.555468, 47.357061], "type": "Point"}, "properties": {"charge": 100, "id": "smide_45", "name": "ZH253716", "provider": "smide", "range": 50.0, "size": 17, "time": "02/06/2020, 21:18:02"}, "type": "Feature"}, {"geometry": {"coordinates": [8.559241, 47.360024], "type": "Point"}, "properties": {"charge": 87, "id": "smide_71", "name": "ZH253742", "provider": "smide", "range": 43.0, "size": 20, "time": "02/06/2020, 21:18:02"}, "type": "Feature"}, {"geometry": {"coordinates": [8.532457, 47.390528], "type": "Point"}, "properties": {"charge": 100, "id": "smide_101", "name": "ZH253814", "provider": "smide", "range": 50.0, "size": 17, "time": "02/06/2020, 21:18:02"}, "type": "Feature"}, {"geometry": {"coordinates": [8.509408, 47.395268], "type": "Point"}, "properties": {"charge": 89, "id": "smide_143", "name": "ZH253778", "provider": "smide", "range": 44.0, "size": 17, "time": "02/06/2020, 21:18:02"}, "type": "Feature"}, {"geometry": {"coordinates": [8.518921, 47.337208], "type": "Point"}, "properties": {"charge": 32, "id": "smide_180", "name": "ZH253824", "provider": "smide", "range": 16.0, "size": 20, "time": "02/06/2020, 21:18:02"}, "type": "Feature"}, {"geometry": {"coordinates": [8.502386, 47.424596], "type": "Point"}, "properties": {"charge": 85, "id": "smide_20", "name": "ZH253770", "provider": "smide", "range": 42.0, "size": 20, "time": "02/06/2020, 21:18:02"}, "type": "Feature"}, {"geometry": {"coordinates": [8.391686, 47.415316], "type": "Point"}, "properties": {"charge": 42, "id": "smide_50", "name": "ZH253853", "provider": "smide", "range": 21.0, "size": 17, "time": "02/06/2020, 21:18:02"}, "type": "Feature"}, {"geometry": {"coordinates": [8.568405, 47.382331], "type": "Point"}, "properties": {"charge": 100, "id": "smide_30", "name": "ZH253813", "provider": "smide", "range": 50.0, "size": 20, "time": "02/06/2020, 21:18:02"}, "type": "Feature"}, {"geometry": {"coordinates": [8.543386, 47.377056], "type": "Point"}, "properties": {"charge": 93, "id": "smide_10", "name": "ZH253855", "provider": "smide", "range": 46.0, "size": 17, "time": "02/06/2020, 21:18:02"}, "type": "Feature"}, {"geometry": {"coordinates": [8.540471, 47.388832], "type": "Point"}, "properties": {"charge": 61, "id": "smide_84", "name": "ZH253733", "provider": "smide", "range": 30.0, "size": 17, "time": "02/06/2020, 21:18:02"}, "type": "Feature"}, {"geometry": {"coordinates": [8.531676, 47.373128], "type": "Point"}, "properties": {"charge": 41, "id": "smide_165", "name": "ZH253752", "provider": "smide", "range": 20.0, "size": 17, "time": "02/06/2020, 21:18:02"}, "type": "Feature"}, {"geometry": {"coordinates": [8.55432, 47.361564], "type": "Point"}, "properties": {"charge": 83, "id": "smide_35", "name": "ZH253755", "provider": "smide", "range": 41.0, "size": 20, "time": "02/06/2020, 21:18:02"}, "type": "Feature"}, {"geometry": {"coordinates": [8.515092, 47.382672], "type": "Point"}, "properties": {"charge": 89, "id": "smide_119", "name": "ZH253686", "provider": "smide", "range": 44.0, "size": 20, "time": "02/06/2020, 21:18:02"}, "type": "Feature"}, {"geometry": {"coordinates": [8.536149, 47.337992], "type": "Point"}, "properties": {"charge": 63, "id": "smide_76", "name": "ZH253764", "provider": "smide", "range": 31.0, "size": 17, "time": "02/06/2020, 21:18:02"}, "type": "Feature"}, {"geometry": {"coordinates": [8.541212, 47.38236], "type": "Point"}, "properties": {"charge": 100, "id": "smide_129", "name": "ZH261378", "provider": "smide", "range": 50.0, "size": 17, "time": "02/06/2020, 21:18:02"}, "type": "Feature"}, {"geometry": {"coordinates": [8.48828, 47.367736], "type": "Point"}, "properties": {"charge": 49, "id": "smide_49", "name": "ZH253873", "provider": "smide", "range": 24.0, "size": 17, "time": "02/06/2020, 21:18:02"}, "type": "Feature"}, {"geometry": {"coordinates": [8.538524, 47.367632], "type": "Point"}, "properties": {"charge": 100, "id": "smide_37", "name": "ZH261377", "provider": "smide", "range": 50.0, "size": 20, "time": "02/06/2020, 21:18:02"}, "type": "Feature"}, {"geometry": {"coordinates": [8.516463, 47.397261], "type": "Point"}, "properties": {"charge": 74, "id": "smide_191", "name": "ZH253762", "provider": "smide", "range": 37.0, "size": 17, "time": "02/06/2020, 21:18:02"}, "type": "Feature"}, {"geometry": {"coordinates": [8.510445, 47.398553], "type": "Point"}, "properties": {"charge": 75, "id": "smide_202", "name": "ZH253830", "provider": "smide", "range": 37.0, "size": 17, "time": "02/06/2020, 21:18:02"}, "type": "Feature"}, {"geometry": {"coordinates": [8.528035, 47.385944], "type": "Point"}, "properties": {"charge": 81, "id": "smide_56", "name": "ZH261442", "provider": "smide", "range": 40.0, "size": 20, "time": "02/06/2020, 21:18:02"}, "type": "Feature"}, {"geometry": {"coordinates": [8.541328, 47.382756], "type": "Point"}, "properties": {"charge": 19, "id": "smide_47", "name": "ZH253858", "provider": "smide", "range": 9.0, "size": 17, "time": "02/06/2020, 21:18:02"}, "type": "Feature"}, {"geometry": {"coordinates": [8.558476, 47.403888], "type": "Point"}, "properties": {"charge": 90, "id": "smide_66", "name": "ZH253818", "provider": "smide", "range": 45.0, "size": 20, "time": "02/06/2020, 21:18:02"}, "type": "Feature"}, {"geometry": {"coordinates": [8.526523, 47.373935], "type": "Point"}, "properties": {"charge": 24, "id": "smide_17", "name": "ZH253793", "provider": "smide", "range": 12.0, "size": 17, "time": "02/06/2020, 21:18:02"}, "type": "Feature"}, {"geometry": {"coordinates": [8.540435, 47.371704], "type": "Point"}, "properties": {"charge": 84, "id": "smide_114", "name": "ZH253878", "provider": "smide", "range": 42.0, "size": 20, "time": "02/06/2020, 21:18:02"}, "type": "Feature"}, {"geometry": {"coordinates": [8.533166, 47.417136], "type": "Point"}, "properties": {"charge": 85, "id": "smide_203", "name": "ZH261547", "provider": "smide", "range": 42.0, "size": 17, "time": "02/06/2020, 21:18:02"}, "type": "Feature"}, {"geometry": {"coordinates": [8.519891, 47.337152], "type": "Point"}, "properties": {"charge": 97, "id": "smide_21", "name": "ZH253841", "provider": "smide", "range": 48.0, "size": 17, "time": "02/06/2020, 21:18:02"}, "type": "Feature"}, {"geometry": {"coordinates": [8.519078, 47.3971], "type": "Point"}, "properties": {"charge": 53, "id": "smide_164", "name": "ZH253775", "provider": "smide", "range": 26.0, "size": 17, "time": "02/06/2020, 21:18:02"}, "type": "Feature"}, {"geometry": {"coordinates": [8.540428, 47.410892], "type": "Point"}, "properties": {"charge": 79, "id": "smide_189", "name": "ZH253845", "provider": "smide", "range": 39.0, "size": 20, "time": "02/06/2020, 21:18:02"}, "type": "Feature"}, {"geometry": {"coordinates": [8.4848, 47.394248], "type": "Point"}, "properties": {"charge": 81, "id": "smide_81", "name": "ZH253753", "provider": "smide", "range": 40.0, "size": 17, "time": "02/06/2020, 21:18:02"}, "type": "Feature"}, {"geometry": {"coordinates": [8.528784, 47.395052], "type": "Point"}, "properties": {"charge": 98, "id": "smide_171", "name": "ZH253689", "provider": "smide", "range": 49.0, "size": 20, "time": "02/06/2020, 21:18:02"}, "type": "Feature"}, {"geometry": {"coordinates": [8.486968, 47.375652], "type": "Point"}, "properties": {"charge": 37, "id": "smide_93", "name": "ZH253681", "provider": "smide", "range": 18.0, "size": 17, "time": "02/06/2020, 21:18:02"}, "type": "Feature"}, {"geometry": {"coordinates": [8.553262, 47.369728], "type": "Point"}, "properties": {"charge": 71, "id": "smide_67", "name": "ZH253779", "provider": "smide", "range": 35.0, "size": 17, "time": "02/06/2020, 21:18:02"}, "type": "Feature"}, {"geometry": {"coordinates": [8.51399, 47.366396], "type": "Point"}, "properties": {"charge": 73, "id": "smide_133", "name": "ZH253848", "provider": "smide", "range": 36.0, "size": 20, "time": "02/06/2020, 21:18:02"}, "type": "Feature"}, {"geometry": {"coordinates": [8.482688, 47.38566], "type": "Point"}, "properties": {"charge": 77, "id": "smide_118", "name": "ZH253759", "provider": "smide", "range": 38.0, "size": 20, "time": "02/06/2020, 21:18:02"}, "type": "Feature"}, {"geometry": {"coordinates": [8.532067, 47.399176], "type": "Point"}, "properties": {"charge": 97, "id": "smide_142", "name": "ZH258745", "provider": "smide", "range": 48.0, "size": 17, "time": "02/06/2020, 21:18:02"}, "type": "Feature"}, {"geometry": {"coordinates": [8.542768, 47.377115], "type": "Point"}, "properties": {"charge": 64, "id": "smide_166", "name": "ZH253728", "provider": "smide", "range": 32.0, "size": 17, "time": "02/06/2020, 21:18:02"}, "type": "Feature"}, {"geometry": {"coordinates": [8.494967, 47.375416], "type": "Point"}, "properties": {"charge": 65, "id": "smide_126", "name": "ZH268400", "provider": "smide", "range": 32.0, "size": 17, "time": "02/06/2020, 21:18:02"}, "type": "Feature"}, {"geometry": {"coordinates": [8.530183, 47.3447], "type": "Point"}, "properties": {"charge": 100, "id": "smide_44", "name": "ZH253837", "provider": "smide", "range": 50.0, "size": 17, "time": "02/06/2020, 21:18:02"}, "type": "Feature"}, {"geometry": {"coordinates": [8.547658, 47.407648], "type": "Point"}, "properties": {"charge": 63, "id": "smide_98", "name": "ZH256321", "provider": "smide", "range": 31.0, "size": 17, "time": "02/06/2020, 21:18:02"}, "type": "Feature"}, {"geometry": {"coordinates": [8.542066, 47.424452], "type": "Point"}, "properties": {"charge": 75, "id": "smide_154", "name": "ZH253744", "provider": "smide", "range": 37.0, "size": 20, "time": "02/06/2020, 21:18:02"}, "type": "Feature"}, {"geometry": {"coordinates": [8.517616, 47.367508], "type": "Point"}, "properties": {"charge": 99, "id": "smide_7", "name": "ZH256289", "provider": "smide", "range": 49.0, "size": 20, "time": "02/06/2020, 21:18:02"}, "type": "Feature"}, {"geometry": {"coordinates": [8.487278, 47.384312], "type": "Point"}, "properties": {"charge": 89, "id": "smide_92", "name": "ZH253798", "provider": "smide", "range": 44.0, "size": 17, "time": "02/06/2020, 21:18:02"}, "type": "Feature"}, {"geometry": {"coordinates": [8.540881, 47.369548], "type": "Point"}, "properties": {"charge": 90, "id": "smide_65", "name": "ZH253810", "provider": "smide", "range": 45.0, "size": 17, "time": "02/06/2020, 21:18:02"}, "type": "Feature"}, {"geometry": {"coordinates": [8.520331, 47.396468], "type": "Point"}, "properties": {"charge": 98, "id": "smide_111", "name": "ZH253763", "provider": "smide", "range": 49.0, "size": 17, "time": "02/06/2020, 21:18:02"}, "type": "Feature"}, {"geometry": {"coordinates": [8.556248, 47.410596], "type": "Point"}, "properties": {"charge": 100, "id": "smide_40", "name": "ZH253690", "provider": "smide", "range": 50.0, "size": 20, "time": "02/06/2020, 21:18:02"}, "type": "Feature"}, {"geometry": {"coordinates": [8.520151, 47.340061], "type": "Point"}, "properties": {"charge": 100, "id": "smide_14", "name": "ZH253749", "provider": "smide", "range": 50.0, "size": 20, "time": "02/06/2020, 21:18:02"}, "type": "Feature"}, {"geometry": {"coordinates": [8.515635, 47.392952], "type": "Point"}, "properties": {"charge": 26, "id": "smide_107", "name": "ZH253819", "provider": "smide", "range": 13.0, "size": 17, "time": "02/06/2020, 21:18:02"}, "type": "Feature"}, {"geometry": {"coordinates": [8.540595, 47.372836], "type": "Point"}, "properties": {"charge": 55, "id": "smide_136", "name": "ZH253682", "provider": "smide", "range": 27.0, "size": 17, "time": "02/06/2020, 21:18:02"}, "type": "Feature"}, {"geometry": {"coordinates": [8.53129, 47.392168], "type": "Point"}, "properties": {"charge": 15, "id": "smide_83", "name": "ZH253869", "provider": "smide", "range": 7.0, "size": 20, "time": "02/06/2020, 21:18:02"}, "type": "Feature"}, {"geometry": {"coordinates": [8.534139, 47.344352], "type": "Point"}, "properties": {"charge": 71, "id": "smide_193", "name": "ZH253738", "provider": "smide", "range": 35.0, "size": 20, "time": "02/06/2020, 21:18:02"}, "type": "Feature"}, {"geometry": {"coordinates": [8.533906, 47.405533], "type": "Point"}, "properties": {"charge": 56, "id": "smide_134", "name": "ZH253741", "provider": "smide", "range": 28.0, "size": 20, "time": "02/06/2020, 21:18:02"}, "type": "Feature"}, {"geometry": {"coordinates": [8.553575, 47.382008], "type": "Point"}, "properties": {"charge": 22, "id": "smide_141", "name": "ZH253800", "provider": "smide", "range": 11.0, "size": 20, "time": "02/06/2020, 21:18:02"}, "type": "Feature"}, {"geometry": {"coordinates": [8.572681, 47.351476], "type": "Point"}, "properties": {"charge": 75, "id": "smide_16", "name": "ZH253713", "provider": "smide", "range": 37.0, "size": 20, "time": "02/06/2020, 21:18:02"}, "type": "Feature"}, {"geometry": {"coordinates": [8.514615, 47.376292], "type": "Point"}, "properties": {"charge": 83, "id": "smide_74", "name": "ZH253693", "provider": "smide", "range": 41.0, "size": 20, "time": "02/06/2020, 21:18:02"}, "type": "Feature"}, {"geometry": {"coordinates": [8.562141, 47.355161], "type": "Point"}, "properties": {"charge": 100, "id": "smide_33", "name": "ZH253782", "provider": "smide", "range": 50.0, "size": 20, "time": "02/06/2020, 21:18:02"}, "type": "Feature"}, {"geometry": {"coordinates": [8.550511, 47.39254], "type": "Point"}, "properties": {"charge": 100, "id": "smide_161", "name": "ZH253691", "provider": "smide", "range": 50.0, "size": 20, "time": "02/06/2020, 21:18:02"}, "type": "Feature"}, {"geometry": {"coordinates": [8.510873, 47.393041], "type": "Point"}, "properties": {"charge": 100, "id": "smide_183", "name": "ZH253868", "provider": "smide", "range": 50.0, "size": 17, "time": "02/06/2020, 21:18:02"}, "type": "Feature"}, {"geometry": {"coordinates": [8.568385, 47.367652], "type": "Point"}, "properties": {"charge": 97, "id": "smide_42", "name": "ZH253846", "provider": "smide", "range": 48.0, "size": 20, "time": "02/06/2020, 21:18:02"}, "type": "Feature"}, {"geometry": {"coordinates": [8.540524, 47.413868], "type": "Point"}, "properties": {"charge": 74, "id": "smide_4", "name": "ZH253740", "provider": "smide", "range": 37.0, "size": 20, "time": "02/06/2020, 21:18:02"}, "type": "Feature"}, {"geometry": {"coordinates": [8.479347, 47.384552], "type": "Point"}, "properties": {"charge": 92, "id": "smide_160", "name": "ZH253722", "provider": "smide", "range": 46.0, "size": 17, "time": "02/06/2020, 21:18:02"}, "type": "Feature"}, {"geometry": {"coordinates": [8.57532, 47.34897], "type": "Point"}, "properties": {"charge": 79, "id": "smide_137", "name": "ZH258502", "provider": "smide", "range": 39.0, "size": 17, "time": "02/06/2020, 21:18:02"}, "type": "Feature"}, {"geometry": {"coordinates": [8.564747, 47.349552], "type": "Point"}, "properties": {"charge": 85, "id": "smide_178", "name": "ZH253803", "provider": "smide", "range": 42.0, "size": 17, "time": "02/06/2020, 21:18:02"}, "type": "Feature"}, {"geometry": {"coordinates": [8.517576, 47.367416], "type": "Point"}, "properties": {"charge": 77, "id": "smide_55", "name": "ZH253875", "provider": "smide", "range": 38.0, "size": 17, "time": "02/06/2020, 21:18:02"}, "type": "Feature"}, {"geometry": {"coordinates": [8.540406, 47.393816], "type": "Point"}, "properties": {"charge": 35, "id": "smide_96", "name": "ZH256146", "provider": "smide", "range": 17.0, "size": 20, "time": "02/06/2020, 21:18:02"}, "type": "Feature"}, {"geometry": {"coordinates": [8.492646, 47.374004], "type": "Point"}, "properties": {"charge": 36, "id": "smide_58", "name": "ZH259246", "provider": "smide", "range": 18.0, "size": 20, "time": "02/06/2020, 21:18:02"}, "type": "Feature"}, {"geometry": {"coordinates": [8.528256, 47.372656], "type": "Point"}, "properties": {"charge": 20, "id": "smide_54", "name": "ZH253874", "provider": "smide", "range": 10.0, "size": 20, "time": "02/06/2020, 21:18:02"}, "type": "Feature"}, {"geometry": {"coordinates": [8.516073, 47.385564], "type": "Point"}, "properties": {"charge": 94, "id": "smide_175", "name": "ZH253730", "provider": "smide", "range": 47.0, "size": 17, "time": "02/06/2020, 21:18:02"}, "type": "Feature"}, {"geometry": {"coordinates": [8.542731, 47.381576], "type": "Point"}, "properties": {"charge": 87, "id": "smide_163", "name": "ZH256147", "provider": "smide", "range": 43.0, "size": 20, "time": "02/06/2020, 21:18:02"}, "type": "Feature"}, {"geometry": {"coordinates": [8.540693, 47.376272], "type": "Point"}, "properties": {"charge": 18, "id": "smide_112", "name": "ZH263530", "provider": "smide", "range": 9.0, "size": 20, "time": "02/06/2020, 21:18:02"}, "type": "Feature"}, {"geometry": {"coordinates": [8.535819, 47.377668], "type": "Point"}, "properties": {"charge": 79, "id": "smide_122", "name": "ZH253850", "provider": "smide", "range": 39.0, "size": 20, "time": "02/06/2020, 21:18:02"}, "type": "Feature"}, {"geometry": {"coordinates": [8.551053, 47.414451], "type": "Point"}, "properties": {"charge": 52, "id": "smide_38", "name": "ZH253851", "provider": "smide", "range": 26.0, "size": 20, "time": "02/06/2020, 21:18:02"}, "type": "Feature"}, {"geometry": {"coordinates": [8.557744, 47.404396], "type": "Point"}, "properties": {"charge": 77, "id": "smide_6", "name": "ZH253787", "provider": "smide", "range": 38.0, "size": 17, "time": "02/06/2020, 21:18:02"}, "type": "Feature"}, {"geometry": {"coordinates": [8.556846, 47.403792], "type": "Point"}, "properties": {"charge": 59, "id": "smide_18", "name": "ZH253859", "provider": "smide", "range": 29.0, "size": 17, "time": "02/06/2020, 21:18:02"}, "type": "Feature"}, {"geometry": {"coordinates": [8.515077, 47.41458], "type": "Point"}, "properties": {"charge": 100, "id": "smide_12", "name": "ZH253685", "provider": "smide", "range": 50.0, "size": 17, "time": "02/06/2020, 21:18:02"}, "type": "Feature"}, {"geometry": {"coordinates": [8.543116, 47.375252], "type": "Point"}, "properties": {"charge": 81, "id": "smide_192", "name": "ZH253706", "provider": "smide", "range": 40.0, "size": 20, "time": "02/06/2020, 21:18:02"}, "type": "Feature"}, {"geometry": {"coordinates": [8.520504, 47.388152], "type": "Point"}, "properties": {"charge": 77, "id": "smide_39", "name": "ZH253714", "provider": "smide", "range": 38.0, "size": 20, "time": "02/06/2020, 21:18:02"}, "type": "Feature"}, {"geometry": {"coordinates": [8.514108, 47.36525], "type": "Point"}, "properties": {"charge": 71, "id": "smide_5", "name": "ZH261443", "provider": "smide", "range": 35.0, "size": 20, "time": "02/06/2020, 21:18:02"}, "type": "Feature"}, {"geometry": {"coordinates": [8.494983, 47.398264], "type": "Point"}, "properties": {"charge": 100, "id": "smide_29", "name": "ZH253723", "provider": "smide", "range": 50.0, "size": 17, "time": "02/06/2020, 21:18:02"}, "type": "Feature"}, {"geometry": {"coordinates": [8.574147, 47.348272], "type": "Point"}, "properties": {"charge": 100, "id": "smide_46", "name": "ZH253843", "provider": "smide", "range": 50.0, "size": 20, "time": "02/06/2020, 21:18:02"}, "type": "Feature"}, {"geometry": {"coordinates": [8.53953666666667, 47.3881866666667], "type": "Point"}, "properties": {"charge": 69, "id": "bird_1c9c676d-754d-48cf-a974-f8d6d01e3933", "provider": "bird", "timeStamp": "02/06/2020, 21:18:02"}, "type": "Feature"}, {"geometry": {"coordinates": [8.53551, 47.3702933333333], "type": "Point"}, "properties": {"charge": 89, "id": "bird_cbfc6496-ef18-467f-a30d-3c636a6bd79d", "provider": "bird", "timeStamp": "02/06/2020, 21:18:02"}, "type": "Feature"}, {"geometry": {"coordinates": [8.517115, 47.38562], "type": "Point"}, "properties": {"charge": 49, "id": "bird_e53c4dbe-dd60-4165-9ee7-81ceb62f43b3", "provider": "bird", "timeStamp": "02/06/2020, 21:18:02"}, "type": "Feature"}, {"geometry": {"coordinates": [8.51778, 47.38623], "type": "Point"}, "properties": {"charge": 98, "id": "bird_ef6cb0a7-466d-4ec8-9726-d1b1df540637", "provider": "bird", "timeStamp": "02/06/2020, 21:18:02"}, "type": "Feature"}, {"geometry": {"coordinates": [8.51735, 47.3858183333333], "type": "Point"}, "properties": {"charge": 34, "id": "bird_04a8df82-1027-4eda-95d7-e258f8052e41", "provider": "bird", "timeStamp": "02/06/2020, 21:18:02"}, "type": "Feature"}, {"geometry": {"coordinates": [8.51794, 47.3863633333333], "type": "Point"}, "properties": {"charge": 99, "id": "bird_2c85496d-0f8d-43b2-9aad-00c53d8bfb67", "provider": "bird", "timeStamp": "02/06/2020, 21:18:02"}, "type": "Feature"}, {"geometry": {"coordinates": [8.53435833333333, 47.3899033333333], "type": "Point"}, "properties": {"charge": 73, "id": "bird_3d781b9e-5c99-4024-b9e5-9b17ec1f0248", "provider": "bird", "timeStamp": "02/06/2020, 21:18:02"}, "type": "Feature"}, {"geometry": {"coordinates": [8.54279, 47.38557], "type": "Point"}, "properties": {"charge": 19, "id": "bird_20075318-0504-4d8c-8521-80cb08be83e3", "provider": "bird", "timeStamp": "02/06/2020, 21:18:02"}, "type": "Feature"}, {"geometry": {"coordinates": [8.542815, 47.3855433333333], "type": "Point"}, "properties": {"charge": 15, "id": "bird_793b5e0b-6085-403a-a79e-e9a35a3d93fc", "provider": "bird", "timeStamp": "02/06/2020, 21:18:02"}, "type": "Feature"}, {"geometry": {"coordinates": [8.54280333333333, 47.385555], "type": "Point"}, "properties": {"charge": 10, "id": "bird_17238741-3036-424e-9561-b39322a11186", "provider": "bird", "timeStamp": "02/06/2020, 21:18:02"}, "type": "Feature"}, {"geometry": {"coordinates": [8.51787166666667, 47.3861766666667], "type": "Point"}, "properties": {"charge": 99, "id": "bird_6d953751-8b89-4a35-84d5-d0bb99c5bf05", "provider": "bird", "timeStamp": "02/06/2020, 21:18:02"}, "type": "Feature"}, {"geometry": {"coordinates": [8.51833333333333, 47.3865083333333], "type": "Point"}, "properties": {"charge": 98, "id": "bird_145c4a4d-4ad6-4b90-948b-dea1a4ea1ce6", "provider": "bird", "timeStamp": "02/06/2020, 21:18:02"}, "type": "Feature"}, {"geometry": {"coordinates": [8.51765, 47.3858383333333], "type": "Point"}, "properties": {"charge": 38, "id": "bird_3dd108ca-78a1-46be-91a7-a4ecf3011fb2", "provider": "bird", "timeStamp": "02/06/2020, 21:18:02"}, "type": "Feature"}, {"geometry": {"coordinates": [8.543475, 47.3754616666667], "type": "Point"}, "properties": {"charge": 67, "id": "bird_e5ac4ad5-adb0-42e2-b3bc-96cca65cbaf1", "provider": "bird", "timeStamp": "02/06/2020, 21:18:02"}, "type": "Feature"}, {"geometry": {"coordinates": [8.54338166666667, 47.3753433333333], "type": "Point"}, "properties": {"charge": 81, "id": "bird_bfc52eba-d6a7-457f-b7fd-74592d609d2f", "provider": "bird", "timeStamp": "02/06/2020, 21:18:02"}, "type": "Feature"}, {"geometry": {"coordinates": [8.51753166666667, 47.385635], "type": "Point"}, "properties": {"charge": 100, "id": "bird_4067c5d8-8f72-45b3-8534-4e2b77f1032c", "provider": "bird", "timeStamp": "02/06/2020, 21:18:02"}, "type": "Feature"}, {"geometry": {"coordinates": [8.51925333333333, 47.3870233333333], "type": "Point"}, "properties": {"charge": 56, "id": "bird_758a9975-b2bc-4ab3-b74d-03bdf039c163", "provider": "bird", "timeStamp": "02/06/2020, 21:18:02"}, "type": "Feature"}, {"geometry": {"coordinates": [8.51741166666667, 47.3853916666667], "type": "Point"}, "properties": {"charge": 98, "id": "bird_de3d2442-2033-48c6-b8eb-5fd138ef28b4", "provider": "bird", "timeStamp": "02/06/2020, 21:18:02"}, "type": "Feature"}, {"geometry": {"coordinates": [8.518125, 47.386085], "type": "Point"}, "properties": {"charge": 97, "id": "bird_a0012910-54d2-41d5-85c8-f5f259080c57", "provider": "bird", "timeStamp": "02/06/2020, 21:18:02"}, "type": "Feature"}, {"geometry": {"coordinates": [8.51779333333333, 47.3857733333333], "type": "Point"}, "properties": {"charge": 63, "id": "bird_49ff9b4e-9a6b-4086-9eca-393a95084d9c", "provider": "bird", "timeStamp": "02/06/2020, 21:18:02"}, "type": "Feature"}, {"geometry": {"coordinates": [8.518235, 47.3860966666667], "type": "Point"}, "properties": {"charge": 75, "id": "bird_ab3a9b74-4b39-4a83-aec9-2480c19d5ab1", "provider": "bird", "timeStamp": "02/06/2020, 21:18:02"}, "type": "Feature"}, {"geometry": {"coordinates": [8.51641833333333, 47.376], "type": "Point"}, "properties": {"charge": 71, "id": "bird_683114e8-4352-4971-9b47-b7dac5e3fee1", "provider": "bird", "timeStamp": "02/06/2020, 21:18:02"}, "type": "Feature"}, {"geometry": {"coordinates": [8.51802166666667, 47.385895], "type": "Point"}, "properties": {"charge": 98, "id": "bird_388fc789-952b-4d79-990c-210fa836f632", "provider": "bird", "timeStamp": "02/06/2020, 21:18:02"}, "type": "Feature"}, {"geometry": {"coordinates": [8.52319, 47.371105], "type": "Point"}, "properties": {"charge": 91, "id": "bird_0f43ed75-c364-4524-b764-fa37134ef3db", "provider": "bird", "timeStamp": "02/06/2020, 21:18:02"}, "type": "Feature"}, {"geometry": {"coordinates": [8.52318833333333, 47.3711166666667], "type": "Point"}, "properties": {"charge": 94, "id": "bird_ed495f74-adf0-47c3-9527-933f4d8e299d", "provider": "bird", "timeStamp": "02/06/2020, 21:18:02"}, "type": "Feature"}, {"geometry": {"coordinates": [8.51780166666667, 47.38565], "type": "Point"}, "properties": {"charge": 71, "id": "bird_2c3b70db-d22d-429d-ade6-0c165adf1897", "provider": "bird", "timeStamp": "02/06/2020, 21:18:02"}, "type": "Feature"}, {"geometry": {"coordinates": [8.51781166666667, 47.38565], "type": "Point"}, "properties": {"charge": 98, "id": "bird_d1393403-0928-4f91-9247-b5dcea99e64f", "provider": "bird", "timeStamp": "02/06/2020, 21:18:02"}, "type": "Feature"}, {"geometry": {"coordinates": [8.53924666666667, 47.3722116666667], "type": "Point"}, "properties": {"charge": 78, "id": "bird_afc59af8-aac2-414b-a328-51686094888e", "provider": "bird", "timeStamp": "02/06/2020, 21:18:02"}, "type": "Feature"}, {"geometry": {"coordinates": [8.51827333333333, 47.3860433333333], "type": "Point"}, "properties": {"charge": 99, "id": "bird_50e2e11c-36d5-4e9c-a46a-0642372fcea9", "provider": "bird", "timeStamp": "02/06/2020, 21:18:02"}, "type": "Feature"}, {"geometry": {"coordinates": [8.52610166666667, 47.3703883333333], "type": "Point"}, "properties": {"charge": 47, "id": "bird_4bf07f0d-97ac-4626-a587-7fa06526844e", "provider": "bird", "timeStamp": "02/06/2020, 21:18:02"}, "type": "Feature"}, {"geometry": {"coordinates": [8.51853, 47.3862083333333], "type": "Point"}, "properties": {"charge": 96, "id": "bird_1372244f-218b-4b54-904d-af96967d633f", "provider": "bird", "timeStamp": "02/06/2020, 21:18:02"}, "type": "Feature"}, {"geometry": {"coordinates": [8.51808666666667, 47.3858116666667], "type": "Point"}, "properties": {"charge": 100, "id": "bird_7d35195c-ee5d-416e-8c3b-80d81839cb70", "provider": "bird", "timeStamp": "02/06/2020, 21:18:02"}, "type": "Feature"}, {"geometry": {"coordinates": [8.51848, 47.3861316666667], "type": "Point"}, "properties": {"charge": 98, "id": "bird_4600afcc-fe3d-4308-bd00-4275de96d0c6", "provider": "bird", "timeStamp": "02/06/2020, 21:18:02"}, "type": "Feature"}, {"geometry": {"coordinates": [8.52355166666667, 47.3711083333333], "type": "Point"}, "properties": {"charge": 96, "id": "bird_bd7ce0dc-2135-4178-9af3-455acedbf083", "provider": "bird", "timeStamp": "02/06/2020, 21:18:02"}, "type": "Feature"}, {"geometry": {"coordinates": [8.5179, 47.38549], "type": "Point"}, "properties": {"charge": 100, "id": "bird_97b1406f-8c3d-4b3f-b748-ed9cf8ac41e8", "provider": "bird", "timeStamp": "02/06/2020, 21:18:02"}, "type": "Feature"}, {"geometry": {"coordinates": [8.541855, 47.3742716666667], "type": "Point"}, "properties": {"charge": 74, "id": "bird_b8e13ff8-a8ea-4a89-bbff-0f4a363eaf10", "provider": "bird", "timeStamp": "02/06/2020, 21:18:02"}, "type": "Feature"}, {"geometry": {"coordinates": [8.51555333333333, 47.3811766666667], "type": "Point"}, "properties": {"charge": 11, "id": "bird_1e37e33e-5ce6-4dea-960d-a7354c54f4a8", "provider": "bird", "timeStamp": "02/06/2020, 21:18:02"}, "type": "Feature"}, {"geometry": {"coordinates": [8.5235, 47.3711883333333], "type": "Point"}, "properties": {"charge": 93, "id": "bird_48e93300-8559-4f8e-8c77-0f0fa437d088", "provider": "bird", "timeStamp": "02/06/2020, 21:18:02"}, "type": "Feature"}, {"geometry": {"coordinates": [8.51850833333333, 47.3860316666667], "type": "Point"}, "properties": {"charge": 80, "id": "bird_31c894bf-f0ff-434a-bf5a-cfaa588b84b0", "provider": "bird", "timeStamp": "02/06/2020, 21:18:02"}, "type": "Feature"}, {"geometry": {"coordinates": [8.51558666666667, 47.381195], "type": "Point"}, "properties": {"charge": 21, "id": "bird_e21768c3-fd11-4a1c-a7be-34214fb354c3", "provider": "bird", "timeStamp": "02/06/2020, 21:18:02"}, "type": "Feature"}, {"geometry": {"coordinates": [8.51835666666667, 47.3858033333333], "type": "Point"}, "properties": {"charge": 100, "id": "bird_e6b8ce48-5ae6-44b0-b2f3-245d0e36b3f3", "provider": "bird", "timeStamp": "02/06/2020, 21:18:02"}, "type": "Feature"}, {"geometry": {"coordinates": [8.54344333333333, 47.3833616666667], "type": "Point"}, "properties": {"charge": 100, "id": "bird_85307dcd-14c7-4281-8956-faf8a8394a21", "provider": "bird", "timeStamp": "02/06/2020, 21:18:02"}, "type": "Feature"}, {"geometry": {"coordinates": [8.54355666666667, 47.3831283333333], "type": "Point"}, "properties": {"charge": 100, "id": "bird_5463e0d0-46b9-4e0e-acc0-c688dc68bf12", "provider": "bird", "timeStamp": "02/06/2020, 21:18:02"}, "type": "Feature"}, {"geometry": {"coordinates": [8.52424666666667, 47.37114], "type": "Point"}, "properties": {"charge": 93, "id": "bird_af89809f-6363-4e4d-af4c-c844db50a7f4", "provider": "bird", "timeStamp": "02/06/2020, 21:18:02"}, "type": "Feature"}, {"geometry": {"coordinates": [8.51860166666667, 47.3858383333333], "type": "Point"}, "properties": {"charge": 38, "id": "bird_02d0ef9a-4ef8-418f-91d4-42a6fa40dc44", "provider": "bird", "timeStamp": "02/06/2020, 21:18:02"}, "type": "Feature"}, {"geometry": {"coordinates": [8.54337833333333, 47.3832966666667], "type": "Point"}, "properties": {"charge": 100, "id": "bird_2dc8fe09-b24f-4957-a839-17f09af60603", "provider": "bird", "timeStamp": "02/06/2020, 21:18:02"}, "type": "Feature"}, {"geometry": {"coordinates": [8.54343, 47.3830866666667], "type": "Point"}, "properties": {"charge": 100, "id": "bird_471a8ecb-89c6-4a70-9d47-3c9f01dd03d5", "provider": "bird", "timeStamp": "02/06/2020, 21:18:02"}, "type": "Feature"}, {"geometry": {"coordinates": [8.52396666666667, 47.3713116666667], "type": "Point"}, "properties": {"charge": 75, "id": "bird_f567d4b5-e914-48ed-884d-450aa2b39b43", "provider": "bird", "timeStamp": "02/06/2020, 21:18:02"}, "type": "Feature"}, {"geometry": {"coordinates": [8.51826166666667, 47.38536], "type": "Point"}, "properties": {"charge": 98, "id": "bird_e590f611-8ee6-45d0-a021-c794f214f385", "provider": "bird", "timeStamp": "02/06/2020, 21:18:02"}, "type": "Feature"}, {"geometry": {"coordinates": [8.52431833333333, 47.37122], "type": "Point"}, "properties": {"charge": 88, "id": "bird_eb8955d9-03a5-4c5f-83ca-1e54952976d4", "provider": "bird", "timeStamp": "02/06/2020, 21:18:02"}, "type": "Feature"}, {"geometry": {"coordinates": [8.54401, 47.3803333333333], "type": "Point"}, "properties": {"charge": 43, "id": "bird_25f03485-c664-4fb7-92cb-1b8764feb80a", "provider": "bird", "timeStamp": "02/06/2020, 21:18:02"}, "type": "Feature"}, {"geometry": {"coordinates": [8.51872333333333, 47.3852233333333], "type": "Point"}, "properties": {"charge": 99, "id": "bird_ccf92cb9-e63e-4ee2-a603-407ef0f0a4c3", "provider": "bird", "timeStamp": "02/06/2020, 21:18:02"}, "type": "Feature"}, {"geometry": {"coordinates": [8.539175, 47.37347], "type": "Point"}, "properties": {"charge": 69, "id": "bird_353aa112-2791-4951-a018-fe3dd6c516df", "provider": "bird", "timeStamp": "02/06/2020, 21:18:02"}, "type": "Feature"}, {"geometry": {"coordinates": [8.53132833333333, 47.3713116666667], "type": "Point"}, "properties": {"charge": 17, "id": "bird_4f12fbf5-475e-44ff-a3c4-528a1a78b45d", "provider": "bird", "timeStamp": "02/06/2020, 21:18:02"}, "type": "Feature"}, {"geometry": {"coordinates": [8.52336166666667, 47.3871], "type": "Point"}, "properties": {"charge": 61, "id": "bird_1743da9e-2271-464e-98b3-1193b6d2d23a", "provider": "bird", "timeStamp": "02/06/2020, 21:18:02"}, "type": "Feature"}, {"geometry": {"coordinates": [8.52248666666667, 47.3865516666667], "type": "Point"}, "properties": {"charge": 63, "id": "bird_10befb3e-ecb3-4a20-a143-a138769c3877", "provider": "bird", "timeStamp": "02/06/2020, 21:18:02"}, "type": "Feature"}, {"geometry": {"coordinates": [8.52688333333333, 47.387955], "type": "Point"}, "properties": {"charge": 98, "id": "bird_d18c52e0-89a2-491f-b596-e4a197fd43a6", "provider": "bird", "timeStamp": "02/06/2020, 21:18:02"}, "type": "Feature"}, {"geometry": {"coordinates": [8.53499666666667, 47.3725733333333], "type": "Point"}, "properties": {"charge": 51, "id": "bird_01a0d5a8-bd14-46c8-b6cb-ba8e17f0220f", "provider": "bird", "timeStamp": "02/06/2020, 21:18:02"}, "type": "Feature"}, {"geometry": {"coordinates": [8.53635666666667, 47.3731533333333], "type": "Point"}, "properties": {"charge": 66, "id": "bird_4f509a8b-1577-438c-8b69-9636c0d88829", "provider": "bird", "timeStamp": "02/06/2020, 21:18:02"}, "type": "Feature"}, {"geometry": {"coordinates": [8.54116166666667, 47.37727], "type": "Point"}, "properties": {"charge": 71, "id": "bird_fcac3387-e862-451d-bd38-d145faf6ead9", "provider": "bird", "timeStamp": "02/06/2020, 21:18:02"}, "type": "Feature"}, {"geometry": {"coordinates": [8.54140166666667, 47.3820083333333], "type": "Point"}, "properties": {"charge": 37, "id": "bird_309502c9-1f33-4b4b-88fd-87741f20fffa", "provider": "bird", "timeStamp": "02/06/2020, 21:18:02"}, "type": "Feature"}, {"geometry": {"coordinates": [8.518235, 47.380035], "type": "Point"}, "properties": {"charge": 76, "id": "bird_58104cde-14cd-4f9a-963f-5519f566c0e0", "provider": "bird", "timeStamp": "02/06/2020, 21:18:02"}, "type": "Feature"}, {"geometry": {"coordinates": [8.51835833333333, 47.3810583333333], "type": "Point"}, "properties": {"charge": 64, "id": "bird_2e431d16-2290-4885-a428-165aafd4098f", "provider": "bird", "timeStamp": "02/06/2020, 21:18:02"}, "type": "Feature"}, {"geometry": {"coordinates": [8.54036166666667, 47.37635], "type": "Point"}, "properties": {"charge": 58, "id": "bird_1f66e1e8-a39c-469f-8342-8e6fa52a5c75", "provider": "bird", "timeStamp": "02/06/2020, 21:18:02"}, "type": "Feature"}, {"geometry": {"coordinates": [8.54142166666667, 47.3786166666667], "type": "Point"}, "properties": {"charge": 63, "id": "bird_09e865aa-25ab-438d-8b45-5ce16ca6cdc7", "provider": "bird", "timeStamp": "02/06/2020, 21:18:02"}, "type": "Feature"}, {"geometry": {"coordinates": [8.54053333333333, 47.3768116666667], "type": "Point"}, "properties": {"charge": 99, "id": "bird_f6d280f5-7c5c-4cce-9b37-1326b4d53d4e", "provider": "bird", "timeStamp": "02/06/2020, 21:18:02"}, "type": "Feature"}, {"geometry": {"coordinates": [8.536975, 47.3738016666667], "type": "Point"}, "properties": {"charge": 34, "id": "bird_b7ad87e7-029d-46de-a306-b7cf0b5ce7ef", "provider": "bird", "timeStamp": "02/06/2020, 21:18:02"}, "type": "Feature"}, {"geometry": {"coordinates": [8.54050833333333, 47.37688], "type": "Point"}, "properties": {"charge": 99, "id": "bird_0a0fc8a3-8986-4aaf-a6b2-a9da0d15945c", "provider": "bird", "timeStamp": "02/06/2020, 21:18:02"}, "type": "Feature"}, {"geometry": {"coordinates": [8.5225, 47.3741333333333], "type": "Point"}, "properties": {"charge": 61, "id": "bird_947fe50b-af86-4871-a179-c50f66c8157e", "provider": "bird", "timeStamp": "02/06/2020, 21:18:02"}, "type": "Feature"}, {"geometry": {"coordinates": [8.54048666666667, 47.3768766666667], "type": "Point"}, "properties": {"charge": 98, "id": "bird_c980ca85-0cc7-4837-96fc-6509994fd59c", "provider": "bird", "timeStamp": "02/06/2020, 21:18:02"}, "type": "Feature"}, {"geometry": {"coordinates": [8.54046833333333, 47.3768533333333], "type": "Point"}, "properties": {"charge": 99, "id": "bird_4b7f4788-8710-462f-ab16-0ca2320fd5c3", "provider": "bird", "timeStamp": "02/06/2020, 21:18:02"}, "type": "Feature"}, {"geometry": {"coordinates": [8.54051166666667, 47.376945], "type": "Point"}, "properties": {"charge": 100, "id": "bird_a281c59d-c57a-4102-9fb9-295b60a604f8", "provider": "bird", "timeStamp": "02/06/2020, 21:18:02"}, "type": "Feature"}, {"geometry": {"coordinates": [8.52923166666667, 47.3876983333333], "type": "Point"}, "properties": {"charge": 75, "id": "bird_2516dc1d-7746-46db-9d55-153317c15ad8", "provider": "bird", "timeStamp": "02/06/2020, 21:18:02"}, "type": "Feature"}, {"geometry": {"coordinates": [8.54034166666667, 47.3767883333333], "type": "Point"}, "properties": {"charge": 100, "id": "bird_3c33343c-c9f6-471a-82ad-3a00bf7d6299", "provider": "bird", "timeStamp": "02/06/2020, 21:18:02"}, "type": "Feature"}, {"geometry": {"coordinates": [8.52937333333333, 47.387615], "type": "Point"}, "properties": {"charge": 78, "id": "bird_a09246b2-c54e-47f4-a11c-6f54efb32c55", "provider": "bird", "timeStamp": "02/06/2020, 21:18:02"}, "type": "Feature"}, {"geometry": {"coordinates": [8.518825, 47.380855], "type": "Point"}, "properties": {"charge": 54, "id": "bird_576b6da3-44c0-47ca-904f-258bb4f76e28", "provider": "bird", "timeStamp": "02/06/2020, 21:18:02"}, "type": "Feature"}, {"geometry": {"coordinates": [8.54032166666667, 47.3770516666667], "type": "Point"}, "properties": {"charge": 99, "id": "bird_e74f0ae6-0b2b-445a-9fda-2de067a2ddd1", "provider": "bird", "timeStamp": "02/06/2020, 21:18:02"}, "type": "Feature"}, {"geometry": {"coordinates": [8.54036166666667, 47.3771633333333], "type": "Point"}, "properties": {"charge": 100, "id": "bird_bfeaf1c4-f605-4aa2-bee5-3b01dc688e41", "provider": "bird", "timeStamp": "02/06/2020, 21:18:02"}, "type": "Feature"}, {"geometry": {"coordinates": [8.52567833333333, 47.3869366666667], "type": "Point"}, "properties": {"charge": 75, "id": "bird_e6ae59ea-daa2-4ae1-902b-398bc616cc96", "provider": "bird", "timeStamp": "02/06/2020, 21:18:02"}, "type": "Feature"}, {"geometry": {"coordinates": [8.52842666666667, 47.3726383333333], "type": "Point"}, "properties": {"charge": 81, "id": "bird_0b95951f-b946-4f28-b53c-c0720e6797c2", "provider": "bird", "timeStamp": "02/06/2020, 21:18:02"}, "type": "Feature"}, {"geometry": {"coordinates": [8.54057833333333, 47.381965], "type": "Point"}, "properties": {"charge": 72, "id": "bird_122c555a-541a-40c2-8acf-67fae4584431", "provider": "bird", "timeStamp": "02/06/2020, 21:18:02"}, "type": "Feature"}, {"geometry": {"coordinates": [8.53754666666667, 47.374885], "type": "Point"}, "properties": {"charge": 72, "id": "bird_9e1022c9-8390-48da-99cd-a37652d8f273", "provider": "bird", "timeStamp": "02/06/2020, 21:18:02"}, "type": "Feature"}, {"geometry": {"coordinates": [8.52953, 47.3871883333333], "type": "Point"},