{"features": [{"geometry": {"coordinates": [8.540062, 47.374392], "type": "Point"}, "properties": {"address": "Uraniastrasse 7", "electric": 1, "id": "pb_60", "manual": 4, "name": "Demo Station Werdm\u00fchleplatz", "provider": "publibike", "timeStamp": "03/13/2020, 20:17:28", "zip": 8001}, "type": "Feature"}, {"geometry": {"coordinates": [8.5452956, 47.4099615], "type": "Point"}, "properties": {"address": "Querstrasse 8", "electric": 6, "id": "pb_61", "manual": 4, "name": "Marktplatz", "provider": "publibike", "timeStamp": "03/13/2020, 20:17:28", "zip": 8050}, "type": "Feature"}, {"geometry": {"coordinates": [8.5156327, 47.3795837], "type": "Point"}, "properties": {"address": "Bullingerstrasse 5", "electric": 4, "id": "pb_80", "manual": 13, "name": "Bullingerplatz", "provider": "publibike", "timeStamp": "03/13/2020, 20:17:28", "zip": 8004}, "type": "Feature"}, {"geometry": {"coordinates": [8.5104051, 47.3899342], "type": "Point"}, "properties": {"address": "Pfingstweidstrasse 96e", "electric": 0, "id": "pb_81", "manual": 2, "name": "Herdern", "provider": "publibike", "timeStamp": "03/13/2020, 20:17:28", "zip": 8001}, "type": "Feature"}, {"geometry": {"coordinates": [8.535718, 47.359675], "type": "Point"}, "properties": {"address": "Mythenquai 50", "electric": 1, "id": "pb_82", "manual": 1, "name": "Hafen Enge", "provider": "publibike", "timeStamp": "03/13/2020, 20:17:28", "zip": 8002}, "type": "Feature"}, {"geometry": {"coordinates": [8.520370505, 47.358663827], "type": "Point"}, "properties": {"address": "Bubenbergstrasse 1", "electric": 5, "id": "pb_83", "manual": 5, "name": "Comerge", "provider": "publibike", "timeStamp": "03/13/2020, 20:17:28", "zip": 8045}, "type": "Feature"}, {"geometry": {"coordinates": [8.5412505, 47.3789825], "type": "Point"}, "properties": {"address": "Museumstrasse 2", "electric": 11, "id": "pb_84", "manual": 19, "name": "Landesmuseum", "provider": "publibike", "timeStamp": "03/13/2020, 20:17:28", "zip": 8001}, "type": "Feature"}, {"geometry": {"coordinates": [8.5235479, 47.3716661], "type": "Point"}, "properties": {"address": "Birmensdorferstrasse 80", "electric": 5, "id": "pb_85", "manual": 6, "name": "Bahnhof Wiedikon", "provider": "publibike", "timeStamp": "03/13/2020, 20:17:28", "zip": 8003}, "type": "Feature"}, {"geometry": {"coordinates": [8.506822854, 47.40781197], "type": "Point"}, "properties": {"address": "Stefano-Franscini-Platz 5", "electric": 0, "id": "pb_86", "manual": 0, "name": "ETH H\u00f6nggerberg", "provider": "publibike", "timeStamp": "03/13/2020, 20:17:28", "zip": 8093}, "type": "Feature"}, {"geometry": {"coordinates": [8.536101, 47.371083], "type": "Point"}, "properties": {"address": "Pelikanplatz 5", "electric": 0, "id": "pb_87", "manual": 7, "name": "Pelikanplatz", "provider": "publibike", "timeStamp": "03/13/2020, 20:17:28", "zip": 8001}, "type": "Feature"}, {"geometry": {"coordinates": [8.5257822, 47.3651936], "type": "Point"}, "properties": {"address": "H\u00fcrlimannplatz 90", "electric": 3, "id": "pb_88", "manual": 8, "name": "H\u00fcrlimannplatz", "provider": "publibike", "timeStamp": "03/13/2020, 20:17:28", "zip": 8002}, "type": "Feature"}, {"geometry": {"coordinates": [8.5313344, 47.3713591], "type": "Point"}, "properties": {"address": "Selnaustrasse 32", "electric": 3, "id": "pb_89", "manual": 3, "name": "Stauffacherbr\u00fccke", "provider": "publibike", "timeStamp": "03/13/2020, 20:17:28", "zip": 8001}, "type": "Feature"}, {"geometry": {"coordinates": [8.5056978, 47.3917964], "type": "Point"}, "properties": {"address": "Sportweg 25", "electric": 1, "id": "pb_90", "manual": 3, "name": "Sportweg", "provider": "publibike", "timeStamp": "03/13/2020, 20:17:28", "zip": 8005}, "type": "Feature"}, {"geometry": {"coordinates": [8.5181701, 47.3917837], "type": "Point"}, "properties": {"address": "Hardturmstrasse 11", "electric": 5, "id": "pb_91", "manual": 1, "name": "Puls 5", "provider": "publibike", "timeStamp": "03/13/2020, 20:17:28", "zip": 8005}, "type": "Feature"}, {"geometry": {"coordinates": [8.5286468, 47.3820827], "type": "Point"}, "properties": {"address": "R\u00f6ntgenstrasse 6", "electric": 1, "id": "pb_92", "manual": 5, "name": "R\u00f6ntgenstrasse", "provider": "publibike", "timeStamp": "03/13/2020, 20:17:28", "zip": 8005}, "type": "Feature"}, {"geometry": {"coordinates": [8.531935, 47.384918], "type": "Point"}, "properties": {"address": "Kornhausbr\u00fccke 1", "electric": 7, "id": "pb_93", "manual": 12, "name": "Limmatplatz", "provider": "publibike", "timeStamp": "03/13/2020, 20:17:28", "zip": 8005}, "type": "Feature"}, {"geometry": {"coordinates": [8.5354006, 47.3758639], "type": "Point"}, "properties": {"address": "Gessnerallee 15", "electric": 2, "id": "pb_94", "manual": 4, "name": "Gessnerallee", "provider": "publibike", "timeStamp": "03/13/2020, 20:17:28", "zip": 8001}, "type": "Feature"}, {"geometry": {"coordinates": [8.523818, 47.377148], "type": "Point"}, "properties": {"address": "Stauffacherstrasse 127", "electric": 0, "id": "pb_95", "manual": 4, "name": "B\u00e4ckeranlage", "provider": "publibike", "timeStamp": "03/13/2020, 20:17:28", "zip": 8004}, "type": "Feature"}, {"geometry": {"coordinates": [8.531836, 47.378548], "type": "Point"}, "properties": {"address": "Lagerstrasse 44", "electric": 1, "id": "pb_96", "manual": 16, "name": "Gustav-Gull-Platz", "provider": "publibike", "timeStamp": "03/13/2020, 20:17:28", "zip": 8004}, "type": "Feature"}, {"geometry": {"coordinates": [8.5104883, 47.3771535], "type": "Point"}, "properties": {"address": "Zurlindenstrasse 291", "electric": 1, "id": "pb_97", "manual": 7, "name": "Zurlindenstrasse", "provider": "publibike", "timeStamp": "03/13/2020, 20:17:28", "zip": 8003}, "type": "Feature"}, {"geometry": {"coordinates": [8.5333139, 47.3731102], "type": "Point"}, "properties": {"address": "Sihlstrasse 81", "electric": 3, "id": "pb_98", "manual": 3, "name": "Sihlstrasse", "provider": "publibike", "timeStamp": "03/13/2020, 20:17:28", "zip": 8001}, "type": "Feature"}, {"geometry": {"coordinates": [8.520532, 47.374951], "type": "Point"}, "properties": {"address": "Feldstrasse 24", "electric": 5, "id": "pb_99", "manual": 6, "name": "Kalkbreite", "provider": "publibike", "timeStamp": "03/13/2020, 20:17:28", "zip": 8004}, "type": "Feature"}, {"geometry": {"coordinates": [8.539046, 47.368064], "type": "Point"}, "properties": {"address": "Talstrasse 12", "electric": 0, "id": "pb_100", "manual": 4, "name": "Z\u00fcrcher Kantonalbank", "provider": "publibike", "timeStamp": "03/13/2020, 20:17:28", "zip": 8001}, "type": "Feature"}, {"geometry": {"coordinates": [8.5348427, 47.3625938], "type": "Point"}, "properties": {"address": "Breitingerstrasse 5", "electric": 0, "id": "pb_101", "manual": 1, "name": "Rentenanstalt", "provider": "publibike", "timeStamp": "03/13/2020, 20:17:28", "zip": 8002}, "type": "Feature"}, {"geometry": {"coordinates": [8.5166922, 47.3897772], "type": "Point"}, "properties": {"address": "Technoparkstrasse 4", "electric": 1, "id": "pb_102", "manual": 1, "name": "Turbinenplatz", "provider": "publibike", "timeStamp": "03/13/2020, 20:17:28", "zip": 8005}, "type": "Feature"}, {"geometry": {"coordinates": [8.539312, 47.3739964], "type": "Point"}, "properties": {"address": "Oetenbachgasse 14", "electric": 2, "id": "pb_104", "manual": 4, "name": "Rennweg", "provider": "publibike", "timeStamp": "03/13/2020, 20:17:28", "zip": 8001}, "type": "Feature"}, {"geometry": {"coordinates": [8.5360685, 47.3775022], "type": "Point"}, "properties": {"address": "Kasernenstrasse 101", "electric": 14, "id": "pb_105", "manual": 31, "name": "Sihlpost", "provider": "publibike", "timeStamp": "03/13/2020, 20:17:28", "zip": 8004}, "type": "Feature"}, {"geometry": {"coordinates": [8.53545, 47.382798], "type": "Point"}, "properties": {"address": "Ausstellungsstrasse 44", "electric": 0, "id": "pb_106", "manual": 7, "name": "Museum f\u00fcr Gestaltung", "provider": "publibike", "timeStamp": "03/13/2020, 20:17:28", "zip": 8005}, "type": "Feature"}, {"geometry": {"coordinates": [8.5306155, 47.3647902], "type": "Point"}, "properties": {"address": "Gutenbergstrasse 1", "electric": 3, "id": "pb_107", "manual": 1, "name": "Bederbr\u00fccke", "provider": "publibike", "timeStamp": "03/13/2020, 20:17:28", "zip": 8002}, "type": "Feature"}, {"geometry": {"coordinates": [8.518982, 47.386741], "type": "Point"}, "properties": {"address": "Geroldstrasse 4", "electric": 2, "id": "pb_108", "manual": 15, "name": "Bahnhof Hardbr\u00fccke", "provider": "publibike", "timeStamp": "03/13/2020, 20:17:28", "zip": 8005}, "type": "Feature"}, {"geometry": {"coordinates": [8.53001018, 47.37247535], "type": "Point"}, "properties": {"address": "Werdstrasse 21", "electric": 0, "id": "pb_109", "manual": 5, "name": "Tamedia", "provider": "publibike", "timeStamp": "03/13/2020, 20:17:28", "zip": 8004}, "type": "Feature"}, {"geometry": {"coordinates": [8.4860017, 47.396401], "type": "Point"}, "properties": {"address": "Gr\u00fcnauring 37", "electric": 9, "id": "pb_110", "manual": 1, "name": "Gr\u00fcnau", "provider": "publibike", "timeStamp": "03/13/2020, 20:17:28", "zip": 8064}, "type": "Feature"}, {"geometry": {"coordinates": [8.548519, 47.376756], "type": "Point"}, "properties": {"address": "R\u00e4mistrasse 101", "electric": 0, "id": "pb_111", "manual": 0, "name": "ETH Zentrum", "provider": "publibike", "timeStamp": "03/13/2020, 20:17:28", "zip": 8006}, "type": "Feature"}, {"geometry": {"coordinates": [8.520449, 47.388151], "type": "Point"}, "properties": {"address": "Josefstrasse 224", "electric": 0, "id": "pb_112", "manual": 3, "name": "Steinfelsareal", "provider": "publibike", "timeStamp": "03/13/2020, 20:17:28", "zip": 8005}, "type": "Feature"}, {"geometry": {"coordinates": [8.520482, 47.37209], "type": "Point"}, "properties": {"address": "Weststrasse 115", "electric": 2, "id": "pb_124", "manual": 3, "name": "Weststrasse", "provider": "publibike", "timeStamp": "03/13/2020, 20:17:28", "zip": 8003}, "type": "Feature"}, {"geometry": {"coordinates": [8.496727, 47.378521], "type": "Point"}, "properties": {"address": "Albisriederstrasse 200", "electric": 1, "id": "pb_125", "manual": 15, "name": "Utogrund", "provider": "publibike", "timeStamp": "03/13/2020, 20:17:28", "zip": 8047}, "type": "Feature"}, {"geometry": {"coordinates": [8.510418, 47.381356], "type": "Point"}, "properties": {"address": "Bullingerstrasse 73", "electric": 6, "id": "pb_126", "manual": 4, "name": "Hardau", "provider": "publibike", "timeStamp": "03/13/2020, 20:17:28", "zip": 8004}, "type": "Feature"}, {"geometry": {"coordinates": [8.525525, 47.361567], "type": "Point"}, "properties": {"address": "Klopstockstrasse 23", "electric": 2, "id": "pb_127", "manual": 6, "name": "Klopstockwiese", "provider": "publibike", "timeStamp": "03/13/2020, 20:17:28", "zip": 8002}, "type": "Feature"}, {"geometry": {"coordinates": [8.518143, 47.363148], "type": "Point"}, "properties": {"address": "Haldenstrasse 8", "electric": 1, "id": "pb_128", "manual": 2, "name": "Binz", "provider": "publibike", "timeStamp": "03/13/2020, 20:17:28", "zip": 8045}, "type": "Feature"}, {"geometry": {"coordinates": [8.542726, 47.379952], "type": "Point"}, "properties": {"address": "Walchestrasse 11", "electric": 9, "id": "pb_129", "manual": 0, "name": "Stampfenbachplatz", "provider": "publibike", "timeStamp": "03/13/2020, 20:17:28", "zip": 8006}, "type": "Feature"}, {"geometry": {"coordinates": [8.488108, 47.391366], "type": "Point"}, "properties": {"address": "Altstetterplatz 1", "electric": 3, "id": "pb_130", "manual": 4, "name": "Bahnhof Altstetten", "provider": "publibike", "timeStamp": "03/13/2020, 20:17:28", "zip": 8048}, "type": "Feature"}, {"geometry": {"coordinates": [8.554114, 47.365119], "type": "Point"}, "properties": {"address": "Kreuzplatz 2", "electric": 15, "id": "pb_131", "manual": 7, "name": "Kreuzplatz", "provider": "publibike", "timeStamp": "03/13/2020, 20:17:28", "zip": 8032}, "type": "Feature"}, {"geometry": {"coordinates": [8.549852, 47.35594], "type": "Point"}, "properties": {"address": "H\u00f6schgasse 3", "electric": 2, "id": "pb_132", "manual": 8, "name": "Blatterwiese", "provider": "publibike", "timeStamp": "03/13/2020, 20:17:28", "zip": 8008}, "type": "Feature"}, {"geometry": {"coordinates": [8.554501, 47.36162], "type": "Point"}, "properties": {"address": "Feldeggstrasse 80", "electric": 7, "id": "pb_133", "manual": 0, "name": "Villa Bleuler", "provider": "publibike", "timeStamp": "03/13/2020, 20:17:28", "zip": 8008}, "type": "Feature"}, {"geometry": {"coordinates": [8.557088, 47.358557], "type": "Point"}, "properties": {"address": "M\u00fchlebachstrasse 131", "electric": 4, "id": "pb_134", "manual": 3, "name": "M\u00fchlebachstrasse", "provider": "publibike", "timeStamp": "03/13/2020, 20:17:28", "zip": 8008}, "type": "Feature"}, {"geometry": {"coordinates": [8.547639, 47.361266], "type": "Point"}, "properties": {"address": "Utoquai 50", "electric": 4, "id": "pb_135", "manual": 2, "name": "Seebad Utoquai", "provider": "publibike", "timeStamp": "03/13/2020, 20:17:28", "zip": 8008}, "type": "Feature"}, {"geometry": {"coordinates": [8.548045, 47.370869], "type": "Point"}, "properties": {"address": "Heimplatz 1", "electric": 7, "id": "pb_137", "manual": 6, "name": "Kunsthaus", "provider": "publibike", "timeStamp": "03/13/2020, 20:17:28", "zip": 8001}, "type": "Feature"}, {"geometry": {"coordinates": [8.543447, 47.375933], "type": "Point"}, "properties": {"address": "Limmatquai 138", "electric": 1, "id": "pb_138", "manual": 2, "name": "Central", "provider": "publibike", "timeStamp": "03/13/2020, 20:17:28", "zip": 8001}, "type": "Feature"}, {"geometry": {"coordinates": [8.549356, 47.408827], "type": "Point"}, "properties": {"address": "Tramstrasse 35", "electric": 4, "id": "pb_139", "manual": 2, "name": "ewz Tramstrasse", "provider": "publibike", "timeStamp": "03/13/2020, 20:17:28", "zip": 8050}, "type": "Feature"}, {"geometry": {"coordinates": [8.533736, 47.366904], "type": "Point"}, "properties": {"address": "Bleicherweg 33", "electric": 1, "id": "pb_140", "manual": 1, "name": "Bleicherweg", "provider": "publibike", "timeStamp": "03/13/2020, 20:17:28", "zip": 8002}, "type": "Feature"}, {"geometry": {"coordinates": [8.544935, 47.366752], "type": "Point"}, "properties": {"address": "Bellevueplatz 2", "electric": 13, "id": "pb_141", "manual": 31, "name": "Bellevue", "provider": "publibike", "timeStamp": "03/13/2020, 20:17:28", "zip": 8001}, "type": "Feature"}, {"geometry": {"coordinates": [8.5285533, 47.3742296], "type": "Point"}, "properties": {"address": "Stauffacherstrasse 41", "electric": 1, "id": "pb_142", "manual": 1, "name": "Stauffacher", "provider": "publibike", "timeStamp": "03/13/2020, 20:17:28", "zip": 8004}, "type": "Feature"}, {"geometry": {"coordinates": [8.523722, 47.3899], "type": "Point"}, "properties": {"address": "Limmatstrasse 310", "electric": 3, "id": "pb_143", "manual": 8, "name": "Escher-Wyss-Platz", "provider": "publibike", "timeStamp": "03/13/2020, 20:17:28", "zip": 8005}, "type": "Feature"}, {"geometry": {"coordinates": [8.491061, 47.392336], "type": "Point"}, "properties": {"address": "Vulkanplatz 1", "electric": 1, "id": "pb_149", "manual": 10, "name": "Vulkanplatz", "provider": "publibike", "timeStamp": "03/13/2020, 20:17:28", "zip": 8048}, "type": "Feature"}, {"geometry": {"coordinates": [8.52306, 47.359872], "type": "Point"}, "properties": {"address": "Giessh\u00fcbelstrasse 15", "electric": 11, "id": "pb_150", "manual": 12, "name": "Utoplatz", "provider": "publibike", "timeStamp": "03/13/2020, 20:17:28", "zip": 8045}, "type": "Feature"}, {"geometry": {"coordinates": [8.486284, 47.387685], "type": "Point"}, "properties": {"address": "Lindenplatz 1", "electric": 10, "id": "pb_151", "manual": 5, "name": "Lindenplatz", "provider": "publibike", "timeStamp": "03/13/2020, 20:17:28", "zip": 8048}, "type": "Feature"}, {"geometry": {"coordinates": [8.49163, 47.389823], "type": "Point"}, "properties": {"address": "Hohlstrasse 563", "electric": 1, "id": "pb_152", "manual": 4, "name": "Luggweg", "provider": "publibike", "timeStamp": "03/13/2020, 20:17:28", "zip": 8048}, "type": "Feature"}, {"geometry": {"coordinates": [8.52174, 47.365272], "type": "Point"}, "properties": {"address": "Manessestrasse 87", "electric": 0, "id": "pb_153", "manual": 0, "name": "Manesseplatz", "provider": "publibike", "timeStamp": "03/13/2020, 20:17:28", "zip": 8045}, "type": "Feature"}, {"geometry": {"coordinates": [8.52714, 47.372329], "type": "Point"}, "properties": {"address": "Werdstrasse 75", "electric": 1, "id": "pb_154", "manual": 0, "name": "Werd", "provider": "publibike", "timeStamp": "03/13/2020, 20:17:28", "zip": 8004}, "type": "Feature"}, {"geometry": {"coordinates": [8.543042, 47.374711], "type": "Point"}, "properties": {"address": "Limmatquai 100", "electric": 0, "id": "pb_155", "manual": 0, "name": "Rudolf-Brun-Br\u00fccke", "provider": "publibike", "timeStamp": "03/13/2020, 20:17:28", "zip": 8001}, "type": "Feature"}, {"geometry": {"coordinates": [8.490837, 47.386596], "type": "Point"}, "properties": {"address": "Badenerstrasse 627", "electric": 4, "id": "pb_156", "manual": 14, "name": "Luggwegstrasse VBZ", "provider": "publibike", "timeStamp": "03/13/2020, 20:17:28", "zip": 8048}, "type": "Feature"}, {"geometry": {"coordinates": [8.535119, 47.355189], "type": "Point"}, "properties": {"address": "Mythenquai 95", "electric": 7, "id": "pb_157", "manual": 7, "name": "Strandbad Mythenquai", "provider": "publibike", "timeStamp": "03/13/2020, 20:17:28", "zip": 8002}, "type": "Feature"}, {"geometry": {"coordinates": [8.545505, 47.373675], "type": "Point"}, "properties": {"address": "Predigerpatz 21", "electric": 0, "id": "pb_158", "manual": 6, "name": "Predigerplatz", "provider": "publibike", "timeStamp": "03/13/2020, 20:17:28", "zip": 8001}, "type": "Feature"}, {"geometry": {"coordinates": [8.515558, 47.371868], "type": "Point"}, "properties": {"address": "Aemtlerstrasse 23", "electric": 5, "id": "pb_159", "manual": 7, "name": "Zwinglihaus", "provider": "publibike", "timeStamp": "03/13/2020, 20:17:28", "zip": 8003}, "type": "Feature"}, {"geometry": {"coordinates": [8.524629, 47.386072], "type": "Point"}, "properties": {"address": "Josefstrasse 188", "electric": 10, "id": "pb_160", "manual": 6, "name": "Josefwiese", "provider": "publibike", "timeStamp": "03/13/2020, 20:17:28", "zip": 8005}, "type": "Feature"}, {"geometry": {"coordinates": [8.527138, 47.387531], "type": "Point"}, "properties": {"address": "R\u00f6ntgenstrasse 87", "electric": 6, "id": "pb_164", "manual": 9, "name": "Markthalle", "provider": "publibike", "timeStamp": "03/13/2020, 20:17:28", "zip": 8005}, "type": "Feature"}, {"geometry": {"coordinates": [8.552717, 47.359978], "type": "Point"}, "properties": {"address": "Seefeldstrasse 96", "electric": 4, "id": "pb_263", "manual": 6, "name": "Feldeggstrasse", "provider": "publibike", "timeStamp": "03/13/2020, 20:17:28", "zip": 8008}, "type": "Feature"}, {"geometry": {"coordinates": [8.553189, 47.353198], "type": "Point"}, "properties": {"address": "Bellerivestrasse 170", "electric": 2, "id": "pb_264", "manual": 3, "name": "Lake Side", "provider": "publibike", "timeStamp": "03/13/2020, 20:17:28", "zip": 8008}, "type": "Feature"}, {"geometry": {"coordinates": [8.543437, 47.369256], "type": "Point"}, "properties": {"address": "Limmatquai 18", "electric": 0, "id": "pb_265", "manual": 0, "name": "Helmhaus", "provider": "publibike", "timeStamp": "03/13/2020, 20:17:28", "zip": 8032}, "type": "Feature"}, {"geometry": {"coordinates": [8.516676, 47.375819], "type": "Point"}, "properties": {"address": "Badenerstrasse 246", "electric": 14, "id": "pb_266", "manual": 3, "name": "Lochergut", "provider": "publibike", "timeStamp": "03/13/2020, 20:17:28", "zip": 8004}, "type": "Feature"}, {"geometry": {"coordinates": [8.514605, 47.389862], "type": "Point"}, "properties": {"address": "Pfingstweidstrasse 60", "electric": 0, "id": "pb_273", "manual": 0, "name": "Westpark", "provider": "publibike", "timeStamp": "03/13/2020, 20:17:28", "zip": 8005}, "type": "Feature"}, {"geometry": {"coordinates": [8.541239126, 47.375991201], "type": "Point"}, "properties": {"address": "Beatenplatz 1", "electric": 0, "id": "pb_274", "manual": 4, "name": "Beatenplatz", "provider": "publibike", "timeStamp": "03/13/2020, 20:17:28", "zip": 8001}, "type": "Feature"}, {"geometry": {"coordinates": [8.5417135, 47.3942197], "type": "Point"}, "properties": {"address": "Scheuchzerstrasse 181", "electric": 3, "id": "pb_275", "manual": 0, "name": "Pauluskirche", "provider": "publibike", "timeStamp": "03/13/2020, 20:17:28", "zip": 8057}, "type": "Feature"}, {"geometry": {"coordinates": [8.5528182, 47.414558], "type": "Point"}, "properties": {"address": "Hagenholzstrasse 51", "electric": 1, "id": "pb_276", "manual": 10, "name": "Airgate", "provider": "publibike", "timeStamp": "03/13/2020, 20:17:28", "zip": 8050}, "type": "Feature"}, {"geometry": {"coordinates": [8.537816, 47.413514], "type": "Point"}, "properties": {"address": "Birchstrasse 183", "electric": 0, "id": "pb_277", "manual": 1, "name": "Lamprechtweg", "provider": "publibike", "timeStamp": "03/13/2020, 20:17:28", "zip": 8050}, "type": "Feature"}, {"geometry": {"coordinates": [8.545602, 47.417701], "type": "Point"}, "properties": {"address": "Felsenrainstrasse 2", "electric": 3, "id": "pb_278", "manual": 5, "name": "Emil-Oberh\u00e4nsli", "provider": "publibike", "timeStamp": "03/13/2020, 20:17:28", "zip": 8050}, "type": "Feature"}, {"geometry": {"coordinates": [8.533647, 47.39808], "type": "Point"}, "properties": {"address": "Bucheggplatz 2", "electric": 5, "id": "pb_279", "manual": 3, "name": "Bucheggplatz", "provider": "publibike", "timeStamp": "03/13/2020, 20:17:28", "zip": 8057}, "type": "Feature"}, {"geometry": {"coordinates": [8.523549, 47.392347], "type": "Point"}, "properties": {"address": "Wipkingerplatz 4", "electric": 0, "id": "pb_280", "manual": 0, "name": "Wipkingerplatz", "provider": "publibike", "timeStamp": "03/13/2020, 20:17:28", "zip": 8037}, "type": "Feature"}, {"geometry": {"coordinates": [8.548562, 47.36691], "type": "Point"}, "properties": {"address": "Galerie \u00fcber Gleis 2/3", "electric": 23, "id": "pb_285", "manual": 7, "name": "Bahnhof Stadelhofen", "provider": "publibike", "timeStamp": "03/13/2020, 20:17:28", "zip": 8001}, "type": "Feature"}, {"geometry": {"coordinates": [8.493822, 47.3985553], "type": "Point"}, "properties": {"address": "Meierwiesenstrasse 12-4", "electric": 1, "id": "pb_286", "manual": 4, "name": "T\u00fcffenwies", "provider": "publibike", "timeStamp": "03/13/2020, 20:17:28", "zip": 8064}, "type": "Feature"}, {"geometry": {"coordinates": [8.552432, 47.3801757], "type": "Point"}, "properties": {"address": "Hochstrasse 34", "electric": 0, "id": "pb_356", "manual": 0, "name": "Siriuswiese", "provider": "publibike", "timeStamp": "03/13/2020, 20:17:28", "zip": 8044}, "type": "Feature"}, {"geometry": {"coordinates": [8.527298, 47.370141], "type": "Point"}, "properties": {"address": "Hallwylstrasse 71", "electric": 1, "id": "pb_357", "manual": 0, "name": "Hallwylstrasse", "provider": "publibike", "timeStamp": "03/13/2020, 20:17:28", "zip": 8004}, "type": "Feature"}, {"geometry": {"coordinates": [8.5414185, 47.3972455], "type": "Point"}, "properties": {"address": "Schaffhauserstrasse 137", "electric": 2, "id": "pb_358", "manual": 2, "name": "Milchbuck", "provider": "publibike", "timeStamp": "03/13/2020, 20:17:28", "zip": 8057}, "type": "Feature"}, {"geometry": {"coordinates": [8.512381, 47.393409], "type": "Point"}, "properties": {"address": "Hardturmstrasse 161", "electric": 0, "id": "pb_359", "manual": 7, "name": "Fischerweg", "provider": "publibike", "timeStamp": "03/13/2020, 20:17:28", "zip": 8005}, "type": "Feature"}, {"geometry": {"coordinates": [8.5421457, 47.3876979], "type": "Point"}, "properties": {"address": "Turnerstrasse 47", "electric": 5, "id": "pb_360", "manual": 0, "name": "Kirche Unterstrass", "provider": "publibike", "timeStamp": "03/13/2020, 20:17:28", "zip": 8006}, "type": "Feature"}, {"geometry": {"coordinates": [8.522117, 47.394554], "type": "Point"}, "properties": {"address": "Dorfstrasse 40", "electric": 6, "id": "pb_361", "manual": 2, "name": "Dorfstrasse", "provider": "publibike", "timeStamp": "03/13/2020, 20:17:28", "zip": 8037}, "type": "Feature"}, {"geometry": {"coordinates": [8.530437, 47.37271], "type": "Point"}, "properties": {"address": "Werdstrasse 25", "electric": 0, "id": "pb_362", "manual": 2, "name": "Stauffachertor", "provider": "publibike", "timeStamp": "03/13/2020, 20:17:28", "zip": 8004}, "type": "Feature"}, {"geometry": {"coordinates": [8.541712, 47.416155], "type": "Point"}, "properties": {"address": "Eggb\u00fchlstrasse 21", "electric": 1, "id": "pb_363", "manual": 5, "name": "Wahlenpark", "provider": "publibike", "timeStamp": "03/13/2020, 20:17:28", "zip": 8050}, "type": "Feature"}, {"geometry": {"coordinates": [8.5595335, 47.3708387], "type": "Point"}, "properties": {"address": "Dolderstrasse 32", "electric": 2, "id": "pb_364", "manual": 3, "name": "Kinderspital", "provider": "publibike", "timeStamp": "03/13/2020, 20:17:28", "zip": 8032}, "type": "Feature"}, {"geometry": {"coordinates": [8.536433, 47.388689], "type": "Point"}, "properties": {"address": "Kornhausstrasse 30", "electric": 0, "id": "pb_365", "manual": 2, "name": "Kornhausstrasse", "provider": "publibike", "timeStamp": "03/13/2020, 20:17:28", "zip": 8006}, "type": "Feature"}, {"geometry": {"coordinates": [8.55033, 47.407098], "type": "Point"}, "properties": {"address": "Schwamendingenstrasse 41", "electric": 8, "id": "pb_366", "manual": 2, "name": "Dorflinde", "provider": "publibike", "timeStamp": "03/13/2020, 20:17:28", "zip": 8050}, "type": "Feature"}, {"geometry": {"coordinates": [8.560476, 47.368199], "type": "Point"}, "properties": {"address": "R\u00f6merhofplatz 5", "electric": 8, "id": "pb_367", "manual": 1, "name": "R\u00f6merhof", "provider": "publibike", "timeStamp": "03/13/2020, 20:17:28", "zip": 8032}, "type": "Feature"}, {"geometry": {"coordinates": [8.5609218, 47.3619068], "type": "Point"}, "properties": {"address": "Forchstrasse 99", "electric": 3, "id": "pb_368", "manual": 3, "name": "Hegibachplatz", "provider": "publibike", "timeStamp": "03/13/2020, 20:17:28", "zip": 8032}, "type": "Feature"}, {"geometry": {"coordinates": [8.5721264, 47.4039985], "type": "Point"}, "properties": {"address": "Winterthurerstrasse 519", "electric": 11, "id": "pb_370", "manual": 0, "name": "Schwamendingerplatz", "provider": "publibike", "timeStamp": "03/13/2020, 20:17:28", "zip": 8051}, "type": "Feature"}, {"geometry": {"coordinates": [8.520168, 47.378556], "type": "Point"}, "properties": {"address": "Herman-Greulich-Strasse 56", "electric": 0, "id": "pb_384", "manual": 0, "name": "Hermann-Greulich-Weg", "provider": "publibike", "timeStamp": "03/13/2020, 20:17:28", "zip": 8004}, "type": "Feature"}, {"geometry": {"coordinates": [8.547912, 47.384923], "type": "Point"}, "properties": {"address": "Culmannstrasse", "electric": 6, "id": "pb_386", "manual": 0, "name": "Rigiplatz", "provider": "publibike", "timeStamp": "03/13/2020, 20:17:28", "zip": 8006}, "type": "Feature"}, {"geometry": {"coordinates": [8.543768, 47.411057], "type": "Point"}, "properties": {"address": "Hofwiesenstrasse 369", "electric": 3, "id": "pb_387", "manual": 3, "name": "Bahnhof Oerlikon S\u00fcd", "provider": "publibike", "timeStamp": "03/13/2020, 20:17:28", "zip": 8050}, "type": "Feature"}, {"geometry": {"coordinates": [8.544185, 47.412732], "type": "Point"}, "properties": {"address": "Jungholzstrasse 6", "electric": 2, "id": "pb_388", "manual": 0, "name": "Max-Frisch-Platz", "provider": "publibike", "timeStamp": "03/13/2020, 20:17:28", "zip": 8050}, "type": "Feature"}, {"geometry": {"coordinates": [8.558096, 47.413032], "type": "Point"}, "properties": {"address": "Andreasstrasse", "electric": 8, "id": "pb_389", "manual": 6, "name": "Hunziker-Areal", "provider": "publibike", "timeStamp": "03/13/2020, 20:17:28", "zip": 8050}, "type": "Feature"}, {"geometry": {"coordinates": [8.533265, 47.412873], "type": "Point"}, "properties": {"address": "Regina-K\u00e4gi-Strasse 1", "electric": 1, "id": "pb_390", "manual": 3, "name": "Luis-H\u00e4fliger-Park", "provider": "publibike", "timeStamp": "03/13/2020, 20:17:28", "zip": 8050}, "type": "Feature"}, {"geometry": {"coordinates": [8.499265, 47.401852], "type": "Point"}, "properties": {"address": "Limmattalstrasse 177", "electric": 5, "id": "pb_391", "manual": 1, "name": "Meierhofplatz", "provider": "publibike", "timeStamp": "03/13/2020, 20:17:28", "zip": 8049}, "type": "Feature"}, {"geometry": {"coordinates": [8.528356, 47.393255], "type": "Point"}, "properties": {"address": "R\u00f6schibachstrasse 73", "electric": 4, "id": "pb_392", "manual": 5, "name": "R\u00f6schibachplatz", "provider": "publibike", "timeStamp": "03/13/2020, 20:17:28", "zip": 8037}, "type": "Feature"}, {"geometry": {"coordinates": [8.538067, 47.415721], "type": "Point"}, "properties": {"address": "Birchstrasse 191", "electric": 6, "id": "pb_393", "manual": 0, "name": "Oerliker Park", "provider": "publibike", "timeStamp": "03/13/2020, 20:17:28", "zip": 8050}, "type": "Feature"}, {"geometry": {"coordinates": [8.5420304, 47.3669233], "type": "Point"}, "properties": {"address": "Stadthausquai 1", "electric": 1, "id": "pb_395", "manual": 11, "name": "B\u00fcrkliplatz", "provider": "publibike", "timeStamp": "03/13/2020, 20:17:28", "zip": 8001}, "type": "Feature"}, {"geometry": {"coordinates": [8.535767, 47.409881], "type": "Point"}, "properties": {"address": "Regensbergstrasse 195", "electric": 5, "id": "pb_396", "manual": 3, "name": "Holunderhof", "provider": "publibike", "timeStamp": "03/13/2020, 20:17:28", "zip": 8050}, "type": "Feature"}, {"geometry": {"coordinates": [8.5116245, 47.3616199], "type": "Point"}, "properties": {"address": "Grubenstrasse 42", "electric": 1, "id": "pb_431", "manual": 0, "name": "Binz Center", "provider": "publibike", "timeStamp": "03/13/2020, 20:17:28", "zip": 8045}, "type": "Feature"}, {"geometry": {"coordinates": [8.547195, 47.382089], "type": "Point"}, "properties": {"address": "Nelkenstrasse 24", "electric": 8, "id": "pb_430", "manual": 1, "name": "Stapferstube", "provider": "publibike", "timeStamp": "03/13/2020, 20:17:28", "zip": 8006}, "type": "Feature"}, {"geometry": {"coordinates": [8.5787183, 47.4039845], "type": "Point"}, "properties": {"address": "Kronwiesenstrasse 35", "electric": 2, "id": "pb_426", "manual": 4, "name": "Kronwiesen", "provider": "publibike", "timeStamp": "03/13/2020, 20:17:28", "zip": 8051}, "type": "Feature"}, {"geometry": {"coordinates": [8.508131, 47.420757], "type": "Point"}, "properties": {"address": "Riedenhaldenstrasse 20-18", "electric": 5, "id": "pb_425", "manual": 4, "name": "Bahnhof Affoltern", "provider": "publibike", "timeStamp": "03/13/2020, 20:17:28", "zip": 8046}, "type": "Feature"}, {"geometry": {"coordinates": [8.532464, 47.406988], "type": "Point"}, "properties": {"address": "K\u00fcnzlistrasse 41", "electric": 9, "id": "pb_424", "manual": 1, "name": "Birchd\u00f6rfli", "provider": "publibike", "timeStamp": "03/13/2020, 20:17:28", "zip": 8057}, "type": "Feature"}, {"geometry": {"coordinates": [8.5777038, 47.4080095], "type": "Point"}, "properties": {"address": "Luegislandstrasse 412", "electric": 6, "id": "pb_429", "manual": 3, "name": "Luegisland", "provider": "publibike", "timeStamp": "03/13/2020, 20:17:28", "zip": 8051}, "type": "Feature"}, {"geometry": {"coordinates": [8.58841, 47.40158], "type": "Point"}, "properties": {"address": "Hirzenbachstrasse 2-4", "electric": 10, "id": "pb_428", "manual": 7, "name": "Hirzenbachstrasse", "provider": "publibike", "timeStamp": "03/13/2020, 20:17:28", "zip": 8051}, "type": "Feature"}, {"geometry": {"coordinates": [8.5563463, 47.4095467], "type": "Point"}, "properties": {"address": "K\u00fchriedweg", "electric": 5, "id": "pb_445", "manual": 4, "name": "Hallenbad Oerlikon", "provider": "publibike", "timeStamp": "03/13/2020, 20:17:28", "zip": 8050}, "type": "Feature"}, {"geometry": {"coordinates": [8.537971, 47.364871], "type": "Point"}, "properties": {"address": "General-Guisan-Quai 17", "electric": 4, "id": "pb_454", "manual": 1, "name": "General-Guisan-Quai", "provider": "publibike", "timeStamp": "03/13/2020, 20:17:28", "zip": 8002}, "type": "Feature"}, {"geometry": {"coordinates": [8.560587, 47.350578], "type": "Point"}, "properties": {"address": "Bellerivestrasse 245", "electric": 9, "id": "pb_450", "manual": 7, "name": "Bahnhof Tiefenbrunnen", "provider": "publibike", "timeStamp": "03/13/2020, 20:17:28", "zip": 8008}, "type": "Feature"}, {"geometry": {"coordinates": [8.5269416, 47.3563719], "type": "Point"}, "properties": {"address": "Waffenplatzstrasse 89", "electric": 1, "id": "pb_452", "manual": 6, "name": "Rieterplatz", "provider": "publibike", "timeStamp": "03/13/2020, 20:17:28", "zip": 8002}, "type": "Feature"}, {"geometry": {"coordinates": [8.514176, 47.3663708], "type": "Point"}, "properties": {"address": "Talwiesenstrasse 92", "electric": 6, "id": "pb_446", "manual": 1, "name": "Binzallee", "provider": "publibike", "timeStamp": "03/13/2020, 20:17:28", "zip": 8055}, "type": "Feature"}, {"geometry": {"coordinates": [8.5070564, 47.371455], "type": "Point"}, "properties": {"address": "Gutstrasse 87", "electric": 10, "id": "pb_447", "manual": 4, "name": "Gutstrasse", "provider": "publibike", "timeStamp": "03/13/2020, 20:17:28", "zip": 8055}, "type": "Feature"}, {"geometry": {"coordinates": [8.4941268, 47.3836391], "type": "Point"}, "properties": {"address": "Flurstrasse 62", "electric": 8, "id": "pb_453", "manual": 1, "name": "Flurpark", "provider": "publibike", "timeStamp": "03/13/2020, 20:17:28", "zip": 8048}, "type": "Feature"}, {"geometry": {"coordinates": [8.500343, 47.380778], "type": "Point"}, "properties": {"address": "Edelweissstrasse 32", "electric": 1, "id": "pb_448", "manual": 5, "name": "Bl\u00fcemliquartier", "provider": "publibike", "timeStamp": "03/13/2020, 20:17:28", "zip": 8048}, "type": "Feature"}, {"geometry": {"coordinates": [8.528796, 47.383858], "type": "Point"}, "properties": {"address": "Gasometerstrasse 24", "electric": 5, "id": "pb_449", "manual": 6, "name": "Gasometerstrasse", "provider": "publibike", "timeStamp": "03/13/2020, 20:17:28", "zip": 8005}, "type": "Feature"}, {"geometry": {"coordinates": [8.4981964, 47.3859194], "type": "Point"}, "properties": {"address": "Baslerstrasse 57", "electric": 11, "id": "pb_455", "manual": 4, "name": "Letzipark", "provider": "publibike", "timeStamp": "03/13/2020, 20:17:28", "zip": 8048}, "type": "Feature"}, {"geometry": {"coordinates": [8.515252, 47.381915], "type": "Point"}, "properties": {"address": "Sihlfeldstrasse 175", "electric": 3, "id": "pb_451", "manual": 14, "name": "Hardplatz", "provider": "publibike", "timeStamp": "03/13/2020, 20:17:28", "zip": 8004}, "type": "Feature"}, {"geometry": {"coordinates": [8.5064743, 47.4188324], "type": "Point"}, "properties": {"address": "Wehntalerstrasse 541", "electric": 3, "id": "pb_427", "manual": 2, "name": "Zehntenhausplatz", "provider": "publibike", "timeStamp": "03/13/2020, 20:17:28", "zip": 8046}, "type": "Feature"}, {"geometry": {"coordinates": [8.537729, 47.379719], "type": "Point"}, "properties": {"address": "Sihlquai/HB", "electric": 4, "id": "pb_513", "manual": 23, "name": "Sihlquai", "provider": "publibike", "timeStamp": "03/13/2020, 20:17:28", "zip": 8005}, "type": "Feature"}, {"geometry": {"coordinates": [8.596202, 47.397885], "type": "Point"}, "properties": {"address": "Bahnhof Stettbach", "electric": 7, "id": "pb_514", "manual": 0, "name": "Bahnhof Stettbach", "provider": "publibike", "timeStamp": "03/13/2020, 20:17:28", "zip": 8051}, "type": "Feature"}, {"geometry": {"coordinates": [8.5543974, 47.3690153], "type": "Point"}, "properties": {"address": "Kasinostrasse 10", "electric": 5, "id": "pb_515", "manual": 1, "name": "Hottingerplatz", "provider": "publibike", "timeStamp": "03/13/2020, 20:17:28", "zip": 8032}, "type": "Feature"}, {"geometry": {"coordinates": [8.534444, 47.351525], "type": "Point"}, "properties": {"address": "Mobile Station Z\u00fcrich 1", "electric": 0, "id": "pb_282", "manual": 0, "name": "Theaterspektakel", "provider": "publibike", "timeStamp": "03/13/2020, 20:17:28", "zip": 8002}, "type": "Feature"}, {"geometry": {"coordinates": [8.516257, 47.367656], "type": "Point"}, "properties": {"address": "Goldbrunnenstrasse 54", "electric": 14, "id": "pb_538", "manual": 0, "name": "Kirche B\u00fchl", "provider": "publibike", "timeStamp": "03/13/2020, 20:17:28", "zip": 8055}, "type": "Feature"}, {"geometry": {"coordinates": [8.555639, 47.416873], "type": "Point"}, "properties": {"address": "Leutschenbachstrasse 50", "electric": 6, "id": "pb_537", "manual": 7, "name": "Leutschenpark", "provider": "publibike", "timeStamp": "03/13/2020, 20:17:28", "zip": 8050}, "type": "Feature"}, {"geometry": {"coordinates": [8.546464, 47.403822], "type": "Point"}, "properties": {"address": "Berninastrasse 45", "electric": 7, "id": "pb_540", "manual": 2, "name": "Berninaplatz", "provider": "publibike", "timeStamp": "03/13/2020, 20:17:28", "zip": 8057}, "type": "Feature"}, {"geometry": {"coordinates": [8.523134, 47.369004], "type": "Point"}, "properties": {"address": "Erlachstrasse 3", "electric": 3, "id": "pb_385", "manual": 2, "name": "Aegerten", "provider": "publibike", "timeStamp": "03/13/2020, 20:17:28", "zip": 8003}, "type": "Feature"}, {"geometry": {"coordinates": [8.49038, 47.381591], "type": "Point"}, "properties": {"address": "Rautistrasse 60", "electric": 14, "id": "pb_536", "manual": 2, "name": "Freilager", "provider": "publibike", "timeStamp": "03/13/2020, 20:17:28", "zip": 8048}, "type": "Feature"}, {"geometry": {"coordinates": [8.496511, 47.375247], "type": "Point"}, "properties": {"address": "Letzigraben 139", "electric": 7, "id": "pb_444", "manual": 6, "name": "Sackzelg", "provider": "publibike", "timeStamp": "03/13/2020, 20:17:28", "zip": 8047}, "type": "Feature"}, {"geometry": {"coordinates": [8.58131, 47.402801], "type": "Point"}, "properties": {"address": "Altwiesenstrasse 104", "electric": 3, "id": "pb_539", "manual": 3, "name": "Glattwiesen", "provider": "publibike", "timeStamp": "03/13/2020, 20:17:28", "zip": 8051}, "type": "Feature"}, {"geometry": {"coordinates": [8.52689, 47.3767], "type": "Point"}, "properties": {"address": "Molkenstrasse 5", "electric": 2, "id": "pb_560", "manual": 12, "name": "Helvetiaplatz", "provider": "publibike", "timeStamp": "03/13/2020, 20:17:28", "zip": 8004}, "type": "Feature"}, {"geometry": {"coordinates": [8.525602, 47.374241], "type": "Point"}, "properties": {"address": "Badenerstrasse 90", "electric": 2, "id": "pb_559", "manual": 4, "name": "Bezirksgeb\u00e4ude", "provider": "publibike", "timeStamp": "03/13/2020, 20:17:28", "zip": 8004}, "type": "Feature"}, {"geometry": {"coordinates": [8.535082, 47.345248], "type": "Point"}, "properties": {"address": "Bachstrasse 15", "electric": 7, "id": "pb_564", "manual": 6, "name": "GZ Wollishofen", "provider": "publibike", "timeStamp": "03/13/2020, 20:17:28", "zip": 8038}, "type": "Feature"}, {"geometry": {"coordinates": [8.514841, 47.370238], "type": "Point"}, "properties": {"address": "Schrennengasse 37", "electric": 0, "id": "pb_562", "manual": 6, "name": "Goldbrunnenplatz", "provider": "publibike", "timeStamp": "03/13/2020, 20:17:28", "zip": 8003}, "type": "Feature"}, {"geometry": {"coordinates": [8.514138, 47.374206], "type": "Point"}, "properties": {"address": "Idaplatz 4", "electric": 3, "id": "pb_557", "manual": 10, "name": "Idaplatz", "provider": "publibike", "timeStamp": "03/13/2020, 20:17:28", "zip": 8003}, "type": "Feature"}, {"geometry": {"coordinates": [8.518432, 47.369549], "type": "Point"}, "properties": {"address": "Brinerstrasse 2", "electric": 2, "id": "pb_558", "manual": 2, "name": "Schmiede Wiedikon", "provider": "publibike", "timeStamp": "03/13/2020, 20:17:28", "zip": 8003}, "type": "Feature"}, {"geometry": {"coordinates": [8.537546, 47.391289], "type": "Point"}, "properties": {"address": "Rotbuchstrasse 15", "electric": 0, "id": "pb_556", "manual": 0, "name": "Schaffhauserplatz", "provider": "publibike", "timeStamp": "03/13/2020, 20:17:28", "zip": 8006}, "type": "Feature"}, {"geometry": {"coordinates": [8.541541, 47.413733], "type": "Point"}, "properties": {"address": "Therese-Giehse-Strasse 11", "electric": 4, "id": "pb_561", "manual": 0, "name": "Center Eleven", "provider": "publibike", "timeStamp": "03/13/2020, 20:17:28", "zip": 8050}, "type": "Feature"}, {"geometry": {"coordinates": [8.534227, 47.360004], "type": "Point"}, "properties": {"address": "Alfred Escher-Strasse 76", "electric": 2, "id": "pb_563", "manual": 1, "name": "Mythenschloss", "provider": "publibike", "timeStamp": "03/13/2020, 20:17:28", "zip": 8002}, "type": "Feature"}, {"geometry": {"coordinates": [8.50373, 47.396172], "type": "Point"}, "properties": {"address": "Hardeggstrasse 6", "electric": 4, "id": "pb_566", "manual": 1, "name": "Am Wasser", "provider": "publibike", "timeStamp": "03/13/2020, 20:17:28", "zip": 8049}, "type": "Feature"}, {"geometry": {"coordinates": [8.532432, 47.381174], "type": "Point"}, "properties": {"address": "Klingenstrasse 9", "electric": 1, "id": "pb_565", "manual": 9, "name": "Zollstrasse", "provider": "publibike", "timeStamp": "03/13/2020, 20:17:28", "zip": 8005}, "type": "Feature"}, {"geometry": {"coordinates": [8.497982, 47.381447], "type": "Point"}, "properties": {"address": "Dennlerstrasse 23", "electric": 2, "id": "pb_567", "manual": 4, "name": "Dennlerstrasse", "provider": "publibike", "timeStamp": "03/13/2020, 20:17:28", "zip": 8047}, "type": "Feature"}, {"geometry": {"coordinates": [8.528049, 47.347701], "type": "Point"}, "properties": {"address": "Mutschellenstrasse 114", "electric": 10, "id": "pb_568", "manual": 2, "name": "Jugendherberge", "provider": "publibike", "timeStamp": "03/13/2020, 20:17:28", "zip": 8038}, "type": "Feature"}, {"geometry": {"coordinates": [8.539016, 47.405751], "type": "Point"}, "properties": {"address": "Ringstrasse 82", "electric": 5, "id": "pb_569", "manual": 3, "name": "Freibad Allenmoos", "provider": "publibike", "timeStamp": "03/13/2020, 20:17:28", "zip": 8057}, "type": "Feature"}, {"geometry": {"coordinates": [8.534974, 47.402164], "type": "Point"}, "properties": {"address": "Brache Guggach", "electric": 0, "id": "pb_572", "manual": 0, "name": "Radiostudio", "provider": "publibike", "timeStamp": "03/13/2020, 20:17:28", "zip": 8057}, "type": "Feature"}, {"geometry": {"coordinates": [8.547901, 47.375556], "type": "Point"}, "properties": {"address": "Karl-Schmid-Strasse 4", "electric": 4, "id": "pb_571", "manual": 0, "name": "ETH/Zoologisches Museum", "provider": "publibike", "timeStamp": "03/13/2020, 20:17:28", "zip": 8006}, "type": "Feature"}, {"geometry": {"coordinates": [8.523231, 47.361063], "type": "Point"}, "properties": {"charge": 99, "id": "smide_2880", "name": "ZH267289", "provider": "smide", "range": 49.0, "size": 17, "time": "03/14/2020, 02:37:39"}, "type": "Feature"}, {"geometry": {"coordinates": [8.52772, 47.396085], "type": "Point"}, "properties": {"charge": 71, "id": "smide_2871", "name": "ZH 267086", "provider": "smide", "range": 35.0, "size": 20, "time": "03/14/2020, 02:37:39"}, "type": "Feature"}, {"geometry": {"coordinates": [8.507488, 47.399103], "type": "Point"}, "properties": {"charge": 82, "id": "smide_2868", "name": "ZH 267089", "provider": "smide", "range": 41.0, "size": 20, "time": "03/14/2020, 02:37:39"}, "type": "Feature"}, {"geometry": {"coordinates": [8.55401, 47.381951], "type": "Point"}, "properties": {"charge": 34, "id": "smide_2856", "name": "ZH 267101", "provider": "smide", "range": 17.0, "size": 17, "time": "03/14/2020, 02:37:39"}, "type": "Feature"}, {"geometry": {"coordinates": [8.512738, 47.36001], "type": "Point"}, "properties": {"charge": 66, "id": "smide_2855", "name": "ZH 267102", "provider": "smide", "range": 33.0, "size": 17, "time": "03/14/2020, 02:37:39"}, "type": "Feature"}, {"geometry": {"coordinates": [8.536748, 47.419185], "type": "Point"}, "properties": {"charge": 63, "id": "smide_2831", "name": "ZH 267180", "provider": "smide", "range": 31.0, "size": 20, "time": "03/14/2020, 02:37:39"}, "type": "Feature"}, {"geometry": {"coordinates": [8.582293, 47.351901], "type": "Point"}, "properties": {"charge": 21, "id": "smide_2785", "name": "ZH266875", "provider": "smide", "range": 10.0, "size": 17, "time": "03/14/2020, 02:37:39"}, "type": "Feature"}, {"geometry": {"coordinates": [8.48821, 47.384975], "type": "Point"}, "properties": {"charge": 85, "id": "smide_2780", "name": "ST1 X #1", "provider": "smide", "range": 42.0, "size": 17, "time": "03/14/2020, 02:37:39"}, "type": "Feature"}, {"geometry": {"coordinates": [8.520938, 47.356525], "type": "Point"}, "properties": {"charge": 55, "id": "smide_2775", "name": "ZH267283", "provider": "smide", "range": 27.0, "size": 20, "time": "03/14/2020, 02:37:39"}, "type": "Feature"}, {"geometry": {"coordinates": [8.55516, 47.383892], "type": "Point"}, "properties": {"charge": 70, "id": "smide_2773", "name": "ZH266561", "provider": "smide", "range": 35.0, "size": 17, "time": "03/14/2020, 02:37:39"}, "type": "Feature"}, {"geometry": {"coordinates": [8.574057, 47.352068], "type": "Point"}, "properties": {"charge": 95, "id": "smide_2763", "name": "ZH266641", "provider": "smide", "range": 47.0, "size": 17, "time": "03/14/2020, 02:37:39"}, "type": "Feature"}, {"geometry": {"coordinates": [8.569695, 47.352231], "type": "Point"}, "properties": {"charge": 69, "id": "smide_2761", "name": "ZH266642", "provider": "smide", "range": 34.0, "size": 20, "time": "03/14/2020, 02:37:39"}, "type": "Feature"}, {"geometry": {"coordinates": [8.538139, 47.401324], "type": "Point"}, "properties": {"charge": 88, "id": "smide_2759", "name": "ZH266639", "provider": "smide", "range": 44.0, "size": 17, "time": "03/14/2020, 02:37:39"}, "type": "Feature"}, {"geometry": {"coordinates": [8.555356, 47.368244], "type": "Point"}, "properties": {"charge": 100, "id": "smide_2758", "name": "ZH266638 M", "provider": "smide", "range": 50.0, "size": 17, "time": "03/14/2020, 02:37:39"}, "type": "Feature"}, {"geometry": {"coordinates": [8.546943, 47.412711], "type": "Point"}, "properties": {"charge": 71, "id": "smide_2752", "name": "BE343856", "provider": "smide", "range": 35.0, "size": 17, "time": "03/14/2020, 02:37:39"}, "type": "Feature"}, {"geometry": {"coordinates": [8.564445, 47.361532], "type": "Point"}, "properties": {"charge": 92, "id": "smide_2751", "name": "BE343857", "provider": "smide", "range": 46.0, "size": 17, "time": "03/14/2020, 02:37:39"}, "type": "Feature"}, {"geometry": {"coordinates": [8.534017, 47.342076], "type": "Point"}, "properties": {"charge": 76, "id": "smide_2748", "name": "BE335758", "provider": "smide", "range": 38.0, "size": 17, "time": "03/14/2020, 02:37:39"}, "type": "Feature"}, {"geometry": {"coordinates": [8.528525, 47.35025], "type": "Point"}, "properties": {"charge": 26, "id": "smide_2747", "name": "BE335820", "provider": "smide", "range": 13.0, "size": 17, "time": "03/14/2020, 02:37:39"}, "type": "Feature"}, {"geometry": {"coordinates": [8.53215, 47.408096], "type": "Point"}, "properties": {"charge": 60, "id": "smide_2743", "name": "BE343864", "provider": "smide", "range": 30.0, "size": 17, "time": "03/14/2020, 02:37:39"}, "type": "Feature"}, {"geometry": {"coordinates": [8.556562, 47.420788], "type": "Point"}, "properties": {"charge": 66, "id": "smide_2742", "name": "BE343866", "provider": "smide", "range": 33.0, "size": 17, "time": "03/14/2020, 02:37:39"}, "type": "Feature"}, {"geometry": {"coordinates": [8.554735, 47.374475], "type": "Point"}, "properties": {"charge": 52, "id": "smide_2738", "name": "BE343865", "provider": "smide", "range": 26.0, "size": 17, "time": "03/14/2020, 02:37:39"}, "type": "Feature"}, {"geometry": {"coordinates": [8.489594, 47.373904], "type": "Point"}, "properties": {"charge": 62, "id": "smide_2737", "name": "BE336149", "provider": "smide", "range": 31.0, "size": 17, "time": "03/14/2020, 02:37:39"}, "type": "Feature"}, {"geometry": {"coordinates": [8.558397, 47.37382], "type": "Point"}, "properties": {"charge": 51, "id": "smide_2734", "name": "BE343876", "provider": "smide", "range": 25.0, "size": 17, "time": "03/14/2020, 02:37:39"}, "type": "Feature"}, {"geometry": {"coordinates": [8.513787, 47.387144], "type": "Point"}, "properties": {"charge": 43, "id": "smide_2733", "name": "BE343873", "provider": "smide", "range": 21.0, "size": 17, "time": "03/14/2020, 02:37:39"}, "type": "Feature"}, {"geometry": {"coordinates": [8.554091, 47.35802], "type": "Point"}, "properties": {"charge": 14, "id": "smide_2732", "name": "BE343870", "provider": "smide", "range": 7.0, "size": 17, "time": "03/14/2020, 02:37:39"}, "type": "Feature"}, {"geometry": {"coordinates": [8.495608, 47.366048], "type": "Point"}, "properties": {"charge": 89, "id": "smide_2729", "name": "BE343878", "provider": "smide", "range": 44.0, "size": 17, "time": "03/14/2020, 02:37:39"}, "type": "Feature"}, {"geometry": {"coordinates": [8.565106, 47.349238], "type": "Point"}, "properties": {"charge": 60, "id": "smide_2725", "name": "ZH261545", "provider": "smide", "range": 30.0, "size": 0, "time": "03/14/2020, 02:37:39"}, "type": "Feature"}, {"geometry": {"coordinates": [8.574517, 47.35226], "type": "Point"}, "properties": {"charge": 79, "id": "smide_2717", "name": "ZH263287", "provider": "smide", "range": 39.0, "size": 17, "time": "03/14/2020, 02:37:39"}, "type": "Feature"}, {"geometry": {"coordinates": [8.526054, 47.365116], "type": "Point"}, "properties": {"charge": 80, "id": "smide_2715", "name": "ZH254605", "provider": "smide", "range": 40.0, "size": 17, "time": "03/14/2020, 02:37:39"}, "type": "Feature"}, {"geometry": {"coordinates": [8.527585, 47.358592], "type": "Point"}, "properties": {"charge": 65, "id": "smide_2714", "name": "ZH256461", "provider": "smide", "range": 32.0, "size": 17, "time": "03/14/2020, 02:37:39"}, "type": "Feature"}, {"geometry": {"coordinates": [8.544227, 47.416368], "type": "Point"}, "properties": {"charge": 81, "id": "smide_2710", "name": "ZH256460", "provider": "smide", "range": 40.0, "size": 17, "time": "03/14/2020, 02:37:39"}, "type": "Feature"}, {"geometry": {"coordinates": [8.48453, 47.393993], "type": "Point"}, "properties": {"charge": 81, "id": "smide_2711", "name": "ZH256463", "provider": "smide", "range": 40.0, "size": 17, "time": "03/14/2020, 02:37:39"}, "type": "Feature"}, {"geometry": {"coordinates": [8.536798, 47.372835], "type": "Point"}, "properties": {"charge": 25, "id": "smide_2709", "name": "ZH256466", "provider": "smide", "range": 12.0, "size": 20, "time": "03/14/2020, 02:37:39"}, "type": "Feature"}, {"geometry": {"coordinates": [8.573275, 47.352544], "type": "Point"}, "properties": {"charge": 57, "id": "smide_2707", "name": "ZH256467", "provider": "smide", "range": 28.0, "size": 20, "time": "03/14/2020, 02:37:39"}, "type": "Feature"}, {"geometry": {"coordinates": [8.50862, 47.420824], "type": "Point"}, "properties": {"charge": 77, "id": "smide_2708", "name": "ZH256464", "provider": "smide", "range": 38.0, "size": 17, "time": "03/14/2020, 02:37:39"}, "type": "Feature"}, {"geometry": {"coordinates": [8.56918, 47.372976], "type": "Point"}, "properties": {"charge": 59, "id": "smide_2706", "name": "ZH256322", "provider": "smide", "range": 29.0, "size": 20, "time": "03/14/2020, 02:37:39"}, "type": "Feature"}, {"geometry": {"coordinates": [8.53158, 47.389512], "type": "Point"}, "properties": {"charge": 30, "id": "smide_2701", "name": "ZH256468", "provider": "smide", "range": 15.0, "size": 20, "time": "03/14/2020, 02:37:39"}, "type": "Feature"}, {"geometry": {"coordinates": [8.50252, 47.38042], "type": "Point"}, "properties": {"charge": 89, "id": "smide_2700", "name": "ZH256470", "provider": "smide", "range": 44.0, "size": 20, "time": "03/14/2020, 02:37:39"}, "type": "Feature"}, {"geometry": {"coordinates": [8.573895, 47.352764], "type": "Point"}, "properties": {"charge": 59, "id": "smide_2697", "name": "ZH254629", "provider": "smide", "range": 29.0, "size": 20, "time": "03/14/2020, 02:37:39"}, "type": "Feature"}, {"geometry": {"coordinates": [8.49382, 47.400264], "type": "Point"}, "properties": {"charge": 89, "id": "smide_2694", "name": "ZH254610", "provider": "smide", "range": 44.0, "size": 20, "time": "03/14/2020, 02:37:39"}, "type": "Feature"}, {"geometry": {"coordinates": [8.560361, 47.416755], "type": "Point"}, "properties": {"charge": 100, "id": "smide_2691", "name": "ZH254622", "provider": "smide", "range": 50.0, "size": 20, "time": "03/14/2020, 02:37:39"}, "type": "Feature"}, {"geometry": {"coordinates": [8.526921, 47.344581], "type": "Point"}, "properties": {"charge": 100, "id": "smide_2690", "name": "ZH254625", "provider": "smide", "range": 50.0, "size": 20, "time": "03/14/2020, 02:37:39"}, "type": "Feature"}, {"geometry": {"coordinates": [8.553856, 47.358324], "type": "Point"}, "properties": {"charge": 34, "id": "smide_2689", "name": "ZH254623", "provider": "smide", "range": 17.0, "size": 20, "time": "03/14/2020, 02:37:39"}, "type": "Feature"}, {"geometry": {"coordinates": [8.554867, 47.354908], "type": "Point"}, "properties": {"charge": 50, "id": "smide_2687", "name": "ZH263529", "provider": "smide", "range": 25.0, "size": 20, "time": "03/14/2020, 02:37:39"}, "type": "Feature"}, {"geometry": {"coordinates": [8.551851, 47.361672], "type": "Point"}, "properties": {"charge": 51, "id": "smide_2686", "name": "ZH263288", "provider": "smide", "range": 25.0, "size": 20, "time": "03/14/2020, 02:37:39"}, "type": "Feature"}, {"geometry": {"coordinates": [8.550289, 47.392464], "type": "Point"}, "properties": {"charge": 31, "id": "smide_2684", "name": "ZH254626", "provider": "smide", "range": 15.0, "size": 20, "time": "03/14/2020, 02:37:39"}, "type": "Feature"}, {"geometry": {"coordinates": [8.567121, 47.376031], "type": "Point"}, "properties": {"charge": 24, "id": "smide_2683", "name": "ZH254620", "provider": "smide", "range": 12.0, "size": 20, "time": "03/14/2020, 02:37:39"}, "type": "Feature"}, {"geometry": {"coordinates": [8.506194, 47.369348], "type": "Point"}, "properties": {"charge": 64, "id": "smide_2680", "name": "ZH254619", "provider": "smide", "range": 32.0, "size": 20, "time": "03/14/2020, 02:37:39"}, "type": "Feature"}, {"geometry": {"coordinates": [8.517688, 47.41434], "type": "Point"}, "properties": {"charge": 81, "id": "smide_2679", "name": "ZH258489", "provider": "smide", "range": 40.0, "size": 17, "time": "03/14/2020, 02:37:39"}, "type": "Feature"}, {"geometry": {"coordinates": [8.56711, 47.362436], "type": "Point"}, "properties": {"charge": 94, "id": "smide_2674", "name": "ZH258654", "provider": "smide", "range": 47.0, "size": 17, "time": "03/14/2020, 02:37:39"}, "type": "Feature"}, {"geometry": {"coordinates": [8.571525, 47.347232], "type": "Point"}, "properties": {"charge": 97, "id": "smide_2671", "name": "ZH258645", "provider": "smide", "range": 48.0, "size": 17, "time": "03/14/2020, 02:37:39"}, "type": "Feature"}, {"geometry": {"coordinates": [8.56607, 47.356744], "type": "Point"}, "properties": {"charge": 73, "id": "smide_2669", "name": "ZH263294", "provider": "smide", "range": 36.0, "size": 17, "time": "03/14/2020, 02:37:39"}, "type": "Feature"}, {"geometry": {"coordinates": [8.51583, 47.379496], "type": "Point"}, "properties": {"charge": 100, "id": "smide_2666", "name": "ZH258653", "provider": "smide", "range": 50.0, "size": 17, "time": "03/14/2020, 02:37:39"}, "type": "Feature"}, {"geometry": {"coordinates": [8.54015, 47.378888], "type": "Point"}, "properties": {"charge": 85, "id": "smide_2664", "name": "ZH258652", "provider": "smide", "range": 42.0, "size": 17, "time": "03/14/2020, 02:37:39"}, "type": "Feature"}, {"geometry": {"coordinates": [8.51847, 47.362904], "type": "Point"}, "properties": {"charge": 51, "id": "smide_2663", "name": "ZH258649", "provider": "smide", "range": 25.0, "size": 17, "time": "03/14/2020, 02:37:39"}, "type": "Feature"}, {"geometry": {"coordinates": [8.537391, 47.379516], "type": "Point"}, "properties": {"charge": 16, "id": "smide_2662", "name": "ZH258643", "provider": "smide", "range": 8.0, "size": 17, "time": "03/14/2020, 02:37:39"}, "type": "Feature"}, {"geometry": {"coordinates": [8.569456, 47.352052], "type": "Point"}, "properties": {"charge": 75, "id": "smide_2660", "name": "ZH258647", "provider": "smide", "range": 37.0, "size": 17, "time": "03/14/2020, 02:37:39"}, "type": "Feature"}, {"geometry": {"coordinates": [8.516624, 47.385024], "type": "Point"}, "properties": {"charge": 58, "id": "smide_2648", "name": "ZH257930", "provider": "smide", "range": 28.0, "size": 20, "time": "03/14/2020, 02:37:39"}, "type": "Feature"}, {"geometry": {"coordinates": [8.569933, 47.352281], "type": "Point"}, "properties": {"charge": 34, "id": "smide_2657", "name": "ZH257936", "provider": "smide", "range": 17.0, "size": 17, "time": "03/14/2020, 02:37:39"}, "type": "Feature"}, {"geometry": {"coordinates": [8.550811, 47.383936], "type": "Point"}, "properties": {"charge": 58, "id": "smide_2647", "name": "ZH257932", "provider": "smide", "range": 28.0, "size": 20, "time": "03/14/2020, 02:37:39"}, "type": "Feature"}, {"geometry": {"coordinates": [8.500218, 47.371932], "type": "Point"}, "properties": {"charge": 31, "id": "smide_2645", "name": "ZH257933", "provider": "smide", "range": 15.0, "size": 20, "time": "03/14/2020, 02:37:39"}, "type": "Feature"}, {"geometry": {"coordinates": [8.539276, 47.417175], "type": "Point"}, "properties": {"charge": 100, "id": "smide_77", "name": "ZH261548", "provider": "smide", "range": 50.0, "size": 20, "time": "03/14/2020, 02:37:39"}, "type": "Feature"}, {"geometry": {"coordinates": [8.534131, 47.380423], "type": "Point"}, "properties": {"charge": 51, "id": "smide_199", "name": "ZH253766", "provider": "smide", "range": 25.0, "size": 20, "time": "03/14/2020, 02:37:39"}, "type": "Feature"}, {"geometry": {"coordinates": [8.534587, 47.380572], "type": "Point"}, "properties": {"charge": 61, "id": "smide_8", "name": "ZH253861", "provider": "smide", "range": 30.0, "size": 17, "time": "03/14/2020, 02:37:39"}, "type": "Feature"}, {"geometry": {"coordinates": [8.508698, 47.35404], "type": "Point"}, "properties": {"charge": 41, "id": "smide_201", "name": "ZH253698", "provider": "smide", "range": 20.0, "size": 17, "time": "03/14/2020, 02:37:39"}, "type": "Feature"}, {"geometry": {"coordinates": [8.508755, 47.384892], "type": "Point"}, "properties": {"charge": 72, "id": "smide_71", "name": "ZH253742", "provider": "smide", "range": 36.0, "size": 20, "time": "03/14/2020, 02:37:39"}, "type": "Feature"}, {"geometry": {"coordinates": [8.513528, 47.361912], "type": "Point"}, "properties": {"charge": 100, "id": "smide_101", "name": "ZH253814", "provider": "smide", "range": 50.0, "size": 17, "time": "03/14/2020, 02:37:39"}, "type": "Feature"}, {"geometry": {"coordinates": [8.542531, 47.385504], "type": "Point"}, "properties": {"charge": 44, "id": "smide_9", "name": "ZH253796", "provider": "smide", "range": 22.0, "size": 17, "time": "03/14/2020, 02:37:39"}, "type": "Feature"}, {"geometry": {"coordinates": [8.572927, 47.352956], "type": "Point"}, "properties": {"charge": 87, "id": "smide_143", "name": "ZH253778", "provider": "smide", "range": 43.0, "size": 17, "time": "03/14/2020, 02:37:39"}, "type": "Feature"}, {"geometry": {"coordinates": [8.503843, 47.399178], "type": "Point"}, "properties": {"charge": 94, "id": "smide_180", "name": "ZH253824", "provider": "smide", "range": 47.0, "size": 20, "time": "03/14/2020, 02:37:39"}, "type": "Feature"}, {"geometry": {"coordinates": [8.51658, 47.3983], "type": "Point"}, "properties": {"charge": 98, "id": "smide_20", "name": "ZH253770", "provider": "smide", "range": 49.0, "size": 20, "time": "03/14/2020, 02:37:39"}, "type": "Feature"}, {"geometry": {"coordinates": [8.569523, 47.35202], "type": "Point"}, "properties": {"charge": 65, "id": "smide_50", "name": "ZH253853", "provider": "smide", "range": 32.0, "size": 17, "time": "03/14/2020, 02:37:39"}, "type": "Feature"}, {"geometry": {"coordinates": [8.514948, 47.37431], "type": "Point"}, "properties": {"charge": 64, "id": "smide_30", "name": "ZH253813", "provider": "smide", "range": 32.0, "size": 20, "time": "03/14/2020, 02:37:39"}, "type": "Feature"}, {"geometry": {"coordinates": [8.550241, 47.387841], "type": "Point"}, "properties": {"charge": 67, "id": "smide_79", "name": "ZH253711", "provider": "smide", "range": 33.0, "size": 20, "time": "03/14/2020, 02:37:39"}, "type": "Feature"}, {"geometry": {"coordinates": [8.532158, 47.400076], "type": "Point"}, "properties": {"charge": 88, "id": "smide_84", "name": "ZH253733", "provider": "smide", "range": 44.0, "size": 17, "time": "03/14/2020, 02:37:39"}, "type": "Feature"}, {"geometry": {"coordinates": [8.490139, 47.381564], "type": "Point"}, "properties": {"charge": 32, "id": "smide_35", "name": "ZH253755", "provider": "smide", "range": 16.0, "size": 20, "time": "03/14/2020, 02:37:39"}, "type": "Feature"}, {"geometry": {"coordinates": [8.515596, 47.36894], "type": "Point"}, "properties": {"charge": 92, "id": "smide_119", "name": "ZH253686", "provider": "smide", "range": 46.0, "size": 20, "time": "03/14/2020, 02:37:39"}, "type": "Feature"}, {"geometry": {"coordinates": [8.535658, 47.368588], "type": "Point"}, "properties": {"charge": 47, "id": "smide_129", "name": "ZH261378", "provider": "smide", "range": 23.0, "size": 17, "time": "03/14/2020, 02:37:39"}, "type": "Feature"}, {"geometry": {"coordinates": [8.569798, 47.352416], "type": "Point"}, "properties": {"charge": 42, "id": "smide_49", "name": "ZH253873", "provider": "smide", "range": 21.0, "size": 17, "time": "03/14/2020, 02:37:39"}, "type": "Feature"}, {"geometry": {"coordinates": [8.510357, 47.395196], "type": "Point"}, "properties": {"charge": 67, "id": "smide_94", "name": "ZH253754", "provider": "smide", "range": 33.0, "size": 17, "time": "03/14/2020, 02:37:39"}, "type": "Feature"}, {"geometry": {"coordinates": [8.58223, 47.351888], "type": "Point"}, "properties": {"charge": 77, "id": "smide_37", "name": "ZH261377", "provider": "smide", "range": 38.0, "size": 20, "time": "03/14/2020, 02:37:39"}, "type": "Feature"}, {"geometry": {"coordinates": [8.544328, 47.391583], "type": "Point"}, "properties": {"charge": 76, "id": "smide_191", "name": "ZH253762", "provider": "smide", "range": 38.0, "size": 17, "time": "03/14/2020, 02:37:39"}, "type": "Feature"}, {"geometry": {"coordinates": [8.510871, 47.378173], "type": "Point"}, "properties": {"charge": 10, "id": "smide_202", "name": "ZH253830", "provider": "smide", "range": 5.0, "size": 17, "time": "03/14/2020, 02:37:39"}, "type": "Feature"}, {"geometry": {"coordinates": [8.530198, 47.3903], "type": "Point"}, "properties": {"charge": 46, "id": "smide_56", "name": "ZH261442", "provider": "smide", "range": 23.0, "size": 20, "time": "03/14/2020, 02:37:39"}, "type": "Feature"}, {"geometry": {"coordinates": [8.519075, 47.337346], "type": "Point"}, "properties": {"charge": 74, "id": "smide_47", "name": "ZH253858", "provider": "smide", "range": 37.0, "size": 17, "time": "03/14/2020, 02:37:39"}, "type": "Feature"}, {"geometry": {"coordinates": [8.513983, 47.365144], "type": "Point"}, "properties": {"charge": 12, "id": "smide_150", "name": "ZH253703", "provider": "smide", "range": 6.0, "size": 20, "time": "03/14/2020, 02:37:39"}, "type": "Feature"}, {"geometry": {"coordinates": [8.583005, 47.351281], "type": "Point"}, "properties": {"charge": 69, "id": "smide_97", "name": "ZH253799", "provider": "smide", "range": 34.0, "size": 20, "time": "03/14/2020, 02:37:39"}, "type": "Feature"}, {"geometry": {"coordinates": [8.5151, 47.373356], "type": "Point"}, "properties": {"charge": 80, "id": "smide_66", "name": "ZH253818", "provider": "smide", "range": 40.0, "size": 20, "time": "03/14/2020, 02:37:39"}, "type": "Feature"}, {"geometry": {"coordinates": [8.531361, 47.36945], "type": "Point"}, "properties": {"charge": 14, "id": "smide_17", "name": "ZH253793", "provider": "smide", "range": 7.0, "size": 17, "time": "03/14/2020, 02:37:39"}, "type": "Feature"}, {"geometry": {"coordinates": [8.523441, 47.395412], "type": "Point"}, "properties": {"charge": 86, "id": "smide_127", "name": "ZH253808", "provider": "smide", "range": 43.0, "size": 20, "time": "03/14/2020, 02:37:39"}, "type": "Feature"}, {"geometry": {"coordinates": [8.530251, 47.350041], "type": "Point"}, "properties": {"charge": 73, "id": "smide_145", "name": "ZH253780", "provider": "smide", "range": 36.0, "size": 20, "time": "03/14/2020, 02:37:39"}, "type": "Feature"}, {"geometry": {"coordinates": [8.556617, 47.385044], "type": "Point"}, "properties": {"charge": 22, "id": "smide_114", "name": "ZH253878", "provider": "smide", "range": 11.0, "size": 20, "time": "03/14/2020, 02:37:39"}, "type": "Feature"}, {"geometry": {"coordinates": [8.545089, 47.387336], "type": "Point"}, "properties": {"charge": 22, "id": "smide_21", "name": "ZH253841", "provider": "smide", "range": 11.0, "size": 17, "time": "03/14/2020, 02:37:39"}, "type": "Feature"}, {"geometry": {"coordinates": [8.514035, 47.374228], "type": "Point"}, "properties": {"charge": 45, "id": "smide_164", "name": "ZH253775", "provider": "smide", "range": 22.0, "size": 17, "time": "03/14/2020, 02:37:39"}, "type": "Feature"}, {"geometry": {"coordinates": [8.489855, 47.384436], "type": "Point"}, "properties": {"charge": 60, "id": "smide_189", "name": "ZH253845", "provider": "smide", "range": 30.0, "size": 20, "time": "03/14/2020, 02:37:39"}, "type": "Feature"}, {"geometry": {"coordinates": [8.574627, 47.352288], "type": "Point"}, "properties": {"charge": 79, "id": "smide_81", "name": "ZH253753", "provider": "smide", "range": 39.0, "size": 17, "time": "03/14/2020, 02:37:39"}, "type": "Feature"}, {"geometry": {"coordinates": [8.541757, 47.392188], "type": "Point"}, "properties": {"charge": 36, "id": "smide_171", "name": "ZH253689", "provider": "smide", "range": 18.0, "size": 20, "time": "03/14/2020, 02:37:39"}, "type": "Feature"}, {"geometry": {"coordinates": [8.544734, 47.411676], "type": "Point"}, "properties": {"charge": 57, "id": "smide_93", "name": "ZH253681", "provider": "smide", "range": 28.0, "size": 17, "time": "03/14/2020, 02:37:39"}, "type": "Feature"}, {"geometry": {"coordinates": [8.527136, 47.356056], "type": "Point"}, "properties": {"charge": 91, "id": "smide_67", "name": "ZH253779", "provider": "smide", "range": 45.0, "size": 17, "time": "03/14/2020, 02:37:39"}, "type": "Feature"}, {"geometry": {"coordinates": [8.563045, 47.363371], "type": "Point"}, "properties": {"charge": 22, "id": "smide_118", "name": "ZH253759", "provider": "smide", "range": 11.0, "size": 20, "time": "03/14/2020, 02:37:39"}, "type": "Feature"}, {"geometry": {"coordinates": [8.507612, 47.42134], "type": "Point"}, "properties": {"charge": 16, "id": "smide_142", "name": "ZH258745", "provider": "smide", "range": 8.0, "size": 17, "time": "03/14/2020, 02:37:39"}, "type": "Feature"}, {"geometry": {"coordinates": [8.546213, 47.419875], "type": "Point"}, "properties": {"charge": 100, "id": "smide_166", "name": "ZH253728", "provider": "smide", "range": 50.0, "size": 17, "time": "03/14/2020, 02:37:39"}, "type": "Feature"}, {"geometry": {"coordinates": [8.555234, 47.375384], "type": "Point"}, "properties": {"charge": 75, "id": "smide_126", "name": "ZH268400", "provider": "smide", "range": 37.0, "size": 17, "time": "03/14/2020, 02:37:39"}, "type": "Feature"}, {"geometry": {"coordinates": [8.560696, 47.417348], "type": "Point"}, "properties": {"charge": 79, "id": "smide_44", "name": "ZH253837", "provider": "smide", "range": 39.0, "size": 17, "time": "03/14/2020, 02:37:39"}, "type": "Feature"}, {"geometry": {"coordinates": [8.547768, 47.401326], "type": "Point"}, "properties": {"charge": 43, "id": "smide_57", "name": "ZH253772", "provider": "smide", "range": 21.0, "size": 17, "time": "03/14/2020, 02:37:39"}, "type": "Feature"}, {"geometry": {"coordinates": [8.512784, 47.392104], "type": "Point"}, "properties": {"charge": 62, "id": "smide_154", "name": "ZH253744", "provider": "smide", "range": 31.0, "size": 20, "time": "03/14/2020, 02:37:39"}, "type": "Feature"}, {"geometry": {"coordinates": [8.517981, 47.358544], "type": "Point"}, "properties": {"charge": 24, "id": "smide_92", "name": "ZH253798", "provider": "smide", "range": 12.0, "size": 17, "time": "03/14/2020, 02:37:39"}, "type": "Feature"}, {"geometry": {"coordinates": [8.531772, 47.40126], "type": "Point"}, "properties": {"charge": 100, "id": "smide_65", "name": "ZH253810", "provider": "smide", "range": 50.0, "size": 17, "time": "03/14/2020, 02:37:39"}, "type": "Feature"}, {"geometry": {"coordinates": [8.52089, 47.411672], "type": "Point"}, "properties": {"charge": 88, "id": "smide_111", "name": "ZH253763", "provider": "smide", "range": 44.0, "size": 17, "time": "03/14/2020, 02:37:39"}, "type": "Feature"}, {"geometry": {"coordinates": [8.563064, 47.382536], "type": "Point"}, "properties": {"charge": 56, "id": "smide_1", "name": "ZH253776", "provider": "smide", "range": 28.0, "size": 17, "time": "03/14/2020, 02:37:39"}, "type": "Feature"}, {"geometry": {"coordinates": [8.527248, 47.353328], "type": "Point"}, "properties": {"charge": 87, "id": "smide_28", "name": "ZH253831", "provider": "smide", "range": 43.0, "size": 17, "time": "03/14/2020, 02:37:39"}, "type": "Feature"}, {"geometry": {"coordinates": [8.521425, 47.39732], "type": "Point"}, "properties": {"charge": 91, "id": "smide_14", "name": "ZH253749", "provider": "smide", "range": 45.0, "size": 20, "time": "03/14/2020, 02:37:39"}, "type": "Feature"}, {"geometry": {"coordinates": [8.5178, 47.385972], "type": "Point"}, "properties": {"charge": 16, "id": "smide_130", "name": "ZH253847", "provider": "smide", "range": 8.0, "size": 20, "time": "03/14/2020, 02:37:39"}, "type": "Feature"}, {"geometry": {"coordinates": [8.557465, 47.356353], "type": "Point"}, "properties": {"charge": 84, "id": "smide_24", "name": "ZH253696", "provider": "smide", "range": 42.0, "size": 20, "time": "03/14/2020, 02:37:39"}, "type": "Feature"}, {"geometry": {"coordinates": [8.52789, 47.390608], "type": "Point"}, "properties": {"charge": 84, "id": "smide_107", "name": "ZH253819", "provider": "smide", "range": 42.0, "size": 17, "time": "03/14/2020, 02:37:39"}, "type": "Feature"}, {"geometry": {"coordinates": [8.507782, 47.391456], "type": "Point"}, "properties": {"charge": 98, "id": "smide_136", "name": "ZH253682", "provider": "smide", "range": 49.0, "size": 17, "time": "03/14/2020, 02:37:39"}, "type": "Feature"}, {"geometry": {"coordinates": [8.493965, 47.400463], "type": "Point"}, "properties": {"charge": 74, "id": "smide_73", "name": "ZH261379", "provider": "smide", "range": 37.0, "size": 20, "time": "03/14/2020, 02:37:39"}, "type": "Feature"}, {"geometry": {"coordinates": [8.51829, 47.367668], "type": "Point"}, "properties": {"charge": 93, "id": "smide_158", "name": "ZH253870", "provider": "smide", "range": 46.0, "size": 20, "time": "03/14/2020, 02:37:39"}, "type": "Feature"}, {"geometry": {"coordinates": [8.564518, 47.371696], "type": "Point"}, "properties": {"charge": 100, "id": "smide_100", "name": "ZH253862", "provider": "smide", "range": 50.0, "size": 20, "time": "03/14/2020, 02:37:39"}, "type": "Feature"}, {"geometry": {"coordinates": [8.555415, 47.384031], "type": "Point"}, "properties": {"charge": 85, "id": "smide_141", "name": "ZH253800", "provider": "smide", "range": 42.0, "size": 20, "time": "03/14/2020, 02:37:39"}, "type": "Feature"}, {"geometry": {"coordinates": [8.53492, 47.348926], "type": "Point"}, "properties": {"charge": 91, "id": "smide_149", "name": "ZH253743", "provider": "smide", "range": 45.0, "size": 20, "time": "03/14/2020, 02:37:39"}, "type": "Feature"}, {"geometry": {"coordinates": [8.550825, 47.39236], "type": "Point"}, "properties": {"charge": 35, "id": "smide_16", "name": "ZH253713", "provider": "smide", "range": 17.0, "size": 20, "time": "03/14/2020, 02:37:39"}, "type": "Feature"}, {"geometry": {"coordinates": [8.562582, 47.408928], "type": "Point"}, "properties": {"charge": 26, "id": "smide_74", "name": "ZH253693", "provider": "smide", "range": 13.0, "size": 20, "time": "03/14/2020, 02:37:39"}, "type": "Feature"}, {"geometry": {"coordinates": [8.55768, 47.406706], "type": "Point"}, "properties": {"charge": 100, "id": "smide_33", "name": "ZH253782", "provider": "smide", "range": 50.0, "size": 20, "time": "03/14/2020, 02:37:39"}, "type": "Feature"}, {"geometry": {"coordinates": [8.57388, 47.352744], "type": "Point"}, "properties": {"charge": 53, "id": "smide_161", "name": "ZH253691", "provider": "smide", "range": 26.0, "size": 20, "time": "03/14/2020, 02:37:39"}, "type": "Feature"}, {"geometry": {"coordinates": [8.564631, 47.369378], "type": "Point"}, "properties": {"charge": 67, "id": "smide_183", "name": "ZH253868", "provider": "smide", "range": 33.0, "size": 17, "time": "03/14/2020, 02:37:39"}, "type": "Feature"}, {"geometry": {"coordinates": [8.566134, 47.38016], "type": "Point"}, "properties": {"charge": 41, "id": "smide_42", "name": "ZH253846", "provider": "smide", "range": 20.0, "size": 20, "time": "03/14/2020, 02:37:39"}, "type": "Feature"}, {"geometry": {"coordinates": [8.517681, 47.41432], "type": "Point"}, "properties": {"charge": 83, "id": "smide_4", "name": "ZH253740", "provider": "smide", "range": 41.0, "size": 20, "time": "03/14/2020, 02:37:39"}, "type": "Feature"}, {"geometry": {"coordinates": [8.529959, 47.337304], "type": "Point"}, "properties": {"charge": 93, "id": "smide_160", "name": "ZH253722", "provider": "smide", "range": 46.0, "size": 17, "time": "03/14/2020, 02:37:39"}, "type": "Feature"}, {"geometry": {"coordinates": [8.518391, 47.414443], "type": "Point"}, "properties": {"charge": 66, "id": "smide_137", "name": "ZH258502", "provider": "smide", "range": 33.0, "size": 17, "time": "03/14/2020, 02:37:39"}, "type": "Feature"}, {"geometry": {"coordinates": [8.533488, 47.40938], "type": "Point"}, "properties": {"charge": 77, "id": "smide_96", "name": "ZH256146", "provider": "smide", "range": 38.0, "size": 20, "time": "03/14/2020, 02:37:39"}, "type": "Feature"}, {"geometry": {"coordinates": [8.557256, 47.403568], "type": "Point"}, "properties": {"charge": 90, "id": "smide_58", "name": "ZH259246", "provider": "smide", "range": 45.0, "size": 20, "time": "03/14/2020, 02:37:39"}, "type": "Feature"}, {"geometry": {"coordinates": [8.560155, 47.381364], "type": "Point"}, "properties": {"charge": 23, "id": "smide_54", "name": "ZH253874", "provider": "smide", "range": 11.0, "size": 20, "time": "03/14/2020, 02:37:39"}, "type": "Feature"}, {"geometry": {"coordinates": [8.489189, 47.386524], "type": "Point"}, "properties": {"charge": 98, "id": "smide_175", "name": "ZH253730", "provider": "smide", "range": 49.0, "size": 17, "time": "03/14/2020, 02:37:39"}, "type": "Feature"}, {"geometry": {"coordinates": [8.557596, 47.383433], "type": "Point"}, "properties": {"charge": 100, "id": "smide_162", "name": "ZH253760", "provider": "smide", "range": 50.0, "size": 17, "time": "03/14/2020, 02:37:39"}, "type": "Feature"}, {"geometry": {"coordinates": [8.523441, 47.39606], "type": "Point"}, "properties": {"charge": 88, "id": "smide_95", "name": "ZH253773", "provider": "smide", "range": 44.0, "size": 17, "time": "03/14/2020, 02:37:39"}, "type": "Feature"}, {"geometry": {"coordinates": [8.544389, 47.383904], "type": "Point"}, "properties": {"charge": 56, "id": "smide_163", "name": "ZH256147", "provider": "smide", "range": 28.0, "size": 20, "time": "03/14/2020, 02:37:39"}, "type": "Feature"}, {"geometry": {"coordinates": [8.484751, 47.374488], "type": "Point"}, "properties": {"charge": 81, "id": "smide_112", "name": "ZH263530", "provider": "smide", "range": 40.0, "size": 20, "time": "03/14/2020, 02:37:39"}, "type": "Feature"}, {"geometry": {"coordinates": [8.57515, 47.373356], "type": "Point"}, "properties": {"charge": 99, "id": "smide_38", "name": "ZH253851", "provider": "smide", "range": 49.0, "size": 20, "time": "03/14/2020, 02:37:39"}, "type": "Feature"}, {"geometry": {"coordinates": [8.559816, 47.376664], "type": "Point"}, "properties": {"charge": 81, "id": "smide_6", "name": "ZH253787", "provider": "smide", "range": 40.0, "size": 17, "time": "03/14/2020, 02:37:39"}, "type": "Feature"}, {"geometry": {"coordinates": [8.504603, 47.423425], "type": "Point"}, "properties": {"charge": 89, "id": "smide_18", "name": "ZH253859", "provider": "smide", "range": 44.0, "size": 17, "time": "03/14/2020, 02:37:39"}, "type": "Feature"}, {"geometry": {"coordinates": [8.520601, 47.36584], "type": "Point"}, "properties": {"charge": 43, "id": "smide_192", "name": "ZH253706", "provider": "smide", "range": 21.0, "size": 20, "time": "03/14/2020, 02:37:39"}, "type": "Feature"}, {"geometry": {"coordinates": [8.547178, 47.413013], "type": "Point"}, "properties": {"charge": 57, "id": "smide_39", "name": "ZH253714", "provider": "smide", "range": 28.0, "size": 20, "time": "03/14/2020, 02:37:39"}, "type": "Feature"}, {"geometry": {"coordinates": [8.557825, 47.37288], "type": "Point"}, "properties": {"charge": 100, "id": "smide_5", "name": "ZH261443", "provider": "smide", "range": 50.0, "size": 20, "time": "03/14/2020, 02:37:39"}, "type": "Feature"}, {"geometry": {"coordinates": [8.554495, 47.417821], "type": "Point"}, "properties": {"charge": 83, "id": "smide_85", "name": "ZH253729", "provider": "smide", "range": 41.0, "size": 17, "time": "03/14/2020, 02:37:39"}, "type": "Feature"}, {"geometry": {"coordinates": [8.510147, 47.352764], "type": "Point"}, "properties": {"charge": 52, "id": "smide_29", "name": "ZH253723", "provider": "smide", "range": 26.0, "size": 17, "time": "03/14/2020, 02:37:39"}, "type": "Feature"}, {"geometry": {"coordinates": [8.551523, 47.39203], "type": "Point"}, "properties": {"charge": 42, "id": "smide_132", "name": "ZH253857", "provider": "smide", "range": 21.0, "size": 17, "time": "03/14/2020, 02:37:39"}, "type": "Feature"}, {"geometry": {"coordinates": [8.53662333333333, 47.36987], "type": "Point"}, "properties": {"charge": 96, "id": "bird_9b438d48-8d67-41b4-b5db-9eb2fbf35141", "provider": "bird", "timeStamp": "03/14/2020, 06:25:40"}, "type": "Feature"}, {"geometry": {"coordinates": [8.51477666666667, 47.3760033333333], "type": "Point"}, "properties": {"charge": 80, "id": "bird_9ecf6a6d-97f8-495c-8250-e25a13ceebb2", "provider": "bird", "timeStamp": "03/14/2020, 06:25:40"}, "type": "Feature"}, {"geometry": {"coordinates": [8.54292, 47.3732416666667], "type": "Point"}, "properties": {"charge": 62, "id": "bird_fa95c6a8-36e6-4386-b898-8192dd24c2ea", "provider": "bird", "timeStamp": "03/14/2020, 06:25:40"}, "type": "Feature"}, {"geometry": {"coordinates": [8.52760333333333, 47.390885], "type": "Point"}, "properties": {"charge": 83, "id": "bird_186f4f59-3a82-418a-8f10-e9e8f7f2f1b1", "provider": "bird", "timeStamp": "03/14/2020, 06:25:40"}, "type": "Feature"}, {"geometry": {"coordinates": [8.52274666666667, 47.3702616666667], "type": "Point"}, "properties": {"charge": 88, "id": "bird_6aff773c-69ef-46da-811b-415ac921b1b5", "provider": "bird", "timeStamp": "03/14/2020, 06:25:40"}, "type": "Feature"}, {"geometry": {"coordinates": [8.53384333333333, 47.36945], "type": "Point"}, "properties": {"charge": 27, "id": "bird_1e66631b-88e1-4c5a-b91e-fbf33f5803b3", "provider": "bird", "timeStamp": "03/14/2020, 06:25:40"}, "type": "Feature"}, {"geometry": {"coordinates": [8.52169833333333, 47.3892966666667], "type": "Point"}, "properties": {"charge": 89, "id": "bird_c5cd7c31-5223-4196-ad92-d23501d648bb", "provider": "bird", "timeStamp": "03/14/2020, 06:25:40"}, "type": "Feature"}, {"geometry": {"coordinates": [8.51627333333333, 47.3855816666667], "type": "Point"}, "properties": {"charge": 97, "id": "bird_e414e3a4-69e7-440a-a3f8-2dbfd43a5ef8", "provider": "bird", "timeStamp": "03/14/2020, 06:25:40"}, "type": "Feature"}, {"geometry": {"coordinates": [8.51494, 47.376335], "type": "Point"}, "properties": {"charge": 60, "id": "bird_c3daf80d-1d7b-4826-86ff-be1dd0da8e0f", "provider": "bird", "timeStamp": "03/14/2020, 06:25:40"}, "type": "Feature"}, {"geometry": {"coordinates": [8.51986166666667, 47.3883783333333], "type": "Point"}, "properties": {"charge": 91, "id": "bird_79dde01e-810b-4439-9b47-12df708a339d", "provider": "bird", "timeStamp": "03/14/2020, 06:25:40"}, "type": "Feature"}, {"geometry": {"coordinates": [8.5163, 47.385555], "type": "Point"}, "properties": {"charge": 24, "id": "bird_ee094f8c-0aa4-43ef-b66d-cae174df4978", "provider": "bird", "timeStamp": "03/14/2020, 06:25:40"}, "type": "Feature"}, {"geometry": {"coordinates": [8.54135666666667, 47.3724433333333], "type": "Point"}, "properties": {"charge": 18, "id": "bird_b9de4e65-e232-4a47-9991-15018c578836", "provider": "bird", "timeStamp": "03/14/2020, 06:25:40"}, "type": "Feature"}, {"geometry": {"coordinates": [8.51537166666667, 47.3758583333333], "type": "Point"}, "properties": {"charge": 33, "id": "bird_78887676-af65-497c-8502-11e4dabe8dcd", "provider": "bird", "timeStamp": "03/14/2020, 06:25:40"}, "type": "Feature"}, {"geometry": {"coordinates": [8.51433833333333, 47.37867], "type": "Point"}, "properties": {"charge": 34, "id": "bird_55236b32-2ce2-4da5-a90c-5bb454651857", "provider": "bird", "timeStamp": "03/14/2020, 06:25:40"}, "type": "Feature"}, {"geometry": {"coordinates": [8.51591333333333, 47.3752816666667], "type": "Point"}, "properties": {"charge": 62, "id": "bird_5723df33-e7c0-4d26-9830-f0d6661874a2", "provider": "bird", "timeStamp": "03/14/2020, 06:25:40"}, "type": "Feature"}, {"geometry": {"coordinates": [8.54311, 47.3741866666667], "type": "Point"}, "properties": {"charge": 93, "id": "bird_ab55e462-5819-437d-9482-7b7ee3a41a12", "provider": "bird", "timeStamp": "03/14/2020, 06:25:40"}, "type": "Feature"}, {"geometry": {"coordinates": [8.52526833333333, 47.3698883333333], "type": "Point"}, "properties": {"charge": 48, "id": "bird_d7405cdf-b4a2-4ef1-a87e-ef3887592ef4", "provider": "bird", "timeStamp": "03/14/2020, 06:25:40"}, "type": "Feature"}, {"geometry": {"coordinates": [8.51710166666667, 47.3859983333333], "type": "Point"}, "properties": {"charge": 61, "id": "bird_653678b5-efee-4426-9ce2-9d760ce83ebf", "provider": "bird", "timeStamp": "03/14/2020, 06:25:40"}, "type": "Feature"}, {"geometry": {"coordinates": [8.54299, 47.3741983333333], "type": "Point"}, "properties": {"charge": 97, "id": "bird_fbbbc2f4-211b-4104-9bae-78a57b66a8e4", "provider": "bird", "timeStamp": "03/14/2020, 06:25:40"}, "type": "Feature"}, {"geometry": {"coordinates": [8.52333166666667, 47.37048], "type": "Point"}, "properties": {"charge": 30, "id": "bird_562ab958-fbaa-43e0-b71c-798c57843759", "provider": "bird", "timeStamp": "03/14/2020, 06:25:40"}, "type": "Feature"}, {"geometry": {"coordinates": [8.5446, 47.3835683333333], "type": "Point"}, "properties": {"charge": 31, "id": "bird_9513b46c-9683-4503-983d-8ae43178cf81", "provider": "bird", "timeStamp": "03/14/2020, 06:25:40"}, "type": "Feature"}, {"geometry": {"coordinates": [8.52668166666667, 47.3697583333333], "type": "Point"}, "properties": {"charge": 25, "id": "bird_5895f00c-dc46-4315-a23c-47f451e64c20", "provider": "bird", "timeStamp": "03/14/2020, 06:25:40"}, "type": "Feature"}, {"geometry": {"coordinates": [8.51567666666667, 47.3760266666667], "type": "Point"}, "properties": {"charge": 38, "id": "bird_a5a57d76-f762-4bd0-97a5-483eaa92c7f1", "provider": "bird", "timeStamp": "03/14/2020, 06:25:40"}, "type": "Feature"}, {"geometry": {"coordinates": [8.52074, 47.3883516666667], "type": "Point"}, "properties": {"charge": 62, "id": "bird_3e2feae4-aaac-40fe-aea1-d5eeed958471", "provider": "bird", "timeStamp": "03/14/2020, 06:25:40"}, "type": "Feature"}, {"geometry": {"coordinates": [8.54321833333333, 47.3746266666667], "type": "Point"}, "properties": {"charge": 94, "id": "bird_e8158475-d5cb-4353-b5f5-3d719f9abdf9", "provider": "bird", "timeStamp": "03/14/2020, 06:25:40"}, "type": "Feature"}, {"geometry": {"coordinates": [8.51740166666667, 47.38601], "type": "Point"}, "properties": {"charge": 48, "id": "bird_cb8f2084-ba3a-4579-bdd3-1745e9645430", "provider": "bird", "timeStamp": "03/14/2020, 06:25:40"}, "type": "Feature"}, {"geometry": {"coordinates": [8.51790166666667, 47.38646], "type": "Point"}, "properties": {"charge": 90, "id": "bird_fc888a15-97ad-4f0d-ade8-13bcaa498fe5", "provider": "bird", "timeStamp": "03/14/2020, 06:25:40"}, "type": "Feature"}, {"geometry": {"coordinates": [8.54331, 47.37479], "type": "Point"}, "properties": {"charge": 42, "id": "bird_909a5dd0-a5c2-4412-bccf-1150cc43c72c", "provider": "bird", "timeStamp": "03/14/2020, 06:25:40"}, "type": "Feature"}, {"geometry": {"coordinates": [8.520335, 47.38808], "type": "Point"}, "properties": {"charge": 92, "id": "bird_87b6d302-e77e-4d97-8962-e03d8006971f", "provider": "bird", "timeStamp": "03/14/2020, 06:25:40"}, "type": "Feature"}, {"geometry": {"coordinates": [8.517895, 47.38638], "type": "Point"}, "properties": {"charge": 25, "id": "bird_bd3ba588-957d-4bca-bc47-7e01fba2bf49", "provider": "bird", "timeStamp": "03/14/2020, 06:25:40"}, "type": "Feature"}, {"geometry": {"coordinates": [8.51719666666667, 47.385655], "type": "Point"}, "properties": {"charge": 53, "id": "bird_163edbcd-7489-47d2-a40a-ba02c4ada9d1", "provider": "bird", "timeStamp": "03/14/2020, 06:25:40"}, "type": "Feature"}, {"geometry": {"coordinates": [8.516085, 47.375755], "type": "Point"}, "properties": {"charge": 60, "id": "bird_da8c5ea0-1d80-4d8d-b1f9-c050b2244891", "provider": "bird", "timeStamp": "03/14/2020, 06:25:40"}, "type": "Feature"}, {"geometry": {"coordinates": [8.54454333333333, 47.3769333333333], "type": "Point"}, "properties": {"charge": 25, "id": "bird_aafa499a-46bb-43ad-beb2-1a23b644c081", "provider": "bird", "timeStamp": "03/14/2020, 06:25:40"}, "type": "Feature"}, {"geometry": {"coordinates": [8.54444333333333, 47.3768733333333], "type": "Point"}, "properties": {"charge": 21, "id": "bird_df830265-26bd-4f65-bef2-b5092a5d6a1b", "provider": "bird", "timeStamp": "03/14/2020, 06:25:40"}, "type": "Feature"}, {"geometry": {"coordinates": [8.51519166666667, 47.3821483333333], "type": "Point"}, "properties": {"charge": 93, "id": "bird_7f7a9bb3-3d23-4e04-b76b-5059e7428f71", "provider": "bird", "timeStamp": "03/14/2020, 06:25:40"}, "type": "Feature"}, {"geometry": {"coordinates": [8.51697666666667, 47.3852233333333], "type": "Point"}, "properties": {"charge": 25, "id": "bird_419da4fd-3986-4694-8d4f-984f8a87ae59", "provider": "bird", "timeStamp": "03/14/2020, 06:25:40"}, "type": "Feature"}, {"geometry": {"coordinates": [8.51525666666667, 47.3821566666667], "type": "Point"}, "properties": {"charge": 96, "id": "bird_eae67d5b-d8e4-4b17-b4ee-3233bc298e3c", "provider": "bird", "timeStamp": "03/14/2020, 06:25:40"}, "type": "Feature"}, {"geometry": {"coordinates": [8.515265, 47.38218], "type": "Point"}, "properties": {"charge": 87, "id": "bird_3f266887-c733-4b6f-9603-96d89c8cf9bd", "provider": "bird", "timeStamp": "03/14/2020, 06:25:40"}, "type": "Feature"}, {"geometry": {"coordinates": [8.54341166666667, 47.37537], "type": "Point"}, "properties": {"charge": 96, "id": "bird_c2750948-2e1d-46e8-b99e-4f4d7916ccf5", "provider": "bird", "timeStamp": "03/14/2020, 06:25:40"}, "type": "Feature"}, {"geometry": {"coordinates": [8.51530833333333, 47.3821683333333], "type": "Point"}, "properties": {"charge": 93, "id": "bird_125dd41b-56c4-42b0-92b8-3598ad858eea", "provider": "bird", "timeStamp": "03/14/2020, 06:25:40"}, "type": "Feature"}, {"geometry": {"coordinates": [8.542615, 47.3855283333333], "type": "Point"}, "properties": {"charge": 84, "id": "bird_b949f64d-38dd-431e-ace9-d9ef7c5f0625", "provider": "bird", "timeStamp": "03/14/2020, 06:25:40"}, "type": "Feature"}, {"geometry": {"coordinates": [8.51535, 47.382145], "type": "Point"}, "properties": {"charge": 96, "id": "bird_1a124d51-0cb5-4c02-a3f2-ec002f11a48d", "provider": "bird", "timeStamp": "03/14/2020, 06:25:40"}, "type": "Feature"}, {"geometry": {"coordinates": [8.51805666666667, 47.3861116666667], "type": "Point"}, "properties": {"charge": 87, "id": "bird_76d6a30c-0d62-4774-a232-c160387aab72", "provider": "bird", "timeStamp": "03/14/2020, 06:25:40"}, "type": "Feature"}, {"geometry": {"coordinates": [8.51683666666667, 47.3751983333333], "type": "Point"}, "properties": {"charge": 89, "id": "bird_f2c90331-b0b2-46d1-9f86-3b5884465ee7", "provider": "bird", "timeStamp": "03/14/2020, 06:25:40"}, "type": "Feature"}, {"geometry": {"coordinates": [8.51684333333333, 47.37519], "type": "Point"}, "properties": {"charge": 87, "id": "bird_280470cb-d875-4827-8f56-0d87654f29e3", "provider": "bird", "timeStamp": "03/14/2020, 06:25:40"}, "type": "Feature"}, {"geometry": {"coordinates": [8.518245, 47.3862533333333], "type": "Point"}, "properties": {"charge": 90, "id": "bird_c88e5f93-60b5-44a6-9c77-0db2c0b8c4b7", "provider": "bird", "timeStamp": "03/14/2020, 06:25:40"}, "type": "Feature"}, {"geometry": {"coordinates": [8.532995, 47.370095], "type": "Point"}, "properties": {"charge": 96, "id": "bird_7d8b0ba3-e0dd-49da-9766-3b16b97917c0", "provider": "bird", "timeStamp": "03/14/2020, 06:25:40"}, "type": "Feature"}, {"geometry": {"coordinates": [8.52709, 47.37009], "type": "Point"}, "properties": {"charge": 36, "id": "bird_d50180ad-6a94-48c6-826f-749ab435d402", "provider": "bird", "timeStamp": "03/14/2020, 06:25:40"}, "type": "Feature"}, {"geometry": {"coordinates": [8.52322666666667, 47.3710483333333], "type": "Point"}, "properties": {"charge": 98, "id": "bird_61fe1fd7-5cea-46f9-a963-4bca629c4eab", "provider": "bird", "timeStamp": "03/14/2020, 06:25:40"}, "type": "Feature"}, {"geometry": {"coordinates": [8.52322166666667, 47.37106], "type": "Point"}, "properties": {"charge": 97, "id": "bird_8ba3d714-21c5-401a-95ca-dc79d5fabc8e", "provider": "bird", "timeStamp": "03/14/2020, 06:25:40"}, "type": "Feature"}, {"geometry": {"coordinates": [8.52703333333333, 47.370155], "type": "Point"}, "properties": {"charge": 36, "id": "bird_e8a4dae6-658e-4069-8241-f440a391ff12", "provider": "bird", "timeStamp": "03/14/2020, 06:25:40"}, "type": "Feature"}, {"geometry": {"coordinates": [8.518495, 47.3863416666667], "type": "Point"}, "properties": {"charge": 89, "id": "bird_63c633f3-8246-4283-89a5-5d7291108aa5", "provider": "bird", "timeStamp": "03/14/2020, 06:25:40"}, "type": "Feature"}, {"geometry": {"coordinates": [8.51813833333333, 47.3860316666667], "type": "Point"}, "properties": {"charge": 91, "id": "bird_83e47199-070c-48bc-9ce6-02aa2d4d999c", "provider": "bird", "timeStamp": "03/14/2020, 06:25:40"}, "type": "Feature"}, {"geometry": {"coordinates": [8.518055, 47.3859483333333], "type": "Point"}, "properties": {"charge": 49, "id": "bird_d5d36279-f8a9-43eb-8559-fad21a047e75", "provider": "bird", "timeStamp": "03/14/2020, 06:25:40"}, "type": "Feature"}, {"geometry": {"coordinates": [8.51834166666667, 47.3862033333333], "type": "Point"}, "properties": {"charge": 87, "id": "bird_80439f98-4cb0-4dcb-8977-432822fa77d8", "provider": "bird", "timeStamp": "03/14/2020, 06:25:40"}, "type": "Feature"}, {"geometry": {"coordinates": [8.518445, 47.3862883333333], "type": "Point"}, "properties": {"charge": 91, "id": "bird_47726cd4-ffbc-47ca-93e8-8d0d76522540", "provider": "bird", "timeStamp": "03/14/2020, 06:25:40"}, "type": "Feature"}, {"geometry": {"coordinates": [8.51852833333333, 47.3736716666667], "type": "Point"}, "properties": {"charge": 20, "id": "bird_0df143d0-ec7d-4311-8789-419f5468b4c6", "provider": "bird", "timeStamp": "03/14/2020, 06:25:40"}, "type": "Feature"}, {"geometry": {"coordinates": [8.52314833333333, 47.3711283333333], "type": "Point"}, "properties": {"charge": 99, "id": "bird_efb3f231-8074-4b89-9d64-adcaafafeb2a", "provider": "bird", "timeStamp": "03/14/2020, 06:25:40"}, "type": "Feature"}, {"geometry": {"coordinates": [8.52314166666667, 47.3711516666667], "type": "Point"}, "properties": {"charge": 99, "id": "bird_be52b1ef-0497-4dc5-ac1a-09e883f73cd7", "provider": "bird", "timeStamp": "03/14/2020, 06:25:40"}, "type": "Feature"}, {"geometry": {"coordinates": [8.52318333333333, 47.37114], "type": "Point"}, "properties": {"charge": 98, "id": "bird_73137f0d-a01b-4701-bd95-ea9ba33f7e16", "provider": "bird", "timeStamp": "03/14/2020, 06:25:40"}, "type": "Feature"}, {"geometry": {"coordinates": [8.523115, 47.3711733333333], "type": "Point"}, "properties": {"charge": 100, "id": "bird_bdbd3a76-9290-4f00-b036-2792f9dca189", "provider": "bird", "timeStamp": "03/14/2020, 06:25:40"}, "type": "Feature"}, {"geometry": {"coordinates": [8.51586166666667, 47.3772816666667], "type": "Point"}, "properties": {"charge": 35, "id": "bird_9e3cdddd-d926-4ce9-ad83-dc050b228450", "provider": "bird", "timeStamp": "03/14/2020, 06:25:40"}, "type": "Feature"}, {"geometry": {"coordinates": [8.52312666666667, 47.3887833333333], "type": "Point"}, "properties": {"charge": 78, "id": "bird_37efc991-17ca-44fd-8cf3-8e5ff6644a41", "provider": "bird", "timeStamp": "03/14/2020, 06:25:40"}, "type": "Feature"}, {"geometry": {"coordinates": [8.523055, 47.371265], "type": "Point"}, "properties": {"charge": 99, "id": "bird_74f50a4e-33d6-4f8e-b5ef-035321f06863", "provider": "bird", "timeStamp": "03/14/2020, 06:25:40"}, "type": "Feature"}, {"geometry": {"coordinates": [8.52743, 47.37024], "type": "Point"}, "properties": {"charge": 53, "id": "bird_5d55ec99-0e9e-42c8-9440-40732e7a34a9", "provider": "bird", "timeStamp": "03/14/2020, 06:25:40"}, "type": "Feature"}, {"geometry": {"coordinates": [8.51810833333333, 47.3857616666667], "type": "Point"}, "properties": {"charge": 98, "id": "bird_10cc11cf-26ed-42e8-a77d-7c07deb4af76", "provider": "bird", "timeStamp": "03/14/2020, 06:25:40"}, "type": "Feature"}, {"geometry": {"coordinates": [8.52305833333333, 47.3713066666667], "type": "Point"}, "properties": {"charge": 100, "id": "bird_2c40f23b-59df-45d2-93ff-71fe2d68d617", "provider": "bird", "timeStamp": "03/14/2020, 06:25:40"}, "type": "Feature"}, {"geometry": {"coordinates": [8.52344833333333, 47.3711966666667], "type": "Point"}, "properties": {"charge": 98, "id": "bird_29bc4c9d-fb1e-4b58-a741-f21a9dc5c718", "provider": "bird", "timeStamp": "03/14/2020, 06:25:40"}, "type": "Feature"}, {"geometry": {"coordinates": [8.52263166666667, 47.3885], "type": "Point"}, "properties": {"charge": 52, "id": "bird_54a2ea44-9e0d-464d-baf4-cb4e8b88d752", "provider": "bird", "timeStamp": "03/14/2020, 06:25:40"}, "type": "Feature"}, {"geometry": {"coordinates": [8.51868333333333, 47.386185], "type": "Point"}, "properties": {"charge": 36, "id": "bird_5f566b97-6c62-4e8c-8fc9-771310722a16", "provider": "bird", "timeStamp": "03/14/2020, 06:25:40"}, "type": "Feature"}, {"geometry": {"coordinates": [8.53311666666667, 47.370385], "type": "Point"}, "properties": {"charge": 10, "id": "bird_840608e6-3031-49d7-8b7d-bd2fffb016c9", "provider": "bird", "timeStamp": "03/14/2020, 06:25:40"}, "type": "Feature"}, {"geometry": {"coordinates": [8.51580166666667, 47.382115], "type": "Point"}, "properties": {"charge": 75, "id": "bird_857f3f09-220e-45be-bbc1-00ca3d0ab5bc", "provider": "bird", "timeStamp": "03/14/2020, 06:25:40"}, "type": "Feature"}, {"geometry": {"coordinates": [8.52345, 47.3712266666667], "type": "Point"}, "properties": {"charge": 100, "id": "bird_8f151fd5-2115-4981-827b-f7be1ce7f1f0", "provider": "bird", "timeStamp": "03/14/2020, 06:25:40"}, "type": "Feature"}, {"geometry": {"coordinates": [8.52356833333333, 47.3712], "type": "Point"}, "properties": {"charge": 99, "id": "bird_8a7d0096-3084-4508-aacc-841914f7314b", "provider": "bird", "timeStamp": "03/14/2020, 06:25:40"}, "type": "Feature"}, {"geometry": {"coordinates": [8.52356, 47.3712266666667], "type": "Point"}, "properties": {"charge": 98, "id": "bird_eb89c6d7-b9d8-4b04-8ac5-32ff5fa1c8c3", "provider": "bird", "timeStamp": "03/14/2020, 06:25:40"}, "type": "Feature"}, {"geometry": {"coordinates": [8.518565, 47.3859283333333], "type": "Point"}, "properties": {"charge": 71, "id": "bird_0690ddd4-f1e2-4ebb-b3f7-f7ef64db5ae6", "provider": "bird", "timeStamp": "03/14/2020, 06:25:40"}, "type": "Feature"}, {"geometry": {"coordinates": [8.51870666666667, 47.373985], "type": "Point"}, "properties": {"charge": 67, "id": "bird_5e6e5aa0-766b-434d-bde7-e7d73056a03e", "provider": "bird", "timeStamp": "03/14/2020, 06:25:40"}, "type": "Feature"}, {"geometry": {"coordinates": [8.52391833333333, 47.38866], "type": "Point"}, "properties": {"charge": 84, "id": "bird_a056eb64-f874-4e2e-b0a4-2fe55f6a8911", "provider": "bird", "timeStamp": "03/14/2020, 06:25:40"}, "type": "Feature"}, {"geometry": {"coordinates": [8.51631833333333, 47.377755], "type": "Point"}, "properties": {"charge": 20, "id": "bird_9dfd54ae-c952-4fb4-89c3-6d46ff8acb81", "provider": "bird", "timeStamp": "03/14/2020, 06:25:40"}, "type": "Feature"}, {"geometry": {"coordinates": [8.52776, 47.3705983333333], "type": "Point"}, "properties": {"charge": 62, "id": "bird_15b62155-3500-47b7-8a77-05af07b778d4", "provider": "bird", "timeStamp": "03/14/2020, 06:25:40"}, "type": "Feature"}, {"geometry": {"coordinates": [8.516095, 47.38129], "type": "Point"}, "properties": {"charge": 82, "id": "bird_2948afd4-278a-4917-b8a6-8af9f6b58c3e", "provider": "bird", "timeStamp": "03/14/2020, 06:25:40"}, "type": "Feature"}, {"geometry": {"coordinates": [8.51639333333333, 47.3778883333333], "type": "Point"}, "properties": {"charge": 42, "id": "bird_70fa13cd-7aa5-4d94-a117-a4968b5a732b", "provider": "bird", "timeStamp": "03/14/2020, 06:25:40"}, "type": "Feature"}, {"geometry": {"coordinates": [8.51895833333333, 47.3856116666667], "type": "Point"}, "properties": {"charge": 51, "id": "bird_ee9b8435-5dcb-4a5b-b770-273f22e066ca", "provider": "bird", "timeStamp": "03/14/2020, 06:25:40"}, "type": "Feature"}, {"geometry": {"coordinates": [8.517575, 47.37603], "type": "Point"}, "properties": {"charge": 27, "id": "bird_487563dd-8acd-4f43-81f2-c1bbf7e6f513", "provider": "bird", "timeStamp": "03/14/2020, 06:25:40"}, "type": "Feature"}, {"geometry": {"coordinates": [8.51762, 47.3760116666667], "type": "Point"}, "properties": {"charge": 65, "id": "bird_ef3b011e-585e-41c9-a59c-da7d2ecf66aa", "provider": "bird", "timeStamp": "03/14/2020, 06:25:40"}, "type": "Feature"}, {"geometry": {"coordinates": [8.537495, 47.37225], "type": "Point"}, "properties": {"charge": 98, "id": "bird_ebdd4fed-6c30-4227-91a9-79c67fce38da", "provider": "bird", "timeStamp": "03/14/2020, 06:25:40"}, "type": "Feature"}, {"geometry": {"coordinates": [8.537545, 47.3722833333333], "type": "Point"}, "properties": {"charge": 96, "id": "bird_9771e0ab-a7d7-4130-9f3f-45af624aa1da", "provider": "bird", "timeStamp": "03/14/2020, 06:25:40"}, "type": "Feature"}, {"geometry": {"coordinates": [8.54269, 47.3833816666667], "type": "Point"}, "properties": {"charge": 45, "id": "bird_fbb7591b-9078-4fda-965d-bade1bbfc228", "provider": "bird", "timeStamp": "03/14/2020, 06:25:40"}, "type": "Feature"}, {"geometry": {"coordinates": [8.52453666666667, 47.37162], "type": "Point"}, "properties": {"charge": 49, "id": "bird_a74b0483-ded6-4ea5-a970-c9d27a1fe51c", "provider": "bird", "timeStamp": "03/14/2020, 06:25:40"}, "type": "Feature"}, {"geometry": {"coordinates": [8.53527833333333, 47.3716816666667], "type": "Point"}, "properties": {"charge": 36, "id": "bird_a004042c-fcd3-49b0-affb-418fd2b4f7c7", "provider": "bird", "timeStamp": "03/14/2020, 06:25:40"}, "type": "Feature"}, {"geometry": {"coordinates": [8.53555166666667, 47.3718066666667], "type": "Point"}, "properties": {"charge": 36, "id": "bird_a1a5059d-c873-4271-a703-9a5c576cc130", "provider": "bird", "timeStamp": "03/14/2020, 06:25:40"}, "type": "Feature"}, {"geometry": {"coordinates": [8.51916166666667, 47.3750916666667], "type": "Point"}, "properties": {"charge": 57, "id": "bird_a6eff8c5-652a-467b-8cfe-cb6e3614d0d5", "provider": "bird", "timeStamp": "03/14/2020, 06:25:40"}, "type": "Feature"}, {"geometry": {"coordinates": [8.52372, 47.3876], "type": "Point"}, "properties": {"charge": 27, "id": "bird_9bd7ecec-7c75-4ca6-bb52-97387150c67a", "provider": "bird", "timeStamp": "03/14/2020, 06:25:40"}, "type": "Feature"},