{"features": [{"geometry": {"coordinates": [8.540062, 47.374392], "type": "Point"}, "properties": {"address": "Uraniastrasse 7", "electric": 3, "id": "pb_60", "manual": 6, "name": "Demo Station Werdm\u00fchleplatz", "provider": "publibike", "timeStamp": "02/14/2020, 15:09:19", "zip": 8001}, "type": "Feature"}, {"geometry": {"coordinates": [8.5452956, 47.4099615], "type": "Point"}, "properties": {"address": "Querstrasse 8", "electric": 2, "id": "pb_61", "manual": 5, "name": "Marktplatz", "provider": "publibike", "timeStamp": "02/14/2020, 15:09:19", "zip": 8050}, "type": "Feature"}, {"geometry": {"coordinates": [8.5156327, 47.3795837], "type": "Point"}, "properties": {"address": "Bullingerstrasse 5", "electric": 1, "id": "pb_80", "manual": 2, "name": "Bullingerplatz", "provider": "publibike", "timeStamp": "02/14/2020, 15:09:19", "zip": 8004}, "type": "Feature"}, {"geometry": {"coordinates": [8.5104051, 47.3899342], "type": "Point"}, "properties": {"address": "Pfingstweidstrasse 96e", "electric": 3, "id": "pb_81", "manual": 6, "name": "Herdern", "provider": "publibike", "timeStamp": "02/14/2020, 15:09:19", "zip": 8001}, "type": "Feature"}, {"geometry": {"coordinates": [8.535718, 47.359675], "type": "Point"}, "properties": {"address": "Mythenquai 50", "electric": 13, "id": "pb_82", "manual": 6, "name": "Hafen Enge", "provider": "publibike", "timeStamp": "02/14/2020, 15:09:19", "zip": 8002}, "type": "Feature"}, {"geometry": {"coordinates": [8.520370505, 47.358663827], "type": "Point"}, "properties": {"address": "Bubenbergstrasse 1", "electric": 1, "id": "pb_83", "manual": 4, "name": "Comerge", "provider": "publibike", "timeStamp": "02/14/2020, 15:09:19", "zip": 8045}, "type": "Feature"}, {"geometry": {"coordinates": [8.5412505, 47.3789825], "type": "Point"}, "properties": {"address": "Museumstrasse 2", "electric": 12, "id": "pb_84", "manual": 21, "name": "Landesmuseum", "provider": "publibike", "timeStamp": "02/14/2020, 15:09:19", "zip": 8001}, "type": "Feature"}, {"geometry": {"coordinates": [8.5235479, 47.3716661], "type": "Point"}, "properties": {"address": "Birmensdorferstrasse 80", "electric": 1, "id": "pb_85", "manual": 4, "name": "Bahnhof Wiedikon", "provider": "publibike", "timeStamp": "02/14/2020, 15:09:19", "zip": 8003}, "type": "Feature"}, {"geometry": {"coordinates": [8.506822854, 47.40781197], "type": "Point"}, "properties": {"address": "Stefano-Franscini-Platz 5", "electric": 10, "id": "pb_86", "manual": 0, "name": "ETH H\u00f6nggerberg", "provider": "publibike", "timeStamp": "02/14/2020, 15:09:19", "zip": 8093}, "type": "Feature"}, {"geometry": {"coordinates": [8.536101, 47.371083], "type": "Point"}, "properties": {"address": "Pelikanplatz 5", "electric": 8, "id": "pb_87", "manual": 10, "name": "Pelikanplatz", "provider": "publibike", "timeStamp": "02/14/2020, 15:09:19", "zip": 8001}, "type": "Feature"}, {"geometry": {"coordinates": [8.5257822, 47.3651936], "type": "Point"}, "properties": {"address": "H\u00fcrlimannplatz 90", "electric": 19, "id": "pb_88", "manual": 16, "name": "H\u00fcrlimannplatz", "provider": "publibike", "timeStamp": "02/14/2020, 15:09:19", "zip": 8002}, "type": "Feature"}, {"geometry": {"coordinates": [8.5313344, 47.3713591], "type": "Point"}, "properties": {"address": "Selnaustrasse 32", "electric": 0, "id": "pb_89", "manual": 1, "name": "Stauffacherbr\u00fccke", "provider": "publibike", "timeStamp": "02/14/2020, 15:09:19", "zip": 8001}, "type": "Feature"}, {"geometry": {"coordinates": [8.5056978, 47.3917964], "type": "Point"}, "properties": {"address": "Sportweg 25", "electric": 0, "id": "pb_90", "manual": 8, "name": "Sportweg", "provider": "publibike", "timeStamp": "02/14/2020, 15:09:19", "zip": 8005}, "type": "Feature"}, {"geometry": {"coordinates": [8.5181701, 47.3917837], "type": "Point"}, "properties": {"address": "Hardturmstrasse 11", "electric": 2, "id": "pb_91", "manual": 3, "name": "Puls 5", "provider": "publibike", "timeStamp": "02/14/2020, 15:09:19", "zip": 8005}, "type": "Feature"}, {"geometry": {"coordinates": [8.5286468, 47.3820827], "type": "Point"}, "properties": {"address": "R\u00f6ntgenstrasse 6", "electric": 10, "id": "pb_92", "manual": 6, "name": "R\u00f6ntgenstrasse", "provider": "publibike", "timeStamp": "02/14/2020, 15:09:19", "zip": 8005}, "type": "Feature"}, {"geometry": {"coordinates": [8.531935, 47.384918], "type": "Point"}, "properties": {"address": "Kornhausbr\u00fccke 1", "electric": 2, "id": "pb_93", "manual": 7, "name": "Limmatplatz", "provider": "publibike", "timeStamp": "02/14/2020, 15:09:19", "zip": 8005}, "type": "Feature"}, {"geometry": {"coordinates": [8.5354006, 47.3758639], "type": "Point"}, "properties": {"address": "Gessnerallee 15", "electric": 2, "id": "pb_94", "manual": 3, "name": "Gessnerallee", "provider": "publibike", "timeStamp": "02/14/2020, 15:09:19", "zip": 8001}, "type": "Feature"}, {"geometry": {"coordinates": [8.523818, 47.377148], "type": "Point"}, "properties": {"address": "Stauffacherstrasse 127", "electric": 4, "id": "pb_95", "manual": 7, "name": "B\u00e4ckeranlage", "provider": "publibike", "timeStamp": "02/14/2020, 15:09:19", "zip": 8004}, "type": "Feature"}, {"geometry": {"coordinates": [8.531836, 47.378548], "type": "Point"}, "properties": {"address": "Lagerstrasse 44", "electric": 8, "id": "pb_96", "manual": 8, "name": "Gustav-Gull-Platz", "provider": "publibike", "timeStamp": "02/14/2020, 15:09:19", "zip": 8004}, "type": "Feature"}, {"geometry": {"coordinates": [8.5104883, 47.3771535], "type": "Point"}, "properties": {"address": "Zurlindenstrasse 291", "electric": 1, "id": "pb_97", "manual": 6, "name": "Zurlindenstrasse", "provider": "publibike", "timeStamp": "02/14/2020, 15:09:19", "zip": 8003}, "type": "Feature"}, {"geometry": {"coordinates": [8.5333139, 47.3731102], "type": "Point"}, "properties": {"address": "Sihlstrasse 81", "electric": 1, "id": "pb_98", "manual": 3, "name": "Sihlstrasse", "provider": "publibike", "timeStamp": "02/14/2020, 15:09:19", "zip": 8001}, "type": "Feature"}, {"geometry": {"coordinates": [8.520532, 47.374951], "type": "Point"}, "properties": {"address": "Feldstrasse 24", "electric": 1, "id": "pb_99", "manual": 6, "name": "Kalkbreite", "provider": "publibike", "timeStamp": "02/14/2020, 15:09:19", "zip": 8004}, "type": "Feature"}, {"geometry": {"coordinates": [8.539046, 47.368064], "type": "Point"}, "properties": {"address": "Talstrasse 12", "electric": 2, "id": "pb_100", "manual": 5, "name": "Z\u00fcrcher Kantonalbank", "provider": "publibike", "timeStamp": "02/14/2020, 15:09:19", "zip": 8001}, "type": "Feature"}, {"geometry": {"coordinates": [8.5348427, 47.3625938], "type": "Point"}, "properties": {"address": "Breitingerstrasse 5", "electric": 3, "id": "pb_101", "manual": 3, "name": "Rentenanstalt", "provider": "publibike", "timeStamp": "02/14/2020, 15:09:19", "zip": 8002}, "type": "Feature"}, {"geometry": {"coordinates": [8.5166922, 47.3897772], "type": "Point"}, "properties": {"address": "Technoparkstrasse 4", "electric": 4, "id": "pb_102", "manual": 7, "name": "Turbinenplatz", "provider": "publibike", "timeStamp": "02/14/2020, 15:09:19", "zip": 8005}, "type": "Feature"}, {"geometry": {"coordinates": [8.539312, 47.3739964], "type": "Point"}, "properties": {"address": "Oetenbachgasse 14", "electric": 0, "id": "pb_104", "manual": 4, "name": "Rennweg", "provider": "publibike", "timeStamp": "02/14/2020, 15:09:19", "zip": 8001}, "type": "Feature"}, {"geometry": {"coordinates": [8.5360685, 47.3775022], "type": "Point"}, "properties": {"address": "Kasernenstrasse 101", "electric": 31, "id": "pb_105", "manual": 33, "name": "Sihlpost", "provider": "publibike", "timeStamp": "02/14/2020, 15:09:19", "zip": 8004}, "type": "Feature"}, {"geometry": {"coordinates": [8.53545, 47.382798], "type": "Point"}, "properties": {"address": "Ausstellungsstrasse 44", "electric": 2, "id": "pb_106", "manual": 15, "name": "Museum f\u00fcr Gestaltung", "provider": "publibike", "timeStamp": "02/14/2020, 15:09:19", "zip": 8005}, "type": "Feature"}, {"geometry": {"coordinates": [8.5306155, 47.3647902], "type": "Point"}, "properties": {"address": "Gutenbergstrasse 1", "electric": 4, "id": "pb_107", "manual": 8, "name": "Bederbr\u00fccke", "provider": "publibike", "timeStamp": "02/14/2020, 15:09:19", "zip": 8002}, "type": "Feature"}, {"geometry": {"coordinates": [8.518982, 47.386741], "type": "Point"}, "properties": {"address": "Geroldstrasse 4", "electric": 4, "id": "pb_108", "manual": 6, "name": "Bahnhof Hardbr\u00fccke", "provider": "publibike", "timeStamp": "02/14/2020, 15:09:19", "zip": 8005}, "type": "Feature"}, {"geometry": {"coordinates": [8.53001018, 47.37247535], "type": "Point"}, "properties": {"address": "Werdstrasse 21", "electric": 7, "id": "pb_109", "manual": 4, "name": "Tamedia", "provider": "publibike", "timeStamp": "02/14/2020, 15:09:19", "zip": 8004}, "type": "Feature"}, {"geometry": {"coordinates": [8.4860017, 47.396401], "type": "Point"}, "properties": {"address": "Gr\u00fcnauring 37", "electric": 9, "id": "pb_110", "manual": 1, "name": "Gr\u00fcnau", "provider": "publibike", "timeStamp": "02/14/2020, 15:09:19", "zip": 8064}, "type": "Feature"}, {"geometry": {"coordinates": [8.548519, 47.376756], "type": "Point"}, "properties": {"address": "R\u00e4mistrasse 101", "electric": 31, "id": "pb_111", "manual": 0, "name": "ETH Zentrum", "provider": "publibike", "timeStamp": "02/14/2020, 15:09:19", "zip": 8006}, "type": "Feature"}, {"geometry": {"coordinates": [8.520449, 47.388151], "type": "Point"}, "properties": {"address": "Josefstrasse 224", "electric": 4, "id": "pb_112", "manual": 5, "name": "Steinfelsareal", "provider": "publibike", "timeStamp": "02/14/2020, 15:09:19", "zip": 8005}, "type": "Feature"}, {"geometry": {"coordinates": [8.520482, 47.37209], "type": "Point"}, "properties": {"address": "Weststrasse 115", "electric": 0, "id": "pb_124", "manual": 0, "name": "Weststrasse", "provider": "publibike", "timeStamp": "02/14/2020, 15:09:19", "zip": 8003}, "type": "Feature"}, {"geometry": {"coordinates": [8.496727, 47.378521], "type": "Point"}, "properties": {"address": "Albisriederstrasse 200", "electric": 3, "id": "pb_125", "manual": 0, "name": "Utogrund", "provider": "publibike", "timeStamp": "02/14/2020, 15:09:19", "zip": 8047}, "type": "Feature"}, {"geometry": {"coordinates": [8.510418, 47.381356], "type": "Point"}, "properties": {"address": "Bullingerstrasse 73", "electric": 0, "id": "pb_126", "manual": 6, "name": "Hardau", "provider": "publibike", "timeStamp": "02/14/2020, 15:09:19", "zip": 8004}, "type": "Feature"}, {"geometry": {"coordinates": [8.525525, 47.361567], "type": "Point"}, "properties": {"address": "Klopstockstrasse 23", "electric": 4, "id": "pb_127", "manual": 4, "name": "Klopstockwiese", "provider": "publibike", "timeStamp": "02/14/2020, 15:09:19", "zip": 8002}, "type": "Feature"}, {"geometry": {"coordinates": [8.518143, 47.363148], "type": "Point"}, "properties": {"address": "Haldenstrasse 8", "electric": 3, "id": "pb_128", "manual": 0, "name": "Binz", "provider": "publibike", "timeStamp": "02/14/2020, 15:09:19", "zip": 8045}, "type": "Feature"}, {"geometry": {"coordinates": [8.542726, 47.379952], "type": "Point"}, "properties": {"address": "Walchestrasse 11", "electric": 1, "id": "pb_129", "manual": 2, "name": "Stampfenbachplatz", "provider": "publibike", "timeStamp": "02/14/2020, 15:09:19", "zip": 8006}, "type": "Feature"}, {"geometry": {"coordinates": [8.488108, 47.391366], "type": "Point"}, "properties": {"address": "Altstetterplatz 1", "electric": 14, "id": "pb_130", "manual": 6, "name": "Bahnhof Altstetten", "provider": "publibike", "timeStamp": "02/14/2020, 15:09:19", "zip": 8048}, "type": "Feature"}, {"geometry": {"coordinates": [8.554114, 47.365119], "type": "Point"}, "properties": {"address": "Kreuzplatz 2", "electric": 2, "id": "pb_131", "manual": 1, "name": "Kreuzplatz", "provider": "publibike", "timeStamp": "02/14/2020, 15:09:19", "zip": 8032}, "type": "Feature"}, {"geometry": {"coordinates": [8.549852, 47.35594], "type": "Point"}, "properties": {"address": "H\u00f6schgasse 3", "electric": 3, "id": "pb_132", "manual": 10, "name": "Blatterwiese", "provider": "publibike", "timeStamp": "02/14/2020, 15:09:19", "zip": 8008}, "type": "Feature"}, {"geometry": {"coordinates": [8.554501, 47.36162], "type": "Point"}, "properties": {"address": "Feldeggstrasse 80", "electric": 2, "id": "pb_133", "manual": 2, "name": "Villa Bleuler", "provider": "publibike", "timeStamp": "02/14/2020, 15:09:19", "zip": 8008}, "type": "Feature"}, {"geometry": {"coordinates": [8.557088, 47.358557], "type": "Point"}, "properties": {"address": "M\u00fchlebachstrasse 131", "electric": 2, "id": "pb_134", "manual": 3, "name": "M\u00fchlebachstrasse", "provider": "publibike", "timeStamp": "02/14/2020, 15:09:19", "zip": 8008}, "type": "Feature"}, {"geometry": {"coordinates": [8.547639, 47.361266], "type": "Point"}, "properties": {"address": "Utoquai 50", "electric": 2, "id": "pb_135", "manual": 10, "name": "Seebad Utoquai", "provider": "publibike", "timeStamp": "02/14/2020, 15:09:19", "zip": 8008}, "type": "Feature"}, {"geometry": {"coordinates": [8.548045, 47.370869], "type": "Point"}, "properties": {"address": "Heimplatz 1", "electric": 8, "id": "pb_137", "manual": 3, "name": "Kunsthaus", "provider": "publibike", "timeStamp": "02/14/2020, 15:09:19", "zip": 8001}, "type": "Feature"}, {"geometry": {"coordinates": [8.543447, 47.375933], "type": "Point"}, "properties": {"address": "Limmatquai 138", "electric": 8, "id": "pb_138", "manual": 9, "name": "Central", "provider": "publibike", "timeStamp": "02/14/2020, 15:09:19", "zip": 8001}, "type": "Feature"}, {"geometry": {"coordinates": [8.549356, 47.408827], "type": "Point"}, "properties": {"address": "Tramstrasse 35", "electric": 5, "id": "pb_139", "manual": 4, "name": "ewz Tramstrasse", "provider": "publibike", "timeStamp": "02/14/2020, 15:09:19", "zip": 8050}, "type": "Feature"}, {"geometry": {"coordinates": [8.533736, 47.366904], "type": "Point"}, "properties": {"address": "Bleicherweg 33", "electric": 1, "id": "pb_140", "manual": 14, "name": "Bleicherweg", "provider": "publibike", "timeStamp": "02/14/2020, 15:09:19", "zip": 8002}, "type": "Feature"}, {"geometry": {"coordinates": [8.544935, 47.366752], "type": "Point"}, "properties": {"address": "Bellevueplatz 2", "electric": 21, "id": "pb_141", "manual": 32, "name": "Bellevue", "provider": "publibike", "timeStamp": "02/14/2020, 15:09:19", "zip": 8001}, "type": "Feature"}, {"geometry": {"coordinates": [8.5285533, 47.3742296], "type": "Point"}, "properties": {"address": "Stauffacherstrasse 41", "electric": 3, "id": "pb_142", "manual": 5, "name": "Stauffacher", "provider": "publibike", "timeStamp": "02/14/2020, 15:09:19", "zip": 8004}, "type": "Feature"}, {"geometry": {"coordinates": [8.523722, 47.3899], "type": "Point"}, "properties": {"address": "Limmatstrasse 310", "electric": 1, "id": "pb_143", "manual": 0, "name": "Escher-Wyss-Platz", "provider": "publibike", "timeStamp": "02/14/2020, 15:09:19", "zip": 8005}, "type": "Feature"}, {"geometry": {"coordinates": [8.491061, 47.392336], "type": "Point"}, "properties": {"address": "Vulkanplatz 1", "electric": 4, "id": "pb_149", "manual": 5, "name": "Vulkanplatz", "provider": "publibike", "timeStamp": "02/14/2020, 15:09:19", "zip": 8048}, "type": "Feature"}, {"geometry": {"coordinates": [8.52306, 47.359872], "type": "Point"}, "properties": {"address": "Giessh\u00fcbelstrasse 15", "electric": 0, "id": "pb_150", "manual": 0, "name": "Utoplatz", "provider": "publibike", "timeStamp": "02/14/2020, 15:09:19", "zip": 8045}, "type": "Feature"}, {"geometry": {"coordinates": [8.486284, 47.387685], "type": "Point"}, "properties": {"address": "Lindenplatz 1", "electric": 3, "id": "pb_151", "manual": 4, "name": "Lindenplatz", "provider": "publibike", "timeStamp": "02/14/2020, 15:09:19", "zip": 8048}, "type": "Feature"}, {"geometry": {"coordinates": [8.49163, 47.389823], "type": "Point"}, "properties": {"address": "Hohlstrasse 563", "electric": 4, "id": "pb_152", "manual": 3, "name": "Luggweg", "provider": "publibike", "timeStamp": "02/14/2020, 15:09:19", "zip": 8048}, "type": "Feature"}, {"geometry": {"coordinates": [8.52174, 47.365272], "type": "Point"}, "properties": {"address": "Manessestrasse 87", "electric": 5, "id": "pb_153", "manual": 0, "name": "Manesseplatz", "provider": "publibike", "timeStamp": "02/14/2020, 15:09:19", "zip": 8045}, "type": "Feature"}, {"geometry": {"coordinates": [8.52714, 47.372329], "type": "Point"}, "properties": {"address": "Werdstrasse 75", "electric": 6, "id": "pb_154", "manual": 6, "name": "Werd", "provider": "publibike", "timeStamp": "02/14/2020, 15:09:19", "zip": 8004}, "type": "Feature"}, {"geometry": {"coordinates": [8.543042, 47.374711], "type": "Point"}, "properties": {"address": "Limmatquai 100", "electric": 0, "id": "pb_155", "manual": 0, "name": "Rudolf-Brun-Br\u00fccke", "provider": "publibike", "timeStamp": "02/14/2020, 15:09:19", "zip": 8001}, "type": "Feature"}, {"geometry": {"coordinates": [8.490837, 47.386596], "type": "Point"}, "properties": {"address": "Badenerstrasse 627", "electric": 7, "id": "pb_156", "manual": 0, "name": "Luggwegstrasse VBZ", "provider": "publibike", "timeStamp": "02/14/2020, 15:09:19", "zip": 8048}, "type": "Feature"}, {"geometry": {"coordinates": [8.535119, 47.355189], "type": "Point"}, "properties": {"address": "Mythenquai 95", "electric": 2, "id": "pb_157", "manual": 3, "name": "Strandbad Mythenquai", "provider": "publibike", "timeStamp": "02/14/2020, 15:09:19", "zip": 8002}, "type": "Feature"}, {"geometry": {"coordinates": [8.545505, 47.373675], "type": "Point"}, "properties": {"address": "Predigerpatz 21", "electric": 2, "id": "pb_158", "manual": 4, "name": "Predigerplatz", "provider": "publibike", "timeStamp": "02/14/2020, 15:09:19", "zip": 8001}, "type": "Feature"}, {"geometry": {"coordinates": [8.515558, 47.371868], "type": "Point"}, "properties": {"address": "Aemtlerstrasse 23", "electric": 0, "id": "pb_159", "manual": 1, "name": "Zwinglihaus", "provider": "publibike", "timeStamp": "02/14/2020, 15:09:19", "zip": 8003}, "type": "Feature"}, {"geometry": {"coordinates": [8.524629, 47.386072], "type": "Point"}, "properties": {"address": "Josefstrasse 188", "electric": 1, "id": "pb_160", "manual": 1, "name": "Josefwiese", "provider": "publibike", "timeStamp": "02/14/2020, 15:09:19", "zip": 8005}, "type": "Feature"}, {"geometry": {"coordinates": [8.527138, 47.387531], "type": "Point"}, "properties": {"address": "R\u00f6ntgenstrasse 87", "electric": 8, "id": "pb_164", "manual": 8, "name": "Markthalle", "provider": "publibike", "timeStamp": "02/14/2020, 15:09:19", "zip": 8005}, "type": "Feature"}, {"geometry": {"coordinates": [8.552717, 47.359978], "type": "Point"}, "properties": {"address": "Seefeldstrasse 96", "electric": 2, "id": "pb_263", "manual": 6, "name": "Feldeggstrasse", "provider": "publibike", "timeStamp": "02/14/2020, 15:09:19", "zip": 8008}, "type": "Feature"}, {"geometry": {"coordinates": [8.553189, 47.353198], "type": "Point"}, "properties": {"address": "Bellerivestrasse 170", "electric": 7, "id": "pb_264", "manual": 0, "name": "Lake Side", "provider": "publibike", "timeStamp": "02/14/2020, 15:09:19", "zip": 8008}, "type": "Feature"}, {"geometry": {"coordinates": [8.543437, 47.369256], "type": "Point"}, "properties": {"address": "Limmatquai 18", "electric": 0, "id": "pb_265", "manual": 0, "name": "Helmhaus", "provider": "publibike", "timeStamp": "02/14/2020, 15:09:19", "zip": 8032}, "type": "Feature"}, {"geometry": {"coordinates": [8.516676, 47.375819], "type": "Point"}, "properties": {"address": "Badenerstrasse 246", "electric": 4, "id": "pb_266", "manual": 2, "name": "Lochergut", "provider": "publibike", "timeStamp": "02/14/2020, 15:09:19", "zip": 8004}, "type": "Feature"}, {"geometry": {"coordinates": [8.514605, 47.389862], "type": "Point"}, "properties": {"address": "Pfingstweidstrasse 60", "electric": 3, "id": "pb_273", "manual": 1, "name": "Westpark", "provider": "publibike", "timeStamp": "02/14/2020, 15:09:19", "zip": 8005}, "type": "Feature"}, {"geometry": {"coordinates": [8.541239126, 47.375991201], "type": "Point"}, "properties": {"address": "Beatenplatz 1", "electric": 5, "id": "pb_274", "manual": 8, "name": "Beatenplatz", "provider": "publibike", "timeStamp": "02/14/2020, 15:09:19", "zip": 8001}, "type": "Feature"}, {"geometry": {"coordinates": [8.5417135, 47.3942197], "type": "Point"}, "properties": {"address": "Scheuchzerstrasse 181", "electric": 2, "id": "pb_275", "manual": 0, "name": "Pauluskirche", "provider": "publibike", "timeStamp": "02/14/2020, 15:09:19", "zip": 8057}, "type": "Feature"}, {"geometry": {"coordinates": [8.5528182, 47.414558], "type": "Point"}, "properties": {"address": "Hagenholzstrasse 51", "electric": 9, "id": "pb_276", "manual": 12, "name": "Airgate", "provider": "publibike", "timeStamp": "02/14/2020, 15:09:19", "zip": 8050}, "type": "Feature"}, {"geometry": {"coordinates": [8.537816, 47.413514], "type": "Point"}, "properties": {"address": "Birchstrasse 183", "electric": 6, "id": "pb_277", "manual": 2, "name": "Lamprechtweg", "provider": "publibike", "timeStamp": "02/14/2020, 15:09:19", "zip": 8050}, "type": "Feature"}, {"geometry": {"coordinates": [8.545602, 47.417701], "type": "Point"}, "properties": {"address": "Felsenrainstrasse 2", "electric": 0, "id": "pb_278", "manual": 3, "name": "Emil-Oberh\u00e4nsli", "provider": "publibike", "timeStamp": "02/14/2020, 15:09:19", "zip": 8050}, "type": "Feature"}, {"geometry": {"coordinates": [8.533647, 47.39808], "type": "Point"}, "properties": {"address": "Bucheggplatz 2", "electric": 3, "id": "pb_279", "manual": 1, "name": "Bucheggplatz", "provider": "publibike", "timeStamp": "02/14/2020, 15:09:19", "zip": 8057}, "type": "Feature"}, {"geometry": {"coordinates": [8.523549, 47.392347], "type": "Point"}, "properties": {"address": "Wipkingerplatz 4", "electric": 7, "id": "pb_280", "manual": 8, "name": "Wipkingerplatz", "provider": "publibike", "timeStamp": "02/14/2020, 15:09:19", "zip": 8037}, "type": "Feature"}, {"geometry": {"coordinates": [8.548562, 47.36691], "type": "Point"}, "properties": {"address": "Galerie \u00fcber Gleis 2/3", "electric": 3, "id": "pb_285", "manual": 6, "name": "Bahnhof Stadelhofen", "provider": "publibike", "timeStamp": "02/14/2020, 15:09:19", "zip": 8001}, "type": "Feature"}, {"geometry": {"coordinates": [8.493822, 47.3985553], "type": "Point"}, "properties": {"address": "Meierwiesenstrasse 12-4", "electric": 4, "id": "pb_286", "manual": 3, "name": "T\u00fcffenwies", "provider": "publibike", "timeStamp": "02/14/2020, 15:09:19", "zip": 8064}, "type": "Feature"}, {"geometry": {"coordinates": [8.552432, 47.3801757], "type": "Point"}, "properties": {"address": "Hochstrasse 34", "electric": 4, "id": "pb_356", "manual": 0, "name": "Siriuswiese", "provider": "publibike", "timeStamp": "02/14/2020, 15:09:19", "zip": 8044}, "type": "Feature"}, {"geometry": {"coordinates": [8.527298, 47.370141], "type": "Point"}, "properties": {"address": "Hallwylstrasse 71", "electric": 0, "id": "pb_357", "manual": 6, "name": "Hallwylstrasse", "provider": "publibike", "timeStamp": "02/14/2020, 15:09:19", "zip": 8004}, "type": "Feature"}, {"geometry": {"coordinates": [8.5414185, 47.3972455], "type": "Point"}, "properties": {"address": "Schaffhauserstrasse 137", "electric": 3, "id": "pb_358", "manual": 2, "name": "Milchbuck", "provider": "publibike", "timeStamp": "02/14/2020, 15:09:19", "zip": 8057}, "type": "Feature"}, {"geometry": {"coordinates": [8.512381, 47.393409], "type": "Point"}, "properties": {"address": "Hardturmstrasse 161", "electric": 2, "id": "pb_359", "manual": 4, "name": "Fischerweg", "provider": "publibike", "timeStamp": "02/14/2020, 15:09:19", "zip": 8005}, "type": "Feature"}, {"geometry": {"coordinates": [8.5421457, 47.3876979], "type": "Point"}, "properties": {"address": "Turnerstrasse 47", "electric": 0, "id": "pb_360", "manual": 0, "name": "Kirche Unterstrass", "provider": "publibike", "timeStamp": "02/14/2020, 15:09:19", "zip": 8006}, "type": "Feature"}, {"geometry": {"coordinates": [8.522117, 47.394554], "type": "Point"}, "properties": {"address": "Dorfstrasse 40", "electric": 3, "id": "pb_361", "manual": 4, "name": "Dorfstrasse", "provider": "publibike", "timeStamp": "02/14/2020, 15:09:19", "zip": 8037}, "type": "Feature"}, {"geometry": {"coordinates": [8.530437, 47.37271], "type": "Point"}, "properties": {"address": "Werdstrasse 25", "electric": 1, "id": "pb_362", "manual": 7, "name": "Stauffachertor", "provider": "publibike", "timeStamp": "02/14/2020, 15:09:19", "zip": 8004}, "type": "Feature"}, {"geometry": {"coordinates": [8.541712, 47.416155], "type": "Point"}, "properties": {"address": "Eggb\u00fchlstrasse 21", "electric": 7, "id": "pb_363", "manual": 1, "name": "Wahlenpark", "provider": "publibike", "timeStamp": "02/14/2020, 15:09:19", "zip": 8050}, "type": "Feature"}, {"geometry": {"coordinates": [8.5595335, 47.3708387], "type": "Point"}, "properties": {"address": "Dolderstrasse 32", "electric": 4, "id": "pb_364", "manual": 1, "name": "Kinderspital", "provider": "publibike", "timeStamp": "02/14/2020, 15:09:19", "zip": 8032}, "type": "Feature"}, {"geometry": {"coordinates": [8.536433, 47.388689], "type": "Point"}, "properties": {"address": "Kornhausstrasse 30", "electric": 1, "id": "pb_365", "manual": 0, "name": "Kornhausstrasse", "provider": "publibike", "timeStamp": "02/14/2020, 15:09:19", "zip": 8006}, "type": "Feature"}, {"geometry": {"coordinates": [8.55033, 47.407098], "type": "Point"}, "properties": {"address": "Schwamendingenstrasse 41", "electric": 1, "id": "pb_366", "manual": 8, "name": "Dorflinde", "provider": "publibike", "timeStamp": "02/14/2020, 15:09:19", "zip": 8050}, "type": "Feature"}, {"geometry": {"coordinates": [8.560476, 47.368199], "type": "Point"}, "properties": {"address": "R\u00f6merhofplatz 5", "electric": 3, "id": "pb_367", "manual": 0, "name": "R\u00f6merhof", "provider": "publibike", "timeStamp": "02/14/2020, 15:09:19", "zip": 8032}, "type": "Feature"}, {"geometry": {"coordinates": [8.5609218, 47.3619068], "type": "Point"}, "properties": {"address": "Forchstrasse 99", "electric": 2, "id": "pb_368", "manual": 1, "name": "Hegibachplatz", "provider": "publibike", "timeStamp": "02/14/2020, 15:09:19", "zip": 8032}, "type": "Feature"}, {"geometry": {"coordinates": [8.5721264, 47.4039985], "type": "Point"}, "properties": {"address": "Winterthurerstrasse 519", "electric": 1, "id": "pb_370", "manual": 5, "name": "Schwamendingerplatz", "provider": "publibike", "timeStamp": "02/14/2020, 15:09:19", "zip": 8051}, "type": "Feature"}, {"geometry": {"coordinates": [8.520168, 47.378556], "type": "Point"}, "properties": {"address": "Herman-Greulich-Strasse 56", "electric": 0, "id": "pb_384", "manual": 1, "name": "Hermann-Greulich-Weg", "provider": "publibike", "timeStamp": "02/14/2020, 15:09:19", "zip": 8004}, "type": "Feature"}, {"geometry": {"coordinates": [8.547912, 47.384923], "type": "Point"}, "properties": {"address": "Culmannstrasse", "electric": 2, "id": "pb_386", "manual": 4, "name": "Rigiplatz", "provider": "publibike", "timeStamp": "02/14/2020, 15:09:19", "zip": 8006}, "type": "Feature"}, {"geometry": {"coordinates": [8.543768, 47.411057], "type": "Point"}, "properties": {"address": "Hofwiesenstrasse 369", "electric": 7, "id": "pb_387", "manual": 2, "name": "Bahnhof Oerlikon S\u00fcd", "provider": "publibike", "timeStamp": "02/14/2020, 15:09:19", "zip": 8050}, "type": "Feature"}, {"geometry": {"coordinates": [8.544185, 47.412732], "type": "Point"}, "properties": {"address": "Jungholzstrasse 6", "electric": 2, "id": "pb_388", "manual": 9, "name": "Max-Frisch-Platz", "provider": "publibike", "timeStamp": "02/14/2020, 15:09:19", "zip": 8050}, "type": "Feature"}, {"geometry": {"coordinates": [8.558096, 47.413032], "type": "Point"}, "properties": {"address": "Andreasstrasse", "electric": 11, "id": "pb_389", "manual": 9, "name": "Hunziker-Areal", "provider": "publibike", "timeStamp": "02/14/2020, 15:09:19", "zip": 8050}, "type": "Feature"}, {"geometry": {"coordinates": [8.533265, 47.412873], "type": "Point"}, "properties": {"address": "Regina-K\u00e4gi-Strasse 1", "electric": 3, "id": "pb_390", "manual": 7, "name": "Luis-H\u00e4fliger-Park", "provider": "publibike", "timeStamp": "02/14/2020, 15:09:19", "zip": 8050}, "type": "Feature"}, {"geometry": {"coordinates": [8.499265, 47.401852], "type": "Point"}, "properties": {"address": "Limmattalstrasse 177", "electric": 3, "id": "pb_391", "manual": 2, "name": "Meierhofplatz", "provider": "publibike", "timeStamp": "02/14/2020, 15:09:19", "zip": 8049}, "type": "Feature"}, {"geometry": {"coordinates": [8.528356, 47.393255], "type": "Point"}, "properties": {"address": "R\u00f6schibachstrasse 73", "electric": 3, "id": "pb_392", "manual": 4, "name": "R\u00f6schibachplatz", "provider": "publibike", "timeStamp": "02/14/2020, 15:09:19", "zip": 8037}, "type": "Feature"}, {"geometry": {"coordinates": [8.538067, 47.415721], "type": "Point"}, "properties": {"address": "Birchstrasse 191", "electric": 3, "id": "pb_393", "manual": 0, "name": "Oerliker Park", "provider": "publibike", "timeStamp": "02/14/2020, 15:09:19", "zip": 8050}, "type": "Feature"}, {"geometry": {"coordinates": [8.5420304, 47.3669233], "type": "Point"}, "properties": {"address": "Stadthausquai 1", "electric": 1, "id": "pb_395", "manual": 6, "name": "B\u00fcrkliplatz", "provider": "publibike", "timeStamp": "02/14/2020, 15:09:19", "zip": 8001}, "type": "Feature"}, {"geometry": {"coordinates": [8.535767, 47.409881], "type": "Point"}, "properties": {"address": "Regensbergstrasse 195", "electric": 2, "id": "pb_396", "manual": 2, "name": "Holunderhof", "provider": "publibike", "timeStamp": "02/14/2020, 15:09:19", "zip": 8050}, "type": "Feature"}, {"geometry": {"coordinates": [8.5116245, 47.3616199], "type": "Point"}, "properties": {"address": "Grubenstrasse 42", "electric": 6, "id": "pb_431", "manual": 0, "name": "Binz Center", "provider": "publibike", "timeStamp": "02/14/2020, 15:09:19", "zip": 8045}, "type": "Feature"}, {"geometry": {"coordinates": [8.547195, 47.382089], "type": "Point"}, "properties": {"address": "Nelkenstrasse 24", "electric": 3, "id": "pb_430", "manual": 0, "name": "Stapferstube", "provider": "publibike", "timeStamp": "02/14/2020, 15:09:19", "zip": 8006}, "type": "Feature"}, {"geometry": {"coordinates": [8.5787183, 47.4039845], "type": "Point"}, "properties": {"address": "Kronwiesenstrasse 35", "electric": 2, "id": "pb_426", "manual": 2, "name": "Kronwiesen", "provider": "publibike", "timeStamp": "02/14/2020, 15:09:19", "zip": 8051}, "type": "Feature"}, {"geometry": {"coordinates": [8.508131, 47.420757], "type": "Point"}, "properties": {"address": "Riedenhaldenstrasse 20-18", "electric": 5, "id": "pb_425", "manual": 5, "name": "Bahnhof Affoltern", "provider": "publibike", "timeStamp": "02/14/2020, 15:09:19", "zip": 8046}, "type": "Feature"}, {"geometry": {"coordinates": [8.532464, 47.406988], "type": "Point"}, "properties": {"address": "K\u00fcnzlistrasse 41", "electric": 5, "id": "pb_424", "manual": 1, "name": "Birchd\u00f6rfli", "provider": "publibike", "timeStamp": "02/14/2020, 15:09:19", "zip": 8057}, "type": "Feature"}, {"geometry": {"coordinates": [8.5777038, 47.4080095], "type": "Point"}, "properties": {"address": "Luegislandstrasse 412", "electric": 7, "id": "pb_429", "manual": 1, "name": "Luegisland", "provider": "publibike", "timeStamp": "02/14/2020, 15:09:19", "zip": 8051}, "type": "Feature"}, {"geometry": {"coordinates": [8.58841, 47.40158], "type": "Point"}, "properties": {"address": "Hirzenbachstrasse 2-4", "electric": 4, "id": "pb_428", "manual": 0, "name": "Hirzenbachstrasse", "provider": "publibike", "timeStamp": "02/14/2020, 15:09:19", "zip": 8051}, "type": "Feature"}, {"geometry": {"coordinates": [8.5563463, 47.4095467], "type": "Point"}, "properties": {"address": "K\u00fchriedweg", "electric": 1, "id": "pb_445", "manual": 4, "name": "Hallenbad Oerlikon", "provider": "publibike", "timeStamp": "02/14/2020, 15:09:19", "zip": 8050}, "type": "Feature"}, {"geometry": {"coordinates": [8.537971, 47.364871], "type": "Point"}, "properties": {"address": "General-Guisan-Quai 17", "electric": 3, "id": "pb_454", "manual": 5, "name": "General-Guisan-Quai", "provider": "publibike", "timeStamp": "02/14/2020, 15:09:19", "zip": 8002}, "type": "Feature"}, {"geometry": {"coordinates": [8.560587, 47.350578], "type": "Point"}, "properties": {"address": "Bellerivestrasse 245", "electric": 10, "id": "pb_450", "manual": 12, "name": "Bahnhof Tiefenbrunnen", "provider": "publibike", "timeStamp": "02/14/2020, 15:09:19", "zip": 8008}, "type": "Feature"}, {"geometry": {"coordinates": [8.5269416, 47.3563719], "type": "Point"}, "properties": {"address": "Waffenplatzstrasse 89", "electric": 0, "id": "pb_452", "manual": 1, "name": "Rieterplatz", "provider": "publibike", "timeStamp": "02/14/2020, 15:09:19", "zip": 8002}, "type": "Feature"}, {"geometry": {"coordinates": [8.514176, 47.3663708], "type": "Point"}, "properties": {"address": "Talwiesenstrasse 92", "electric": 5, "id": "pb_446", "manual": 0, "name": "Binzallee", "provider": "publibike", "timeStamp": "02/14/2020, 15:09:19", "zip": 8055}, "type": "Feature"}, {"geometry": {"coordinates": [8.5070564, 47.371455], "type": "Point"}, "properties": {"address": "Gutstrasse 87", "electric": 8, "id": "pb_447", "manual": 0, "name": "Gutstrasse", "provider": "publibike", "timeStamp": "02/14/2020, 15:09:19", "zip": 8055}, "type": "Feature"}, {"geometry": {"coordinates": [8.4941268, 47.3836391], "type": "Point"}, "properties": {"address": "Flurstrasse 62", "electric": 5, "id": "pb_453", "manual": 7, "name": "Flurpark", "provider": "publibike", "timeStamp": "02/14/2020, 15:09:19", "zip": 8048}, "type": "Feature"}, {"geometry": {"coordinates": [8.500343, 47.380778], "type": "Point"}, "properties": {"address": "Edelweissstrasse 32", "electric": 3, "id": "pb_448", "manual": 3, "name": "Bl\u00fcemliquartier", "provider": "publibike", "timeStamp": "02/14/2020, 15:09:19", "zip": 8048}, "type": "Feature"}, {"geometry": {"coordinates": [8.528796, 47.383858], "type": "Point"}, "properties": {"address": "Gasometerstrasse 24", "electric": 1, "id": "pb_449", "manual": 4, "name": "Gasometerstrasse", "provider": "publibike", "timeStamp": "02/14/2020, 15:09:19", "zip": 8005}, "type": "Feature"}, {"geometry": {"coordinates": [8.4981964, 47.3859194], "type": "Point"}, "properties": {"address": "Baslerstrasse 57", "electric": 9, "id": "pb_455", "manual": 6, "name": "Letzipark", "provider": "publibike", "timeStamp": "02/14/2020, 15:09:19", "zip": 8048}, "type": "Feature"}, {"geometry": {"coordinates": [8.515252, 47.381915], "type": "Point"}, "properties": {"address": "Sihlfeldstrasse 175", "electric": 0, "id": "pb_451", "manual": 0, "name": "Hardplatz", "provider": "publibike", "timeStamp": "02/14/2020, 15:09:19", "zip": 8004}, "type": "Feature"}, {"geometry": {"coordinates": [8.5064743, 47.4188324], "type": "Point"}, "properties": {"address": "Wehntalerstrasse 541", "electric": 0, "id": "pb_427", "manual": 7, "name": "Zehntenhausplatz", "provider": "publibike", "timeStamp": "02/14/2020, 15:09:19", "zip": 8046}, "type": "Feature"}, {"geometry": {"coordinates": [8.537729, 47.379719], "type": "Point"}, "properties": {"address": "Sihlquai/HB", "electric": 1, "id": "pb_513", "manual": 8, "name": "Sihlquai", "provider": "publibike", "timeStamp": "02/14/2020, 15:09:19", "zip": 8005}, "type": "Feature"}, {"geometry": {"coordinates": [8.596202, 47.397885], "type": "Point"}, "properties": {"address": "Bahnhof Stettbach", "electric": 7, "id": "pb_514", "manual": 0, "name": "Bahnhof Stettbach", "provider": "publibike", "timeStamp": "02/14/2020, 15:09:19", "zip": 8051}, "type": "Feature"}, {"geometry": {"coordinates": [8.5543974, 47.3690153], "type": "Point"}, "properties": {"address": "Kasinostrasse 10", "electric": 0, "id": "pb_515", "manual": 3, "name": "Hottingerplatz", "provider": "publibike", "timeStamp": "02/14/2020, 15:09:19", "zip": 8032}, "type": "Feature"}, {"geometry": {"coordinates": [8.534444, 47.351525], "type": "Point"}, "properties": {"address": "Mobile Station Z\u00fcrich 1", "electric": 0, "id": "pb_282", "manual": 0, "name": "Theaterspektakel", "provider": "publibike", "timeStamp": "02/14/2020, 15:09:19", "zip": 8002}, "type": "Feature"}, {"geometry": {"coordinates": [8.516257, 47.367656], "type": "Point"}, "properties": {"address": "Goldbrunnenstrasse 54", "electric": 1, "id": "pb_538", "manual": 2, "name": "Kirche B\u00fchl", "provider": "publibike", "timeStamp": "02/14/2020, 15:09:19", "zip": 8055}, "type": "Feature"}, {"geometry": {"coordinates": [8.555639, 47.416873], "type": "Point"}, "properties": {"address": "Leutschenbachstrasse 50", "electric": 5, "id": "pb_537", "manual": 7, "name": "Leutschenpark", "provider": "publibike", "timeStamp": "02/14/2020, 15:09:19", "zip": 8050}, "type": "Feature"}, {"geometry": {"coordinates": [8.546464, 47.403822], "type": "Point"}, "properties": {"address": "Berninastrasse 45", "electric": 3, "id": "pb_540", "manual": 1, "name": "Berninaplatz", "provider": "publibike", "timeStamp": "02/14/2020, 15:09:19", "zip": 8057}, "type": "Feature"}, {"geometry": {"coordinates": [8.523134, 47.369004], "type": "Point"}, "properties": {"address": "Erlachstrasse 3", "electric": 3, "id": "pb_385", "manual": 1, "name": "Aegerten", "provider": "publibike", "timeStamp": "02/14/2020, 15:09:19", "zip": 8003}, "type": "Feature"}, {"geometry": {"coordinates": [8.49038, 47.381591], "type": "Point"}, "properties": {"address": "Rautistrasse 60", "electric": 8, "id": "pb_536", "manual": 1, "name": "Freilager", "provider": "publibike", "timeStamp": "02/14/2020, 15:09:19", "zip": 8048}, "type": "Feature"}, {"geometry": {"coordinates": [8.496511, 47.375247], "type": "Point"}, "properties": {"address": "Letzigraben 139", "electric": 3, "id": "pb_444", "manual": 5, "name": "Sackzelg", "provider": "publibike", "timeStamp": "02/14/2020, 15:09:19", "zip": 8047}, "type": "Feature"}, {"geometry": {"coordinates": [8.58131, 47.402801], "type": "Point"}, "properties": {"address": "Altwiesenstrasse 104", "electric": 1, "id": "pb_539", "manual": 3, "name": "Glattwiesen", "provider": "publibike", "timeStamp": "02/14/2020, 15:09:19", "zip": 8051}, "type": "Feature"}, {"geometry": {"coordinates": [8.52689, 47.3767], "type": "Point"}, "properties": {"address": "Molkenstrasse 5", "electric": 2, "id": "pb_560", "manual": 3, "name": "Helvetiaplatz", "provider": "publibike", "timeStamp": "02/14/2020, 15:09:19", "zip": 8004}, "type": "Feature"}, {"geometry": {"coordinates": [8.525602, 47.374241], "type": "Point"}, "properties": {"address": "Badenerstrasse 90", "electric": 0, "id": "pb_559", "manual": 3, "name": "Bezirksgeb\u00e4ude", "provider": "publibike", "timeStamp": "02/14/2020, 15:09:19", "zip": 8004}, "type": "Feature"}, {"geometry": {"coordinates": [8.535082, 47.345248], "type": "Point"}, "properties": {"address": "Bachstrasse 15", "electric": 7, "id": "pb_564", "manual": 8, "name": "GZ Wollishofen", "provider": "publibike", "timeStamp": "02/14/2020, 15:09:19", "zip": 8038}, "type": "Feature"}, {"geometry": {"coordinates": [8.514841, 47.370238], "type": "Point"}, "properties": {"address": "Schrennengasse 37", "electric": 2, "id": "pb_562", "manual": 0, "name": "Goldbrunnenplatz", "provider": "publibike", "timeStamp": "02/14/2020, 15:09:19", "zip": 8003}, "type": "Feature"}, {"geometry": {"coordinates": [8.514138, 47.374206], "type": "Point"}, "properties": {"address": "Idaplatz 4", "electric": 2, "id": "pb_557", "manual": 5, "name": "Idaplatz", "provider": "publibike", "timeStamp": "02/14/2020, 15:09:19", "zip": 8003}, "type": "Feature"}, {"geometry": {"coordinates": [8.518432, 47.369549], "type": "Point"}, "properties": {"address": "Brinerstrasse 2", "electric": 0, "id": "pb_558", "manual": 0, "name": "Schmiede Wiedikon", "provider": "publibike", "timeStamp": "02/14/2020, 15:09:19", "zip": 8003}, "type": "Feature"}, {"geometry": {"coordinates": [8.537546, 47.391289], "type": "Point"}, "properties": {"address": "Rotbuchstrasse 15", "electric": 0, "id": "pb_556", "manual": 0, "name": "Schaffhauserplatz", "provider": "publibike", "timeStamp": "02/14/2020, 15:09:19", "zip": 8006}, "type": "Feature"}, {"geometry": {"coordinates": [8.541541, 47.413733], "type": "Point"}, "properties": {"address": "Therese-Giehse-Strasse 11", "electric": 8, "id": "pb_561", "manual": 3, "name": "Center Eleven", "provider": "publibike", "timeStamp": "02/14/2020, 15:09:19", "zip": 8050}, "type": "Feature"}, {"geometry": {"coordinates": [8.534227, 47.360004], "type": "Point"}, "properties": {"address": "Alfred Escher-Strasse 76", "electric": 15, "id": "pb_563", "manual": 1, "name": "Mythenschloss", "provider": "publibike", "timeStamp": "02/14/2020, 15:09:19", "zip": 8002}, "type": "Feature"}, {"geometry": {"coordinates": [8.50373, 47.396172], "type": "Point"}, "properties": {"address": "Hardeggstrasse 6", "electric": 7, "id": "pb_566", "manual": 6, "name": "Am Wasser", "provider": "publibike", "timeStamp": "02/14/2020, 15:09:19", "zip": 8049}, "type": "Feature"}, {"geometry": {"coordinates": [8.532432, 47.381174], "type": "Point"}, "properties": {"address": "Klingenstrasse 9", "electric": 3, "id": "pb_565", "manual": 8, "name": "Zollstrasse", "provider": "publibike", "timeStamp": "02/14/2020, 15:09:19", "zip": 8005}, "type": "Feature"}, {"geometry": {"coordinates": [8.497982, 47.381447], "type": "Point"}, "properties": {"address": "Dennlerstrasse 23", "electric": 6, "id": "pb_567", "manual": 2, "name": "Dennlerstrasse", "provider": "publibike", "timeStamp": "02/14/2020, 15:09:19", "zip": 8047}, "type": "Feature"}, {"geometry": {"coordinates": [8.528049, 47.347701], "type": "Point"}, "properties": {"address": "Mutschellenstrasse 114", "electric": 2, "id": "pb_568", "manual": 2, "name": "Jugendherberge", "provider": "publibike", "timeStamp": "02/14/2020, 15:09:19", "zip": 8038}, "type": "Feature"}, {"geometry": {"coordinates": [8.539016, 47.405751], "type": "Point"}, "properties": {"address": "Ringstrasse 82", "electric": 2, "id": "pb_569", "manual": 2, "name": "Freibad Allenmoos", "provider": "publibike", "timeStamp": "02/14/2020, 15:09:19", "zip": 8057}, "type": "Feature"}, {"geometry": {"coordinates": [8.534974, 47.402164], "type": "Point"}, "properties": {"address": "Brache Guggach", "electric": 3, "id": "pb_572", "manual": 0, "name": "Radiostudio", "provider": "publibike", "timeStamp": "02/14/2020, 15:09:19", "zip": 8057}, "type": "Feature"}, {"geometry": {"coordinates": [8.547901, 47.375556], "type": "Point"}, "properties": {"address": "Karl-Schmid-Strasse 4", "electric": 5, "id": "pb_571", "manual": 1, "name": "ETH/Zoologisches Museum", "provider": "publibike", "timeStamp": "02/14/2020, 15:09:19", "zip": 8006}, "type": "Feature"}, {"geometry": {"coordinates": [8.559876, 47.376658], "type": "Point"}, "properties": {"charge": 45, "id": "smide_2901", "name": "ZH 267278", "provider": "smide", "range": 22.0, "size": 20, "time": "02/14/2020, 15:08:52"}, "type": "Feature"}, {"geometry": {"coordinates": [8.529641, 47.37603], "type": "Point"}, "properties": {"charge": 84, "id": "smide_2880", "name": "ZH267289", "provider": "smide", "range": 42.0, "size": 17, "time": "02/14/2020, 15:08:52"}, "type": "Feature"}, {"geometry": {"coordinates": [8.565163, 47.348741], "type": "Point"}, "properties": {"charge": 64, "id": "smide_2871", "name": "ZH 267086", "provider": "smide", "range": 32.0, "size": 20, "time": "02/14/2020, 15:08:52"}, "type": "Feature"}, {"geometry": {"coordinates": [8.516013, 47.428538], "type": "Point"}, "properties": {"charge": 89, "id": "smide_2867", "name": "ZH 267090", "provider": "smide", "range": 44.0, "size": 20, "time": "02/14/2020, 15:08:52"}, "type": "Feature"}, {"geometry": {"coordinates": [8.510736, 47.383835], "type": "Point"}, "properties": {"charge": 22, "id": "smide_2861", "name": "ZH 267096", "provider": "smide", "range": 11.0, "size": 17, "time": "02/14/2020, 15:08:52"}, "type": "Feature"}, {"geometry": {"coordinates": [8.492646, 47.38789], "type": "Point"}, "properties": {"charge": 98, "id": "smide_2856", "name": "ZH 267101", "provider": "smide", "range": 49.0, "size": 17, "time": "02/14/2020, 15:08:52"}, "type": "Feature"}, {"geometry": {"coordinates": [8.569331, 47.373091], "type": "Point"}, "properties": {"charge": 77, "id": "smide_2854", "name": "ZH 267103", "provider": "smide", "range": 38.0, "size": 17, "time": "02/14/2020, 15:08:52"}, "type": "Feature"}, {"geometry": {"coordinates": [8.565921, 47.405395], "type": "Point"}, "properties": {"charge": 100, "id": "smide_2833", "name": "ZH 267182", "provider": "smide", "range": 50.0, "size": 20, "time": "02/14/2020, 15:08:52"}, "type": "Feature"}, {"geometry": {"coordinates": [8.53679, 47.38795], "type": "Point"}, "properties": {"charge": 59, "id": "smide_2831", "name": "ZH 267180", "provider": "smide", "range": 29.0, "size": 20, "time": "02/14/2020, 15:08:52"}, "type": "Feature"}, {"geometry": {"coordinates": [8.57435, 47.348268], "type": "Point"}, "properties": {"charge": 92, "id": "smide_2804", "name": "ZH266903", "provider": "smide", "range": 46.0, "size": 20, "time": "02/14/2020, 15:08:52"}, "type": "Feature"}, {"geometry": {"coordinates": [8.540375, 47.378375], "type": "Point"}, "properties": {"charge": 100, "id": "smide_2795", "name": "ZH 266885", "provider": "smide", "range": 50.0, "size": 17, "time": "02/14/2020, 15:08:52"}, "type": "Feature"}, {"geometry": {"coordinates": [8.496091, 47.367413], "type": "Point"}, "properties": {"charge": 61, "id": "smide_2793", "name": "ZH266883", "provider": "smide", "range": 30.0, "size": 17, "time": "02/14/2020, 15:08:52"}, "type": "Feature"}, {"geometry": {"coordinates": [8.564263, 47.36975], "type": "Point"}, "properties": {"charge": 65, "id": "smide_2790", "name": "ZH266880", "provider": "smide", "range": 32.0, "size": 17, "time": "02/14/2020, 15:08:52"}, "type": "Feature"}, {"geometry": {"coordinates": [8.568825, 47.373758], "type": "Point"}, "properties": {"charge": 56, "id": "smide_2785", "name": "ZH266875", "provider": "smide", "range": 28.0, "size": 17, "time": "02/14/2020, 15:08:52"}, "type": "Feature"}, {"geometry": {"coordinates": [8.483227, 47.388368], "type": "Point"}, "properties": {"charge": 87, "id": "smide_2775", "name": "ZH267283", "provider": "smide", "range": 43.0, "size": 20, "time": "02/14/2020, 15:08:52"}, "type": "Feature"}, {"geometry": {"coordinates": [8.537503, 47.369556], "type": "Point"}, "properties": {"charge": 93, "id": "smide_2773", "name": "ZH266561", "provider": "smide", "range": 46.0, "size": 17, "time": "02/14/2020, 15:08:52"}, "type": "Feature"}, {"geometry": {"coordinates": [8.503893, 47.399104], "type": "Point"}, "properties": {"charge": 77, "id": "smide_2771", "name": "ZH266559", "provider": "smide", "range": 38.0, "size": 17, "time": "02/14/2020, 15:08:52"}, "type": "Feature"}, {"geometry": {"coordinates": [8.487311, 47.392716], "type": "Point"}, "properties": {"charge": 87, "id": "smide_2763", "name": "ZH266641", "provider": "smide", "range": 43.0, "size": 17, "time": "02/14/2020, 15:08:52"}, "type": "Feature"}, {"geometry": {"coordinates": [8.551458, 47.401041], "type": "Point"}, "properties": {"charge": 86, "id": "smide_2761", "name": "ZH266642", "provider": "smide", "range": 43.0, "size": 20, "time": "02/14/2020, 15:08:52"}, "type": "Feature"}, {"geometry": {"coordinates": [8.507429, 47.379552], "type": "Point"}, "properties": {"charge": 45, "id": "smide_2759", "name": "ZH266639", "provider": "smide", "range": 22.0, "size": 17, "time": "02/14/2020, 15:08:52"}, "type": "Feature"}, {"geometry": {"coordinates": [8.574204, 47.348216], "type": "Point"}, "properties": {"charge": 98, "id": "smide_2758", "name": "ZH266638 M", "provider": "smide", "range": 49.0, "size": 17, "time": "02/14/2020, 15:08:52"}, "type": "Feature"}, {"geometry": {"coordinates": [8.548442, 47.360784], "type": "Point"}, "properties": {"charge": 75, "id": "smide_2752", "name": "BE343856", "provider": "smide", "range": 37.0, "size": 17, "time": "02/14/2020, 15:08:52"}, "type": "Feature"}, {"geometry": {"coordinates": [8.543222, 47.3921], "type": "Point"}, "properties": {"charge": 66, "id": "smide_2751", "name": "BE343857", "provider": "smide", "range": 33.0, "size": 17, "time": "02/14/2020, 15:08:52"}, "type": "Feature"}, {"geometry": {"coordinates": [8.526983, 47.397464], "type": "Point"}, "properties": {"charge": 57, "id": "smide_2749", "name": "BE343867", "provider": "smide", "range": 28.0, "size": 17, "time": "02/14/2020, 15:08:52"}, "type": "Feature"}, {"geometry": {"coordinates": [8.536058, 47.365632], "type": "Point"}, "properties": {"charge": 37, "id": "smide_2748", "name": "BE335758", "provider": "smide", "range": 18.0, "size": 17, "time": "02/14/2020, 15:08:52"}, "type": "Feature"}, {"geometry": {"coordinates": [8.567066, 47.382784], "type": "Point"}, "properties": {"charge": 100, "id": "smide_2746", "name": "BE335817", "provider": "smide", "range": 50.0, "size": 17, "time": "02/14/2020, 15:08:52"}, "type": "Feature"}, {"geometry": {"coordinates": [8.482642, 47.384588], "type": "Point"}, "properties": {"charge": 70, "id": "smide_2747", "name": "BE335820", "provider": "smide", "range": 35.0, "size": 17, "time": "02/14/2020, 15:08:52"}, "type": "Feature"}, {"geometry": {"coordinates": [8.573237, 47.357112], "type": "Point"}, "properties": {"charge": 100, "id": "smide_2745", "name": "BE335818", "provider": "smide", "range": 50.0, "size": 17, "time": "02/14/2020, 15:08:52"}, "type": "Feature"}, {"geometry": {"coordinates": [8.512731, 47.398912], "type": "Point"}, "properties": {"charge": 100, "id": "smide_2743", "name": "BE343864", "provider": "smide", "range": 50.0, "size": 17, "time": "02/14/2020, 15:08:52"}, "type": "Feature"}, {"geometry": {"coordinates": [8.568199, 47.3679], "type": "Point"}, "properties": {"charge": 62, "id": "smide_2742", "name": "BE343866", "provider": "smide", "range": 31.0, "size": 17, "time": "02/14/2020, 15:08:52"}, "type": "Feature"}, {"geometry": {"coordinates": [8.547638, 47.364908], "type": "Point"}, "properties": {"charge": 87, "id": "smide_2741", "name": "BE343874", "provider": "smide", "range": 43.0, "size": 17, "time": "02/14/2020, 15:08:52"}, "type": "Feature"}, {"geometry": {"coordinates": [8.526958, 47.387796], "type": "Point"}, "properties": {"charge": 37, "id": "smide_2740", "name": "BE343875", "provider": "smide", "range": 18.0, "size": 17, "time": "02/14/2020, 15:08:52"}, "type": "Feature"}, {"geometry": {"coordinates": [8.53503, 47.370745], "type": "Point"}, "properties": {"charge": 100, "id": "smide_2738", "name": "BE343865", "provider": "smide", "range": 50.0, "size": 17, "time": "02/14/2020, 15:08:52"}, "type": "Feature"}, {"geometry": {"coordinates": [8.484216, 47.39694], "type": "Point"}, "properties": {"charge": 60, "id": "smide_2737", "name": "BE336149", "provider": "smide", "range": 30.0, "size": 17, "time": "02/14/2020, 15:08:52"}, "type": "Feature"}, {"geometry": {"coordinates": [8.512443, 47.3836], "type": "Point"}, "properties": {"charge": 87, "id": "smide_2734", "name": "BE343876", "provider": "smide", "range": 43.0, "size": 17, "time": "02/14/2020, 15:08:52"}, "type": "Feature"}, {"geometry": {"coordinates": [8.534925, 47.36722], "type": "Point"}, "properties": {"charge": 35, "id": "smide_2733", "name": "BE343873", "provider": "smide", "range": 17.0, "size": 17, "time": "02/14/2020, 15:08:52"}, "type": "Feature"}, {"geometry": {"coordinates": [8.531166, 47.385048], "type": "Point"}, "properties": {"charge": 88, "id": "smide_2732", "name": "BE343870", "provider": "smide", "range": 44.0, "size": 17, "time": "02/14/2020, 15:08:52"}, "type": "Feature"}, {"geometry": {"coordinates": [8.574663, 47.352504], "type": "Point"}, "properties": {"charge": 61, "id": "smide_2729", "name": "BE343878", "provider": "smide", "range": 30.0, "size": 17, "time": "02/14/2020, 15:08:52"}, "type": "Feature"}, {"geometry": {"coordinates": [8.537151, 47.366013], "type": "Point"}, "properties": {"charge": 58, "id": "smide_2725", "name": "ZH261545", "provider": "smide", "range": 28.0, "size": 0, "time": "02/14/2020, 15:08:52"}, "type": "Feature"}, {"geometry": {"coordinates": [8.509812, 47.392304], "type": "Point"}, "properties": {"charge": 40, "id": "smide_2717", "name": "ZH263287", "provider": "smide", "range": 20.0, "size": 17, "time": "02/14/2020, 15:08:52"}, "type": "Feature"}, {"geometry": {"coordinates": [8.549551, 47.421966], "type": "Point"}, "properties": {"charge": 26, "id": "smide_2716", "name": "ZH254606", "provider": "smide", "range": 13.0, "size": 17, "time": "02/14/2020, 15:08:52"}, "type": "Feature"}, {"geometry": {"coordinates": [8.518834, 47.385512], "type": "Point"}, "properties": {"charge": 52, "id": "smide_2715", "name": "ZH254605", "provider": "smide", "range": 26.0, "size": 17, "time": "02/14/2020, 15:08:52"}, "type": "Feature"}, {"geometry": {"coordinates": [8.564747, 47.40718], "type": "Point"}, "properties": {"charge": 56, "id": "smide_2714", "name": "ZH256461", "provider": "smide", "range": 28.0, "size": 17, "time": "02/14/2020, 15:08:52"}, "type": "Feature"}, {"geometry": {"coordinates": [8.523669, 47.35846], "type": "Point"}, "properties": {"charge": 100, "id": "smide_2710", "name": "ZH256460", "provider": "smide", "range": 50.0, "size": 17, "time": "02/14/2020, 15:08:52"}, "type": "Feature"}, {"geometry": {"coordinates": [8.514318, 47.357292], "type": "Point"}, "properties": {"charge": 42, "id": "smide_2712", "name": "ZH256462", "provider": "smide", "range": 21.0, "size": 17, "time": "02/14/2020, 15:08:52"}, "type": "Feature"}, {"geometry": {"coordinates": [8.498364, 47.387872], "type": "Point"}, "properties": {"charge": 100, "id": "smide_2711", "name": "ZH256463", "provider": "smide", "range": 50.0, "size": 17, "time": "02/14/2020, 15:08:52"}, "type": "Feature"}, {"geometry": {"coordinates": [8.496891, 47.368531], "type": "Point"}, "properties": {"charge": 94, "id": "smide_2709", "name": "ZH256466", "provider": "smide", "range": 47.0, "size": 20, "time": "02/14/2020, 15:08:52"}, "type": "Feature"}, {"geometry": {"coordinates": [8.547085, 47.37058], "type": "Point"}, "properties": {"charge": 46, "id": "smide_2707", "name": "ZH256467", "provider": "smide", "range": 23.0, "size": 20, "time": "02/14/2020, 15:08:52"}, "type": "Feature"}, {"geometry": {"coordinates": [8.483411, 47.374316], "type": "Point"}, "properties": {"charge": 51, "id": "smide_2708", "name": "ZH256464", "provider": "smide", "range": 25.0, "size": 17, "time": "02/14/2020, 15:08:52"}, "type": "Feature"}, {"geometry": {"coordinates": [8.506342, 47.360516], "type": "Point"}, "properties": {"charge": 100, "id": "smide_2706", "name": "ZH256322", "provider": "smide", "range": 50.0, "size": 20, "time": "02/14/2020, 15:08:52"}, "type": "Feature"}, {"geometry": {"coordinates": [8.533357, 47.385048], "type": "Point"}, "properties": {"charge": 67, "id": "smide_2701", "name": "ZH256468", "provider": "smide", "range": 33.0, "size": 20, "time": "02/14/2020, 15:08:52"}, "type": "Feature"}, {"geometry": {"coordinates": [8.482171, 47.39406], "type": "Point"}, "properties": {"charge": 70, "id": "smide_2697", "name": "ZH254629", "provider": "smide", "range": 35.0, "size": 20, "time": "02/14/2020, 15:08:52"}, "type": "Feature"}, {"geometry": {"coordinates": [8.544842, 47.419024], "type": "Point"}, "properties": {"charge": 90, "id": "smide_2696", "name": "ZH254616", "provider": "smide", "range": 45.0, "size": 20, "time": "02/14/2020, 15:08:52"}, "type": "Feature"}, {"geometry": {"coordinates": [8.572743, 47.380931], "type": "Point"}, "properties": {"charge": 100, "id": "smide_2691", "name": "ZH254622", "provider": "smide", "range": 50.0, "size": 20, "time": "02/14/2020, 15:08:52"}, "type": "Feature"}, {"geometry": {"coordinates": [8.550248, 47.410405], "type": "Point"}, "properties": {"charge": 59, "id": "smide_2690", "name": "ZH254625", "provider": "smide", "range": 29.0, "size": 20, "time": "02/14/2020, 15:08:52"}, "type": "Feature"}, {"geometry": {"coordinates": [8.532062, 47.369064], "type": "Point"}, "properties": {"charge": 48, "id": "smide_2687", "name": "ZH263529", "provider": "smide", "range": 24.0, "size": 20, "time": "02/14/2020, 15:08:52"}, "type": "Feature"}, {"geometry": {"coordinates": [8.542148, 47.424508], "type": "Point"}, "properties": {"charge": 85, "id": "smide_2686", "name": "ZH263288", "provider": "smide", "range": 42.0, "size": 20, "time": "02/14/2020, 15:08:52"}, "type": "Feature"}, {"geometry": {"coordinates": [8.543356, 47.372896], "type": "Point"}, "properties": {"charge": 72, "id": "smide_2684", "name": "ZH254626", "provider": "smide", "range": 36.0, "size": 20, "time": "02/14/2020, 15:08:52"}, "type": "Feature"}, {"geometry": {"coordinates": [8.548281, 47.383308], "type": "Point"}, "properties": {"charge": 64, "id": "smide_2683", "name": "ZH254620", "provider": "smide", "range": 32.0, "size": 20, "time": "02/14/2020, 15:08:52"}, "type": "Feature"}, {"geometry": {"coordinates": [8.540073, 47.378876], "type": "Point"}, "properties": {"charge": 100, "id": "smide_2680", "name": "ZH254619", "provider": "smide", "range": 50.0, "size": 20, "time": "02/14/2020, 15:08:52"}, "type": "Feature"}, {"geometry": {"coordinates": [8.573924, 47.352756], "type": "Point"}, "properties": {"charge": 77, "id": "smide_2679", "name": "ZH258489", "provider": "smide", "range": 38.0, "size": 17, "time": "02/14/2020, 15:08:52"}, "type": "Feature"}, {"geometry": {"coordinates": [8.513565, 47.378044], "type": "Point"}, "properties": {"charge": 74, "id": "smide_2674", "name": "ZH258654", "provider": "smide", "range": 37.0, "size": 17, "time": "02/14/2020, 15:08:52"}, "type": "Feature"}, {"geometry": {"coordinates": [8.482602, 47.384648], "type": "Point"}, "properties": {"charge": 76, "id": "smide_2669", "name": "ZH263294", "provider": "smide", "range": 38.0, "size": 17, "time": "02/14/2020, 15:08:52"}, "type": "Feature"}, {"geometry": {"coordinates": [8.582797, 47.35098], "type": "Point"}, "properties": {"charge": 100, "id": "smide_2665", "name": "ZH258644", "provider": "smide", "range": 50.0, "size": 17, "time": "02/14/2020, 15:08:52"}, "type": "Feature"}, {"geometry": {"coordinates": [8.534234, 47.397824], "type": "Point"}, "properties": {"charge": 98, "id": "smide_2664", "name": "ZH258652", "provider": "smide", "range": 49.0, "size": 17, "time": "02/14/2020, 15:08:52"}, "type": "Feature"}, {"geometry": {"coordinates": [8.53408, 47.363852], "type": "Point"}, "properties": {"charge": 97, "id": "smide_2663", "name": "ZH258649", "provider": "smide", "range": 48.0, "size": 17, "time": "02/14/2020, 15:08:52"}, "type": "Feature"}, {"geometry": {"coordinates": [8.489392, 47.37388], "type": "Point"}, "properties": {"charge": 100, "id": "smide_2662", "name": "ZH258643", "provider": "smide", "range": 50.0, "size": 17, "time": "02/14/2020, 15:08:52"}, "type": "Feature"}, {"geometry": {"coordinates": [8.527062, 47.363876], "type": "Point"}, "properties": {"charge": 97, "id": "smide_2648", "name": "ZH257930", "provider": "smide", "range": 48.0, "size": 20, "time": "02/14/2020, 15:08:52"}, "type": "Feature"}, {"geometry": {"coordinates": [8.569928, 47.352226], "type": "Point"}, "properties": {"charge": 74, "id": "smide_2657", "name": "ZH257936", "provider": "smide", "range": 37.0, "size": 17, "time": "02/14/2020, 15:08:52"}, "type": "Feature"}, {"geometry": {"coordinates": [8.570066, 47.352356], "type": "Point"}, "properties": {"charge": 100, "id": "smide_2647", "name": "ZH257932", "provider": "smide", "range": 50.0, "size": 20, "time": "02/14/2020, 15:08:52"}, "type": "Feature"}, {"geometry": {"coordinates": [8.528701, 47.375548], "type": "Point"}, "properties": {"charge": 23, "id": "smide_2645", "name": "ZH257933", "provider": "smide", "range": 11.0, "size": 20, "time": "02/14/2020, 15:08:52"}, "type": "Feature"}, {"geometry": {"coordinates": [8.537881, 47.366558], "type": "Point"}, "properties": {"charge": 95, "id": "smide_3", "name": "ZH253765", "provider": "smide", "range": 47.0, "size": 20, "time": "02/14/2020, 15:08:52"}, "type": "Feature"}, {"geometry": {"coordinates": [8.510685, 47.392435], "type": "Point"}, "properties": {"charge": 79, "id": "smide_105", "name": "ZH253804", "provider": "smide", "range": 39.0, "size": 17, "time": "02/14/2020, 15:08:52"}, "type": "Feature"}, {"geometry": {"coordinates": [8.501897, 47.398096], "type": "Point"}, "properties": {"charge": 21, "id": "smide_186", "name": "ZH253751", "provider": "smide", "range": 10.0, "size": 20, "time": "02/14/2020, 15:08:52"}, "type": "Feature"}, {"geometry": {"coordinates": [8.559349, 47.406068], "type": "Point"}, "properties": {"charge": 89, "id": "smide_77", "name": "ZH261548", "provider": "smide", "range": 44.0, "size": 20, "time": "02/14/2020, 15:08:52"}, "type": "Feature"}, {"geometry": {"coordinates": [8.500595, 47.368818], "type": "Point"}, "properties": {"charge": 100, "id": "smide_197", "name": "ZH253864", "provider": "smide", "range": 50.0, "size": 20, "time": "02/14/2020, 15:08:52"}, "type": "Feature"}, {"geometry": {"coordinates": [8.486355, 47.386988], "type": "Point"}, "properties": {"charge": 66, "id": "smide_8", "name": "ZH253861", "provider": "smide", "range": 33.0, "size": 17, "time": "02/14/2020, 15:08:52"}, "type": "Feature"}, {"geometry": {"coordinates": [8.512303, 47.392088], "type": "Point"}, "properties": {"charge": 66, "id": "smide_201", "name": "ZH253698", "provider": "smide", "range": 33.0, "size": 17, "time": "02/14/2020, 15:08:52"}, "type": "Feature"}, {"geometry": {"coordinates": [8.509915, 47.382492], "type": "Point"}, "properties": {"charge": 99, "id": "smide_71", "name": "ZH253742", "provider": "smide", "range": 49.0, "size": 20, "time": "02/14/2020, 15:08:52"}, "type": "Feature"}, {"geometry": {"coordinates": [8.488846, 47.392828], "type": "Point"}, "properties": {"charge": 17, "id": "smide_101", "name": "ZH253814", "provider": "smide", "range": 8.0, "size": 17, "time": "02/14/2020, 15:08:52"}, "type": "Feature"}, {"geometry": {"coordinates": [8.521609, 47.366564], "type": "Point"}, "properties": {"charge": 74, "id": "smide_9", "name": "ZH253796", "provider": "smide", "range": 37.0, "size": 17, "time": "02/14/2020, 15:08:52"}, "type": "Feature"}, {"geometry": {"coordinates": [8.530045, 47.393704], "type": "Point"}, "properties": {"charge": 100, "id": "smide_143", "name": "ZH253778", "provider": "smide", "range": 50.0, "size": 17, "time": "02/14/2020, 15:08:52"}, "type": "Feature"}, {"geometry": {"coordinates": [8.536521, 47.369973], "type": "Point"}, "properties": {"charge": 31, "id": "smide_180", "name": "ZH253824", "provider": "smide", "range": 15.0, "size": 20, "time": "02/14/2020, 15:08:52"}, "type": "Feature"}, {"geometry": {"coordinates": [8.566862, 47.360392], "type": "Point"}, "properties": {"charge": 100, "id": "smide_20", "name": "ZH253770", "provider": "smide", "range": 50.0, "size": 20, "time": "02/14/2020, 15:08:52"}, "type": "Feature"}, {"geometry": {"coordinates": [8.550531, 47.377885], "type": "Point"}, "properties": {"charge": 63, "id": "smide_30", "name": "ZH253813", "provider": "smide", "range": 31.0, "size": 20, "time": "02/14/2020, 15:08:52"}, "type": "Feature"}, {"geometry": {"coordinates": [8.507796, 47.398272], "type": "Point"}, "properties": {"charge": 94, "id": "smide_179", "name": "ZH253687", "provider": "smide", "range": 47.0, "size": 20, "time": "02/14/2020, 15:08:52"}, "type": "Feature"}, {"geometry": {"coordinates": [8.502078, 47.368873], "type": "Point"}, "properties": {"charge": 100, "id": "smide_79", "name": "ZH253711", "provider": "smide", "range": 50.0, "size": 20, "time": "02/14/2020, 15:08:52"}, "type": "Feature"}, {"geometry": {"coordinates": [8.529464, 47.375492], "type": "Point"}, "properties": {"charge": 83, "id": "smide_84", "name": "ZH253733", "provider": "smide", "range": 41.0, "size": 17, "time": "02/14/2020, 15:08:52"}, "type": "Feature"}, {"geometry": {"coordinates": [8.533299, 47.384912], "type": "Point"}, "properties": {"charge": 100, "id": "smide_35", "name": "ZH253755", "provider": "smide", "range": 50.0, "size": 20, "time": "02/14/2020, 15:08:52"}, "type": "Feature"}, {"geometry": {"coordinates": [8.546244, 47.374152], "type": "Point"}, "properties": {"charge": 92, "id": "smide_119", "name": "ZH253686", "provider": "smide", "range": 46.0, "size": 20, "time": "02/14/2020, 15:08:52"}, "type": "Feature"}, {"geometry": {"coordinates": [8.532414, 47.379156], "type": "Point"}, "properties": {"charge": 29, "id": "smide_76", "name": "ZH253764", "provider": "smide", "range": 14.0, "size": 17, "time": "02/14/2020, 15:08:52"}, "type": "Feature"}, {"geometry": {"coordinates": [8.494957, 47.386168], "type": "Point"}, "properties": {"charge": 100, "id": "smide_129", "name": "ZH261378", "provider": "smide", "range": 50.0, "size": 17, "time": "02/14/2020, 15:08:52"}, "type": "Feature"}, {"geometry": {"coordinates": [8.572593, 47.380813], "type": "Point"}, "properties": {"charge": 88, "id": "smide_49", "name": "ZH253873", "provider": "smide", "range": 44.0, "size": 17, "time": "02/14/2020, 15:08:52"}, "type": "Feature"}, {"geometry": {"coordinates": [8.502009, 47.368964], "type": "Point"}, "properties": {"charge": 89, "id": "smide_94", "name": "ZH253754", "provider": "smide", "range": 44.0, "size": 17, "time": "02/14/2020, 15:08:52"}, "type": "Feature"}, {"geometry": {"coordinates": [8.54583, 47.374808], "type": "Point"}, "properties": {"charge": 51, "id": "smide_191", "name": "ZH253762", "provider": "smide", "range": 25.0, "size": 17, "time": "02/14/2020, 15:08:52"}, "type": "Feature"}, {"geometry": {"coordinates": [8.488093, 47.385028], "type": "Point"}, "properties": {"charge": 97, "id": "smide_202", "name": "ZH253830", "provider": "smide", "range": 48.0, "size": 17, "time": "02/14/2020, 15:08:52"}, "type": "Feature"}, {"geometry": {"coordinates": [8.502169, 47.36894], "type": "Point"}, "properties": {"charge": 100, "id": "smide_150", "name": "ZH253703", "provider": "smide", "range": 50.0, "size": 20, "time": "02/14/2020, 15:08:52"}, "type": "Feature"}, {"geometry": {"coordinates": [8.481615, 47.38972], "type": "Point"}, "properties": {"charge": 91, "id": "smide_66", "name": "ZH253818", "provider": "smide", "range": 45.0, "size": 20, "time": "02/14/2020, 15:08:52"}, "type": "Feature"}, {"geometry": {"coordinates": [8.496896, 47.362778], "type": "Point"}, "properties": {"charge": 76, "id": "smide_17", "name": "ZH253793", "provider": "smide", "range": 38.0, "size": 17, "time": "02/14/2020, 15:08:52"}, "type": "Feature"}, {"geometry": {"coordinates": [8.548343, 47.380965], "type": "Point"}, "properties": {"charge": 74, "id": "smide_145", "name": "ZH253780", "provider": "smide", "range": 37.0, "size": 20, "time": "02/14/2020, 15:08:52"}, "type": "Feature"}, {"geometry": {"coordinates": [8.515571, 47.391464], "type": "Point"}, "properties": {"charge": 94, "id": "smide_114", "name": "ZH253878", "provider": "smide", "range": 47.0, "size": 20, "time": "02/14/2020, 15:08:52"}, "type": "Feature"}, {"geometry": {"coordinates": [8.520471, 47.358476], "type": "Point"}, "properties": {"charge": 87, "id": "smide_203", "name": "ZH261547", "provider": "smide", "range": 43.0, "size": 17, "time": "02/14/2020, 15:08:52"}, "type": "Feature"}, {"geometry": {"coordinates": [8.49767, 47.384064], "type": "Point"}, "properties": {"charge": 56, "id": "smide_21", "name": "ZH253841", "provider": "smide", "range": 28.0, "size": 17, "time": "02/14/2020, 15:08:52"}, "type": "Feature"}, {"geometry": {"coordinates": [8.476787, 47.387392], "type": "Point"}, "properties": {"charge": 87, "id": "smide_164", "name": "ZH253775", "provider": "smide", "range": 43.0, "size": 17, "time": "02/14/2020, 15:08:52"}, "type": "Feature"}, {"geometry": {"coordinates": [8.525896, 47.365372], "type": "Point"}, "properties": {"charge": 99, "id": "smide_189", "name": "ZH253845", "provider": "smide", "range": 49.0, "size": 20, "time": "02/14/2020, 15:08:52"}, "type": "Feature"}, {"geometry": {"coordinates": [8.502479, 47.384644], "type": "Point"}, "properties": {"charge": 94, "id": "smide_81", "name": "ZH253753", "provider": "smide", "range": 47.0, "size": 17, "time": "02/14/2020, 15:08:52"}, "type": "Feature"}, {"geometry": {"coordinates": [8.501332, 47.366528], "type": "Point"}, "properties": {"charge": 58, "id": "smide_93", "name": "ZH253681", "provider": "smide", "range": 28.0, "size": 17, "time": "02/14/2020, 15:08:52"}, "type": "Feature"}, {"geometry": {"coordinates": [8.541105, 47.378448], "type": "Point"}, "properties": {"charge": 55, "id": "smide_67", "name": "ZH253779", "provider": "smide", "range": 27.0, "size": 17, "time": "02/14/2020, 15:08:52"}, "type": "Feature"}, {"geometry": {"coordinates": [8.476763, 47.390046], "type": "Point"}, "properties": {"charge": 57, "id": "smide_118", "name": "ZH253759", "provider": "smide", "range": 28.0, "size": 20, "time": "02/14/2020, 15:08:52"}, "type": "Feature"}, {"geometry": {"coordinates": [8.5335, 47.412108], "type": "Point"}, "properties": {"charge": 66, "id": "smide_142", "name": "ZH258745", "provider": "smide", "range": 33.0, "size": 17, "time": "02/14/2020, 15:08:52"}, "type": "Feature"}, {"geometry": {"coordinates": [8.537125, 47.407338], "type": "Point"}, "properties": {"charge": 62, "id": "smide_166", "name": "ZH253728", "provider": "smide", "range": 31.0, "size": 17, "time": "02/14/2020, 15:08:52"}, "type": "Feature"}, {"geometry": {"coordinates": [8.533545, 47.36046], "type": "Point"}, "properties": {"charge": 20, "id": "smide_126", "name": "ZH268400", "provider": "smide", "range": 10.0, "size": 17, "time": "02/14/2020, 15:08:52"}, "type": "Feature"}, {"geometry": {"coordinates": [8.487406, 47.367628], "type": "Point"}, "properties": {"charge": 72, "id": "smide_44", "name": "ZH253837", "provider": "smide", "range": 36.0, "size": 17, "time": "02/14/2020, 15:08:52"}, "type": "Feature"}, {"geometry": {"coordinates": [8.52755, 47.376408], "type": "Point"}, "properties": {"charge": 81, "id": "smide_98", "name": "ZH256321", "provider": "smide", "range": 40.0, "size": 17, "time": "02/14/2020, 15:08:52"}, "type": "Feature"}, {"geometry": {"coordinates": [8.502345, 47.36881], "type": "Point"}, "properties": {"charge": 100, "id": "smide_57", "name": "ZH253772", "provider": "smide", "range": 50.0, "size": 17, "time": "02/14/2020, 15:08:52"}, "type": "Feature"}, {"geometry": {"coordinates": [8.542421, 47.37246], "type": "Point"}, "properties": {"charge": 62, "id": "smide_154", "name": "ZH253744", "provider": "smide", "range": 31.0, "size": 20, "time": "02/14/2020, 15:08:52"}, "type": "Feature"}, {"geometry": {"coordinates": [8.528851, 47.336916], "type": "Point"}, "properties": {"charge": 51, "id": "smide_7", "name": "ZH256289", "provider": "smide", "range": 25.0, "size": 20, "time": "02/14/2020, 15:08:52"}, "type": "Feature"}, {"geometry": {"coordinates": [8.533848, 47.367384], "type": "Point"}, "properties": {"charge": 61, "id": "smide_92", "name": "ZH253798", "provider": "smide", "range": 30.0, "size": 17, "time": "02/14/2020, 15:08:52"}, "type": "Feature"}, {"geometry": {"coordinates": [8.553582, 47.397604], "type": "Point"}, "properties": {"charge": 100, "id": "smide_65", "name": "ZH253810", "provider": "smide", "range": 50.0, "size": 17, "time": "02/14/2020, 15:08:52"}, "type": "Feature"}, {"geometry": {"coordinates": [8.547525, 47.364064], "type": "Point"}, "properties": {"charge": 100, "id": "smide_111", "name": "ZH253763", "provider": "smide", "range": 50.0, "size": 17, "time": "02/14/2020, 15:08:52"}, "type": "Feature"}, {"geometry": {"coordinates": [8.576298, 47.3489], "type": "Point"}, "properties": {"charge": 100, "id": "smide_40", "name": "ZH253690", "provider": "smide", "range": 50.0, "size": 20, "time": "02/14/2020, 15:08:52"}, "type": "Feature"}, {"geometry": {"coordinates": [8.51434, 47.357312], "type": "Point"}, "properties": {"charge": 94, "id": "smide_1", "name": "ZH253776", "provider": "smide", "range": 47.0, "size": 17, "time": "02/14/2020, 15:08:52"}, "type": "Feature"}, {"geometry": {"coordinates": [8.510805, 47.367948], "type": "Point"}, "properties": {"charge": 85, "id": "smide_28", "name": "ZH253831", "provider": "smide", "range": 42.0, "size": 17, "time": "02/14/2020, 15:08:52"}, "type": "Feature"}, {"geometry": {"coordinates": [8.499887, 47.370512], "type": "Point"}, "properties": {"charge": 67, "id": "smide_130", "name": "ZH253847", "provider": "smide", "range": 33.0, "size": 20, "time": "02/14/2020, 15:08:52"}, "type": "Feature"}, {"geometry": {"coordinates": [8.514285, 47.357371], "type": "Point"}, "properties": {"charge": 89, "id": "smide_24", "name": "ZH253696", "provider": "smide", "range": 44.0, "size": 20, "time": "02/14/2020, 15:08:52"}, "type": "Feature"}, {"geometry": {"coordinates": [8.552568, 47.381728], "type": "Point"}, "properties": {"charge": 21, "id": "smide_107", "name": "ZH253819", "provider": "smide", "range": 10.0, "size": 17, "time": "02/14/2020, 15:08:52"}, "type": "Feature"}, {"geometry": {"coordinates": [8.529849, 47.398408], "type": "Point"}, "properties": {"charge": 32, "id": "smide_136", "name": "ZH253682", "provider": "smide", "range": 16.0, "size": 17, "time": "02/14/2020, 15:08:52"}, "type": "Feature"}, {"geometry": {"coordinates": [8.573881, 47.352776], "type": "Point"}, "properties": {"charge": 100, "id": "smide_205", "name": "ZH253805", "provider": "smide", "range": 50.0, "size": 17, "time": "02/14/2020, 15:08:52"}, "type": "Feature"}, {"geometry": {"coordinates": [8.542628, 47.420811], "type": "Point"}, "properties": {"charge": 100, "id": "smide_158", "name": "ZH253870", "provider": "smide", "range": 50.0, "size": 20, "time": "02/14/2020, 15:08:52"}, "type": "Feature"}, {"geometry": {"coordinates": [8.511683, 47.391476], "type": "Point"}, "properties": {"charge": 73, "id": "smide_100", "name": "ZH253862", "provider": "smide", "range": 36.0, "size": 20, "time": "02/14/2020, 15:08:52"}, "type": "Feature"}, {"geometry": {"coordinates": [8.524046, 47.365081], "type": "Point"}, "properties": {"charge": 27, "id": "smide_134", "name": "ZH253741", "provider": "smide", "range": 13.0, "size": 20, "time": "02/14/2020, 15:08:52"}, "type": "Feature"}, {"geometry": {"coordinates": [8.502148, 47.368698], "type": "Point"}, "properties": {"charge": 100, "id": "smide_149", "name": "ZH253743", "provider": "smide", "range": 50.0, "size": 20, "time": "02/14/2020, 15:08:52"}, "type": "Feature"}, {"geometry": {"coordinates": [8.573136, 47.351172], "type": "Point"}, "properties": {"charge": 55, "id": "smide_16", "name": "ZH253713", "provider": "smide", "range": 27.0, "size": 20, "time": "02/14/2020, 15:08:52"}, "type": "Feature"}, {"geometry": {"coordinates": [8.550491, 47.37496], "type": "Point"}, "properties": {"charge": 59, "id": "smide_74", "name": "ZH253693", "provider": "smide", "range": 29.0, "size": 20, "time": "02/14/2020, 15:08:52"}, "type": "Feature"}, {"geometry": {"coordinates": [8.544319, 47.416336], "type": "Point"}, "properties": {"charge": 66, "id": "smide_161", "name": "ZH253691", "provider": "smide", "range": 33.0, "size": 20, "time": "02/14/2020, 15:08:52"}, "type": "Feature"}, {"geometry": {"coordinates": [8.568962, 47.37322], "type": "Point"}, "properties": {"charge": 61, "id": "smide_4", "name": "ZH253740", "provider": "smide", "range": 30.0, "size": 20, "time": "02/14/2020, 15:08:52"}, "type": "Feature"}, {"geometry": {"coordinates": [8.497005, 47.392304], "type": "Point"}, "properties": {"charge": 92, "id": "smide_160", "name": "ZH253722", "provider": "smide", "range": 46.0, "size": 17, "time": "02/14/2020, 15:08:52"}, "type": "Feature"}, {"geometry": {"coordinates": [8.542186, 47.424632], "type": "Point"}, "properties": {"charge": 59, "id": "smide_178", "name": "ZH253803", "provider": "smide", "range": 29.0, "size": 17, "time": "02/14/2020, 15:08:52"}, "type": "Feature"}, {"geometry": {"coordinates": [8.554153, 47.397851], "type": "Point"}, "properties": {"charge": 100, "id": "smide_55", "name": "ZH253875", "provider": "smide", "range": 50.0, "size": 17, "time": "02/14/2020, 15:08:52"}, "type": "Feature"}, {"geometry": {"coordinates": [8.557785, 47.404452], "type": "Point"}, "properties": {"charge": 93, "id": "smide_96", "name": "ZH256146", "provider": "smide", "range": 46.0, "size": 20, "time": "02/14/2020, 15:08:52"}, "type": "Feature"}, {"geometry": {"coordinates": [8.520471, 47.384864], "type": "Point"}, "properties": {"charge": 86, "id": "smide_58", "name": "ZH259246", "provider": "smide", "range": 43.0, "size": 20, "time": "02/14/2020, 15:08:52"}, "type": "Feature"}, {"geometry": {"coordinates": [8.537154, 47.387344], "type": "Point"}, "properties": {"charge": 100, "id": "smide_54", "name": "ZH253874", "provider": "smide", "range": 50.0, "size": 20, "time": "02/14/2020, 15:08:52"}, "type": "Feature"}, {"geometry": {"coordinates": [8.540126, 47.378912], "type": "Point"}, "properties": {"charge": 70, "id": "smide_175", "name": "ZH253730", "provider": "smide", "range": 35.0, "size": 17, "time": "02/14/2020, 15:08:52"}, "type": "Feature"}, {"geometry": {"coordinates": [8.515638, 47.428813], "type": "Point"}, "properties": {"charge": 48, "id": "smide_162", "name": "ZH253760", "provider": "smide", "range": 24.0, "size": 17, "time": "02/14/2020, 15:08:52"}, "type": "Feature"}, {"geometry": {"coordinates": [8.542887, 47.37124], "type": "Point"}, "properties": {"charge": 51, "id": "smide_95", "name": "ZH253773", "provider": "smide", "range": 25.0, "size": 17, "time": "02/14/2020, 15:08:52"}, "type": "Feature"}, {"geometry": {"coordinates": [8.58224, 47.35188], "type": "Point"}, "properties": {"charge": 46, "id": "smide_163", "name": "ZH256147", "provider": "smide", "range": 23.0, "size": 20, "time": "02/14/2020, 15:08:52"}, "type": "Feature"}, {"geometry": {"coordinates": [8.491414, 47.379056], "type": "Point"}, "properties": {"charge": 100, "id": "smide_112", "name": "ZH263530", "provider": "smide", "range": 50.0, "size": 20, "time": "02/14/2020, 15:08:52"}, "type": "Feature"}, {"geometry": {"coordinates": [8.551231, 47.413033], "type": "Point"}, "properties": {"charge": 49, "id": "smide_38", "name": "ZH253851", "provider": "smide", "range": 24.0, "size": 20, "time": "02/14/2020, 15:08:52"}, "type": "Feature"}, {"geometry": {"coordinates": [8.568215, 47.367864], "type": "Point"}, "properties": {"charge": 100, "id": "smide_6", "name": "ZH253787", "provider": "smide", "range": 50.0, "size": 17, "time": "02/14/2020, 15:08:52"}, "type": "Feature"}, {"geometry": {"coordinates": [8.550955, 47.384952], "type": "Point"}, "properties": {"charge": 59, "id": "smide_18", "name": "ZH253859", "provider": "smide", "range": 29.0, "size": 17, "time": "02/14/2020, 15:08:52"}, "type": "Feature"}, {"geometry": {"coordinates": [8.518742, 47.3625], "type": "Point"}, "properties": {"charge": 98, "id": "smide_12", "name": "ZH253685", "provider": "smide", "range": 49.0, "size": 17, "time": "02/14/2020, 15:08:52"}, "type": "Feature"}, {"geometry": {"coordinates": [8.545748, 47.3751], "type": "Point"}, "properties": {"charge": 87, "id": "smide_192", "name": "ZH253706", "provider": "smide", "range": 43.0, "size": 20, "time": "02/14/2020, 15:08:52"}, "type": "Feature"}, {"geometry": {"coordinates": [8.537977, 47.412396], "type": "Point"}, "properties": {"charge": 66, "id": "smide_39", "name": "ZH253714", "provider": "smide", "range": 33.0, "size": 20, "time": "02/14/2020, 15:08:52"}, "type": "Feature"}, {"geometry": {"coordinates": [8.539381, 47.377235], "type": "Point"}, "properties": {"charge": 70, "id": "smide_85", "name": "ZH253729", "provider": "smide", "range": 35.0, "size": 17, "time": "02/14/2020, 15:08:52"}, "type": "Feature"}, {"geometry": {"coordinates": [8.52865, 47.382832], "type": "Point"}, "properties": {"charge": 70, "id": "smide_29", "name": "ZH253723", "provider": "smide", "range": 35.0, "size": 17, "time": "02/14/2020, 15:08:52"}, "type": "Feature"}, {"geometry": {"coordinates": [8.521123, 47.385284], "type": "Point"}, "properties": {"charge": 49, "id": "smide_48", "name": "ZH253849", "provider": "smide", "range": 24.0, "size": 20, "time": "02/14/2020, 15:08:52"}, "type": "Feature"}, {"geometry": {"coordinates": [8.50972833333333, 47.3784783333333], "type": "Point"}, "properties": {"charge": 40, "id": "bird_ead2a43b-2309-45ca-a746-11c6d0f7c0d8", "provider": "bird", "timeStamp": "02/14/2020, 15:08:51"}, "type": "Feature"}, {"geometry": {"coordinates": [8.50974166666667, 47.3784783333333], "type": "Point"}, "properties": {"charge": 83, "id": "bird_e6ae59ea-daa2-4ae1-902b-398bc616cc96", "provider": "bird", "timeStamp": "02/14/2020, 15:08:51"}, "type": "Feature"}, {"geometry": {"coordinates": [8.53803166666667, 47.3676183333333], "type": "Point"}, "properties": {"charge": 67, "id": "bird_a9396bda-db66-46fb-a5be-8dd44aa0e89c", "provider": "bird", "timeStamp": "02/14/2020, 15:08:51"}, "type": "Feature"}, {"geometry": {"coordinates": [8.521235, 47.3678816666667], "type": "Point"}, "properties": {"charge": 57, "id": "bird_e8e1c425-6edf-4759-9cb9-af2eb9cbfa7d", "provider": "bird", "timeStamp": "02/14/2020, 15:08:51"}, "type": "Feature"}, {"geometry": {"coordinates": [8.513705, 47.387725], "type": "Point"}, "properties": {"charge": 51, "id": "bird_4c5b62d5-4541-4e3a-8133-b59a3faf6019", "provider": "bird", "timeStamp": "02/14/2020, 15:08:51"}, "type": "Feature"}, {"geometry": {"coordinates": [8.513585, 47.3875916666667], "type": "Point"}, "properties": {"charge": 46, "id": "bird_1eaa5d8f-3cbe-4356-b493-668f5d19d9fb", "provider": "bird", "timeStamp": "02/14/2020, 15:08:51"}, "type": "Feature"}, {"geometry": {"coordinates": [8.510595, 47.3774033333333], "type": "Point"}, "properties": {"charge": 26, "id": "bird_0d4f1ace-af6f-4158-bce3-09218c8cfa9d", "provider": "bird", 