{"features": [{"geometry": {"coordinates": [8.540062, 47.374392], "type": "Point"}, "properties": {"address": "Uraniastrasse 7", "electric": 7, "id": "pb_60", "manual": 8, "name": "Demo Station Werdm\u00fchleplatz", "provider": "publibike", "timeStamp": "01/29/2020, 15:18:51", "zip": 8001}, "type": "Feature"}, {"geometry": {"coordinates": [8.5452956, 47.4099615], "type": "Point"}, "properties": {"address": "Querstrasse 8", "electric": 1, "id": "pb_61", "manual": 1, "name": "Marktplatz", "provider": "publibike", "timeStamp": "01/29/2020, 15:18:51", "zip": 8050}, "type": "Feature"}, {"geometry": {"coordinates": [8.5156327, 47.3795837], "type": "Point"}, "properties": {"address": "Bullingerstrasse 5", "electric": 0, "id": "pb_80", "manual": 7, "name": "Bullingerplatz", "provider": "publibike", "timeStamp": "01/29/2020, 15:18:51", "zip": 8004}, "type": "Feature"}, {"geometry": {"coordinates": [8.5104051, 47.3899342], "type": "Point"}, "properties": {"address": "Pfingstweidstrasse 96e", "electric": 0, "id": "pb_81", "manual": 3, "name": "Herdern", "provider": "publibike", "timeStamp": "01/29/2020, 15:18:51", "zip": 8001}, "type": "Feature"}, {"geometry": {"coordinates": [8.535718, 47.359675], "type": "Point"}, "properties": {"address": "Mythenquai 50", "electric": 6, "id": "pb_82", "manual": 4, "name": "Hafen Enge", "provider": "publibike", "timeStamp": "01/29/2020, 15:18:51", "zip": 8002}, "type": "Feature"}, {"geometry": {"coordinates": [8.520370505, 47.358663827], "type": "Point"}, "properties": {"address": "Bubenbergstrasse 1", "electric": 4, "id": "pb_83", "manual": 1, "name": "Comerge", "provider": "publibike", "timeStamp": "01/29/2020, 15:18:51", "zip": 8045}, "type": "Feature"}, {"geometry": {"coordinates": [8.5412505, 47.3789825], "type": "Point"}, "properties": {"address": "Museumstrasse 2", "electric": 6, "id": "pb_84", "manual": 8, "name": "Landesmuseum", "provider": "publibike", "timeStamp": "01/29/2020, 15:18:51", "zip": 8001}, "type": "Feature"}, {"geometry": {"coordinates": [8.5235479, 47.3716661], "type": "Point"}, "properties": {"address": "Birmensdorferstrasse 80", "electric": 1, "id": "pb_85", "manual": 2, "name": "Bahnhof Wiedikon", "provider": "publibike", "timeStamp": "01/29/2020, 15:18:51", "zip": 8003}, "type": "Feature"}, {"geometry": {"coordinates": [8.506822854, 47.40781197], "type": "Point"}, "properties": {"address": "Stefano-Franscini-Platz 5", "electric": 10, "id": "pb_86", "manual": 0, "name": "ETH H\u00f6nggerberg", "provider": "publibike", "timeStamp": "01/29/2020, 15:18:51", "zip": 8093}, "type": "Feature"}, {"geometry": {"coordinates": [8.536101, 47.371083], "type": "Point"}, "properties": {"address": "Pelikanplatz 5", "electric": 3, "id": "pb_87", "manual": 2, "name": "Pelikanplatz", "provider": "publibike", "timeStamp": "01/29/2020, 15:18:51", "zip": 8001}, "type": "Feature"}, {"geometry": {"coordinates": [8.5257822, 47.3651936], "type": "Point"}, "properties": {"address": "H\u00fcrlimannplatz 90", "electric": 26, "id": "pb_88", "manual": 7, "name": "H\u00fcrlimannplatz", "provider": "publibike", "timeStamp": "01/29/2020, 15:18:51", "zip": 8002}, "type": "Feature"}, {"geometry": {"coordinates": [8.5313344, 47.3713591], "type": "Point"}, "properties": {"address": "Selnaustrasse 32", "electric": 5, "id": "pb_89", "manual": 5, "name": "Stauffacherbr\u00fccke", "provider": "publibike", "timeStamp": "01/29/2020, 15:18:51", "zip": 8001}, "type": "Feature"}, {"geometry": {"coordinates": [8.5056978, 47.3917964], "type": "Point"}, "properties": {"address": "Sportweg 25", "electric": 4, "id": "pb_90", "manual": 3, "name": "Sportweg", "provider": "publibike", "timeStamp": "01/29/2020, 15:18:51", "zip": 8005}, "type": "Feature"}, {"geometry": {"coordinates": [8.5181701, 47.3917837], "type": "Point"}, "properties": {"address": "Hardturmstrasse 11", "electric": 0, "id": "pb_91", "manual": 5, "name": "Puls 5", "provider": "publibike", "timeStamp": "01/29/2020, 15:18:51", "zip": 8005}, "type": "Feature"}, {"geometry": {"coordinates": [8.5286468, 47.3820827], "type": "Point"}, "properties": {"address": "R\u00f6ntgenstrasse 6", "electric": 5, "id": "pb_92", "manual": 3, "name": "R\u00f6ntgenstrasse", "provider": "publibike", "timeStamp": "01/29/2020, 15:18:51", "zip": 8005}, "type": "Feature"}, {"geometry": {"coordinates": [8.531935, 47.384918], "type": "Point"}, "properties": {"address": "Kornhausbr\u00fccke 1", "electric": 3, "id": "pb_93", "manual": 6, "name": "Limmatplatz", "provider": "publibike", "timeStamp": "01/29/2020, 15:18:51", "zip": 8005}, "type": "Feature"}, {"geometry": {"coordinates": [8.5354006, 47.3758639], "type": "Point"}, "properties": {"address": "Gessnerallee 15", "electric": 2, "id": "pb_94", "manual": 3, "name": "Gessnerallee", "provider": "publibike", "timeStamp": "01/29/2020, 15:18:51", "zip": 8001}, "type": "Feature"}, {"geometry": {"coordinates": [8.523818, 47.377148], "type": "Point"}, "properties": {"address": "Stauffacherstrasse 127", "electric": 7, "id": "pb_95", "manual": 4, "name": "B\u00e4ckeranlage", "provider": "publibike", "timeStamp": "01/29/2020, 15:18:51", "zip": 8004}, "type": "Feature"}, {"geometry": {"coordinates": [8.531836, 47.378548], "type": "Point"}, "properties": {"address": "Lagerstrasse 44", "electric": 7, "id": "pb_96", "manual": 7, "name": "Gustav-Gull-Platz", "provider": "publibike", "timeStamp": "01/29/2020, 15:18:51", "zip": 8004}, "type": "Feature"}, {"geometry": {"coordinates": [8.5104883, 47.3771535], "type": "Point"}, "properties": {"address": "Zurlindenstrasse 291", "electric": 1, "id": "pb_97", "manual": 5, "name": "Zurlindenstrasse", "provider": "publibike", "timeStamp": "01/29/2020, 15:18:51", "zip": 8003}, "type": "Feature"}, {"geometry": {"coordinates": [8.5333139, 47.3731102], "type": "Point"}, "properties": {"address": "Sihlstrasse 81", "electric": 3, "id": "pb_98", "manual": 3, "name": "Sihlstrasse", "provider": "publibike", "timeStamp": "01/29/2020, 15:18:51", "zip": 8001}, "type": "Feature"}, {"geometry": {"coordinates": [8.520532, 47.374951], "type": "Point"}, "properties": {"address": "Feldstrasse 24", "electric": 3, "id": "pb_99", "manual": 6, "name": "Kalkbreite", "provider": "publibike", "timeStamp": "01/29/2020, 15:18:51", "zip": 8004}, "type": "Feature"}, {"geometry": {"coordinates": [8.539046, 47.368064], "type": "Point"}, "properties": {"address": "Talstrasse 12", "electric": 5, "id": "pb_100", "manual": 1, "name": "Z\u00fcrcher Kantonalbank", "provider": "publibike", "timeStamp": "01/29/2020, 15:18:51", "zip": 8001}, "type": "Feature"}, {"geometry": {"coordinates": [8.5348427, 47.3625938], "type": "Point"}, "properties": {"address": "Breitingerstrasse 5", "electric": 1, "id": "pb_101", "manual": 6, "name": "Rentenanstalt", "provider": "publibike", "timeStamp": "01/29/2020, 15:18:51", "zip": 8002}, "type": "Feature"}, {"geometry": {"coordinates": [8.5166922, 47.3897772], "type": "Point"}, "properties": {"address": "Technoparkstrasse 4", "electric": 2, "id": "pb_102", "manual": 7, "name": "Turbinenplatz", "provider": "publibike", "timeStamp": "01/29/2020, 15:18:51", "zip": 8005}, "type": "Feature"}, {"geometry": {"coordinates": [8.539312, 47.3739964], "type": "Point"}, "properties": {"address": "Oetenbachgasse 14", "electric": 6, "id": "pb_104", "manual": 9, "name": "Rennweg", "provider": "publibike", "timeStamp": "01/29/2020, 15:18:51", "zip": 8001}, "type": "Feature"}, {"geometry": {"coordinates": [8.5360685, 47.3775022], "type": "Point"}, "properties": {"address": "Kasernenstrasse 101", "electric": 8, "id": "pb_105", "manual": 17, "name": "Sihlpost", "provider": "publibike", "timeStamp": "01/29/2020, 15:18:51", "zip": 8004}, "type": "Feature"}, {"geometry": {"coordinates": [8.53545, 47.382798], "type": "Point"}, "properties": {"address": "Ausstellungsstrasse 44", "electric": 9, "id": "pb_106", "manual": 9, "name": "Museum f\u00fcr Gestaltung", "provider": "publibike", "timeStamp": "01/29/2020, 15:18:51", "zip": 8005}, "type": "Feature"}, {"geometry": {"coordinates": [8.5306155, 47.3647902], "type": "Point"}, "properties": {"address": "Gutenbergstrasse 1", "electric": 4, "id": "pb_107", "manual": 2, "name": "Bederbr\u00fccke", "provider": "publibike", "timeStamp": "01/29/2020, 15:18:51", "zip": 8002}, "type": "Feature"}, {"geometry": {"coordinates": [8.518982, 47.386741], "type": "Point"}, "properties": {"address": "Geroldstrasse 4", "electric": 3, "id": "pb_108", "manual": 8, "name": "Bahnhof Hardbr\u00fccke", "provider": "publibike", "timeStamp": "01/29/2020, 15:18:51", "zip": 8005}, "type": "Feature"}, {"geometry": {"coordinates": [8.53001018, 47.37247535], "type": "Point"}, "properties": {"address": "Werdstrasse 21", "electric": 11, "id": "pb_109", "manual": 3, "name": "Tamedia", "provider": "publibike", "timeStamp": "01/29/2020, 15:18:51", "zip": 8004}, "type": "Feature"}, {"geometry": {"coordinates": [8.4860017, 47.396401], "type": "Point"}, "properties": {"address": "Gr\u00fcnauring 37", "electric": 5, "id": "pb_110", "manual": 6, "name": "Gr\u00fcnau", "provider": "publibike", "timeStamp": "01/29/2020, 15:18:51", "zip": 8064}, "type": "Feature"}, {"geometry": {"coordinates": [8.548519, 47.376756], "type": "Point"}, "properties": {"address": "R\u00e4mistrasse 101", "electric": 25, "id": "pb_111", "manual": 1, "name": "ETH Zentrum", "provider": "publibike", "timeStamp": "01/29/2020, 15:18:51", "zip": 8006}, "type": "Feature"}, {"geometry": {"coordinates": [8.520449, 47.388151], "type": "Point"}, "properties": {"address": "Josefstrasse 224", "electric": 1, "id": "pb_112", "manual": 3, "name": "Steinfelsareal", "provider": "publibike", "timeStamp": "01/29/2020, 15:18:51", "zip": 8005}, "type": "Feature"}, {"geometry": {"coordinates": [8.520482, 47.37209], "type": "Point"}, "properties": {"address": "Weststrasse 115", "electric": 7, "id": "pb_124", "manual": 6, "name": "Weststrasse", "provider": "publibike", "timeStamp": "01/29/2020, 15:18:51", "zip": 8003}, "type": "Feature"}, {"geometry": {"coordinates": [8.496727, 47.378521], "type": "Point"}, "properties": {"address": "Albisriederstrasse 200", "electric": 5, "id": "pb_125", "manual": 1, "name": "Utogrund", "provider": "publibike", "timeStamp": "01/29/2020, 15:18:51", "zip": 8047}, "type": "Feature"}, {"geometry": {"coordinates": [8.510418, 47.381356], "type": "Point"}, "properties": {"address": "Bullingerstrasse 73", "electric": 7, "id": "pb_126", "manual": 2, "name": "Hardau", "provider": "publibike", "timeStamp": "01/29/2020, 15:18:51", "zip": 8004}, "type": "Feature"}, {"geometry": {"coordinates": [8.525525, 47.361567], "type": "Point"}, "properties": {"address": "Klopstockstrasse 23", "electric": 4, "id": "pb_127", "manual": 0, "name": "Klopstockwiese", "provider": "publibike", "timeStamp": "01/29/2020, 15:18:51", "zip": 8002}, "type": "Feature"}, {"geometry": {"coordinates": [8.518143, 47.363148], "type": "Point"}, "properties": {"address": "Haldenstrasse 8", "electric": 10, "id": "pb_128", "manual": 6, "name": "Binz", "provider": "publibike", "timeStamp": "01/29/2020, 15:18:51", "zip": 8045}, "type": "Feature"}, {"geometry": {"coordinates": [8.542726, 47.379952], "type": "Point"}, "properties": {"address": "Walchestrasse 11", "electric": 0, "id": "pb_129", "manual": 0, "name": "Stampfenbachplatz", "provider": "publibike", "timeStamp": "01/29/2020, 15:18:51", "zip": 8006}, "type": "Feature"}, {"geometry": {"coordinates": [8.488108, 47.391366], "type": "Point"}, "properties": {"address": "Altstetterplatz 1", "electric": 12, "id": "pb_130", "manual": 6, "name": "Bahnhof Altstetten", "provider": "publibike", "timeStamp": "01/29/2020, 15:18:51", "zip": 8048}, "type": "Feature"}, {"geometry": {"coordinates": [8.554114, 47.365119], "type": "Point"}, "properties": {"address": "Kreuzplatz 2", "electric": 4, "id": "pb_131", "manual": 4, "name": "Kreuzplatz", "provider": "publibike", "timeStamp": "01/29/2020, 15:18:51", "zip": 8032}, "type": "Feature"}, {"geometry": {"coordinates": [8.549852, 47.35594], "type": "Point"}, "properties": {"address": "H\u00f6schgasse 3", "electric": 2, "id": "pb_132", "manual": 8, "name": "Blatterwiese", "provider": "publibike", "timeStamp": "01/29/2020, 15:18:51", "zip": 8008}, "type": "Feature"}, {"geometry": {"coordinates": [8.554501, 47.36162], "type": "Point"}, "properties": {"address": "Feldeggstrasse 80", "electric": 2, "id": "pb_133", "manual": 3, "name": "Villa Bleuler", "provider": "publibike", "timeStamp": "01/29/2020, 15:18:51", "zip": 8008}, "type": "Feature"}, {"geometry": {"coordinates": [8.557088, 47.358557], "type": "Point"}, "properties": {"address": "M\u00fchlebachstrasse 131", "electric": 1, "id": "pb_134", "manual": 2, "name": "M\u00fchlebachstrasse", "provider": "publibike", "timeStamp": "01/29/2020, 15:18:51", "zip": 8008}, "type": "Feature"}, {"geometry": {"coordinates": [8.547639, 47.361266], "type": "Point"}, "properties": {"address": "Utoquai 50", "electric": 6, "id": "pb_135", "manual": 8, "name": "Seebad Utoquai", "provider": "publibike", "timeStamp": "01/29/2020, 15:18:51", "zip": 8008}, "type": "Feature"}, {"geometry": {"coordinates": [8.548045, 47.370869], "type": "Point"}, "properties": {"address": "Heimplatz 1", "electric": 3, "id": "pb_137", "manual": 2, "name": "Kunsthaus", "provider": "publibike", "timeStamp": "01/29/2020, 15:18:51", "zip": 8001}, "type": "Feature"}, {"geometry": {"coordinates": [8.543447, 47.375933], "type": "Point"}, "properties": {"address": "Limmatquai 138", "electric": 1, "id": "pb_138", "manual": 12, "name": "Central", "provider": "publibike", "timeStamp": "01/29/2020, 15:18:51", "zip": 8001}, "type": "Feature"}, {"geometry": {"coordinates": [8.549356, 47.408827], "type": "Point"}, "properties": {"address": "Tramstrasse 35", "electric": 2, "id": "pb_139", "manual": 3, "name": "ewz Tramstrasse", "provider": "publibike", "timeStamp": "01/29/2020, 15:18:51", "zip": 8050}, "type": "Feature"}, {"geometry": {"coordinates": [8.533736, 47.366904], "type": "Point"}, "properties": {"address": "Bleicherweg 33", "electric": 4, "id": "pb_140", "manual": 5, "name": "Bleicherweg", "provider": "publibike", "timeStamp": "01/29/2020, 15:18:51", "zip": 8002}, "type": "Feature"}, {"geometry": {"coordinates": [8.544935, 47.366752], "type": "Point"}, "properties": {"address": "Bellevueplatz 2", "electric": 20, "id": "pb_141", "manual": 21, "name": "Bellevue", "provider": "publibike", "timeStamp": "01/29/2020, 15:18:51", "zip": 8001}, "type": "Feature"}, {"geometry": {"coordinates": [8.5285533, 47.3742296], "type": "Point"}, "properties": {"address": "Stauffacherstrasse 41", "electric": 1, "id": "pb_142", "manual": 3, "name": "Stauffacher", "provider": "publibike", "timeStamp": "01/29/2020, 15:18:51", "zip": 8004}, "type": "Feature"}, {"geometry": {"coordinates": [8.523722, 47.3899], "type": "Point"}, "properties": {"address": "Limmatstrasse 310", "electric": 2, "id": "pb_143", "manual": 8, "name": "Escher-Wyss-Platz", "provider": "publibike", "timeStamp": "01/29/2020, 15:18:51", "zip": 8005}, "type": "Feature"}, {"geometry": {"coordinates": [8.491061, 47.392336], "type": "Point"}, "properties": {"address": "Vulkanplatz 1", "electric": 4, "id": "pb_149", "manual": 11, "name": "Vulkanplatz", "provider": "publibike", "timeStamp": "01/29/2020, 15:18:51", "zip": 8048}, "type": "Feature"}, {"geometry": {"coordinates": [8.52306, 47.359872], "type": "Point"}, "properties": {"address": "Giessh\u00fcbelstrasse 15", "electric": 8, "id": "pb_150", "manual": 2, "name": "Utoplatz", "provider": "publibike", "timeStamp": "01/29/2020, 15:18:51", "zip": 8045}, "type": "Feature"}, {"geometry": {"coordinates": [8.486284, 47.387685], "type": "Point"}, "properties": {"address": "Lindenplatz 1", "electric": 14, "id": "pb_151", "manual": 8, "name": "Lindenplatz", "provider": "publibike", "timeStamp": "01/29/2020, 15:18:51", "zip": 8048}, "type": "Feature"}, {"geometry": {"coordinates": [8.49163, 47.389823], "type": "Point"}, "properties": {"address": "Hohlstrasse 563", "electric": 4, "id": "pb_152", "manual": 11, "name": "Luggweg", "provider": "publibike", "timeStamp": "01/29/2020, 15:18:51", "zip": 8048}, "type": "Feature"}, {"geometry": {"coordinates": [8.52174, 47.365272], "type": "Point"}, "properties": {"address": "Manessestrasse 87", "electric": 1, "id": "pb_153", "manual": 7, "name": "Manesseplatz", "provider": "publibike", "timeStamp": "01/29/2020, 15:18:51", "zip": 8045}, "type": "Feature"}, {"geometry": {"coordinates": [8.52714, 47.372329], "type": "Point"}, "properties": {"address": "Werdstrasse 75", "electric": 2, "id": "pb_154", "manual": 4, "name": "Werd", "provider": "publibike", "timeStamp": "01/29/2020, 15:18:51", "zip": 8004}, "type": "Feature"}, {"geometry": {"coordinates": [8.543042, 47.374711], "type": "Point"}, "properties": {"address": "Limmatquai 100", "electric": 0, "id": "pb_155", "manual": 0, "name": "Rudolf-Brun-Br\u00fccke", "provider": "publibike", "timeStamp": "01/29/2020, 15:18:51", "zip": 8001}, "type": "Feature"}, {"geometry": {"coordinates": [8.490837, 47.386596], "type": "Point"}, "properties": {"address": "Badenerstrasse 627", "electric": 3, "id": "pb_156", "manual": 6, "name": "Luggwegstrasse VBZ", "provider": "publibike", "timeStamp": "01/29/2020, 15:18:51", "zip": 8048}, "type": "Feature"}, {"geometry": {"coordinates": [8.535119, 47.355189], "type": "Point"}, "properties": {"address": "Mythenquai 95", "electric": 0, "id": "pb_157", "manual": 3, "name": "Strandbad Mythenquai", "provider": "publibike", "timeStamp": "01/29/2020, 15:18:51", "zip": 8002}, "type": "Feature"}, {"geometry": {"coordinates": [8.545505, 47.373675], "type": "Point"}, "properties": {"address": "Predigerpatz 21", "electric": 4, "id": "pb_158", "manual": 10, "name": "Predigerplatz", "provider": "publibike", "timeStamp": "01/29/2020, 15:18:51", "zip": 8001}, "type": "Feature"}, {"geometry": {"coordinates": [8.515558, 47.371868], "type": "Point"}, "properties": {"address": "Aemtlerstrasse 23", "electric": 2, "id": "pb_159", "manual": 2, "name": "Zwinglihaus", "provider": "publibike", "timeStamp": "01/29/2020, 15:18:51", "zip": 8003}, "type": "Feature"}, {"geometry": {"coordinates": [8.524629, 47.386072], "type": "Point"}, "properties": {"address": "Josefstrasse 188", "electric": 3, "id": "pb_160", "manual": 1, "name": "Josefwiese", "provider": "publibike", "timeStamp": "01/29/2020, 15:18:51", "zip": 8005}, "type": "Feature"}, {"geometry": {"coordinates": [8.527138, 47.387531], "type": "Point"}, "properties": {"address": "R\u00f6ntgenstrasse 87", "electric": 2, "id": "pb_164", "manual": 4, "name": "Markthalle", "provider": "publibike", "timeStamp": "01/29/2020, 15:18:51", "zip": 8005}, "type": "Feature"}, {"geometry": {"coordinates": [8.552717, 47.359978], "type": "Point"}, "properties": {"address": "Seefeldstrasse 96", "electric": 3, "id": "pb_263", "manual": 14, "name": "Feldeggstrasse", "provider": "publibike", "timeStamp": "01/29/2020, 15:18:51", "zip": 8008}, "type": "Feature"}, {"geometry": {"coordinates": [8.553189, 47.353198], "type": "Point"}, "properties": {"address": "Bellerivestrasse 170", "electric": 4, "id": "pb_264", "manual": 2, "name": "Lake Side", "provider": "publibike", "timeStamp": "01/29/2020, 15:18:51", "zip": 8008}, "type": "Feature"}, {"geometry": {"coordinates": [8.543437, 47.369256], "type": "Point"}, "properties": {"address": "Limmatquai 18", "electric": 0, "id": "pb_265", "manual": 0, "name": "Helmhaus", "provider": "publibike", "timeStamp": "01/29/2020, 15:18:51", "zip": 8032}, "type": "Feature"}, {"geometry": {"coordinates": [8.516676, 47.375819], "type": "Point"}, "properties": {"address": "Badenerstrasse 246", "electric": 5, "id": "pb_266", "manual": 7, "name": "Lochergut", "provider": "publibike", "timeStamp": "01/29/2020, 15:18:51", "zip": 8004}, "type": "Feature"}, {"geometry": {"coordinates": [8.514605, 47.389862], "type": "Point"}, "properties": {"address": "Pfingstweidstrasse 60", "electric": 5, "id": "pb_273", "manual": 2, "name": "Westpark", "provider": "publibike", "timeStamp": "01/29/2020, 15:18:51", "zip": 8005}, "type": "Feature"}, {"geometry": {"coordinates": [8.541239126, 47.375991201], "type": "Point"}, "properties": {"address": "Beatenplatz 1", "electric": 9, "id": "pb_274", "manual": 11, "name": "Beatenplatz", "provider": "publibike", "timeStamp": "01/29/2020, 15:18:51", "zip": 8001}, "type": "Feature"}, {"geometry": {"coordinates": [8.5417135, 47.3942197], "type": "Point"}, "properties": {"address": "Scheuchzerstrasse 181", "electric": 3, "id": "pb_275", "manual": 0, "name": "Pauluskirche", "provider": "publibike", "timeStamp": "01/29/2020, 15:18:51", "zip": 8057}, "type": "Feature"}, {"geometry": {"coordinates": [8.5528182, 47.414558], "type": "Point"}, "properties": {"address": "Hagenholzstrasse 51", "electric": 1, "id": "pb_276", "manual": 9, "name": "Airgate", "provider": "publibike", "timeStamp": "01/29/2020, 15:18:51", "zip": 8050}, "type": "Feature"}, {"geometry": {"coordinates": [8.537816, 47.413514], "type": "Point"}, "properties": {"address": "Birchstrasse 183", "electric": 3, "id": "pb_277", "manual": 3, "name": "Lamprechtweg", "provider": "publibike", "timeStamp": "01/29/2020, 15:18:51", "zip": 8050}, "type": "Feature"}, {"geometry": {"coordinates": [8.545602, 47.417701], "type": "Point"}, "properties": {"address": "Felsenrainstrasse 2", "electric": 2, "id": "pb_278", "manual": 7, "name": "Emil-Oberh\u00e4nsli", "provider": "publibike", "timeStamp": "01/29/2020, 15:18:51", "zip": 8050}, "type": "Feature"}, {"geometry": {"coordinates": [8.533647, 47.39808], "type": "Point"}, "properties": {"address": "Bucheggplatz 2", "electric": 0, "id": "pb_279", "manual": 4, "name": "Bucheggplatz", "provider": "publibike", "timeStamp": "01/29/2020, 15:18:51", "zip": 8057}, "type": "Feature"}, {"geometry": {"coordinates": [8.523549, 47.392347], "type": "Point"}, "properties": {"address": "Wipkingerplatz 4", "electric": 1, "id": "pb_280", "manual": 9, "name": "Wipkingerplatz", "provider": "publibike", "timeStamp": "01/29/2020, 15:18:51", "zip": 8037}, "type": "Feature"}, {"geometry": {"coordinates": [8.548562, 47.36691], "type": "Point"}, "properties": {"address": "Galerie \u00fcber Gleis 2/3", "electric": 14, "id": "pb_285", "manual": 4, "name": "Bahnhof Stadelhofen", "provider": "publibike", "timeStamp": "01/29/2020, 15:18:51", "zip": 8001}, "type": "Feature"}, {"geometry": {"coordinates": [8.493822, 47.3985553], "type": "Point"}, "properties": {"address": "Meierwiesenstrasse 12-4", "electric": 0, "id": "pb_286", "manual": 0, "name": "T\u00fcffenwies", "provider": "publibike", "timeStamp": "01/29/2020, 15:18:51", "zip": 8064}, "type": "Feature"}, {"geometry": {"coordinates": [8.552432, 47.3801757], "type": "Point"}, "properties": {"address": "Hochstrasse 34", "electric": 0, "id": "pb_356", "manual": 4, "name": "Siriuswiese", "provider": "publibike", "timeStamp": "01/29/2020, 15:18:51", "zip": 8044}, "type": "Feature"}, {"geometry": {"coordinates": [8.527298, 47.370141], "type": "Point"}, "properties": {"address": "Hallwylstrasse 71", "electric": 1, "id": "pb_357", "manual": 3, "name": "Hallwylstrasse", "provider": "publibike", "timeStamp": "01/29/2020, 15:18:51", "zip": 8004}, "type": "Feature"}, {"geometry": {"coordinates": [8.5414185, 47.3972455], "type": "Point"}, "properties": {"address": "Schaffhauserstrasse 137", "electric": 5, "id": "pb_358", "manual": 1, "name": "Milchbuck", "provider": "publibike", "timeStamp": "01/29/2020, 15:18:51", "zip": 8057}, "type": "Feature"}, {"geometry": {"coordinates": [8.512381, 47.393409], "type": "Point"}, "properties": {"address": "Hardturmstrasse 161", "electric": 5, "id": "pb_359", "manual": 6, "name": "Fischerweg", "provider": "publibike", "timeStamp": "01/29/2020, 15:18:51", "zip": 8005}, "type": "Feature"}, {"geometry": {"coordinates": [8.5421457, 47.3876979], "type": "Point"}, "properties": {"address": "Turnerstrasse 47", "electric": 1, "id": "pb_360", "manual": 6, "name": "Kirche Unterstrass", "provider": "publibike", "timeStamp": "01/29/2020, 15:18:51", "zip": 8006}, "type": "Feature"}, {"geometry": {"coordinates": [8.522117, 47.394554], "type": "Point"}, "properties": {"address": "Dorfstrasse 40", "electric": 3, "id": "pb_361", "manual": 2, "name": "Dorfstrasse", "provider": "publibike", "timeStamp": "01/29/2020, 15:18:51", "zip": 8037}, "type": "Feature"}, {"geometry": {"coordinates": [8.530437, 47.37271], "type": "Point"}, "properties": {"address": "Werdstrasse 25", "electric": 2, "id": "pb_362", "manual": 4, "name": "Stauffachertor", "provider": "publibike", "timeStamp": "01/29/2020, 15:18:51", "zip": 8004}, "type": "Feature"}, {"geometry": {"coordinates": [8.541712, 47.416155], "type": "Point"}, "properties": {"address": "Eggb\u00fchlstrasse 21", "electric": 4, "id": "pb_363", "manual": 4, "name": "Wahlenpark", "provider": "publibike", "timeStamp": "01/29/2020, 15:18:51", "zip": 8050}, "type": "Feature"}, {"geometry": {"coordinates": [8.5595335, 47.3708387], "type": "Point"}, "properties": {"address": "Dolderstrasse 32", "electric": 0, "id": "pb_364", "manual": 1, "name": "Kinderspital", "provider": "publibike", "timeStamp": "01/29/2020, 15:18:51", "zip": 8032}, "type": "Feature"}, {"geometry": {"coordinates": [8.536433, 47.388689], "type": "Point"}, "properties": {"address": "Kornhausstrasse 30", "electric": 3, "id": "pb_365", "manual": 3, "name": "Kornhausstrasse", "provider": "publibike", "timeStamp": "01/29/2020, 15:18:51", "zip": 8006}, "type": "Feature"}, {"geometry": {"coordinates": [8.55033, 47.407098], "type": "Point"}, "properties": {"address": "Schwamendingenstrasse 41", "electric": 3, "id": "pb_366", "manual": 4, "name": "Dorflinde", "provider": "publibike", "timeStamp": "01/29/2020, 15:18:51", "zip": 8050}, "type": "Feature"}, {"geometry": {"coordinates": [8.560476, 47.368199], "type": "Point"}, "properties": {"address": "R\u00f6merhofplatz 5", "electric": 4, "id": "pb_367", "manual": 0, "name": "R\u00f6merhof", "provider": "publibike", "timeStamp": "01/29/2020, 15:18:51", "zip": 8032}, "type": "Feature"}, {"geometry": {"coordinates": [8.5609218, 47.3619068], "type": "Point"}, "properties": {"address": "Forchstrasse 99", "electric": 0, "id": "pb_368", "manual": 0, "name": "Hegibachplatz", "provider": "publibike", "timeStamp": "01/29/2020, 15:18:51", "zip": 8032}, "type": "Feature"}, {"geometry": {"coordinates": [8.5721264, 47.4039985], "type": "Point"}, "properties": {"address": "Winterthurerstrasse 519", "electric": 10, "id": "pb_370", "manual": 5, "name": "Schwamendingerplatz", "provider": "publibike", "timeStamp": "01/29/2020, 15:18:51", "zip": 8051}, "type": "Feature"}, {"geometry": {"coordinates": [8.520168, 47.378556], "type": "Point"}, "properties": {"address": "Herman-Greulich-Strasse 56", "electric": 3, "id": "pb_384", "manual": 4, "name": "Hermann-Greulich-Weg", "provider": "publibike", "timeStamp": "01/29/2020, 15:18:51", "zip": 8004}, "type": "Feature"}, {"geometry": {"coordinates": [8.547912, 47.384923], "type": "Point"}, "properties": {"address": "Culmannstrasse", "electric": 1, "id": "pb_386", "manual": 2, "name": "Rigiplatz", "provider": "publibike", "timeStamp": "01/29/2020, 15:18:51", "zip": 8006}, "type": "Feature"}, {"geometry": {"coordinates": [8.543768, 47.411057], "type": "Point"}, "properties": {"address": "Hofwiesenstrasse 369", "electric": 6, "id": "pb_387", "manual": 3, "name": "Bahnhof Oerlikon S\u00fcd", "provider": "publibike", "timeStamp": "01/29/2020, 15:18:51", "zip": 8050}, "type": "Feature"}, {"geometry": {"coordinates": [8.544185, 47.412732], "type": "Point"}, "properties": {"address": "Jungholzstrasse 6", "electric": 4, "id": "pb_388", "manual": 1, "name": "Max-Frisch-Platz", "provider": "publibike", "timeStamp": "01/29/2020, 15:18:51", "zip": 8050}, "type": "Feature"}, {"geometry": {"coordinates": [8.558096, 47.413032], "type": "Point"}, "properties": {"address": "Andreasstrasse", "electric": 1, "id": "pb_389", "manual": 9, "name": "Hunziker-Areal", "provider": "publibike", "timeStamp": "01/29/2020, 15:18:51", "zip": 8050}, "type": "Feature"}, {"geometry": {"coordinates": [8.533265, 47.412873], "type": "Point"}, "properties": {"address": "Regina-K\u00e4gi-Strasse 1", "electric": 5, "id": "pb_390", "manual": 4, "name": "Luis-H\u00e4fliger-Park", "provider": "publibike", "timeStamp": "01/29/2020, 15:18:51", "zip": 8050}, "type": "Feature"}, {"geometry": {"coordinates": [8.499265, 47.401852], "type": "Point"}, "properties": {"address": "Limmattalstrasse 177", "electric": 5, "id": "pb_391", "manual": 0, "name": "Meierhofplatz", "provider": "publibike", "timeStamp": "01/29/2020, 15:18:51", "zip": 8049}, "type": "Feature"}, {"geometry": {"coordinates": [8.528356, 47.393255], "type": "Point"}, "properties": {"address": "R\u00f6schibachstrasse 73", "electric": 0, "id": "pb_392", "manual": 1, "name": "R\u00f6schibachplatz", "provider": "publibike", "timeStamp": "01/29/2020, 15:18:51", "zip": 8037}, "type": "Feature"}, {"geometry": {"coordinates": [8.538067, 47.415721], "type": "Point"}, "properties": {"address": "Birchstrasse 191", "electric": 4, "id": "pb_393", "manual": 2, "name": "Oerliker Park", "provider": "publibike", "timeStamp": "01/29/2020, 15:18:51", "zip": 8050}, "type": "Feature"}, {"geometry": {"coordinates": [8.5420304, 47.3669233], "type": "Point"}, "properties": {"address": "Stadthausquai 1", "electric": 1, "id": "pb_395", "manual": 9, "name": "B\u00fcrkliplatz", "provider": "publibike", "timeStamp": "01/29/2020, 15:18:51", "zip": 8001}, "type": "Feature"}, {"geometry": {"coordinates": [8.535767, 47.409881], "type": "Point"}, "properties": {"address": "Regensbergstrasse 195", "electric": 3, "id": "pb_396", "manual": 1, "name": "Holunderhof", "provider": "publibike", "timeStamp": "01/29/2020, 15:18:51", "zip": 8050}, "type": "Feature"}, {"geometry": {"coordinates": [8.5116245, 47.3616199], "type": "Point"}, "properties": {"address": "Grubenstrasse 42", "electric": 2, "id": "pb_431", "manual": 2, "name": "Binz Center", "provider": "publibike", "timeStamp": "01/29/2020, 15:18:51", "zip": 8045}, "type": "Feature"}, {"geometry": {"coordinates": [8.547195, 47.382089], "type": "Point"}, "properties": {"address": "Nelkenstrasse 24", "electric": 2, "id": "pb_430", "manual": 0, "name": "Stapferstube", "provider": "publibike", "timeStamp": "01/29/2020, 15:18:51", "zip": 8006}, "type": "Feature"}, {"geometry": {"coordinates": [8.5787183, 47.4039845], "type": "Point"}, "properties": {"address": "Kronwiesenstrasse 35", "electric": 2, "id": "pb_426", "manual": 3, "name": "Kronwiesen", "provider": "publibike", "timeStamp": "01/29/2020, 15:18:51", "zip": 8051}, "type": "Feature"}, {"geometry": {"coordinates": [8.508131, 47.420757], "type": "Point"}, "properties": {"address": "Riedenhaldenstrasse 20-18", "electric": 9, "id": "pb_425", "manual": 4, "name": "Bahnhof Affoltern", "provider": "publibike", "timeStamp": "01/29/2020, 15:18:51", "zip": 8046}, "type": "Feature"}, {"geometry": {"coordinates": [8.532464, 47.406988], "type": "Point"}, "properties": {"address": "K\u00fcnzlistrasse 41", "electric": 2, "id": "pb_424", "manual": 4, "name": "Birchd\u00f6rfli", "provider": "publibike", "timeStamp": "01/29/2020, 15:18:51", "zip": 8057}, "type": "Feature"}, {"geometry": {"coordinates": [8.5777038, 47.4080095], "type": "Point"}, "properties": {"address": "Luegislandstrasse 412", "electric": 3, "id": "pb_429", "manual": 5, "name": "Luegisland", "provider": "publibike", "timeStamp": "01/29/2020, 15:18:51", "zip": 8051}, "type": "Feature"}, {"geometry": {"coordinates": [8.58841, 47.40158], "type": "Point"}, "properties": {"address": "Hirzenbachstrasse 2-4", "electric": 3, "id": "pb_428", "manual": 2, "name": "Hirzenbachstrasse", "provider": "publibike", "timeStamp": "01/29/2020, 15:18:51", "zip": 8051}, "type": "Feature"}, {"geometry": {"coordinates": [8.5563463, 47.4095467], "type": "Point"}, "properties": {"address": "K\u00fchriedweg", "electric": 3, "id": "pb_445", "manual": 4, "name": "Hallenbad Oerlikon", "provider": "publibike", "timeStamp": "01/29/2020, 15:18:51", "zip": 8050}, "type": "Feature"}, {"geometry": {"coordinates": [8.537971, 47.364871], "type": "Point"}, "properties": {"address": "General-Guisan-Quai 17", "electric": 0, "id": "pb_454", "manual": 4, "name": "General-Guisan-Quai", "provider": "publibike", "timeStamp": "01/29/2020, 15:18:51", "zip": 8002}, "type": "Feature"}, {"geometry": {"coordinates": [8.560587, 47.350578], "type": "Point"}, "properties": {"address": "Bellerivestrasse 245", "electric": 8, "id": "pb_450", "manual": 7, "name": "Bahnhof Tiefenbrunnen", "provider": "publibike", "timeStamp": "01/29/2020, 15:18:51", "zip": 8008}, "type": "Feature"}, {"geometry": {"coordinates": [8.5269416, 47.3563719], "type": "Point"}, "properties": {"address": "Waffenplatzstrasse 89", "electric": 3, "id": "pb_452", "manual": 4, "name": "Rieterplatz", "provider": "publibike", "timeStamp": "01/29/2020, 15:18:51", "zip": 8002}, "type": "Feature"}, {"geometry": {"coordinates": [8.514176, 47.3663708], "type": "Point"}, "properties": {"address": "Talwiesenstrasse 92", "electric": 3, "id": "pb_446", "manual": 0, "name": "Binzallee", "provider": "publibike", "timeStamp": "01/29/2020, 15:18:51", "zip": 8055}, "type": "Feature"}, {"geometry": {"coordinates": [8.5070564, 47.371455], "type": "Point"}, "properties": {"address": "Gutstrasse 87", "electric": 9, "id": "pb_447", "manual": 8, "name": "Gutstrasse", "provider": "publibike", "timeStamp": "01/29/2020, 15:18:51", "zip": 8055}, "type": "Feature"}, {"geometry": {"coordinates": [8.4941268, 47.3836391], "type": "Point"}, "properties": {"address": "Flurstrasse 62", "electric": 2, "id": "pb_453", "manual": 4, "name": "Flurpark", "provider": "publibike", "timeStamp": "01/29/2020, 15:18:51", "zip": 8048}, "type": "Feature"}, {"geometry": {"coordinates": [8.500343, 47.380778], "type": "Point"}, "properties": {"address": "Edelweissstrasse 32", "electric": 2, "id": "pb_448", "manual": 2, "name": "Bl\u00fcemliquartier", "provider": "publibike", "timeStamp": "01/29/2020, 15:18:51", "zip": 8048}, "type": "Feature"}, {"geometry": {"coordinates": [8.528796, 47.383858], "type": "Point"}, "properties": {"address": "Gasometerstrasse 24", "electric": 4, "id": "pb_449", "manual": 9, "name": "Gasometerstrasse", "provider": "publibike", "timeStamp": "01/29/2020, 15:18:51", "zip": 8005}, "type": "Feature"}, {"geometry": {"coordinates": [8.4981964, 47.3859194], "type": "Point"}, "properties": {"address": "Baslerstrasse 57", "electric": 8, "id": "pb_455", "manual": 8, "name": "Letzipark", "provider": "publibike", "timeStamp": "01/29/2020, 15:18:51", "zip": 8048}, "type": "Feature"}, {"geometry": {"coordinates": [8.515252, 47.381915], "type": "Point"}, "properties": {"address": "Sihlfeldstrasse 175", "electric": 4, "id": "pb_451", "manual": 3, "name": "Hardplatz", "provider": "publibike", "timeStamp": "01/29/2020, 15:18:51", "zip": 8004}, "type": "Feature"}, {"geometry": {"coordinates": [8.5064743, 47.4188324], "type": "Point"}, "properties": {"address": "Wehntalerstrasse 541", "electric": 3, "id": "pb_427", "manual": 3, "name": "Zehntenhausplatz", "provider": "publibike", "timeStamp": "01/29/2020, 15:18:51", "zip": 8046}, "type": "Feature"}, {"geometry": {"coordinates": [8.537729, 47.379719], "type": "Point"}, "properties": {"address": "Sihlquai/HB", "electric": 9, "id": "pb_513", "manual": 4, "name": "Sihlquai", "provider": "publibike", "timeStamp": "01/29/2020, 15:18:51", "zip": 8005}, "type": "Feature"}, {"geometry": {"coordinates": [8.596202, 47.397885], "type": "Point"}, "properties": {"address": "Bahnhof Stettbach", "electric": 4, "id": "pb_514", "manual": 3, "name": "Bahnhof Stettbach", "provider": "publibike", "timeStamp": "01/29/2020, 15:18:51", "zip": 8051}, "type": "Feature"}, {"geometry": {"coordinates": [8.5543974, 47.3690153], "type": "Point"}, "properties": {"address": "Kasinostrasse 10", "electric": 2, "id": "pb_515", "manual": 1, "name": "Hottingerplatz", "provider": "publibike", "timeStamp": "01/29/2020, 15:18:51", "zip": 8032}, "type": "Feature"}, {"geometry": {"coordinates": [8.534444, 47.351525], "type": "Point"}, "properties": {"address": "Mobile Station Z\u00fcrich 1", "electric": 0, "id": "pb_282", "manual": 0, "name": "Theaterspektakel", "provider": "publibike", "timeStamp": "01/29/2020, 15:18:51", "zip": 8002}, "type": "Feature"}, {"geometry": {"coordinates": [8.516257, 47.367656], "type": "Point"}, "properties": {"address": "Goldbrunnenstrasse 54", "electric": 3, "id": "pb_538", "manual": 1, "name": "Kirche B\u00fchl", "provider": "publibike", "timeStamp": "01/29/2020, 15:18:51", "zip": 8055}, "type": "Feature"}, {"geometry": {"coordinates": [8.555639, 47.416873], "type": "Point"}, "properties": {"address": "Leutschenbachstrasse 50", "electric": 2, "id": "pb_537", "manual": 4, "name": "Leutschenpark", "provider": "publibike", "timeStamp": "01/29/2020, 15:18:51", "zip": 8050}, "type": "Feature"}, {"geometry": {"coordinates": [8.546464, 47.403822], "type": "Point"}, "properties": {"address": "Berninastrasse 45", "electric": 11, "id": "pb_540", "manual": 2, "name": "Berninaplatz", "provider": "publibike", "timeStamp": "01/29/2020, 15:18:51", "zip": 8057}, "type": "Feature"}, {"geometry": {"coordinates": [8.523134, 47.369004], "type": "Point"}, "properties": {"address": "Erlachstrasse 3", "electric": 1, "id": "pb_385", "manual": 4, "name": "Aegerten", "provider": "publibike", "timeStamp": "01/29/2020, 15:18:51", "zip": 8003}, "type": "Feature"}, {"geometry": {"coordinates": [8.49038, 47.381591], "type": "Point"}, "properties": {"address": "Rautistrasse 60", "electric": 6, "id": "pb_536", "manual": 6, "name": "Freilager", "provider": "publibike", "timeStamp": "01/29/2020, 15:18:51", "zip": 8048}, "type": "Feature"}, {"geometry": {"coordinates": [8.496511, 47.375247], "type": "Point"}, "properties": {"address": "Letzigraben 139", "electric": 1, "id": "pb_444", "manual": 2, "name": "Sackzelg", "provider": "publibike", "timeStamp": "01/29/2020, 15:18:51", "zip": 8047}, "type": "Feature"}, {"geometry": {"coordinates": [8.58131, 47.402801], "type": "Point"}, "properties": {"address": "Altwiesenstrasse 104", "electric": 1, "id": "pb_539", "manual": 5, "name": "Glattwiesen", "provider": "publibike", "timeStamp": "01/29/2020, 15:18:51", "zip": 8051}, "type": "Feature"}, {"geometry": {"coordinates": [8.52689, 47.3767], "type": "Point"}, "properties": {"address": "Molkenstrasse 5", "electric": 1, "id": "pb_560", "manual": 5, "name": "Helvetiaplatz", "provider": "publibike", "timeStamp": "01/29/2020, 15:18:51", "zip": 8004}, "type": "Feature"}, {"geometry": {"coordinates": [8.525602, 47.374241], "type": "Point"}, "properties": {"address": "Badenerstrasse 90", "electric": 3, "id": "pb_559", "manual": 3, "name": "Bezirksgeb\u00e4ude", "provider": "publibike", "timeStamp": "01/29/2020, 15:18:51", "zip": 8004}, "type": "Feature"}, {"geometry": {"coordinates": [8.535082, 47.345248], "type": "Point"}, "properties": {"address": "Bachstrasse 15", "electric": 5, "id": "pb_564", "manual": 3, "name": "GZ Wollishofen", "provider": "publibike", "timeStamp": "01/29/2020, 15:18:51", "zip": 8038}, "type": "Feature"}, {"geometry": {"coordinates": [8.514841, 47.370238], "type": "Point"}, "properties": {"address": "Schrennengasse 37", "electric": 0, "id": "pb_562", "manual": 6, "name": "Goldbrunnenplatz", "provider": "publibike", "timeStamp": "01/29/2020, 15:18:51", "zip": 8003}, "type": "Feature"}, {"geometry": {"coordinates": [8.514138, 47.374206], "type": "Point"}, "properties": {"address": "Idaplatz 4", "electric": 3, "id": "pb_557", "manual": 3, "name": "Idaplatz", "provider": "publibike", "timeStamp": "01/29/2020, 15:18:51", "zip": 8003}, "type": "Feature"}, {"geometry": {"coordinates": [8.518432, 47.369549], "type": "Point"}, "properties": {"address": "Brinerstrasse 2", "electric": 0, "id": "pb_558", "manual": 9, "name": "Schmiede Wiedikon", "provider": "publibike", "timeStamp": "01/29/2020, 15:18:51", "zip": 8003}, "type": "Feature"}, {"geometry": {"coordinates": [8.537546, 47.391289], "type": "Point"}, "properties": {"address": "Rotbuchstrasse 15", "electric": 5, "id": "pb_556", "manual": 1, "name": "Schaffhauserplatz", "provider": "publibike", "timeStamp": "01/29/2020, 15:18:51", "zip": 8006}, "type": "Feature"}, {"geometry": {"coordinates": [8.541541, 47.413733], "type": "Point"}, "properties": {"address": "Therese-Giehse-Strasse 11", "electric": 2, "id": "pb_561", "manual": 2, "name": "Center Eleven", "provider": "publibike", "timeStamp": "01/29/2020, 15:18:51", "zip": 8050}, "type": "Feature"}, {"geometry": {"coordinates": [8.534227, 47.360004], "type": "Point"}, "properties": {"address": "Alfred Escher-Strasse 76", "electric": 9, "id": "pb_563", "manual": 4, "name": "Mythenschloss", "provider": "publibike", "timeStamp": "01/29/2020, 15:18:51", "zip": 8002}, "type": "Feature"}, {"geometry": {"coordinates": [8.50373, 47.396172], "type": "Point"}, "properties": {"address": "Hardeggstrasse 6", "electric": 2, "id": "pb_566", "manual": 4, "name": "Am Wasser", "provider": "publibike", "timeStamp": "01/29/2020, 15:18:51", "zip": 8049}, "type": "Feature"}, {"geometry": {"coordinates": [8.532432, 47.381174], "type": "Point"}, "properties": {"address": "Klingenstrasse 9", "electric": 5, "id": "pb_565", "manual": 4, "name": "Zollstrasse", "provider": "publibike", "timeStamp": "01/29/2020, 15:18:51", "zip": 8005}, "type": "Feature"}, {"geometry": {"coordinates": [8.497982, 47.381447], "type": "Point"}, "properties": {"address": "Dennlerstrasse 23", "electric": 3, "id": "pb_567", "manual": 5, "name": "Dennlerstrasse", "provider": "publibike", "timeStamp": "01/29/2020, 15:18:51", "zip": 8047}, "type": "Feature"}, {"geometry": {"coordinates": [8.528049, 47.347701], "type": "Point"}, "properties": {"address": "Mutschellenstrasse 114", "electric": 5, "id": "pb_568", "manual": 2, "name": "Jugendherberge", "provider": "publibike", "timeStamp": "01/29/2020, 15:18:51", "zip": 8038}, "type": "Feature"}, {"geometry": {"coordinates": [8.539016, 47.405751], "type": "Point"}, "properties": {"address": "Ringstrasse 82", "electric": 7, "id": "pb_569", "manual": 2, "name": "Freibad Allenmoos", "provider": "publibike", "timeStamp": "01/29/2020, 15:18:51", "zip": 8057}, "type": "Feature"}, {"geometry": {"coordinates": [8.534974, 47.402164], "type": "Point"}, "properties": {"address": "Brache Guggach", "electric": 2, "id": "pb_572", "manual": 3, "name": "Radiostudio", "provider": "publibike", "timeStamp": "01/29/2020, 15:18:51", "zip": 8057}, "type": "Feature"}, {"geometry": {"coordinates": [8.547901, 47.375556], "type": "Point"}, "properties": {"address": "Karl-Schmid-Strasse 4", "electric": 6, "id": "pb_571", "manual": 0, "name": "ETH/Zoologisches Museum", "provider": "publibike", "timeStamp": "01/29/2020, 15:18:51", "zip": 8006}, "type": "Feature"}, {"geometry": {"coordinates": [8.56198, 47.350438], "type": "Point"}, "properties": {"charge": 100, "id": "smide_2895", "name": "ZH 267279", "provider": "smide", "range": 50.0, "size": 20, "time": "01/29/2020, 15:18:23"}, "type": "Feature"}, {"geometry": {"coordinates": [8.516376, 47.388216], "type": "Point"}, "properties": {"charge": 48, "id": "smide_2880", "name": "ZH267289", "provider": "smide", "range": 24.0, "size": 17, "time": "01/29/2020, 15:18:23"}, "type": "Feature"}, {"geometry": {"coordinates": [8.560703, 47.351756], "type": "Point"}, "properties": {"charge": 73, "id": "smide_2874", "name": "ZH 267288", "provider": "smide", "range": 36.0, "size": 17, "time": "01/29/2020, 15:18:23"}, "type": "Feature"}, {"geometry": {"coordinates": [8.495121, 47.398138], "type": "Point"}, "properties": {"charge": 68, "id": "smide_2871", "name": "ZH 267086", "provider": "smide", "range": 34.0, "size": 20, "time": "01/29/2020, 15:18:23"}, "type": "Feature"}, {"geometry": {"coordinates": [8.559403, 47.414025], "type": "Point"}, "properties": {"charge": 100, "id": "smide_2867", "name": "ZH 267090", "provider": "smide", "range": 50.0, "size": 20, "time": "01/29/2020, 15:18:23"}, "type": "Feature"}, {"geometry": {"coordinates": [8.55379, 47.386505], "type": "Point"}, "properties": {"charge": 75, "id": "smide_2861", "name": "ZH 267096", "provider": "smide", "range": 37.0, "size": 17, "time": "01/29/2020, 15:18:23"}, "type": "Feature"}, {"geometry": {"coordinates": [8.513528, 47.377938], "type": "Point"}, "properties": {"charge": 94, "id": "smide_2859", "name": "ZH 267098", "provider": "smide", "range": 47.0, "size": 17, "time": "01/29/2020, 15:18:23"}, "type": "Feature"}, {"geometry": {"coordinates": [8.579688, 47.351045], "type": "Point"}, "properties": {"charge": 100, "id": "smide_2856", "name": "ZH 267101", "provider": "smide", "range": 50.0, "size": 17, "time": "01/29/2020, 15:18:23"}, "type": "Feature"}, {"geometry": {"coordinates": [8.547856, 47.366441], "type": "Point"}, "properties": {"charge": 100, "id": "smide_2855", "name": "ZH 267102", "provider": "smide", "range": 50.0, "size": 17, "time": "01/29/2020, 15:18:23"}, "type": "Feature"}, {"geometry": {"coordinates": [8.510578, 47.398428], "type": "Point"}, "properties": {"charge": 92, "id": "smide_2854", "name": "ZH 267103", "provider": "smide", "range": 46.0, "size": 17, "time": "01/29/2020, 15:18:23"}, "type": "Feature"}, {"geometry": {"coordinates": [8.54412, 47.370755], "type": "Point"}, "properties": {"charge": 61, "id": "smide_2833", "name": "ZH 267182", "provider": "smide", "range": 30.0, "size": 20, "time": "01/29/2020, 15:18:23"}, "type": "Feature"}, {"geometry": {"coordinates": [8.570085, 47.352508], "type": "Point"}, "properties": {"charge": 74, "id": "smide_2831", "name": "ZH 267180", "provider": "smide", "range": 37.0, "size": 20, "time": "01/29/2020, 15:18:23"}, "type": "Feature"}, {"geometry": {"coordinates": [8.568636, 47.372723], "type": "Point"}, "properties": {"charge": 97, "id": "smide_2829", "name": "ZH 267049", "provider": "smide", "range": 48.0, "size": 20, "time": "01/29/2020, 15:18:23"}, "type": "Feature"}, {"geometry": {"coordinates": [8.506045, 47.418961], "type": "Point"}, "properties": {"charge": 100, "id": "smide_2804", "name": "ZH266903", "provider": "smide", "range": 50.0, "size": 20, "time": "01/29/2020, 15:18:23"}, "type": "Feature"}, {"geometry": {"coordinates": [8.553101, 47.398283], "type": "Point"}, "properties": {"charge": 89, "id": "smide_2798", "name": "ZH266888", "provider": "smide", "range": 44.0, "size": 17, "time": "01/29/2020, 15:18:23"}, "type": "Feature"}, {"geometry": {"coordinates": [8.52186, 47.395328], "type": "Point"}, "properties": {"charge": 93, "id": "smide_2793", "name": "ZH266883", "provider": "smide", "range": 46.0, "size": 17, "time": "01/29/2020, 15:18:23"}, "type": "Feature"}, {"geometry": {"coordinates": [8.54956, 47.362131], "type": "Point"}, "properties": {"charge": 59, "id": "smide_2790", "name": "ZH266880", "provider": "smide", "range": 29.0, "size": 17, "time": "01/29/2020, 15:18:23"}, "type": "Feature"}, {"geometry": {"coordinates": [8.516288, 47.36989], "type": "Point"}, "properties": {"charge": 87, "id": "smide_2785", "name": "ZH266875", "provider": "smide", "range": 43.0, "size": 17, "time": "01/29/2020, 15:18:23"}, "type": "Feature"}, {"geometry": {"coordinates": [8.524951, 47.386106], "type": "Point"}, "properties": {"charge": 47, "id": "smide_2781", "name": "ZH 266871", "provider": "smide", "range": 23.0, "size": 17, "time": "01/29/2020, 15:18:23"}, "type": "Feature"}, {"geometry": {"coordinates": [8.540835, 47.37845], "type": "Point"}, "properties": {"charge": 53, "id": "smide_2780", "name": "ST1 X #1", "provider": "smide", "range": 26.0, "size": 17, "time": "01/29/2020, 15:18:23"}, "type": "Feature"}, {"geometry": {"coordinates": [8.513554, 47.369948], "type": "Point"}, "properties": {"charge": 100, "id": "smide_2775", "name": "ZH267283", "provider": "smide", "range": 50.0, "size": 20, "time": "01/29/2020, 15:18:23"}, "type": "Feature"}, {"geometry": {"coordinates": [8.545096, 47.423488], "type": "Point"}, "properties": {"charge": 93, "id": "smide_2773", "name": "ZH266561", "provider": "smide", "range": 46.0, "size": 17, "time": "01/29/2020, 15:18:23"}, "type": "Feature"}, {"geometry": {"coordinates": [8.525739, 47.37194], "type": "Point"}, "properties": {"charge": 34, "id": "smide_2763", "name": "ZH266641", "provider": "smide", "range": 17.0, "size": 17, "time": "01/29/2020, 15:18:23"}, "type": "Feature"}, {"geometry": {"coordinates": [8.560261, 47.381995], "type": "Point"}, "properties": {"charge": 57, "id": "smide_2761", "name": "ZH266642", "provider": "smide", "range": 28.0, "size": 20, "time": "01/29/2020, 15:18:23"}, "type": "Feature"}, {"geometry": {"coordinates": [8.500963, 47.36874], "type": "Point"}, "properties": {"charge": 100, "id": "smide_2758", "name": "ZH266638 M", "provider": "smide", "range": 50.0, "size": 17, "time": "01/29/2020, 15:18:23"}, "type": "Feature"}, {"geometry": {"coordinates": [8.524058, 47.371552], "type": "Point"}, "properties": {"charge": 86, "id": "smide_2752", "name": "BE343856", "provider": "smide", "range": 43.0, "size": 17, "time": "01/29/2020, 15:18:23"}, "type": "Feature"}, {"geometry": {"coordinates": [8.552654, 47.388708], "type": "Point"}, "properties": {"charge": 100, "id": "smide_2751", "name": "BE343857", "provider": "smide", "range": 50.0, "size": 17, "time": "01/29/2020, 15:18:23"}, "type": "Feature"}, {"geometry": {"coordinates": [8.490978, 47.39098], "type": "Point"}, "properties": {"charge": 55, "id": "smide_2749", "name": "BE343867", "provider": "smide", "range": 27.0, "size": 17, "time": "01/29/2020, 15:18:23"}, "type": "Feature"}, {"geometry": {"coordinates": [8.49289, 47.388716], "type": "Point"}, "properties": {"charge": 51, "id": "smide_2748", "name": "BE335758", "provider": "smide", "range": 25.0, "size": 17, "time": "01/29/2020, 15:18:23"}, "type": "Feature"}, {"geometry": {"coordinates": [8.551545, 47.420768], "type": "Point"}, "properties": {"charge": 100, "id": "smide_2747", "name": "BE335820", "provider": "smide", "range": 50.0, "size": 17, "time": "01/29/2020, 15:18:23"}, "type": "Feature"}, {"geometry": {"coordinates": [8.490775, 47.376408], "type": "Point"}, "properties": {"charge": 62, "id": "smide_2745", "name": "BE335818", "provider": "smide", "range": 31.0, "size": 17, "time": "01/29/2020, 15:18:23"}, "type": "Feature"}, {"geometry": {"coordinates": [8.502052, 47.369116], "type": "Point"}, "properties": {"charge": 98, "id": "smide_2743", "name": "BE343864", "provider": "smide", "range": 49.0, "size": 17, "time": "01/29/2020, 15:18:23"}, "type": "Feature"}, {"geometry": {"coordinates": [8.564327, 47.369352], "type": "Point"}, "properties": {"charge": 56, "id": "smide_2742", "name": "BE343866", "provider": "smide", "range": 28.0, "size": 17, "time": "01/29/2020, 15:18:23"}, "type": "Feature"}, {"geometry": {"coordinates": [8.54626, 47.375708], "type": "Point"}, "properties": {"charge": 29, "id": "smide_2740", "name": "BE343875", "provider": "smide", "range": 14.0, "size": 17, "time": "01/29/2020, 15:18:23"}, "type": "Feature"}, {"geometry": {"coordinates": [8.545276, 47.418616], "type": "Point"}, "properties": {"charge": 95, "id": "smide_2738", "name": "BE343865", "provider": "smide", "range": 47.0, "size": 17, "time": "01/29/2020, 15:18:23"}, "type": "Feature"}, {"geometry": {"coordinates": [8.565388, 47.376968], "type": "Point"}, "properties": {"charge": 95, "id": "smide_2737", "name": "BE336149", "provider": "smide", "range": 47.0, "size": 17, "time": "01/29/2020, 15:18:23"}, "type": "Feature"}, {"geometry": {"coordinates": [8.529408, 47.393588], "type": "Point"}, "properties": {"charge": 100, "id": "smide_2734", "name": "BE343876", "provider": "smide", "range": 50.0, "size": 17, "time": "01/29/2020, 15:18:23"}, "type": "Feature"}, {"geometry": {"coordinates": [8.545185, 47.367576], "type": "Point"}, "properties": {"charge": 42, "id": "smide_2733", "name": "BE343873", "provider": "smide", "range": 21.0, "size": 17, "time": "01/29/2020, 15:18:23"}, "type": "Feature"}, {"geometry": {"coordinates": [8.496877, 47.3784], "type": "Point"}, "properties": {"charge": 91, "id": "smide_2732", "name": "BE343870", "provider": "smide", "range": 45.0, "size": 17, "time": "01/29/2020, 15:18:23"}, "type": "Feature"}, {"geometry": {"coordinates": [8.564706, 47.372828], "type": "Point"}, "properties": {"charge": 84, "id": "smide_2729", "name": "BE343878", "provider": "smide", "range": 42.0, "size": 17, "time": "01/29/2020, 15:18:23"}, "type": "Feature"}, {"geometry": {"coordinates": [8.528323, 47.394861], "type": "Point"}, "properties": {"charge": 43, "id": "smide_2725", "name": "ZH261545", "provider": "smide", "range": 21.0, "size": 0, "time": "01/29/2020, 15:18:23"}, "type": "Feature"}, {"geometry": {"coordinates": [8.52977, 47.371335], "type": "Point"}, "properties": {"charge": 93, "id": "smide_2718", "name": "ZH259019", "provider": "smide", "range": 46.0, "size": 20, "time": "01/29/2020, 15:18:23"}, "type": "Feature"}, {"geometry": {"coordinates": [8.503707, 47.38554], "type": "Point"}, "properties": {"charge": 71, "id": "smide_2717", "name": "ZH263287", "provider": "smide", "range": 35.0, "size": 17, "time": "01/29/2020, 15:18:23"}, "type": "Feature"}, {"geometry": {"coordinates": [8.533475, 47.392113], "type": "Point"}, "properties": {"charge": 48, "id": "smide_2716", "name": "ZH254606", "provider": "smide", "range": 24.0, "size": 17, "time": "01/29/2020, 15:18:23"}, "type": "Feature"}, {"geometry": {"coordinates": [8.537475, 47.340576], "type": "Point"}, "properties": {"charge": 88, "id": "smide_2715", "name": "ZH254605", "provider": "smide", "range": 44.0, "size": 17, "time": "01/29/2020, 15:18:23"}, "type": "Feature"}, {"geometry": {"coordinates": [8.522154, 47.36586], "type": "Point"}, "properties": {"charge": 81, "id": "smide_2714", "name": "ZH256461", "provider": "smide", "range": 40.0, "size": 17, "time": "01/29/2020, 15:18:23"}, "type": "Feature"}, {"geometry": {"coordinates": [8.553592, 47.402132], "type": "Point"}, "properties": {"charge": 23, "id": "smide_2710", "name": "ZH256460", "provider": "smide", "range": 11.0, "size": 17, "time": "01/29/2020, 15:18:23"}, "type": "Feature"}, {"geometry": {"coordinates": [8.548549, 47.377892], "type": "Point"}, "properties": {"charge": 81, "id": "smide_2712", "name": "ZH256462", "provider": "smide", "range": 40.0, "size": 17, "time": "01/29/2020, 15:18:23"}, "type": "Feature"}, {"geometry": {"coordinates": [8.521342, 47.386144], "type": "Point"}, "properties": {"charge": 87, "id": "smide_2711", "name": "ZH256463", "provider": "smide", "range": 43.0, "size": 17, "time": "01/29/2020, 15:18:23"}, "type": "Feature"}, {"geometry": {"coordinates": [8.56392, 47.348095], "type": "Point"}, "properties": {"charge": 74, "id": "smide_2709", "name": "ZH256466", "provider": "smide", "range": 37.0, "size": 20, "time": "01/29/2020, 15:18:23"}, "type": "Feature"}, {"geometry": {"coordinates": [8.516489, 47.398244], "type": "Point"}, "properties": {"charge": 76, "id": "smide_2707", "name": "ZH256467", "provider": "smide", "range": 38.0, "size": 20, "time": "01/29/2020, 15:18:23"}, "type": "Feature"}, {"geometry": {"coordinates": [8.552433, 47.414188], "type": "Point"}, "properties": {"charge": 73, "id": "smide_2708", "name": "ZH256464", "provider": "smide", "range": 36.0, "size": 17, "time": "01/29/2020, 15:18:23"}, "type": "Feature"}, {"geometry": {"coordinates": [8.548379, 47.377872], "type": "Point"}, "properties": {"charge": 91, "id": "smide_2706", "name": "ZH256322", "provider": "smide", "range": 45.0, "size": 20, "time": "01/29/2020, 15:18:23"}, "type": "Feature"}, {"geometry": {"coordinates": [8.514898, 47.355428], "type": "Point"}, "properties": {"charge": 72, "id": "smide_2705", "name": "ZH256471", "provider": "smide", "range": 36.0, "size": 20, "time": "01/29/2020, 15:18:23"}, "type": "Feature"}, {"geometry": {"coordinates": [8.516946, 47.398216], "type": "Point"}, "properties": {"charge": 24, "id": "smide_2700", "name": "ZH256470", "provider": "smide", "range": 12.0, "size": 20, "time": "01/29/2020, 15:18:23"}, "type": "Feature"}, {"geometry": {"coordinates": [8.554803, 47.363532], "type": "Point"}, "properties": {"charge": 41, "id": "smide_2699", "name": "ZH254611", "provider": "smide", "range": 20.0, "size": 20, "time": "01/29/2020, 15:18:23"}, "type": "Feature"}, {"geometry": {"coordinates": [8.506722, 47.360384], "type": "Point"}, "properties": {"charge": 48, "id": "smide_2697", "name": "ZH254629", "provider": "smide", "range": 24.0, "size": 20, "time": "01/29/2020, 15:18:23"}, "type": "Feature"}, {"geometry": {"coordinates": [8.52385, 47.358496], "type": "Point"}, "properties": {"charge": 55, "id": "smide_2696", "name": "ZH254616", "provider": "smide", "range": 27.0, "size": 20, "time": "01/29/2020, 15:18:23"}, "type": "Feature"}, {"geometry": {"coordinates": [8.511341, 47.408848], "type": "Point"}, "properties": {"charge": 88, "id": "smide_2691", "name": "ZH254622", "provider": "smide", "range": 44.0, "size": 20, "time": "01/29/2020, 15:18:23"}, "type": "Feature"}, {"geometry": {"coordinates": [8.565396, 47.35762], "type": "Point"}, "properties": {"charge": 66, "id": "smide_2690", "name": "ZH254625", "provider": "smide", "range": 33.0, "size": 20, "time": "01/29/2020, 15:18:23"}, "type": "Feature"}, {"geometry": {"coordinates": [8.49531, 47.423768], "type": "Point"}, "properties": {"charge": 85, "id": "smide_2689", "name": "ZH254623", "provider": "smide", "range": 42.0, "size": 20, "time": "01/29/2020, 15:18:23"}, "type": "Feature"}, {"geometry": {"coordinates": [8.514729, 47.389424], "type": "Point"}, "properties": {"charge": 87, "id": "smide_2687", "name": "ZH263529", "provider": "smide", "range": 43.0, "size": 20, "time": "01/29/2020, 15:18:23"}, "type": "Feature"}, {"geometry": {"coordinates": [8.568414, 47.367652], "type": "Point"}, "properties": {"charge": 89, "id": "smide_2684", "name": "ZH254626", "provider": "smide", "range": 44.0, "size": 20, "time": "01/29/2020, 15:18:23"}, "type": "Feature"}, {"geometry": {"coordinates": [8.53594, 47.368473], "type": "Point"}, "properties": {"charge": 65, "id": "smide_2683", "name": "ZH254620", "provider": "smide", "range": 32.0, "size": 20, "time": "01/29/2020, 15:18:23"}, "type": "Feature"}, {"geometry": {"coordinates": [8.587503, 47.403188], "type": "Point"}, "properties": {"charge": 71, "id": "smide_2680", "name": "ZH254619", "provider": "smide", "range": 35.0, "size": 20, "time": "01/29/2020, 15:18:23"}, "type": "Feature"}, {"geometry": {"coordinates": [8.576404, 47.351192], "type": "Point"}, "properties": {"charge": 89, "id": "smide_2679", "name": "ZH258489", "provider": "smide", "range": 44.0, "size": 17, "time": "01/29/2020, 15:18:23"}, "type": "Feature"}, {"geometry": {"coordinates": [8.521507, 47.367612], "type": "Point"}, "properties": {"charge": 50, "id": "smide_2671", "name": "ZH258645", "provider": "smide", "range": 25.0, "size": 17, "time": "01/29/2020, 15:18:23"}, "type": "Feature"}, {"geometry": {"coordinates": [8.47661, 47.3874], "type": "Point"}, "properties": {"charge": 73, "id": "smide_2669", "name": "ZH263294", "provider": "smide", "range": 36.0, "size": 17, "time": "01/29/2020, 15:18:23"}, "type": "Feature"}, {"geometry": {"coordinates": [8.50203, 47.369064], "type": "Point"}, "properties": {"charge": 85, "id": "smide_2668", "name": "ZH258640", "provider": "smide", "range": 42.0, "size": 17, "time": "01/29/2020, 15:18:23"}, "type": "Feature"}, {"geometry": {"coordinates": [8.547736, 47.368864], "type": "Point"}, "properties": {"charge": 51, "id": "smide_2666", "name": "ZH258653", "provider": "smide", "range": 25.0, "size": 17, "time": "01/29/2020, 15:18:23"}, "type": "Feature"}, {"geometry": {"coordinates": [8.521705, 47.361436], "type": "Point"}, "properties": {"charge": 100, "id": "smide_2665", "name": "ZH258644", "provider": "smide", "range": 50.0, "size": 17, "time": "01/29/2020, 15:18:23"}, "type": "Feature"}, {"geometry": {"coordinates": [8.547011, 47.407688], "type": "Point"}, "properties": {"charge": 100, "id": "smide_2664", "name": "ZH258652", "provider": "smide", "range": 50.0, "size": 17, "time": "01/29/2020, 15:18:23"}, "type": "Feature"}, {"geometry": {"coordinates": [8.508359, 47.35384], "type": "Point"}, "properties": {"charge": 76, "id": "smide_2663", "name": "ZH258649", "provider": "smide", "range": 38.0, "size": 17, "time": "01/29/2020, 15:18:23"}, "type": "Feature"}, {"geometry": {"coordinates": [8.544909, 47.368452], "type": "Point"}, "properties": {"charge": 46, "id": "smide_2662", "name": "ZH258643", "provider": "smide", "range": 23.0, "size": 17, "time": "01/29/2020, 15:18:23"}, "type": "Feature"}, {"geometry": {"coordinates": [8.571807, 47.358256], "type": "Point"}, "properties": {"charge": 100, "id": "smide_2648", "name": "ZH257930", "provider": "smide", "range": 50.0, "size": 20, "time": "01/29/2020, 15:18:23"}, "type": "Feature"}, {"geometry": {"coordinates": [8.576271, 47.352876], "type": "Point"}, "properties": {"charge": 86, "id": "smide_2657", "name": "ZH257936", "provider": "smide", "range": 43.0, "size": 17, "time": "01/29/2020, 15:18:23"}, "type": "Feature"}, {"geometry": {"coordinates": [8.548493, 47.377932], "type": "Point"}, "properties": {"charge": 100, "id": "smide_2647", "name": "ZH257932", "provider": "smide", "range": 50.0, "size": 20, "time": "01/29/2020, 15:18:23"}, "type": "Feature"}, {"geometry": {"coordinates": [8.519549, 47.37056], "type": "Point"}, "properties": {"charge": 72, "id": "smide_2645", "name": "ZH257933", "provider": "smide", "range": 36.0, "size": 20, "time": "01/29/2020, 15:18:23"}, "type": "Feature"}, {"geometry": {"coordinates": [8.546035, 47.375], "type": "Point"}, "properties": {"charge": 100, "id": "smide_3", "name": "ZH253765", "provider": "smide", "range": 50.0, "size": 20, "time": "01/29/2020, 15:18:23"}, "type": "Feature"}, {"geometry": {"coordinates": [8.49497, 47.387246], "type": "Point"}, "properties": {"charge": 36, "id": "smide_105", "name": "ZH253804", "provider": "smide", "range": 18.0, "size": 17, "time": "01/29/2020, 15:18:23"}, "type": "Feature"}, {"geometry": {"coordinates": [8.483524, 47.381596], "type": "Point"}, "properties": {"charge": 57, "id": "smide_186", "name": "ZH253751", "provider": "smide", "range": 28.0, "size": 20, "time": "01/29/2020, 15:18:23"}, "type": "Feature"}, {"geometry": {"coordinates": [8.571259, 47.352472], "type": "Point"}, "properties": {"charge": 93, "id": "smide_173", "name": "ZH258501", "provider": "smide", "range": 46.0, "size": 17, "time": "01/29/2020, 15:18:23"}, "type": "Feature"}, {"geometry": {"coordinates": [8.559261, 47.405972], "type": "Point"}, "properties": {"charge": 73, "id": "smide_77", "name": "ZH261548", "provider": "smide", "range": 36.0, "size": 20, "time": "01/29/2020, 15:18:23"}, "type": "Feature"}, {"geometry": {"coordinates": [8.508375, 47.400504], "type": "Point"}, "properties": {"charge": 27, "id": "smide_200", "name": "ZH253801", "provider": "smide", "range": 13.0, "size": 20, "time": "01/29/2020, 15:18:23"}, "type": "Feature"}, {"geometry": {"coordinates": [8.53889, 47.337915], "type": "Point"}, "properties": {"charge": 92, "id": "smide_197", "name": "ZH253864", "provider": "smide", "range": 46.0, "size": 20, "time": "01/29/2020, 15:18:23"}, "type": "Feature"}, {"geometry": {"coordinates": [8.534563, 47.36356], "type": "Point"}, "properties": {"charge": 84, "id": "smide_199", "name": "ZH253766", "provider": "smide", "range": 42.0, "size": 20, "time": "01/29/2020, 15:18:23"}, "type": "Feature"}, {"geometry": {"coordinates": [8.544453, 47.370408], "type": "Point"}, "properties": {"charge": 75, "id": "smide_8", "name": "ZH253861", "provider": "smide", "range": 37.0, "size": 17, "time": "01/29/2020, 15:18:23"}, "type": "Feature"}, {"geometry": {"coordinates": [8.526215, 47.368286], "type": "Point"}, "properties": {"charge": 100, "id": "smide_45", "name": "ZH253716", "provider": "smide", "range": 50.0, "size": 17, "time": "01/29/2020, 15:18:23"}, "type": "Feature"}, {"geometry": {"coordinates": [8.522394, 47.398892], "type": "Point"}, "properties": {"charge": 86, "id": "smide_188", "name": "ZH261543", "provider": "smide", "range": 43.0, "size": 20, "time": "01/29/2020, 15:18:23"}, "type": "Feature"}, {"geometry": {"coordinates": [8.512838, 47.398892], "type": "Point"}, "properties": {"charge": 26, "id": "smide_101", "name": "ZH253814", "provider": "smide", "range": 13.0, "size": 17, "time": "01/29/2020, 15:18:23"}, "type": "Feature"}, {"geometry": {"coordinates": [8.555704, 47.384376], "type": "Point"}, "properties": {"charge": 42, "id": "smide_143", "name": "ZH253778", "provider": "smide", "range": 21.0, "size": 17, "time": "01/29/2020, 15:18:23"}, "type": "Feature"}, {"geometry": {"coordinates": [8.54743, 47.397436], "type": "Point"}, "properties": {"charge": 36, "id": "smide_180", "name": "ZH253824", "provider": "smide", "range": 18.0, "size": 20, "time": "01/29/2020, 15:18:23"}, "type": "Feature"}, {"geometry": {"coordinates": [8.549955, 47.398416], "type": "Point"}, "properties": {"charge": 40, "id": "smide_20", "name": "ZH253770", "provider": "smide", "range": 20.0, "size": 20, "time": "01/29/2020, 15:18:23"}, "type": "Feature"}, {"geometry": {"coordinates": [8.509386, 47.3549], "type": "Point"}, "properties": {"charge": 90, "id": "smide_50", "name": "ZH253853", "provider": "smide", "range": 45.0, "size": 17, "time": "01/29/2020, 15:18:23"}, "type": "Feature"}, {"geometry": {"coordinates": [8.514688, 47.362903], "type": "Point"}, "properties": {"charge": 31, "id": "smide_30", "name": "ZH253813", "provider": "smide", "range": 15.0, "size": 20, "time": "01/29/2020, 15:18:23"}, "type": "Feature"}, {"geometry": {"coordinates": [8.54561, 47.370186], "type": "Point"}, "properties": {"charge": 65, "id": "smide_10", "name": "ZH253855", "provider": "smide", "range": 32.0, "size": 17, "time": "01/29/2020, 15:18:23"}, "type": "Feature"}, {"geometry": {"coordinates": [8.502064, 47.368948], "type": "Point"}, "properties": {"charge": 100, "id": "smide_179", "name": "ZH253687", "provider": "smide", "range": 50.0, "size": 20, "time": "01/29/2020, 15:18:23"}, "type": "Feature"}, {"geometry": {"coordinates": [8.565717, 47.364088], "type": "Point"}, "properties": {"charge": 86, "id": "smide_165", "name": "ZH253752", "provider": "smide", "range": 43.0, "size": 17, "time": "01/29/2020, 15:18:23"}, "type": "Feature"}, {"geometry": {"coordinates": [8.55247, 47.414168], "type": "Point"}, "properties": {"charge": 58, "id": "smide_119", "name": "ZH253686", "provider": "smide", "range": 28.0, "size": 20, "time": "01/29/2020, 15:18:23"}, "type": "Feature"}, {"geometry": {"coordinates": [8.532562, 47.416308], "type": "Point"}, "properties": {"charge": 100, "id": "smide_76", "name": "ZH253764", "provider": "smide", "range": 50.0, "size": 17, "time": "01/29/2020, 15:18:23"}, "type": "Feature"}, {"geometry": {"coordinates": [8.503437, 47.396576], "type": "Point"}, "properties": {"charge": 89, "id": "smide_129", "name": "ZH261378", "provider": "smide", "range": 44.0, "size": 17, "time": "01/29/2020, 15:18:23"}, "type": "Feature"}, {"geometry": {"coordinates": [8.507605, 47.365705], "type": "Point"}, "properties": {"charge": 44, "id": "smide_49", "name": "ZH253873", "provider": "smide", "range": 22.0, "size": 17, "time": "01/29/2020, 15:18:23"}, "type": "Feature"}, {"geometry": {"coordinates": [8.518093, 47.388324], "type": "Point"}, "properties": {"charge": 51, "id": "smide_37", "name": "ZH261377", "provider": "smide", "range": 25.0, "size": 20, "time": "01/29/2020, 15:18:23"}, "type": "Feature"}, {"geometry": {"coordinates": [8.570346, 47.352355], "type": "Point"}, "properties": {"charge": 100, "id": "smide_191", "name": "ZH253762", "provider": "smide", "range": 50.0, "size": 17, "time": "01/29/2020, 15:18:23"}, "type": "Feature"}, {"geometry": {"coordinates": [8.513136, 47.359901], "type": "Point"}, "properties": {"charge": 84, "id": "smide_202", "name": "ZH253830", "provider": "smide", "range": 42.0, "size": 17, "time": "01/29/2020, 15:18:23"}, "type": "Feature"}, {"geometry": {"coordinates": [8.574896, 47.373276], "type": "Point"}, "properties": {"charge": 99, "id": "smide_56", "name": "ZH261442", "provider": "smide", "range": 49.0, "size": 20, "time": "01/29/2020, 15:18:23"}, "type": "Feature"}, {"geometry": {"coordinates": [8.546718, 47.376686], "type": "Point"}, "properties": {"charge": 100, "id": "smide_47", "name": "ZH253858", "provider": "smide", "range": 50.0, "size": 17, "time": "01/29/2020, 15:18:23"}, "type": "Feature"}, {"geometry": {"coordinates": [8.55145, 47.380048], "type": "Point"}, "properties": {"charge": 55, "id": "smide_150", "name": "ZH253703", "provider": "smide", "range": 27.0, "size": 20, "time": "01/29/2020, 15:18:23"}, "type": "Feature"}, {"geometry": {"coordinates": [8.520617, 47.358392], "type": "Point"}, "properties": {"charge": 27, "id": "smide_181", "name": "ZH253815", "provider": "smide", "range": 13.0, "size": 17, "time": "01/29/2020, 15:18:23"}, "type": "Feature"}, {"geometry": {"coordinates": [8.544162, 47.379744], "type": "Point"}, "properties": {"charge": 46, "id": "smide_66", "name": "ZH253818", "provider": "smide", "range": 23.0, "size": 20, "time": "01/29/2020, 15:18:23"}, "type": "Feature"}, {"geometry": {"coordinates": [8.499446, 47.366166], "type": "Point"}, "properties": {"charge": 49, "id": "smide_17", "name": "ZH253793", "provider": "smide", "range": 24.0, "size": 17, "time": "01/29/2020, 15:18:23"}, "type": "Feature"}, {"geometry": {"coordinates": [8.502073, 47.369256], "type": "Point"}, "properties": {"charge": 100, "id": "smide_127", "name": "ZH253808", "provider": "smide", "range": 50.0, "size": 20, "time": "01/29/2020, 15:18:23"}, "type": "Feature"}, {"geometry": {"coordinates": [8.539093, 47.415766], "type": "Point"}, "properties": {"charge": 99, "id": "smide_145", "name": "ZH253780", "provider": "smide", "range": 49.0, "size": 20, "time": "01/29/2020, 15:18:23"}, "type": "Feature"}, {"geometry": {"coordinates": [8.549431, 47.365976], "type": "Point"}, "properties": {"charge": 70, "id": "smide_114", "name": "ZH253878", "provider": "smide", "range": 35.0, "size": 20, "time": "01/29/2020, 15:18:23"}, "type": "Feature"}, {"geometry": {"coordinates": [8.521868, 47.358048], "type": "Point"}, "properties": {"charge": 58, "id": "smide_203", "name": "ZH261547", "provider": "smide", "range": 28.0, "size": 17, "time": "01/29/2020, 15:18:23"}, "type": "Feature"}, {"geometry": {"coordinates": [8.502069, 47.368948], "type": "Point"}, "properties": {"charge": 100, "id": "smide_21", "name": "ZH253841", "provider": "smide", "range": 50.0, "size": 17, "time": "01/29/2020, 15:18:23"}, "type": "Feature"}, {"geometry": {"coordinates": [8.560309, 47.413476], "type": "Point"}, "properties": {"charge": 22, "id": "smide_164", "name": "ZH253775", "provider": "smide", "range": 11.0, "size": 17, "time": "01/29/2020, 15:18:23"}, "type": "Feature"}, {"geometry": {"coordinates": [8.52465, 47.338716], "type": "Point"}, "properties": {"charge": 53, "id": "smide_189", "name": "ZH253845", "provider": "smide", "range": 26.0, "size": 20, "time": "01/29/2020, 15:18:23"}, "type": "Feature"}, {"geometry": {"coordinates": [8.554307, 47.379512], "type": "Point"}, "properties": {"charge": 62, "id": "smide_81", "name": "ZH253753", "provider": "smide", "range": 31.0, "size": 17, "time": "01/29/2020, 15:18:23"}, "type": "Feature"}, {"geometry": {"coordinates": [8.501094, 47.37712], "type": "Point"}, "properties": {"charge": 91, "id": "smide_171", "name": "ZH253689", "provider": "smide", "range": 45.0, "size": 20, "time": "01/29/2020, 15:18:23"}, "type": "Feature"}, {"geometry": {"coordinates": [8.524381, 47.395832], "type": "Point"}, "properties": {"charge": 28, "id": "smide_93", "name": "ZH253681", "provider": "smide", "range": 14.0, "size": 17, "time": "01/29/2020, 15:18:23"}, "type": "Feature"}, {"geometry": {"coordinates": [8.573339, 47.352472], "type": "Point"}, "properties": {"charge": 88, "id": "smide_67", "name": "ZH253779", "provider": "smide", "range": 44.0, "size": 17, "time": "01/29/2020, 15:18:23"}, "type": "Feature"}, {"geometry": {"coordinates": [8.479976, 47.385451], "type": "Point"}, "properties": {"charge": 71, "id": "smide_118", "name": "ZH253759", "provider": "smide", "range": 35.0, "size": 20, "time": "01/29/2020, 15:18:23"}, "type": "Feature"}, {"geometry": {"coordinates": [8.502073, 47.36888], "type": "Point"}, "properties": {"charge": 100, "id": "smide_142", "name": "ZH258745", "provider": "smide", "range": 50.0, "size": 17, "time": "01/29/2020, 15:18:23"}, "type": "Feature"}, {"geometry": {"coordinates": [8.539245, 47.388076], "type": "Point"}, "properties": {"charge": 90, "id": "smide_166", "name": "ZH253728", "provider": "smide", "range": 45.0, "size": 17, "time": "01/29/2020, 15:18:23"}, "type": "Feature"}, {"geometry": {"coordinates": [8.510289, 47.389804], "type": "Point"}, "properties": {"charge": 100, "id": "smide_126", "name": "ZH268400", "provider": "smide", "range": 50.0, "size": 17, "time": "01/29/2020, 15:18:23"}, "type": "Feature"}, {"geometry": {"coordinates": [8.490968, 47.37186], "type": "Point"}, "properties": {"charge": 18, "id": "smide_44", "name": "ZH253837", "provider": "smide", "range": 9.0, "size": 17, "time": "01/29/2020, 15:18:23"}, "type": "Feature"}, {"geometry": {"coordinates": [8.530328, 47.39023], "type": "Point"}, "properties": {"charge": 26, "id": "smide_98", "name": "ZH256321", "provider": "smide", "range": 13.0, "size": 17, "time": "01/29/2020, 15:18:23"}, "type": "Feature"}, {"geometry": {"coordinates": [8.571988, 47.355136], "type": "Point"}, "properties": {"charge": 100, "id": "smide_154", "name": "ZH253744", "provider": "smide", "range": 50.0, "size": 20, "time": "01/29/2020, 15:18:23"}, "type": "Feature"}, {"geometry": {"coordinates": [8.516105, 47.397008], "type": "Point"}, "properties": {"charge": 49, "id": "smide_92", "name": "ZH253798", "provider": "smide", "range": 24.0, "size": 17, "time": "01/29/2020, 15:18:23"}, "type": "Feature"}, {"geometry": {"coordinates": [8.487471, 47.38422], "type": "Point"}, "properties": {"charge": 87, "id": "smide_167", "name": "ZH253854", "provider": "smide", "range": 43.0, "size": 17, "time": "01/29/2020, 15:18:23"}, "type": "Feature"}, {"geometry": {"coordinates": [8.545747, 47.375108], "type": "Point"}, "properties": {"charge": 78, "id": "smide_111", "name": "ZH253763", "provider": "smide", "range": 39.0, "size": 17, "time": "01/29/2020, 15:18:23"}, "type": "Feature"}, {"geometry": {"coordinates": [8.510058, 47.425512], "type": "Point"}, "properties": {"charge": 79, "id": "smide_40", "name": "ZH253690", "provider": "smide", "range": 39.0, "size": 20, "time": "01/29/2020, 15:18:23"}, "type": "Feature"}, {"geometry": {"coordinates": [8.563941, 47.34816], "type": "Point"}, "properties": {"charge": 42, "id": "smide_1", "name": "ZH253776", "provider": "smide", "range": 21.0, "size": 17, "time": "01/29/2020, 15:18:23"}, "type": "Feature"}, {"geometry": {"coordinates": [8.556744, 47.35328], "type": "Point"}, "properties": {"charge": 100, "id": "smide_28", "name": "ZH253831", "provider": "smide", "range": 50.0, "size": 17, "time": "01/29/2020, 15:18:23"}, "type": "Feature"}, {"geometry": {"coordinates": [8.516883, 47.398275], "type": "Point"}, "properties": {"charge": 71, "id": "smide_14", "name": "ZH253749", "provider": "smide", "range": 35.0, "size": 20, "time": "01/29/2020, 15:18:23"}, "type": "Feature"}, {"geometry": {"coordinates": [8.554597, 47.402896], "type": "Point"}, "properties": {"charge": 62, "id": "smide_130", "name": "ZH253847", "provider": "smide", "range": 31.0, "size": 20, "time": "01/29/2020, 15:18:23"}, "type": "Feature"}, {"geometry": {"coordinates": [8.54852, 47.377896], "type": "Point"}, "properties": {"charge": 99, "id": "smide_24", "name": "ZH253696", "provider": "smide", "range": 49.0, "size": 20, "time": "01/29/2020, 15:18:23"}, "type": "Feature"}, {"geometry": {"coordinates": [8.502078, 47.369052], "type": "Point"}, "properties": {"charge": 99, "id": "smide_83", "name": "ZH253869", "provider": "smide", "range": 49.0, "size": 20, "time": "01/29/2020, 15:18:23"}, "type": "Feature"}, {"geometry": {"coordinates": [8.524209, 47.398076], "type": "Point"}, "properties": {"charge": 89, "id": "smide_193", "name": "ZH253738", "provider": "smide", "range": 44.0, "size": 20, "time": "01/29/2020, 15:18:23"}, "type": "Feature"}, {"geometry": {"coordinates": [8.564983, 47.408336], "type": "Point"}, "properties": {"charge": 100, "id": "smide_73", "name": "ZH261379", "provider": "smide", "range": 50.0, "size": 20, "time": "01/29/2020, 15:18:23"}, "type": "Feature"}, {"geometry": {"coordinates": [8.545511, 47.412948], "type": "Point"}, "properties": {"charge": 100, "id": "smide_158", "name": "ZH253870", "provider": "smide", "range": 50.0, "size": 20, "time": "01/29/2020, 15:18:23"}, "type": "Feature"}, {"geometry": {"coordinates": [8.494125, 47.424212], "type": "Point"}, "properties": {"charge": 22, "id": "smide_100", "name": "ZH253862", "provider": "smide", "range": 11.0, "size": 20, "time": "01/29/2020, 15:18:23"}, "type": "Feature"}, {"geometry": {"coordinates": [8.5293, 47.375433], "type": "Point"}, "properties": {"charge": 73, "id": "smide_134", "name": "ZH253741", "provider": "smide", "range": 36.0, "size": 20, "time": "01/29/2020, 15:18:23"}, "type": "Feature"}, {"geometry": {"coordinates": [8.4852, 47.391826], "type": "Point"}, "properties": {"charge": 84, "id": "smide_141", "name": "ZH253800", "provider": "smide", "range": 42.0, "size": 20, "time": "01/29/2020, 15:18:23"}, "type": "Feature"}, {"geometry": {"coordinates": [8.549008, 47.41473], "type": "Point"}, "properties": {"charge": 86, "id": "smide_149", "name": "ZH253743", "provider": "smide", "range": 43.0, "size": 20, "time": "01/29/2020, 15:18:23"}, "type": "Feature"}, {"geometry": {"coordinates": [8.550833, 47.414744], "type": "Point"}, "properties": {"charge": 31, "id": "smide_16", "name": "ZH253713", "provider": "smide", "range": 15.0, "size": 20, "time": "01/29/2020, 15:18:23"}, "type": "Feature"}, {"geometry": {"coordinates": [8.53575, 47.40704], "type": "Point"}, "properties": {"charge": 28, "id": "smide_74", "name": "ZH253693", "provider": "smide", "range": 14.0, "size": 20, "time": "01/29/2020, 15:18:23"}, "type": "Feature"}, {"geometry": {"coordinates": [8.497058, 47.39317], "type": "Point"}, "properties": {"charge": 100, "id": "smide_33", "name": "ZH253782", "provider": "smide", "range": 50.0, "size": 20, "time": "01/29/2020, 15:18:23"}, "type": "Feature"}, {"geometry": {"coordinates": [8.535466, 47.37316], "type": "Point"}, "properties": {"charge": 94, "id": "smide_161", "name": "ZH253691", "provider": "smide", "range": 47.0, "size": 20, "time": "01/29/2020, 15:18:23"}, "type": "Feature"}, {"geometry": {"coordinates": [8.517648, 47.367325], "type": "Point"}, "properties": {"charge": 95, "id": "smide_183", "name": "ZH253868", "provider": "smide", "range": 47.0, "size": 17, "time": "01/29/2020, 15:18:23"}, "type": "Feature"}, {"geometry": {"coordinates": [8.483363, 47.374632], "type": "Point"}, "properties": {"charge": 100, "id": "smide_42", "name": "ZH253846", "provider": "smide", "range": 50.0, "size": 20, "time": "01/29/2020, 15:18:23"}, "type": "Feature"}, {"geometry": {"coordinates": [8.547013, 47.407608], "type": "Point"}, "properties": {"charge": 100, "id": "smide_4", "name": "ZH253740", "provider": "smide", "range": 50.0, "size": 20, "time": "01/29/2020, 15:18:23"}, "type": "Feature"}, {"geometry": {"coordinates": [8.561507, 47.41598], "type": "Point"}, "properties": {"charge": 83, "id": "smide_160", "name": "ZH253722", "provider": "smide", "range": 41.0, "size": 17, "time": "01/29/2020, 15:18:23"}, "type": "Feature"}, {"geometry": {"coordinates": [8.523743, 47.369925], "type": "Point"}, "properties": {"charge": 64, "id": "smide_137", "name": "ZH258502", "provider": "smide", "range": 32.0, "size": 17, "time": "01/29/2020, 15:18:23"}, "type": "Feature"}, {"geometry": {"coordinates": [8.501472, 47.38392], "type": "Point"}, "properties": {"charge": 37, "id": "smide_178", "name": "ZH253803", "provider": "smide", "range": 18.0, "size": 17, "time": "01/29/2020, 15:18:23"}, "type": "Feature"}, {"geometry": {"coordinates": [8.527046, 47.390776], "type": "Point"}, "properties": {"charge": 72, "id": "smide_96", "name": "ZH256146", "provider": "smide", "range": 36.0, "size": 20, "time": "01/29/2020, 15:18:23"}, "type": "Feature"}, {"geometry": {"coordinates": [8.527658, 47.410196], "type": "Point"}, "properties": {"charge": 100, "id": "smide_58", "name": "ZH259246", "provider": "smide", "range": 50.0, "size": 20, "time": "01/29/2020, 15:18:23"}, "type": "Feature"}, {"geometry": {"coordinates": [8.560293, 47.382136], "type": "Point"}, "properties": {"charge": 100, "id": "smide_54", "name": "ZH253874", "provider": "smide", "range": 50.0, "size": 20, "time": "01/29/2020, 15:18:23"}, "type": "Feature"}, {"geometry": {"coordinates": [8.55041, 47.379868], "type": "Point"}, "properties": {"charge": 56, "id": "smide_175", "name": "ZH253730", "provider": "smide", "range": 28.0, "size": 17, "time": "01/29/2020, 15:18:23"}, "type": "Feature"}, {"geometry": {"coordinates": [8.574732, 47.372188], "type": "Point"}, "properties": {"charge": 100, "id": "smide_163", "name": "ZH256147", "provider": "smide", "range": 50.0, "size": 20, "time": "01/29/2020, 15:18:23"}, "type": "Feature"}, {"geometry": {"coordinates": [8.513215, 47.374288], "type": "Point"}, "properties": {"charge": 100, "id": "smide_112", "name": "ZH263530", "provider": "smide", "range": 50.0, "size": 20, "time": "01/29/2020, 15:18:23"}, "type": "Feature"}, {"geometry": {"coordinates": [8.546133, 47.366472], "type": "Point"}, "properties": {"charge": 89, "id": "smide_122", "name": "ZH253850", "provider": "smide", "range": 44.0, "size": 20, "time": "01/29/2020, 15:18:23"}, "type": "Feature"}, {"geometry": {"coordinates": [8.561683, 47.349768], "type": "Point"}, "properties": {"charge": 42, "id": "smide_38", "name": "ZH253851", "provider": "smide", "range": 21.0, "size": 20, "time": "01/29/2020, 15:18:23"}, "type": "Feature"}, {"geometry": {"coordinates": [8.534466, 47.376816], "type": "Point"}, "properties": {"charge": 79, "id": "smide_6", "name": "ZH253787", "provider": "smide", "range": 39.0, "size": 17, "time": "01/29/2020, 15:18:23"}, "type": "Feature"}, {"geometry": {"coordinates": [8.553759, 47.412256], "type": "Point"}, "properties": {"charge": 76, "id": "smide_18", "name": "ZH253859", "provider": "smide", "range": 38.0, "size": 17, "time": "01/29/2020, 15:18:23"}, "type": "Feature"}, {"geometry": {"coordinates": [8.520284, 47.372084], "type": "Point"}, "properties": {"charge": 26, "id": "smide_12", "name": "ZH253685", "provider": "smide", "range": 13.0, "size": 17, "time": "01/29/2020, 15:18:23"}, "type": "Feature"}, {"geometry": {"coordinates": [8.55928, 47.353068], "type": "Point"}, "properties": {"charge": 51, "id": "smide_192", "name": "ZH253706", "provider": "smide", "range": 25.0, "size": 20, "time": "01/29/2020, 15:18:23"}, "type": "Feature"}, {"geometry": {"coordinates": [8.559756, 47.41588], "type": "Point"}, "properties": {"charge": 100, "id": "smide_39", "name": "ZH253714", "provider": "smide", "range": 50.0, "size": 20, "time": "01/29/2020, 15:18:23"}, "type": "Feature"}, {"geometry": {"coordinates": [8.557818, 47.35206], "type": "Point"}, "properties": {"charge": 100, "id": "smide_5", "name": "ZH261443", "provider": "smide", "range": 50.0, "size": 20, "time": "01/29/2020, 15:18:23"}, "type": "Feature"}, {"geometry": {"coordinates": [8.56416, 47.377206], "type": "Point"}, "properties": {"charge": 26, "id": "smide_85", "name": "ZH253729", "provider": "smide", "range": 13.0, "size": 17, "time": "01/29/2020, 15:18:23"}, "type": "Feature"}, {"geometry": {"coordinates": [8.573055, 47.404084], "type": "Point"}, "properties": {"charge": 87, "id": "smide_29", "name": "ZH253723", "provider": "smide", "range": 43.0, "size": 17, "time": "01/29/2020, 15:18:23"}, "type": "Feature"}, {"geometry": {"coordinates": [8.540908, 47.3771], "type": "Point"}, "properties": {"charge": 92, "id": "smide_48", "name": "ZH253849", "provider": "smide", "range": 46.0, "size": 20, "time": "01/29/2020, 15:18:23"}, "type": "Feature"}, {"geometry": {"coordinates": [8.550632, 47.381156], "type": "Point"}, "properties": {"charge": 61, "id": "smide_46", "name": "ZH253843", "provider": "smide", "range": 30.0, "size": 20, "time": "01/29/2020, 15:18:23"}, "type": "Feature"}, {"geometry": {"coordinates": [8.54714166666667, 47.3659283333333], "type": "Point"}, "properties": {"charge": 91, "id": "bird_639aaa03-af55-45ac-8e85-395866ebe774", "provider": "bird", "timeStamp": "01/29/2020, 15:18:23"}, "type": "Feature"}, {"geometry": {"coordinates": [8.548065, 47.3664783333333], "type": "Point"}, "properties": {"charge": 49, "id": "bird_a0e70b3e-6c42-40f9-b5d1-d22ab03b4bfd", "provider": "bird", "timeStamp": "01/29/2020, 15:18:23"}, "type": "Feature"}, {"geometry": {"coordinates": [8.54786333333333, 47.36636], "type": "Point"}, "properties": {"charge": 62, "id": "bird_b75015be-00b8-43b7-a571-026e5a977916", "provider": "bird", "timeStamp": "01/29/2020, 15:18:23"}, "type": "Feature"}, {"geometry": {"coordinates": [8.54782166666667, 47.3663483333333], "type": "Point"}, "properties": {"charge": 62, "id": "bird_55a13891-ebf6-4dd9-a351-dcc07a6a658a", "provider": "bird", "timeStamp": "01/29/2020, 15:18:23"}, "type": "Feature"}, {"geometry": {"coordinates": [8.54811166666667, 47.3665316666667], "type": "Point"}, "properties": {"charge": 57, "id": "bird_6b31a9d8-93dc-4a25-b69d-8e16b7362be7", "provider": "bird", "timeStamp": "01/29/2020, 15:18:23"}, "type": "Feature"}, {"geometry": {"coordinates": [8.54817666666667, 47.3665733333333], "type": "Point"}, "properties": {"charge": 34, "id": "bird_06ecccd2-1064-4171-adbd-905f6468c4f8", "provider": "bird", "timeStamp": "01/29/2020, 15:18:23"}, "type": "Feature"}, {"geometry": {"coordinates": [8.54810166666667, 47.3665383333333], "type": "Point"}, "properties": {"charge": 54, "id": "bird_15957986-4bc6-4bf2-953a-32a85bf4b2a4", "provider": "bird", "timeStamp": "01/29/2020, 15:18:23"}, "type": "Feature"}, {"geometry": {"coordinates": [8.54809166666667, 47.3665383333333], "type": "Point"}, "properties": {"charge": 26, "id": "bird_df2aaf53-ea27-40d4-92dc-ecc70fcc1304", "provider": "bird", "timeStamp": "01/29/2020, 15:18:23"}, "type": "Feature"}, {"geometry": {"coordinates": [8.54750833333333, 47.3663183333333], "type": "Point"}, "properties": {"charge": 91, "id": "bird_f54d51e7-2be9-47d6-9345-daf569926b44", "provider": "bird", "timeStamp": "01/29/2020, 15:18:23"}, "type": "Feature"}, {"geometry": {"coordinates": [8.50472166666667, 47.3858866666667], "type": "Point"}, "properties": {"charge": 34, "id": "bird_e972ae19-0bfa-4f1c-88f3-000d184f3da0", "provider": "bird", "timeStamp": "01/29/2020, 15:18:23"}, "type": "Feature"}, {"geometry": {"coordinates": [8.54765333333333, 47.366485], "type": "Point"}, "properties": {"charge": 80, "id": "bird_4affd15d-c757-4086-8896-737d7ade9f67", "provider": "bird", "timeStamp": "01/29/2020, 15:18:23"}, "type": "Feature"}, {"geometry": {"coordinates": [8.5041, 47.37923], "type": "Point"}, "properties": {"charge": 52, "id": "bird_14c04621-ee94-464d-90fb-27c9101e0ed4", "provider": "bird", "timeStamp": "01/29/2020, 15:18:23"}, "type": "Feature"}, {"geometry": {"coordinates": [8.53232, 47.3625983333333], "type": "Point"}, "properties": {"charge": 21, "id": "bird_a780eb31-8c0a-42f0-8e82-c2792df042e5", "provider": "bird", "timeStamp": "01/29/2020, 15:18:23"}, "type": "Feature"}, {"geometry": {"coordinates": [8.53254833333333, 47.362755], "type": "Point"}, "properties": {"charge": 55, "id": "bird_165ae50a-7d95-40f2-bba2-04005ced9cbd", "provider": "bird", "timeStamp": "01/29/2020, 15:18:23"}, "type": "Feature"}, {"geometry": {"coordinates": [8.54724666666667, 47.3672033333333], "type": "Point"}, "properties": {"charge": 51, "id": "bird_472c5515-891c-4230-93bd-9aa9c3d4d4e1", "provider": "bird", "timeStamp": "01/29/2020, 15:18:23"}, "type": "Feature"}, {"geometry": {"coordinates": [8.54713, 47.3672633333333], "type": "Point"}, "properties": {"charge": 66, "id": "bird_f748a8b4-42c2-4ac5-b384-6d8b4f21fb90", "provider": "bird", "timeStamp": "01/29/2020, 15:18:23"}, "type": "Feature"}, {"geometry": {"coordinates": [8.51045166666667, 47.390655], "type": "Point"}, "properties": {"charge": 30, "id": "bird_660ccde2-0469-4994-94e7-edd73b6a4522", "provider": "bird", "timeStamp": "01/29/2020, 15:18:23"}, "type": "Feature"}, {"geometry": {"coordinates": [8.51043166666667, 47.39059], "type": "Point"}, "properties": {"charge": 76, "id": "bird_3ba26ab6-9faf-444d-91b1-48920251b108", "provider": "bird", "timeStamp": "01/29/2020, 15:18:23"}, "type": "Feature"}, {"geometry": {"coordinates": [8.51083666666667, 47.3904616666667], "type": "Point"}, "properties": {"charge": 54, "id": "bird_45652e88-53aa-47ac-a17a-fa33acc5d3da", "provider": "bird", "timeStamp": "01/29/2020, 15:18:23"}, "type": "Feature"}, {"geometry": {"coordinates": [8.505615, 47.3786766666667], "type": "Point"}, "properties": {"charge": 49, "id": "bird_93da11f4-1135-401a-81a2-7cd94d5a4c4c", "provider": "bird", "timeStamp": "01/29/2020, 15:18:23"}, "type": "Feature"}, {"geometry": {"coordinates": [8.52343166666667, 47.364135], "type": "Point"}, "properties": {"charge": 10, "id": "bird_19f0554c-4146-46ff-8b32-48ec201a5803", "provider": "bird", "timeStamp": "01/29/2020, 15:18:23"}, "type": "Feature"}, {"geometry": {"coordinates": [8.54510333333333, 47.3674133333333], "type": "Point"}, "properties": {"charge": 52, "id": "bird_a56801ec-207d-4bbe-9daa-36679cc482a8", "provider": "bird", "timeStamp": "01/29/2020, 15:18:23"}, "type": "Feature"}, {"geometry": {"coordinates": [8.52632166666667, 47.364105], "type": "Point"}, "properties": {"charge": 15, "id": "bird_8a97a9ae-d0ff-482d-b845-155553795962", "provider": "bird", "timeStamp": "01/29/2020, 15:18:23"}, "type": "Feature"}, {"geometry": {"coordinates": [8.526235, 47.3641166666667], "type": "Point"}, "properties": {"charge": 12, "id": "bird_5be236b5-990e-4593-8300-11675e3b13a5", "provider": "bird", "timeStamp": "01/29/2020, 15:18:23"}, "type": "Feature"}, {"geometry": {"coordinates": [8.52628666666667, 47.3641283333333], "type": "Point"}, "properties": {"charge": 16, "id": "bird_96c9f325-461c-44a8-887c-354226effd2e", "provider": "bird", "timeStamp": "01/29/2020, 15:18:23"}, "type": "Feature"}, {"geometry": {"coordinates": [8.53163333333333, 47.3639833333333], "type": "Point"}, "properties": {"charge": 84, "id": "bird_ed3619b1-eac8-4b60-93ba-870480b15f87", "provider": "bird", "timeStamp": "01/29/2020, 15:18:23"}, "type": "Feature"}, {"geometry": {"coordinates": [8.53158666666667, 47.3639833333333], "type": "Point"}, "properties": {"charge": 93, "id": "bird_a1fd59ba-acc2-408e-b27e-adac8f65bf4c", "provider": "bird", "timeStamp": "01/29/2020, 15:18:23"}, "type": "Feature"}, {"geometry": {"coordinates": [8.526265, 47.3641783333333], "type": "Point"}, "properties": {"charge": 10, "id": "bird_8b9c23f7-97d8-48eb-9d52-9139eeca7fbb", "provider": "bird", "timeStamp": "01/29/2020, 15:18:23"}, "type": "Feature"}, {"geometry": {"coordinates": [8.531595, 47.3640666666667], "type": "Point"}, "properties": {"charge": 64, "id": "bird_3ca1c68d-734e-4659-a692-26a1136c0cd7", "provider": "bird", "timeStamp": "01/29/2020, 15:18:23"}, "type": "Feature"}, {"geometry": {"coordinates": [8.531355, 47.3640933333333], "type": "Point"}, "properties": {"charge": 83, "id": "bird_411cc28f-1cb0-403b-a801-8684b316ab20", "provider": "bird", "timeStamp": "01/29/2020, 15:18:23"}, "type": "Feature"}, {"geometry": {"coordinates": [8.531615, 47.3641083333333], "type": "Point"}, "properties": {"charge": 64, "id": "bird_8034e203-521e-4ffa-865a-f3b7bb69d8b5", "provider": "bird", "timeStamp": "01/29/2020, 15:18:23"}, "type": "Feature"}, {"geometry": {"coordinates": [8.53165666666667, 47.3641783333333], "type": "Point"}, "properties": {"charge": 91, "id": "bird_3c94ea55-7399-42f1-a165-87ad779b89d7", "provider": "bird", "timeStamp": "01/29/2020, 15:18:23"}, "type": "Feature"}, {"geometry": {"coordinates": [8.53157833333333, 47.364205], "type": "Point"}, "properties": {"charge": 84, "id": "bird_12716bb0-e49b-44b6-af3c-34593d18f8e7", "provider": "bird", "timeStamp": "01/29/2020, 15:18:23"}, "type": "Feature"}, {"geometry": {"coordinates": [8.5318, 47.3642383333333], "type": "Point"}, "properties": {"charge": 87, "id": "bird_7647c39a-402a-4b27-901c-23313d43c0b6", "provider": "bird", "timeStamp": "01/29/2020, 15:18:23"}, "type": "Feature"}, {"geometry": {"coordinates": [8.53177833333333, 47.3642733333333], "type": "Point"}, "properties": {"charge": 93, "id": "bird_b88778a3-a45e-43dd-a611-1b56ec455b06", "provider": "bird", "timeStamp": "01/29/2020, 15:18:23"}, "type": "Feature"}, {"geometry": {"coordinates": [8.53178, 47.364285], "type": "Point"}, "properties": {"charge": 84, "id": "bird_7cb8a581-fee4-4f9f-949f-2000a5cdb736", "provider": "bird", "timeStamp": "01/29/2020, 15:18:23"}, "type": "Feature"}, {"geometry": {"coordinates": [8.53891, 47.3655616666667], "type": "Point"}, "properties": {"charge": 53, "id": "bird_0dae2de2-566b-4727-9550-7a07d94b4694", "provider": "bird", "timeStamp": "01/29/2020, 15:18:23"}, "type": "Feature"}, {"geometry": {"coordinates": [8.54084833333333, 47.3662383333333], "type": "Point"}, "properties": {"charge": 73, "id": "bird_8debb2d5-a9be-461c-a601-fc13d240eaa7", "provider": "bird", "timeStamp": "01/29/2020, 15:18:23"}, "type": "Feature"}, {"geometry": {"coordinates": [8.54082666666667, 47.3662383333333], "type": "Point"}, "properties": {"charge": 57, "id": "bird_a1e3cdcb-e228-45b7-95bf-25e326bd1966", "provider": "bird", "timeStamp": "01/29/2020, 15:18:23"}, "type": "Feature"}, {"geometry": {"coordinates": [8.53090333333333, 47.3645483333333], "type": "Point"}, "properties": {"charge": 88, "id": "bird_3543b2fc-d94d-4673-88b2-34d90c30811d", "provider": "bird", "timeStamp": "01/29/2020, 15:18:23"}, "type": "Feature"}, {"geometry": {"coordinates": [8.53662666666667, 47.3653566666667], "type": "Point"}, "properties": {"charge": 60, "id": "bird_85795aa9-3669-44c0-8851-6e1a7780b9e8", "provider": "bird", "timeStamp": "01/29/2020, 15:18:23"}, "type": "Feature"}, {"geometry": {"coordinates": [8.525005, 47.365345], "type": "Point"}, "properties": {"charge": 19, "id": "bird_bd2b9938-30b4-44ab-b26f-50fb8baada24", "provider": "bird", "timeStamp": "01/29/2020, 15:18:23"}, "type": "Feature"}, {"geometry": {"coordinates": [8.52065833333333, 47.3663933333333], "type": "Point"}, "properties": {"charge": 62, "id": "bird_3ee58353-3a48-4737-9542-31c945df83b3", "provider": "bird", "timeStamp": "01/29/2020, 15:18:23"}, "type": "Feature"}, {"geometry": {"coordinates": [8.52538, 47.394565], "type": "Point"}, "properties": {"charge": 42, "id": "bird_34226415-f3c1-4e27-b28a-33d350bd433e", "provider": "bird", "timeStamp": "01/29/2020, 15:18:23"}, "type": "Feature"}, {"geometry": {"coordinates": [8.531525, 47.3652416666667], "type": "Point"}, "properties": {"charge": 43, "id": "bird_1b60946e-5204-450c-a898-9581bb19439f", "provider": "bird", "timeStamp": "01/29/2020, 15:18:23"}, "type": "Feature"}, {"geometry": {"coordinates": [8.53224833333333, 47.36554], "type": "Point"}, "properties": {"charge": 47, "id": "bird_919dd6a9-7e40-4d1e-980d-554890686216", "provider": "bird", "timeStamp": "01/29/2020, 15:18:23"}, "type": "Feature"}, {"geometry": {"coordinates": [8.53184666666667, 47.3655283333333], "type": "Point"}, "properties": {"charge": 62, "id": "bird_8e634515-b1ca-474f-9e02-bed64b6832ce", "provider": "bird", "timeStamp": "01/29/2020, 15:18:23"}, "type": "Feature"}, {"geometry": {"coordinates": [8.52125166666667, 47.3667633333333], "type": "Point"}, "properties": {"charge": 38, "id": "bird_6f783e5e-2bde-463e-8ada-c27c4bf3a2cc", "provider": "bird", "timeStamp": "01/29/2020, 15:18:23"}, "type": "Feature"}, {"geometry": {"coordinates": [8.536745, 47.366325], "type": "Point"}, "properties": {"charge": 33, "id": "bird_d059bb1e-3366-4e74-909c-35b51bb507e2", "provider": "bird", "timeStamp": "01/29/2020, 15:18:23"}, "type": "Feature"}, {"geometry": {"coordinates": [8.53798666666667, 47.3932033333333], "type": "Point"}, "properties": {"charge": 72, "id": "bird_244fd5d1-8786-4e2b-926c-438941ad85f7", "provider": "bird", "timeStamp": "01/29/2020, 15:18:23"}, "type": "Feature"}, {"geometry": {"coordinates": [8.532435, 47.39397], "type": "Point"}, "properties": {"charge": 57, "id": "bird_43500f9b-7ec5-44d9-ba78-e2b9e8677dcf", "provider": "bird", "timeStamp": "01/29/2020, 15:18:23"}, "type": "Feature"}, {"geometry": {"coordinates": [8.51022833333333, 47.375885], "type": "Point"}, "properties": {"charge": 69, "id": "bird_60a3f545-4770-4b14-ab7b-2bbd2e5185ee", "provider": "bird", "timeStamp": "01/29/2020, 15:18:23"}, "type": "Feature"}, {"geometry": {"coordinates": [8.51887666666667, 47.3916283333333], "type": "Point"}, "properties": {"charge": 88, "id": "bird_d6db83e4-4cfd-482a-8cae-f28079b40f75", "provider": "bird", "timeStamp": "01/29/2020, 15:18:23"}, "type": "Feature"}, {"geometry": {"coordinates": [8.51888166666667, 47.3916016666667], "type": "Point"}, "properties": {"charge": 92, "id": "bird_99776b27-b44f-427d-831e-673cf0c4fe91", "provider": "bird", "timeStamp": "01/29/2020, 15:18:23"}, "type": "Feature"}, {"geometry": {"coordinates": [8.50974333333333, 47.37825], "type": "Point"}, "properties": {"charge": 94, "id": "bird_3e319395-4a33-465f-b01f-ced5b16a9658", "provider": "bird", "timeStamp": "01/29/2020, 15:18:23"}, "type": "Feature"}, {"geometry": {"coordinates": [8.50975166666667, 47.3782583333333], "type": "Point"}, "properties": {"charge": 87, "id": "bird_726f90fd-fe41-49f0-b320-c940402c97b9", "provider": "bird", "timeStamp": "01/29/2020, 15:18:23"}, "type": "Feature"}, {"geometry": {"coordinates": [8.50981, 47.3783066666667], "type": "Point"}, "properties": {"charge": 93, "id": "bird_f0854fef-a61f-4cbe-a487-cd41844a4a2a", "provider": "bird", "timeStamp": "01/29/2020, 15:18:23"}, "type": "Feature"}, {"geometry": {"coordinates": [8.53623666666667, 47.3669133333333], "type": "Point"}, "properties": {"charge": 31, "id": "bird_c79537cd-17c3-4cf8-9344-30d0b1deda6a", "provider": "bird", "timeStamp": "01/29/2020, 15:18:23"}, "type": "Feature"}, {"geometry": {"coordinates": [8.53955333333333, 47.3678816666667], "type": "Point"}, "properties": {"charge": 26, "id": "bird_c073e2cd-0f0e-46ab-aa24-7a02d63186a5", "provider": "bird", "timeStamp": "01/29/2020, 15:18:23"}, "type": "Feature"}, {"geometry": {"coordinates": [8.50991, 47.3782883333333], "type": "Point"}, "properties": {"charge": 91, "id": "bird_f4f90cd8-db35-4cd0-9a2e-334f72d4211b", "provider": "bird", "timeStamp": "01/29/2020, 15:18:23"}, "type": "Feature"}, {"geometry": {"coordinates": [8.51000833333333, 47.3780216666667], "type": "Point"}, "properties": {"charge": 91, "id": "bird_79acb977-5b89-43bd-a01f-7dce52b8a993", "provider": "bird", "timeStamp": "01/29/2020, 15:18:23"}, "type": "Feature"}, {"geometry": {"coordinates": [8.51006333333333, 47.3780666666667], "type": "Point"}, "properties": {"charge": 89, "id": "bird_454c8dc4-4351-4e78-97da-e7794d31561b", "provider": "bird", "timeStamp": "01/29/2020, 15:18:23"}, "type": "Feature"}, {"geometry": {"coordinates": [8.53941, 47.3679433333333], "type": "Point"}, "properties": {"charge": 44, "id": "bird_fc4761b7-f1c7-4a4c-8500-a42e205fc4f5", "provider": "bird", "timeStamp": "01/29/2020, 15:18:23"}, "type": "Feature"}, {"geometry": {"coordinates": [8.536345, 47.3670883333333], "type": "Point"}, "properties": {"charge": 29, "id": "bird_c2a8228c-f440-449d-8301-1ff23be9f43c", "provider": "bird", "timeStamp": "01/29/2020, 15:18:23"}, "type": "Feature"}, {"geometry": {"coordinates": [8.510155, 47.3780433333333], "type": "Point"}, "properties": {"charge": 90, "id": "bird_7656c2f7-23ac-4d71-a8f8-e0e0d3749297", "provider": "bird", "timeStamp": "01/29/2020, 15:18:23"}, "type": "Feature"}, {"geometry": {"coordinates": [8.51020166666667, 47.3779866666667], "type": "Point"},