{"features": [{"geometry": {"coordinates": [8.540062, 47.374392], "type": "Point"}, "properties": {"address": "Uraniastrasse 7", "electric": 2, "id": "pb_60", "manual": 4, "name": "Demo Station Werdm\u00fchleplatz", "provider": "publibike", "timeStamp": "03/25/2020, 04:37:34", "zip": 8001}, "type": "Feature"}, {"geometry": {"coordinates": [8.5452956, 47.4099615], "type": "Point"}, "properties": {"address": "Querstrasse 8", "electric": 6, "id": "pb_61", "manual": 3, "name": "Marktplatz", "provider": "publibike", "timeStamp": "03/25/2020, 04:37:34", "zip": 8050}, "type": "Feature"}, {"geometry": {"coordinates": [8.5156327, 47.3795837], "type": "Point"}, "properties": {"address": "Bullingerstrasse 5", "electric": 0, "id": "pb_80", "manual": 10, "name": "Bullingerplatz", "provider": "publibike", "timeStamp": "03/25/2020, 04:37:34", "zip": 8004}, "type": "Feature"}, {"geometry": {"coordinates": [8.5104051, 47.3899342], "type": "Point"}, "properties": {"address": "Pfingstweidstrasse 96e", "electric": 1, "id": "pb_81", "manual": 5, "name": "Herdern", "provider": "publibike", "timeStamp": "03/25/2020, 04:37:34", "zip": 8001}, "type": "Feature"}, {"geometry": {"coordinates": [8.535718, 47.359675], "type": "Point"}, "properties": {"address": "Mythenquai 50", "electric": 4, "id": "pb_82", "manual": 7, "name": "Hafen Enge", "provider": "publibike", "timeStamp": "03/25/2020, 04:37:34", "zip": 8002}, "type": "Feature"}, {"geometry": {"coordinates": [8.520370505, 47.358663827], "type": "Point"}, "properties": {"address": "Bubenbergstrasse 1", "electric": 0, "id": "pb_83", "manual": 1, "name": "Comerge", "provider": "publibike", "timeStamp": "03/25/2020, 04:37:34", "zip": 8045}, "type": "Feature"}, {"geometry": {"coordinates": [8.5412505, 47.3789825], "type": "Point"}, "properties": {"address": "Museumstrasse 2", "electric": 2, "id": "pb_84", "manual": 8, "name": "Landesmuseum", "provider": "publibike", "timeStamp": "03/25/2020, 04:37:34", "zip": 8001}, "type": "Feature"}, {"geometry": {"coordinates": [8.5235479, 47.3716661], "type": "Point"}, "properties": {"address": "Birmensdorferstrasse 80", "electric": 1, "id": "pb_85", "manual": 6, "name": "Bahnhof Wiedikon", "provider": "publibike", "timeStamp": "03/25/2020, 04:37:34", "zip": 8003}, "type": "Feature"}, {"geometry": {"coordinates": [8.506822854, 47.40781197], "type": "Point"}, "properties": {"address": "Stefano-Franscini-Platz 5", "electric": 11, "id": "pb_86", "manual": 1, "name": "ETH H\u00f6nggerberg", "provider": "publibike", "timeStamp": "03/25/2020, 04:37:34", "zip": 8093}, "type": "Feature"}, {"geometry": {"coordinates": [8.536101, 47.371083], "type": "Point"}, "properties": {"address": "Pelikanplatz 5", "electric": 6, "id": "pb_87", "manual": 8, "name": "Pelikanplatz", "provider": "publibike", "timeStamp": "03/25/2020, 04:37:34", "zip": 8001}, "type": "Feature"}, {"geometry": {"coordinates": [8.5257822, 47.3651936], "type": "Point"}, "properties": {"address": "H\u00fcrlimannplatz 90", "electric": 14, "id": "pb_88", "manual": 3, "name": "H\u00fcrlimannplatz", "provider": "publibike", "timeStamp": "03/25/2020, 04:37:34", "zip": 8002}, "type": "Feature"}, {"geometry": {"coordinates": [8.5313344, 47.3713591], "type": "Point"}, "properties": {"address": "Selnaustrasse 32", "electric": 0, "id": "pb_89", "manual": 9, "name": "Stauffacherbr\u00fccke", "provider": "publibike", "timeStamp": "03/25/2020, 04:37:34", "zip": 8001}, "type": "Feature"}, {"geometry": {"coordinates": [8.5056978, 47.3917964], "type": "Point"}, "properties": {"address": "Sportweg 25", "electric": 1, "id": "pb_90", "manual": 6, "name": "Sportweg", "provider": "publibike", "timeStamp": "03/25/2020, 04:37:34", "zip": 8005}, "type": "Feature"}, {"geometry": {"coordinates": [8.5181701, 47.3917837], "type": "Point"}, "properties": {"address": "Hardturmstrasse 11", "electric": 1, "id": "pb_91", "manual": 7, "name": "Puls 5", "provider": "publibike", "timeStamp": "03/25/2020, 04:37:34", "zip": 8005}, "type": "Feature"}, {"geometry": {"coordinates": [8.5286468, 47.3820827], "type": "Point"}, "properties": {"address": "R\u00f6ntgenstrasse 6", "electric": 5, "id": "pb_92", "manual": 12, "name": "R\u00f6ntgenstrasse", "provider": "publibike", "timeStamp": "03/25/2020, 04:37:34", "zip": 8005}, "type": "Feature"}, {"geometry": {"coordinates": [8.531935, 47.384918], "type": "Point"}, "properties": {"address": "Kornhausbr\u00fccke 1", "electric": 5, "id": "pb_93", "manual": 12, "name": "Limmatplatz", "provider": "publibike", "timeStamp": "03/25/2020, 04:37:34", "zip": 8005}, "type": "Feature"}, {"geometry": {"coordinates": [8.5354006, 47.3758639], "type": "Point"}, "properties": {"address": "Gessnerallee 15", "electric": 2, "id": "pb_94", "manual": 4, "name": "Gessnerallee", "provider": "publibike", "timeStamp": "03/25/2020, 04:37:34", "zip": 8001}, "type": "Feature"}, {"geometry": {"coordinates": [8.523818, 47.377148], "type": "Point"}, "properties": {"address": "Stauffacherstrasse 127", "electric": 2, "id": "pb_95", "manual": 2, "name": "B\u00e4ckeranlage", "provider": "publibike", "timeStamp": "03/25/2020, 04:37:34", "zip": 8004}, "type": "Feature"}, {"geometry": {"coordinates": [8.531836, 47.378548], "type": "Point"}, "properties": {"address": "Lagerstrasse 44", "electric": 6, "id": "pb_96", "manual": 5, "name": "Gustav-Gull-Platz", "provider": "publibike", "timeStamp": "03/25/2020, 04:37:34", "zip": 8004}, "type": "Feature"}, {"geometry": {"coordinates": [8.5104883, 47.3771535], "type": "Point"}, "properties": {"address": "Zurlindenstrasse 291", "electric": 6, "id": "pb_97", "manual": 8, "name": "Zurlindenstrasse", "provider": "publibike", "timeStamp": "03/25/2020, 04:37:34", "zip": 8003}, "type": "Feature"}, {"geometry": {"coordinates": [8.5333139, 47.3731102], "type": "Point"}, "properties": {"address": "Sihlstrasse 81", "electric": 0, "id": "pb_98", "manual": 4, "name": "Sihlstrasse", "provider": "publibike", "timeStamp": "03/25/2020, 04:37:34", "zip": 8001}, "type": "Feature"}, {"geometry": {"coordinates": [8.520532, 47.374951], "type": "Point"}, "properties": {"address": "Feldstrasse 24", "electric": 2, "id": "pb_99", "manual": 4, "name": "Kalkbreite", "provider": "publibike", "timeStamp": "03/25/2020, 04:37:34", "zip": 8004}, "type": "Feature"}, {"geometry": {"coordinates": [8.539046, 47.368064], "type": "Point"}, "properties": {"address": "Talstrasse 12", "electric": 2, "id": "pb_100", "manual": 7, "name": "Z\u00fcrcher Kantonalbank", "provider": "publibike", "timeStamp": "03/25/2020, 04:37:34", "zip": 8001}, "type": "Feature"}, {"geometry": {"coordinates": [8.5348427, 47.3625938], "type": "Point"}, "properties": {"address": "Breitingerstrasse 5", "electric": 4, "id": "pb_101", "manual": 7, "name": "Rentenanstalt", "provider": "publibike", "timeStamp": "03/25/2020, 04:37:34", "zip": 8002}, "type": "Feature"}, {"geometry": {"coordinates": [8.5166922, 47.3897772], "type": "Point"}, "properties": {"address": "Technoparkstrasse 4", "electric": 5, "id": "pb_102", "manual": 8, "name": "Turbinenplatz", "provider": "publibike", "timeStamp": "03/25/2020, 04:37:34", "zip": 8005}, "type": "Feature"}, {"geometry": {"coordinates": [8.539312, 47.3739964], "type": "Point"}, "properties": {"address": "Oetenbachgasse 14", "electric": 2, "id": "pb_104", "manual": 6, "name": "Rennweg", "provider": "publibike", "timeStamp": "03/25/2020, 04:37:34", "zip": 8001}, "type": "Feature"}, {"geometry": {"coordinates": [8.5360685, 47.3775022], "type": "Point"}, "properties": {"address": "Kasernenstrasse 101", "electric": 9, "id": "pb_105", "manual": 25, "name": "Sihlpost", "provider": "publibike", "timeStamp": "03/25/2020, 04:37:34", "zip": 8004}, "type": "Feature"}, {"geometry": {"coordinates": [8.53545, 47.382798], "type": "Point"}, "properties": {"address": "Ausstellungsstrasse 44", "electric": 2, "id": "pb_106", "manual": 2, "name": "Museum f\u00fcr Gestaltung", "provider": "publibike", "timeStamp": "03/25/2020, 04:37:34", "zip": 8005}, "type": "Feature"}, {"geometry": {"coordinates": [8.5306155, 47.3647902], "type": "Point"}, "properties": {"address": "Gutenbergstrasse 1", "electric": 8, "id": "pb_107", "manual": 11, "name": "Bederbr\u00fccke", "provider": "publibike", "timeStamp": "03/25/2020, 04:37:34", "zip": 8002}, "type": "Feature"}, {"geometry": {"coordinates": [8.518982, 47.386741], "type": "Point"}, "properties": {"address": "Geroldstrasse 4", "electric": 6, "id": "pb_108", "manual": 14, "name": "Bahnhof Hardbr\u00fccke", "provider": "publibike", "timeStamp": "03/25/2020, 04:37:34", "zip": 8005}, "type": "Feature"}, {"geometry": {"coordinates": [8.53001018, 47.37247535], "type": "Point"}, "properties": {"address": "Werdstrasse 21", "electric": 9, "id": "pb_109", "manual": 3, "name": "Tamedia", "provider": "publibike", "timeStamp": "03/25/2020, 04:37:34", "zip": 8004}, "type": "Feature"}, {"geometry": {"coordinates": [8.4860017, 47.396401], "type": "Point"}, "properties": {"address": "Gr\u00fcnauring 37", "electric": 4, "id": "pb_110", "manual": 5, "name": "Gr\u00fcnau", "provider": "publibike", "timeStamp": "03/25/2020, 04:37:34", "zip": 8064}, "type": "Feature"}, {"geometry": {"coordinates": [8.548519, 47.376756], "type": "Point"}, "properties": {"address": "R\u00e4mistrasse 101", "electric": 14, "id": "pb_111", "manual": 4, "name": "ETH Zentrum", "provider": "publibike", "timeStamp": "03/25/2020, 04:37:34", "zip": 8006}, "type": "Feature"}, {"geometry": {"coordinates": [8.520449, 47.388151], "type": "Point"}, "properties": {"address": "Josefstrasse 224", "electric": 2, "id": "pb_112", "manual": 4, "name": "Steinfelsareal", "provider": "publibike", "timeStamp": "03/25/2020, 04:37:34", "zip": 8005}, "type": "Feature"}, {"geometry": {"coordinates": [8.520482, 47.37209], "type": "Point"}, "properties": {"address": "Weststrasse 115", "electric": 3, "id": "pb_124", "manual": 3, "name": "Weststrasse", "provider": "publibike", "timeStamp": "03/25/2020, 04:37:34", "zip": 8003}, "type": "Feature"}, {"geometry": {"coordinates": [8.496727, 47.378521], "type": "Point"}, "properties": {"address": "Albisriederstrasse 200", "electric": 6, "id": "pb_125", "manual": 2, "name": "Utogrund", "provider": "publibike", "timeStamp": "03/25/2020, 04:37:34", "zip": 8047}, "type": "Feature"}, {"geometry": {"coordinates": [8.510418, 47.381356], "type": "Point"}, "properties": {"address": "Bullingerstrasse 73", "electric": 2, "id": "pb_126", "manual": 13, "name": "Hardau", "provider": "publibike", "timeStamp": "03/25/2020, 04:37:34", "zip": 8004}, "type": "Feature"}, {"geometry": {"coordinates": [8.525525, 47.361567], "type": "Point"}, "properties": {"address": "Klopstockstrasse 23", "electric": 6, "id": "pb_127", "manual": 2, "name": "Klopstockwiese", "provider": "publibike", "timeStamp": "03/25/2020, 04:37:34", "zip": 8002}, "type": "Feature"}, {"geometry": {"coordinates": [8.518143, 47.363148], "type": "Point"}, "properties": {"address": "Haldenstrasse 8", "electric": 6, "id": "pb_128", "manual": 2, "name": "Binz", "provider": "publibike", "timeStamp": "03/25/2020, 04:37:34", "zip": 8045}, "type": "Feature"}, {"geometry": {"coordinates": [8.542726, 47.379952], "type": "Point"}, "properties": {"address": "Walchestrasse 11", "electric": 11, "id": "pb_129", "manual": 2, "name": "Stampfenbachplatz", "provider": "publibike", "timeStamp": "03/25/2020, 04:37:34", "zip": 8006}, "type": "Feature"}, {"geometry": {"coordinates": [8.488108, 47.391366], "type": "Point"}, "properties": {"address": "Altstetterplatz 1", "electric": 5, "id": "pb_130", "manual": 7, "name": "Bahnhof Altstetten", "provider": "publibike", "timeStamp": "03/25/2020, 04:37:34", "zip": 8048}, "type": "Feature"}, {"geometry": {"coordinates": [8.554114, 47.365119], "type": "Point"}, "properties": {"address": "Kreuzplatz 2", "electric": 16, "id": "pb_131", "manual": 1, "name": "Kreuzplatz", "provider": "publibike", "timeStamp": "03/25/2020, 04:37:34", "zip": 8032}, "type": "Feature"}, {"geometry": {"coordinates": [8.549852, 47.35594], "type": "Point"}, "properties": {"address": "H\u00f6schgasse 3", "electric": 0, "id": "pb_132", "manual": 0, "name": "Blatterwiese", "provider": "publibike", "timeStamp": "03/25/2020, 04:37:34", "zip": 8008}, "type": "Feature"}, {"geometry": {"coordinates": [8.554501, 47.36162], "type": "Point"}, "properties": {"address": "Feldeggstrasse 80", "electric": 12, "id": "pb_133", "manual": 3, "name": "Villa Bleuler", "provider": "publibike", "timeStamp": "03/25/2020, 04:37:34", "zip": 8008}, "type": "Feature"}, {"geometry": {"coordinates": [8.557088, 47.358557], "type": "Point"}, "properties": {"address": "M\u00fchlebachstrasse 131", "electric": 1, "id": "pb_134", "manual": 6, "name": "M\u00fchlebachstrasse", "provider": "publibike", "timeStamp": "03/25/2020, 04:37:34", "zip": 8008}, "type": "Feature"}, {"geometry": {"coordinates": [8.547639, 47.361266], "type": "Point"}, "properties": {"address": "Utoquai 50", "electric": 2, "id": "pb_135", "manual": 0, "name": "Seebad Utoquai", "provider": "publibike", "timeStamp": "03/25/2020, 04:37:34", "zip": 8008}, "type": "Feature"}, {"geometry": {"coordinates": [8.548045, 47.370869], "type": "Point"}, "properties": {"address": "Heimplatz 1", "electric": 2, "id": "pb_137", "manual": 1, "name": "Kunsthaus", "provider": "publibike", "timeStamp": "03/25/2020, 04:37:34", "zip": 8001}, "type": "Feature"}, {"geometry": {"coordinates": [8.543447, 47.375933], "type": "Point"}, "properties": {"address": "Limmatquai 138", "electric": 0, "id": "pb_138", "manual": 7, "name": "Central", "provider": "publibike", "timeStamp": "03/25/2020, 04:37:34", "zip": 8001}, "type": "Feature"}, {"geometry": {"coordinates": [8.549356, 47.408827], "type": "Point"}, "properties": {"address": "Tramstrasse 35", "electric": 1, "id": "pb_139", "manual": 0, "name": "ewz Tramstrasse", "provider": "publibike", "timeStamp": "03/25/2020, 04:37:34", "zip": 8050}, "type": "Feature"}, {"geometry": {"coordinates": [8.533736, 47.366904], "type": "Point"}, "properties": {"address": "Bleicherweg 33", "electric": 4, "id": "pb_140", "manual": 9, "name": "Bleicherweg", "provider": "publibike", "timeStamp": "03/25/2020, 04:37:34", "zip": 8002}, "type": "Feature"}, {"geometry": {"coordinates": [8.544935, 47.366752], "type": "Point"}, "properties": {"address": "Bellevueplatz 2", "electric": 18, "id": "pb_141", "manual": 11, "name": "Bellevue", "provider": "publibike", "timeStamp": "03/25/2020, 04:37:34", "zip": 8001}, "type": "Feature"}, {"geometry": {"coordinates": [8.5285533, 47.3742296], "type": "Point"}, "properties": {"address": "Stauffacherstrasse 41", "electric": 2, "id": "pb_142", "manual": 11, "name": "Stauffacher", "provider": "publibike", "timeStamp": "03/25/2020, 04:37:34", "zip": 8004}, "type": "Feature"}, {"geometry": {"coordinates": [8.523722, 47.3899], "type": "Point"}, "properties": {"address": "Limmatstrasse 310", "electric": 1, "id": "pb_143", "manual": 3, "name": "Escher-Wyss-Platz", "provider": "publibike", "timeStamp": "03/25/2020, 04:37:34", "zip": 8005}, "type": "Feature"}, {"geometry": {"coordinates": [8.491061, 47.392336], "type": "Point"}, "properties": {"address": "Vulkanplatz 1", "electric": 3, "id": "pb_149", "manual": 9, "name": "Vulkanplatz", "provider": "publibike", "timeStamp": "03/25/2020, 04:37:34", "zip": 8048}, "type": "Feature"}, {"geometry": {"coordinates": [8.52306, 47.359872], "type": "Point"}, "properties": {"address": "Giessh\u00fcbelstrasse 15", "electric": 3, "id": "pb_150", "manual": 4, "name": "Utoplatz", "provider": "publibike", "timeStamp": "03/25/2020, 04:37:34", "zip": 8045}, "type": "Feature"}, {"geometry": {"coordinates": [8.486284, 47.387685], "type": "Point"}, "properties": {"address": "Lindenplatz 1", "electric": 6, "id": "pb_151", "manual": 12, "name": "Lindenplatz", "provider": "publibike", "timeStamp": "03/25/2020, 04:37:34", "zip": 8048}, "type": "Feature"}, {"geometry": {"coordinates": [8.49163, 47.389823], "type": "Point"}, "properties": {"address": "Hohlstrasse 563", "electric": 4, "id": "pb_152", "manual": 5, "name": "Luggweg", "provider": "publibike", "timeStamp": "03/25/2020, 04:37:34", "zip": 8048}, "type": "Feature"}, {"geometry": {"coordinates": [8.52174, 47.365272], "type": "Point"}, "properties": {"address": "Manessestrasse 87", "electric": 7, "id": "pb_153", "manual": 4, "name": "Manesseplatz", "provider": "publibike", "timeStamp": "03/25/2020, 04:37:34", "zip": 8045}, "type": "Feature"}, {"geometry": {"coordinates": [8.52714, 47.372329], "type": "Point"}, "properties": {"address": "Werdstrasse 75", "electric": 1, "id": "pb_154", "manual": 4, "name": "Werd", "provider": "publibike", "timeStamp": "03/25/2020, 04:37:34", "zip": 8004}, "type": "Feature"}, {"geometry": {"coordinates": [8.543042, 47.374711], "type": "Point"}, "properties": {"address": "Limmatquai 100", "electric": 0, "id": "pb_155", "manual": 0, "name": "Rudolf-Brun-Br\u00fccke", "provider": "publibike", "timeStamp": "03/25/2020, 04:37:34", "zip": 8001}, "type": "Feature"}, {"geometry": {"coordinates": [8.490837, 47.386596], "type": "Point"}, "properties": {"address": "Badenerstrasse 627", "electric": 2, "id": "pb_156", "manual": 7, "name": "Luggwegstrasse VBZ", "provider": "publibike", "timeStamp": "03/25/2020, 04:37:34", "zip": 8048}, "type": "Feature"}, {"geometry": {"coordinates": [8.535119, 47.355189], "type": "Point"}, "properties": {"address": "Mythenquai 95", "electric": 11, "id": "pb_157", "manual": 2, "name": "Strandbad Mythenquai", "provider": "publibike", "timeStamp": "03/25/2020, 04:37:34", "zip": 8002}, "type": "Feature"}, {"geometry": {"coordinates": [8.545505, 47.373675], "type": "Point"}, "properties": {"address": "Predigerpatz 21", "electric": 2, "id": "pb_158", "manual": 1, "name": "Predigerplatz", "provider": "publibike", "timeStamp": "03/25/2020, 04:37:34", "zip": 8001}, "type": "Feature"}, {"geometry": {"coordinates": [8.515558, 47.371868], "type": "Point"}, "properties": {"address": "Aemtlerstrasse 23", "electric": 1, "id": "pb_159", "manual": 7, "name": "Zwinglihaus", "provider": "publibike", "timeStamp": "03/25/2020, 04:37:34", "zip": 8003}, "type": "Feature"}, {"geometry": {"coordinates": [8.524629, 47.386072], "type": "Point"}, "properties": {"address": "Josefstrasse 188", "electric": 1, "id": "pb_160", "manual": 0, "name": "Josefwiese", "provider": "publibike", "timeStamp": "03/25/2020, 04:37:34", "zip": 8005}, "type": "Feature"}, {"geometry": {"coordinates": [8.527138, 47.387531], "type": "Point"}, "properties": {"address": "R\u00f6ntgenstrasse 87", "electric": 5, "id": "pb_164", "manual": 2, "name": "Markthalle", "provider": "publibike", "timeStamp": "03/25/2020, 04:37:34", "zip": 8005}, "type": "Feature"}, {"geometry": {"coordinates": [8.552717, 47.359978], "type": "Point"}, "properties": {"address": "Seefeldstrasse 96", "electric": 3, "id": "pb_263", "manual": 3, "name": "Feldeggstrasse", "provider": "publibike", "timeStamp": "03/25/2020, 04:37:34", "zip": 8008}, "type": "Feature"}, {"geometry": {"coordinates": [8.553189, 47.353198], "type": "Point"}, "properties": {"address": "Bellerivestrasse 170", "electric": 3, "id": "pb_264", "manual": 6, "name": "Lake Side", "provider": "publibike", "timeStamp": "03/25/2020, 04:37:34", "zip": 8008}, "type": "Feature"}, {"geometry": {"coordinates": [8.543437, 47.369256], "type": "Point"}, "properties": {"address": "Limmatquai 18", "electric": 0, "id": "pb_265", "manual": 0, "name": "Helmhaus", "provider": "publibike", "timeStamp": "03/25/2020, 04:37:34", "zip": 8032}, "type": "Feature"}, {"geometry": {"coordinates": [8.516676, 47.375819], "type": "Point"}, "properties": {"address": "Badenerstrasse 246", "electric": 2, "id": "pb_266", "manual": 5, "name": "Lochergut", "provider": "publibike", "timeStamp": "03/25/2020, 04:37:34", "zip": 8004}, "type": "Feature"}, {"geometry": {"coordinates": [8.514605, 47.389862], "type": "Point"}, "properties": {"address": "Pfingstweidstrasse 60", "electric": 1, "id": "pb_273", "manual": 3, "name": "Westpark", "provider": "publibike", "timeStamp": "03/25/2020, 04:37:34", "zip": 8005}, "type": "Feature"}, {"geometry": {"coordinates": [8.541239126, 47.375991201], "type": "Point"}, "properties": {"address": "Beatenplatz 1", "electric": 4, "id": "pb_274", "manual": 13, "name": "Beatenplatz", "provider": "publibike", "timeStamp": "03/25/2020, 04:37:34", "zip": 8001}, "type": "Feature"}, {"geometry": {"coordinates": [8.5417135, 47.3942197], "type": "Point"}, "properties": {"address": "Scheuchzerstrasse 181", "electric": 4, "id": "pb_275", "manual": 3, "name": "Pauluskirche", "provider": "publibike", "timeStamp": "03/25/2020, 04:37:34", "zip": 8057}, "type": "Feature"}, {"geometry": {"coordinates": [8.5528182, 47.414558], "type": "Point"}, "properties": {"address": "Hagenholzstrasse 51", "electric": 3, "id": "pb_276", "manual": 7, "name": "Airgate", "provider": "publibike", "timeStamp": "03/25/2020, 04:37:34", "zip": 8050}, "type": "Feature"}, {"geometry": {"coordinates": [8.537816, 47.413514], "type": "Point"}, "properties": {"address": "Birchstrasse 183", "electric": 4, "id": "pb_277", "manual": 5, "name": "Lamprechtweg", "provider": "publibike", "timeStamp": "03/25/2020, 04:37:34", "zip": 8050}, "type": "Feature"}, {"geometry": {"coordinates": [8.545602, 47.417701], "type": "Point"}, "properties": {"address": "Felsenrainstrasse 2", "electric": 6, "id": "pb_278", "manual": 4, "name": "Emil-Oberh\u00e4nsli", "provider": "publibike", "timeStamp": "03/25/2020, 04:37:34", "zip": 8050}, "type": "Feature"}, {"geometry": {"coordinates": [8.533647, 47.39808], "type": "Point"}, "properties": {"address": "Bucheggplatz 2", "electric": 6, "id": "pb_279", "manual": 3, "name": "Bucheggplatz", "provider": "publibike", "timeStamp": "03/25/2020, 04:37:34", "zip": 8057}, "type": "Feature"}, {"geometry": {"coordinates": [8.523549, 47.392347], "type": "Point"}, "properties": {"address": "Wipkingerplatz 4", "electric": 3, "id": "pb_280", "manual": 1, "name": "Wipkingerplatz", "provider": "publibike", "timeStamp": "03/25/2020, 04:37:34", "zip": 8037}, "type": "Feature"}, {"geometry": {"coordinates": [8.548562, 47.36691], "type": "Point"}, "properties": {"address": "Galerie \u00fcber Gleis 2/3", "electric": 1, "id": "pb_285", "manual": 8, "name": "Bahnhof Stadelhofen", "provider": "publibike", "timeStamp": "03/25/2020, 04:37:34", "zip": 8001}, "type": "Feature"}, {"geometry": {"coordinates": [8.493822, 47.3985553], "type": "Point"}, "properties": {"address": "Meierwiesenstrasse 12-4", "electric": 5, "id": "pb_286", "manual": 4, "name": "T\u00fcffenwies", "provider": "publibike", "timeStamp": "03/25/2020, 04:37:34", "zip": 8064}, "type": "Feature"}, {"geometry": {"coordinates": [8.552432, 47.3801757], "type": "Point"}, "properties": {"address": "Hochstrasse 34", "electric": 12, "id": "pb_356", "manual": 0, "name": "Siriuswiese", "provider": "publibike", "timeStamp": "03/25/2020, 04:37:34", "zip": 8044}, "type": "Feature"}, {"geometry": {"coordinates": [8.527298, 47.370141], "type": "Point"}, "properties": {"address": "Hallwylstrasse 71", "electric": 3, "id": "pb_357", "manual": 1, "name": "Hallwylstrasse", "provider": "publibike", "timeStamp": "03/25/2020, 04:37:34", "zip": 8004}, "type": "Feature"}, {"geometry": {"coordinates": [8.5414185, 47.3972455], "type": "Point"}, "properties": {"address": "Schaffhauserstrasse 137", "electric": 7, "id": "pb_358", "manual": 6, "name": "Milchbuck", "provider": "publibike", "timeStamp": "03/25/2020, 04:37:34", "zip": 8057}, "type": "Feature"}, {"geometry": {"coordinates": [8.512381, 47.393409], "type": "Point"}, "properties": {"address": "Hardturmstrasse 161", "electric": 2, "id": "pb_359", "manual": 4, "name": "Fischerweg", "provider": "publibike", "timeStamp": "03/25/2020, 04:37:34", "zip": 8005}, "type": "Feature"}, {"geometry": {"coordinates": [8.5421457, 47.3876979], "type": "Point"}, "properties": {"address": "Turnerstrasse 47", "electric": 3, "id": "pb_360", "manual": 1, "name": "Kirche Unterstrass", "provider": "publibike", "timeStamp": "03/25/2020, 04:37:34", "zip": 8006}, "type": "Feature"}, {"geometry": {"coordinates": [8.522117, 47.394554], "type": "Point"}, "properties": {"address": "Dorfstrasse 40", "electric": 2, "id": "pb_361", "manual": 2, "name": "Dorfstrasse", "provider": "publibike", "timeStamp": "03/25/2020, 04:37:34", "zip": 8037}, "type": "Feature"}, {"geometry": {"coordinates": [8.530437, 47.37271], "type": "Point"}, "properties": {"address": "Werdstrasse 25", "electric": 2, "id": "pb_362", "manual": 8, "name": "Stauffachertor", "provider": "publibike", "timeStamp": "03/25/2020, 04:37:34", "zip": 8004}, "type": "Feature"}, {"geometry": {"coordinates": [8.541712, 47.416155], "type": "Point"}, "properties": {"address": "Eggb\u00fchlstrasse 21", "electric": 1, "id": "pb_363", "manual": 5, "name": "Wahlenpark", "provider": "publibike", "timeStamp": "03/25/2020, 04:37:34", "zip": 8050}, "type": "Feature"}, {"geometry": {"coordinates": [8.5595335, 47.3708387], "type": "Point"}, "properties": {"address": "Dolderstrasse 32", "electric": 8, "id": "pb_364", "manual": 0, "name": "Kinderspital", "provider": "publibike", "timeStamp": "03/25/2020, 04:37:34", "zip": 8032}, "type": "Feature"}, {"geometry": {"coordinates": [8.536433, 47.388689], "type": "Point"}, "properties": {"address": "Kornhausstrasse 30", "electric": 5, "id": "pb_365", "manual": 3, "name": "Kornhausstrasse", "provider": "publibike", "timeStamp": "03/25/2020, 04:37:34", "zip": 8006}, "type": "Feature"}, {"geometry": {"coordinates": [8.55033, 47.407098], "type": "Point"}, "properties": {"address": "Schwamendingenstrasse 41", "electric": 3, "id": "pb_366", "manual": 2, "name": "Dorflinde", "provider": "publibike", "timeStamp": "03/25/2020, 04:37:34", "zip": 8050}, "type": "Feature"}, {"geometry": {"coordinates": [8.560476, 47.368199], "type": "Point"}, "properties": {"address": "R\u00f6merhofplatz 5", "electric": 19, "id": "pb_367", "manual": 0, "name": "R\u00f6merhof", "provider": "publibike", "timeStamp": "03/25/2020, 04:37:34", "zip": 8032}, "type": "Feature"}, {"geometry": {"coordinates": [8.5609218, 47.3619068], "type": "Point"}, "properties": {"address": "Forchstrasse 99", "electric": 4, "id": "pb_368", "manual": 0, "name": "Hegibachplatz", "provider": "publibike", "timeStamp": "03/25/2020, 04:37:34", "zip": 8032}, "type": "Feature"}, {"geometry": {"coordinates": [8.5721264, 47.4039985], "type": "Point"}, "properties": {"address": "Winterthurerstrasse 519", "electric": 13, "id": "pb_370", "manual": 1, "name": "Schwamendingerplatz", "provider": "publibike", "timeStamp": "03/25/2020, 04:37:34", "zip": 8051}, "type": "Feature"}, {"geometry": {"coordinates": [8.520168, 47.378556], "type": "Point"}, "properties": {"address": "Herman-Greulich-Strasse 56", "electric": 4, "id": "pb_384", "manual": 4, "name": "Hermann-Greulich-Weg", "provider": "publibike", "timeStamp": "03/25/2020, 04:37:34", "zip": 8004}, "type": "Feature"}, {"geometry": {"coordinates": [8.547912, 47.384923], "type": "Point"}, "properties": {"address": "Culmannstrasse", "electric": 4, "id": "pb_386", "manual": 2, "name": "Rigiplatz", "provider": "publibike", "timeStamp": "03/25/2020, 04:37:34", "zip": 8006}, "type": "Feature"}, {"geometry": {"coordinates": [8.543768, 47.411057], "type": "Point"}, "properties": {"address": "Hofwiesenstrasse 369", "electric": 4, "id": "pb_387", "manual": 9, "name": "Bahnhof Oerlikon S\u00fcd", "provider": "publibike", "timeStamp": "03/25/2020, 04:37:34", "zip": 8050}, "type": "Feature"}, {"geometry": {"coordinates": [8.544185, 47.412732], "type": "Point"}, "properties": {"address": "Jungholzstrasse 6", "electric": 6, "id": "pb_388", "manual": 4, "name": "Max-Frisch-Platz", "provider": "publibike", "timeStamp": "03/25/2020, 04:37:34", "zip": 8050}, "type": "Feature"}, {"geometry": {"coordinates": [8.558096, 47.413032], "type": "Point"}, "properties": {"address": "Andreasstrasse", "electric": 4, "id": "pb_389", "manual": 1, "name": "Hunziker-Areal", "provider": "publibike", "timeStamp": "03/25/2020, 04:37:34", "zip": 8050}, "type": "Feature"}, {"geometry": {"coordinates": [8.533265, 47.412873], "type": "Point"}, "properties": {"address": "Regina-K\u00e4gi-Strasse 1", "electric": 4, "id": "pb_390", "manual": 3, "name": "Luis-H\u00e4fliger-Park", "provider": "publibike", "timeStamp": "03/25/2020, 04:37:34", "zip": 8050}, "type": "Feature"}, {"geometry": {"coordinates": [8.499265, 47.401852], "type": "Point"}, "properties": {"address": "Limmattalstrasse 177", "electric": 7, "id": "pb_391", "manual": 1, "name": "Meierhofplatz", "provider": "publibike", "timeStamp": "03/25/2020, 04:37:34", "zip": 8049}, "type": "Feature"}, {"geometry": {"coordinates": [8.528356, 47.393255], "type": "Point"}, "properties": {"address": "R\u00f6schibachstrasse 73", "electric": 9, "id": "pb_392", "manual": 2, "name": "R\u00f6schibachplatz", "provider": "publibike", "timeStamp": "03/25/2020, 04:37:34", "zip": 8037}, "type": "Feature"}, {"geometry": {"coordinates": [8.538067, 47.415721], "type": "Point"}, "properties": {"address": "Birchstrasse 191", "electric": 1, "id": "pb_393", "manual": 3, "name": "Oerliker Park", "provider": "publibike", "timeStamp": "03/25/2020, 04:37:34", "zip": 8050}, "type": "Feature"}, {"geometry": {"coordinates": [8.5420304, 47.3669233], "type": "Point"}, "properties": {"address": "Stadthausquai 1", "electric": 2, "id": "pb_395", "manual": 8, "name": "B\u00fcrkliplatz", "provider": "publibike", "timeStamp": "03/25/2020, 04:37:34", "zip": 8001}, "type": "Feature"}, {"geometry": {"coordinates": [8.535767, 47.409881], "type": "Point"}, "properties": {"address": "Regensbergstrasse 195", "electric": 6, "id": "pb_396", "manual": 0, "name": "Holunderhof", "provider": "publibike", "timeStamp": "03/25/2020, 04:37:34", "zip": 8050}, "type": "Feature"}, {"geometry": {"coordinates": [8.5116245, 47.3616199], "type": "Point"}, "properties": {"address": "Grubenstrasse 42", "electric": 4, "id": "pb_431", "manual": 2, "name": "Binz Center", "provider": "publibike", "timeStamp": "03/25/2020, 04:37:34", "zip": 8045}, "type": "Feature"}, {"geometry": {"coordinates": [8.547195, 47.382089], "type": "Point"}, "properties": {"address": "Nelkenstrasse 24", "electric": 9, "id": "pb_430", "manual": 1, "name": "Stapferstube", "provider": "publibike", "timeStamp": "03/25/2020, 04:37:34", "zip": 8006}, "type": "Feature"}, {"geometry": {"coordinates": [8.5787183, 47.4039845], "type": "Point"}, "properties": {"address": "Kronwiesenstrasse 35", "electric": 1, "id": "pb_426", "manual": 2, "name": "Kronwiesen", "provider": "publibike", "timeStamp": "03/25/2020, 04:37:34", "zip": 8051}, "type": "Feature"}, {"geometry": {"coordinates": [8.508131, 47.420757], "type": "Point"}, "properties": {"address": "Riedenhaldenstrasse 20-18", "electric": 9, "id": "pb_425", "manual": 3, "name": "Bahnhof Affoltern", "provider": "publibike", "timeStamp": "03/25/2020, 04:37:34", "zip": 8046}, "type": "Feature"}, {"geometry": {"coordinates": [8.532464, 47.406988], "type": "Point"}, "properties": {"address": "K\u00fcnzlistrasse 41", "electric": 8, "id": "pb_424", "manual": 1, "name": "Birchd\u00f6rfli", "provider": "publibike", "timeStamp": "03/25/2020, 04:37:34", "zip": 8057}, "type": "Feature"}, {"geometry": {"coordinates": [8.5777038, 47.4080095], "type": "Point"}, "properties": {"address": "Luegislandstrasse 412", "electric": 2, "id": "pb_429", "manual": 5, "name": "Luegisland", "provider": "publibike", "timeStamp": "03/25/2020, 04:37:34", "zip": 8051}, "type": "Feature"}, {"geometry": {"coordinates": [8.58841, 47.40158], "type": "Point"}, "properties": {"address": "Hirzenbachstrasse 2-4", "electric": 8, "id": "pb_428", "manual": 5, "name": "Hirzenbachstrasse", "provider": "publibike", "timeStamp": "03/25/2020, 04:37:34", "zip": 8051}, "type": "Feature"}, {"geometry": {"coordinates": [8.5563463, 47.4095467], "type": "Point"}, "properties": {"address": "K\u00fchriedweg", "electric": 4, "id": "pb_445", "manual": 0, "name": "Hallenbad Oerlikon", "provider": "publibike", "timeStamp": "03/25/2020, 04:37:34", "zip": 8050}, "type": "Feature"}, {"geometry": {"coordinates": [8.537971, 47.364871], "type": "Point"}, "properties": {"address": "General-Guisan-Quai 17", "electric": 0, "id": "pb_454", "manual": 0, "name": "General-Guisan-Quai", "provider": "publibike", "timeStamp": "03/25/2020, 04:37:34", "zip": 8002}, "type": "Feature"}, {"geometry": {"coordinates": [8.560587, 47.350578], "type": "Point"}, "properties": {"address": "Bellerivestrasse 245", "electric": 10, "id": "pb_450", "manual": 11, "name": "Bahnhof Tiefenbrunnen", "provider": "publibike", "timeStamp": "03/25/2020, 04:37:34", "zip": 8008}, "type": "Feature"}, {"geometry": {"coordinates": [8.5269416, 47.3563719], "type": "Point"}, "properties": {"address": "Waffenplatzstrasse 89", "electric": 5, "id": "pb_452", "manual": 3, "name": "Rieterplatz", "provider": "publibike", "timeStamp": "03/25/2020, 04:37:34", "zip": 8002}, "type": "Feature"}, {"geometry": {"coordinates": [8.514176, 47.3663708], "type": "Point"}, "properties": {"address": "Talwiesenstrasse 92", "electric": 0, "id": "pb_446", "manual": 3, "name": "Binzallee", "provider": "publibike", "timeStamp": "03/25/2020, 04:37:34", "zip": 8055}, "type": "Feature"}, {"geometry": {"coordinates": [8.5070564, 47.371455], "type": "Point"}, "properties": {"address": "Gutstrasse 87", "electric": 6, "id": "pb_447", "manual": 6, "name": "Gutstrasse", "provider": "publibike", "timeStamp": "03/25/2020, 04:37:34", "zip": 8055}, "type": "Feature"}, {"geometry": {"coordinates": [8.4941268, 47.3836391], "type": "Point"}, "properties": {"address": "Flurstrasse 62", "electric": 1, "id": "pb_453", "manual": 4, "name": "Flurpark", "provider": "publibike", "timeStamp": "03/25/2020, 04:37:34", "zip": 8048}, "type": "Feature"}, {"geometry": {"coordinates": [8.500343, 47.380778], "type": "Point"}, "properties": {"address": "Edelweissstrasse 32", "electric": 2, "id": "pb_448", "manual": 6, "name": "Bl\u00fcemliquartier", "provider": "publibike", "timeStamp": "03/25/2020, 04:37:34", "zip": 8048}, "type": "Feature"}, {"geometry": {"coordinates": [8.528796, 47.383858], "type": "Point"}, "properties": {"address": "Gasometerstrasse 24", "electric": 5, "id": "pb_449", "manual": 9, "name": "Gasometerstrasse", "provider": "publibike", "timeStamp": "03/25/2020, 04:37:34", "zip": 8005}, "type": "Feature"}, {"geometry": {"coordinates": [8.4981964, 47.3859194], "type": "Point"}, "properties": {"address": "Baslerstrasse 57", "electric": 9, "id": "pb_455", "manual": 9, "name": "Letzipark", "provider": "publibike", "timeStamp": "03/25/2020, 04:37:34", "zip": 8048}, "type": "Feature"}, {"geometry": {"coordinates": [8.515252, 47.381915], "type": "Point"}, "properties": {"address": "Sihlfeldstrasse 175", "electric": 3, "id": "pb_451", "manual": 8, "name": "Hardplatz", "provider": "publibike", "timeStamp": "03/25/2020, 04:37:34", "zip": 8004}, "type": "Feature"}, {"geometry": {"coordinates": [8.5064743, 47.4188324], "type": "Point"}, "properties": {"address": "Wehntalerstrasse 541", "electric": 8, "id": "pb_427", "manual": 3, "name": "Zehntenhausplatz", "provider": "publibike", "timeStamp": "03/25/2020, 04:37:34", "zip": 8046}, "type": "Feature"}, {"geometry": {"coordinates": [8.537729, 47.379719], "type": "Point"}, "properties": {"address": "Sihlquai/HB", "electric": 2, "id": "pb_513", "manual": 7, "name": "Sihlquai", "provider": "publibike", "timeStamp": "03/25/2020, 04:37:34", "zip": 8005}, "type": "Feature"}, {"geometry": {"coordinates": [8.596202, 47.397885], "type": "Point"}, "properties": {"address": "Bahnhof Stettbach", "electric": 5, "id": "pb_514", "manual": 0, "name": "Bahnhof Stettbach", "provider": "publibike", "timeStamp": "03/25/2020, 04:37:34", "zip": 8051}, "type": "Feature"}, {"geometry": {"coordinates": [8.5543974, 47.3690153], "type": "Point"}, "properties": {"address": "Kasinostrasse 10", "electric": 2, "id": "pb_515", "manual": 2, "name": "Hottingerplatz", "provider": "publibike", "timeStamp": "03/25/2020, 04:37:34", "zip": 8032}, "type": "Feature"}, {"geometry": {"coordinates": [8.534444, 47.351525], "type": "Point"}, "properties": {"address": "Mobile Station Z\u00fcrich 1", "electric": 0, "id": "pb_282", "manual": 0, "name": "Theaterspektakel", "provider": "publibike", "timeStamp": "03/25/2020, 04:37:34", "zip": 8002}, "type": "Feature"}, {"geometry": {"coordinates": [8.516257, 47.367656], "type": "Point"}, "properties": {"address": "Goldbrunnenstrasse 54", "electric": 2, "id": "pb_538", "manual": 0, "name": "Kirche B\u00fchl", "provider": "publibike", "timeStamp": "03/25/2020, 04:37:34", "zip": 8055}, "type": "Feature"}, {"geometry": {"coordinates": [8.555639, 47.416873], "type": "Point"}, "properties": {"address": "Leutschenbachstrasse 50", "electric": 4, "id": "pb_537", "manual": 6, "name": "Leutschenpark", "provider": "publibike", "timeStamp": "03/25/2020, 04:37:34", "zip": 8050}, "type": "Feature"}, {"geometry": {"coordinates": [8.546464, 47.403822], "type": "Point"}, "properties": {"address": "Berninastrasse 45", "electric": 12, "id": "pb_540", "manual": 1, "name": "Berninaplatz", "provider": "publibike", "timeStamp": "03/25/2020, 04:37:34", "zip": 8057}, "type": "Feature"}, {"geometry": {"coordinates": [8.523134, 47.369004], "type": "Point"}, "properties": {"address": "Erlachstrasse 3", "electric": 3, "id": "pb_385", "manual": 1, "name": "Aegerten", "provider": "publibike", "timeStamp": "03/25/2020, 04:37:34", "zip": 8003}, "type": "Feature"}, {"geometry": {"coordinates": [8.49038, 47.381591], "type": "Point"}, "properties": {"address": "Rautistrasse 60", "electric": 11, "id": "pb_536", "manual": 5, "name": "Freilager", "provider": "publibike", "timeStamp": "03/25/2020, 04:37:34", "zip": 8048}, "type": "Feature"}, {"geometry": {"coordinates": [8.496511, 47.375247], "type": "Point"}, "properties": {"address": "Letzigraben 139", "electric": 6, "id": "pb_444", "manual": 6, "name": "Sackzelg", "provider": "publibike", "timeStamp": "03/25/2020, 04:37:34", "zip": 8047}, "type": "Feature"}, {"geometry": {"coordinates": [8.58131, 47.402801], "type": "Point"}, "properties": {"address": "Altwiesenstrasse 104", "electric": 2, "id": "pb_539", "manual": 3, "name": "Glattwiesen", "provider": "publibike", "timeStamp": "03/25/2020, 04:37:34", "zip": 8051}, "type": "Feature"}, {"geometry": {"coordinates": [8.52689, 47.3767], "type": "Point"}, "properties": {"address": "Molkenstrasse 5", "electric": 1, "id": "pb_560", "manual": 7, "name": "Helvetiaplatz", "provider": "publibike", "timeStamp": "03/25/2020, 04:37:34", "zip": 8004}, "type": "Feature"}, {"geometry": {"coordinates": [8.525602, 47.374241], "type": "Point"}, "properties": {"address": "Badenerstrasse 90", "electric": 0, "id": "pb_559", "manual": 4, "name": "Bezirksgeb\u00e4ude", "provider": "publibike", "timeStamp": "03/25/2020, 04:37:34", "zip": 8004}, "type": "Feature"}, {"geometry": {"coordinates": [8.535082, 47.345248], "type": "Point"}, "properties": {"address": "Bachstrasse 15", "electric": 3, "id": "pb_564", "manual": 9, "name": "GZ Wollishofen", "provider": "publibike", "timeStamp": "03/25/2020, 04:37:34", "zip": 8038}, "type": "Feature"}, {"geometry": {"coordinates": [8.514841, 47.370238], "type": "Point"}, "properties": {"address": "Schrennengasse 37", "electric": 3, "id": "pb_562", "manual": 3, "name": "Goldbrunnenplatz", "provider": "publibike", "timeStamp": "03/25/2020, 04:37:34", "zip": 8003}, "type": "Feature"}, {"geometry": {"coordinates": [8.514138, 47.374206], "type": "Point"}, "properties": {"address": "Idaplatz 4", "electric": 2, "id": "pb_557", "manual": 7, "name": "Idaplatz", "provider": "publibike", "timeStamp": "03/25/2020, 04:37:34", "zip": 8003}, "type": "Feature"}, {"geometry": {"coordinates": [8.518432, 47.369549], "type": "Point"}, "properties": {"address": "Brinerstrasse 2", "electric": 3, "id": "pb_558", "manual": 4, "name": "Schmiede Wiedikon", "provider": "publibike", "timeStamp": "03/25/2020, 04:37:34", "zip": 8003}, "type": "Feature"}, {"geometry": {"coordinates": [8.537546, 47.391289], "type": "Point"}, "properties": {"address": "Rotbuchstrasse 15", "electric": 6, "id": "pb_556", "manual": 1, "name": "Schaffhauserplatz", "provider": "publibike", "timeStamp": "03/25/2020, 04:37:34", "zip": 8006}, "type": "Feature"}, {"geometry": {"coordinates": [8.541541, 47.413733], "type": "Point"}, "properties": {"address": "Therese-Giehse-Strasse 11", "electric": 3, "id": "pb_561", "manual": 1, "name": "Center Eleven", "provider": "publibike", "timeStamp": "03/25/2020, 04:37:34", "zip": 8050}, "type": "Feature"}, {"geometry": {"coordinates": [8.534227, 47.360004], "type": "Point"}, "properties": {"address": "Alfred Escher-Strasse 76", "electric": 1, "id": "pb_563", "manual": 5, "name": "Mythenschloss", "provider": "publibike", "timeStamp": "03/25/2020, 04:37:34", "zip": 8002}, "type": "Feature"}, {"geometry": {"coordinates": [8.50373, 47.396172], "type": "Point"}, "properties": {"address": "Hardeggstrasse 6", "electric": 4, "id": "pb_566", "manual": 4, "name": "Am Wasser", "provider": "publibike", "timeStamp": "03/25/2020, 04:37:34", "zip": 8049}, "type": "Feature"}, {"geometry": {"coordinates": [8.532432, 47.381174], "type": "Point"}, "properties": {"address": "Klingenstrasse 9", "electric": 2, "id": "pb_565", "manual": 11, "name": "Zollstrasse", "provider": "publibike", "timeStamp": "03/25/2020, 04:37:34", "zip": 8005}, "type": "Feature"}, {"geometry": {"coordinates": [8.497982, 47.381447], "type": "Point"}, "properties": {"address": "Dennlerstrasse 23", "electric": 1, "id": "pb_567", "manual": 7, "name": "Dennlerstrasse", "provider": "publibike", "timeStamp": "03/25/2020, 04:37:34", "zip": 8047}, "type": "Feature"}, {"geometry": {"coordinates": [8.528049, 47.347701], "type": "Point"}, "properties": {"address": "Mutschellenstrasse 114", "electric": 2, "id": "pb_568", "manual": 3, "name": "Jugendherberge", "provider": "publibike", "timeStamp": "03/25/2020, 04:37:34", "zip": 8038}, "type": "Feature"}, {"geometry": {"coordinates": [8.539016, 47.405751], "type": "Point"}, "properties": {"address": "Ringstrasse 82", "electric": 6, "id": "pb_569", "manual": 1, "name": "Freibad Allenmoos", "provider": "publibike", "timeStamp": "03/25/2020, 04:37:34", "zip": 8057}, "type": "Feature"}, {"geometry": {"coordinates": [8.534974, 47.402164], "type": "Point"}, "properties": {"address": "Brache Guggach", "electric": 1, "id": "pb_572", "manual": 0, "name": "Radiostudio", "provider": "publibike", "timeStamp": "03/25/2020, 04:37:34", "zip": 8057}, "type": "Feature"}, {"geometry": {"coordinates": [8.547901, 47.375556], "type": "Point"}, "properties": {"address": "Karl-Schmid-Strasse 4", "electric": 3, "id": "pb_571", "manual": 0, "name": "ETH/Zoologisches Museum", "provider": "publibike", "timeStamp": "03/25/2020, 04:37:34", "zip": 8006}, "type": "Feature"}, {"geometry": {"coordinates": [8.514486, 47.416896], "type": "Point"}, "properties": {"charge": 62, "id": "smide_114", "name": "ZH253878", "provider": "smide", "range": 31.0, "size": 20, "time": "03/28/2020, 12:48:02"}, "type": "Feature"}, {"geometry": {"coordinates": [8.548484, 47.377768], "type": "Point"}, "properties": {"charge": 100, "id": "smide_21", "name": "ZH253841", "provider": "smide", "range": 50.0, "size": 17, "time": "03/28/2020, 12:48:02"}, "type": "Feature"}, {"geometry": {"coordinates": [8.529368, 47.351912], "type": "Point"}, "properties": {"charge": 51, "id": "smide_164", "name": "ZH253775", "provider": "smide", "range": 25.0, "size": 17, "time": "03/28/2020, 12:48:02"}, "type": "Feature"}, {"geometry": {"coordinates": [8.53333, 47.370452], "type": "Point"}, "properties": {"charge": 61, "id": "smide_171", "name": "ZH253689", "provider": "smide", "range": 30.0, "size": 20, "time": "03/28/2020, 12:48:02"}, "type": "Feature"}, {"geometry": {"coordinates": [8.541103, 47.39072], "type": "Point"}, "properties": {"charge": 34, "id": "smide_93", "name": "ZH253681", "provider": "smide", "range": 17.0, "size": 17, "time": "03/28/2020, 12:48:02"}, "type": "Feature"}, {"geometry": {"coordinates": [8.502369, 47.423632], "type": "Point"}, "properties": {"charge": 60, "id": "smide_67", "name": "ZH253779", "provider": "smide", "range": 30.0, "size": 17, "time": "03/28/2020, 12:48:02"}, "type": "Feature"}, {"geometry": {"coordinates": [8.550645, 47.392625], "type": "Point"}, "properties": {"charge": 46, "id": "smide_118", "name": "ZH253759", "provider": "smide", "range": 23.0, "size": 20, "time": "03/28/2020, 12:48:02"}, "type": "Feature"}, {"geometry": {"coordinates": [8.518251, 47.398665], "type": "Point"}, "properties": {"charge": 58, "id": "smide_166", "name": "ZH253728", "provider": "smide", "range": 28.0, "size": 17, "time": "03/28/2020, 12:48:02"}, "type": "Feature"}, {"geometry": {"coordinates": [8.48651, 47.367916], "type": "Point"}, "properties": {"charge": 88, "id": "smide_126", "name": "ZH268400", "provider": "smide", "range": 44.0, "size": 17, "time": "03/28/2020, 12:48:02"}, "type": "Feature"}, {"geometry": {"coordinates": [8.545818, 47.409705], "type": "Point"}, "properties": {"charge": 49, "id": "smide_44", "name": "ZH253837", "provider": "smide", "range": 24.0, "size": 17, "time": "03/28/2020, 12:48:02"}, "type": "Feature"}, {"geometry": {"coordinates": [8.55952, 47.40758], "type": "Point"}, "properties": {"charge": 70, "id": "smide_57", "name": "ZH253772", "provider": "smide", "range": 35.0, "size": 17, "time": "03/28/2020, 12:48:02"}, "type": "Feature"}, {"geometry": {"coordinates": [8.54691, 47.421924], "type": "Point"}, "properties": {"charge": 98, "id": "smide_154", "name": "ZH253744", "provider": "smide", "range": 49.0, "size": 20, "time": "03/28/2020, 12:48:02"}, "type": "Feature"}, {"geometry": {"coordinates": [8.525977, 47.365084], "type": "Point"}, "properties": {"charge": 63, "id": "smide_92", "name": "ZH253798", "provider": "smide", "range": 31.0, "size": 17, "time": "03/28/2020, 12:48:02"}, "type": "Feature"}, {"geometry": {"coordinates": [8.566872, 47.360336], "type": "Point"}, "properties": {"charge": 78, "id": "smide_65", "name": "ZH253810", "provider": "smide", "range": 39.0, "size": 17, "time": "03/28/2020, 12:48:02"}, "type": "Feature"}, {"geometry": {"coordinates": [8.551832, 47.376364], "type": "Point"}, "properties": {"charge": 91, "id": "smide_1", "name": "ZH253776", "provider": "smide", "range": 45.0, "size": 17, "time": "03/28/2020, 12:48:02"}, "type": "Feature"}, {"geometry": {"coordinates": [8.501883, 47.363084], "type": "Point"}, "properties": {"charge": 78, "id": "smide_28", "name": "ZH253831", "provider": "smide", "range": 39.0, "size": 17, "time": "03/28/2020, 12:48:02"}, "type": "Feature"}, {"geometry": {"coordinates": [8.5297, 47.350285], "type": "Point"}, "properties": {"charge": 87, "id": "smide_14", "name": "ZH253749", "provider": "smide", "range": 43.0, "size": 20, "time": "03/28/2020, 12:48:02"}, "type": "Feature"}, {"geometry": {"coordinates": [8.515449, 47.376784], "type": "Point"}, "properties": {"charge": 71, "id": "smide_130", "name": "ZH253847", "provider": "smide", "range": 35.0, "size": 20, "time": "03/28/2020, 12:48:02"}, "type": "Feature"}, {"geometry": {"coordinates": [8.527621, 47.414885], "type": "Point"}, "properties": {"charge": 100, "id": "smide_24", "name": "ZH253696", "provider": "smide", "range": 50.0, "size": 20, "time": "03/28/2020, 12:48:02"}, "type": "Feature"}, {"geometry": {"coordinates": [8.531778, 47.407473], "type": "Point"}, "properties": {"charge": 71, "id": "smide_107", "name": "ZH253819", "provider": "smide", "range": 35.0, "size": 17, "time": "03/28/2020, 12:48:02"}, "type": "Feature"}, {"geometry": {"coordinates": [8.515332, 47.37234], "type": "Point"}, "properties": {"charge": 71, "id": "smide_136", "name": "ZH253682", "provider": "smide", "range": 35.0, "size": 17, "time": "03/28/2020, 12:48:02"}, "type": "Feature"}, {"geometry": {"coordinates": [8.55618, 47.414404], "type": "Point"}, "properties": {"charge": 33, "id": "smide_83", "name": "ZH253869", "provider": "smide", "range": 16.0, "size": 20, "time": "03/28/2020, 12:48:02"}, "type": "Feature"}, {"geometry": {"coordinates": [8.535803, 47.377253], "type": "Point"}, "properties": {"charge": 84, "id": "smide_73", "name": "ZH261379", "provider": "smide", "range": 42.0, "size": 20, "time": "03/28/2020, 12:48:02"}, "type": "Feature"}, {"geometry": {"coordinates": [8.523688, 47.357616], "type": "Point"}, "properties": {"charge": 100, "id": "smide_158", "name": "ZH253870", "provider": "smide", "range": 50.0, "size": 20, "time": "03/28/2020, 12:48:02"}, "type": "Feature"}, {"geometry": {"coordinates": [8.509663, 47.358848], "type": "Point"}, "properties": {"charge": 45, "id": "smide_100", "name": "ZH253862", "provider": "smide", "range": 22.0, "size": 20, "time": "03/28/2020, 12:48:02"}, "type": "Feature"}, {"geometry": {"coordinates": [8.563506, 47.363088], "type": "Point"}, "properties": {"charge": 75, "id": "smide_141", "name": "ZH253800", "provider": "smide", "range": 37.0, "size": 20, "time": "03/28/2020, 12:48:02"}, "type": "Feature"}, {"geometry": {"coordinates": [8.556715, 47.357815], "type": "Point"}, "properties": {"charge": 94, "id": "smide_149", "name": "ZH253743", "provider": "smide", "range": 47.0, "size": 20, "time": "03/28/2020, 12:48:02"}, "type": "Feature"}, {"geometry": {"coordinates": [8.530248, 47.39028], "type": "Point"}, "properties": {"charge": 74, "id": "smide_16", "name": "ZH253713", "provider": "smide", "range": 37.0, "size": 20, "time": "03/28/2020, 12:48:02"}, "type": "Feature"}, {"geometry": {"coordinates": [8.53237, 47.357203], "type": "Point"}, "properties": {"charge": 84, "id": "smide_33", "name": "ZH253782", "provider": "smide", "range": 42.0, "size": 20, "time": "03/28/2020, 12:48:02"}, "type": "Feature"}, {"geometry": {"coordinates": [8.52734, 47.35071], "type": "Point"}, "properties": {"charge": 89, "id": "smide_183", "name": "ZH253868", "provider": "smide", "range": 44.0, "size": 17, "time": "03/28/2020, 12:48:02"}, "type": "Feature"}, {"geometry": {"coordinates": [8.54709, 47.410164], "type": "Point"}, "properties": {"charge": 32, "id": "smide_160", "name": "ZH253722", "provider": "smide", "range": 16.0, "size": 17, "time": "03/28/2020, 12:48:02"}, "type": "Feature"}, {"geometry": {"coordinates": [8.56262, 47.377753], "type": "Point"}, "properties": {"charge": 81, "id": "smide_137", "name": "ZH258502", "provider": "smide", "range": 40.0, "size": 17, "time": "03/28/2020, 12:48:02"}, "type": "Feature"}, {"geometry": {"coordinates": [8.535813, 47.36402], "type": "Point"}, "properties": {"charge": 43, "id": "smide_55", "name": "ZH253875", "provider": "smide", "range": 21.0, "size": 17, "time": "03/28/2020, 12:48:02"}, "type": "Feature"}, {"geometry": {"coordinates": [8.514652, 47.423708], "type": "Point"}, "properties": {"charge": 83, "id": "smide_96", "name": "ZH256146", "provider": "smide", "range": 41.0, "size": 20, "time": "03/28/2020, 12:48:02"}, "type": "Feature"}, {"geometry": {"coordinates": [8.526295, 47.412084], "type": "Point"}, "properties": {"charge": 91, "id": "smide_58", "name": "ZH259246", "provider": "smide", "range": 45.0, "size": 20, "time": "03/28/2020, 12:48:02"}, "type": "Feature"}, {"geometry": {"coordinates": [8.557393, 47.403416], "type": "Point"}, "properties": {"charge": 100, "id": "smide_162", "name": "ZH253760", "provider": "smide", "range": 50.0, "size": 17, "time": "03/28/2020, 12:48:02"}, "type": "Feature"}, {"geometry": {"coordinates": [8.561013, 47.349112], "type": "Point"}, "properties": {"charge": 46, "id": "smide_163", "name": "ZH256147", "provider": "smide", "range": 23.0, "size": 20, "time": "03/28/2020, 12:48:02"}, "type": "Feature"}, {"geometry": {"coordinates": [8.55613, 47.3582], "type": "Point"}, "properties": {"charge": 57, "id": "smide_122", "name": "ZH253850", "provider": "smide", "range": 28.0, "size": 20, "time": "03/28/2020, 12:48:02"}, "type": "Feature"}, {"geometry": {"coordinates": [8.498583, 47.402228], "type": "Point"}, "properties": {"charge": 100, "id": "smide_38", "name": "ZH253851", "provider": "smide", "range": 50.0, "size": 20, "time": "03/28/2020, 12:48:02"}, "type": "Feature"}, {"geometry": {"coordinates": [8.499605, 47.359983], "type": "Point"}, "properties": {"charge": 49, "id": "smide_18", "name": "ZH253859", "provider": "smide", "range": 24.0, "size": 17, "time": "03/28/2020, 12:48:02"}, "type": "Feature"}, {"geometry": {"coordinates": [8.491015, 47.376765], "type": "Point"}, "properties": {"charge": 72, "id": "smide_39", "name": "ZH253714", "provider": "smide", "range": 36.0, "size": 20, "time": "03/28/2020, 12:48:02"}, "type": "Feature"}, {"geometry": {"coordinates": [8.499655, 47.359628], "type": "Point"}, "properties": {"charge": 77, "id": "smide_5", "name": "ZH261443", "provider": "smide", "range": 38.0, "size": 20, "time": "03/28/2020, 12:48:02"}, "type": "Feature"}, {"geometry": {"coordinates": [8.5516, 47.395012], "type": "Point"}, "properties": {"charge": 66, "id": "smide_29", "name": "ZH253723", "provider": "smide", "range": 33.0, "size": 17, "time": "03/28/2020, 12:48:02"}, "type": "Feature"}, {"geometry": {"coordinates": [8.51492, 47.3822366666667], "type": "Point"}, "properties": {"charge": 52, "id": "bird_37631798-5808-4f86-b5be-910f1a2d7fa3", "provider": "bird", "timeStamp": "03/25/2020, 08:07:46"}, "type": "Feature"}, {"geometry": {"coordinates": [8.51747666666667, 47.3860933333333], "type": "Point"}, "properties": {"charge": 52, "id": "bird_2bdc00c4-1a87-4811-a1da-ad736e3c7826", "provider": "bird", "timeStamp": "03/25/2020, 08:07:46"}, "type": "Feature"}, {"geometry": {"coordinates": [8.51494333333333, 47.3822366666667], "type": "Point"}, "properties": {"charge": 61, "id": "bird_0e8e53a7-f2b3-4293-b344-16257cb154d2", "provider": "bird", "timeStamp": "03/25/2020, 08:07:46"}, "type": "Feature"}, {"geometry": {"coordinates": [8.52019, 47.3880466666667], "type": "Point"}, "properties": {"charge": 96, "id": "bird_f0d6ed3e-f090-4c6a-9156-9182f90a9f51", "provider": "bird", "timeStamp": "03/25/2020, 08:07:46"}, "type": "Feature"}, {"geometry": {"coordinates": [8.52020666666667, 47.3880466666667], "type": "Point"}, "properties": {"charge": 94, "id": "bird_3177c9fc-bc26-44f0-89c1-d1cbcbadcb92", "provider": "bird", "timeStamp": "03/25/2020, 08:07:46"}, "type": "Feature"}, {"geometry": {"coordinates": [8.51479333333333, 47.3815033333333], "type": "Point"}, "properties": {"charge": 74, "id": "bird_1f4318e8-d45a-477e-88ed-79c93a98043f", "provider": "bird", "timeStamp": "03/25/2020, 08:07:46"}, "type": "Feature"}, {"geometry": {"coordinates": [8.516745, 47.3747933333333], "type": "Point"}, "properties": {"charge": 36, "id": "bird_1bc25014-9bce-44a7-8aa6-32f3a82c8727", "provider": "bird", "timeStamp": "03/25/2020, 08:07:46"}, "type": "Feature"}, {"geometry": {"coordinates": [8.54522666666667, 47.37888], "type": "Point"}, "properties": {"charge": 71, "id": "bird_7728ce2d-9e6b-42af-a116-e8a62a0f291e", "provider": "bird", "timeStamp": "03/25/2020, 08:07:46"}, "type": "Feature"}, {"geometry": {"coordinates": [8.51789166666667, 47.3863266666667], "type": "Point"}, "properties": {"charge": 96, "id": "bird_2457375c-2900-4cbe-824b-347e604aa2e9", "provider": "bird", "timeStamp": "03/25/2020, 08:07:46"}, "type": "Feature"}, {"geometry": {"coordinates": [8.51745666666667, 47.38588], "type": "Point"}, "properties": {"charge": 92, "id": "bird_7529bbda-93b3-47e4-8029-ae5810e62fe8", "provider": "bird", "timeStamp": "03/25/2020, 08:07:46"}, "type": "Feature"}, {"geometry": {"coordinates": [8.51510166666667, 47.3821983333333], "type": "Point"}, "properties": {"charge": 66, "id": "bird_7eb13b1b-dd06-4e93-8475-4f3c58cb6008", "provider": "bird", "timeStamp": "03/25/2020, 08:07:46"}, "type": "Feature"}, {"geometry": {"coordinates": [8.518245, 47.3865083333333], "type": "Point"}, "properties": {"charge": 57, "id": "bird_18ee08cf-8b21-4811-ae82-78a9d252ac7e", "provider": "bird", "timeStamp": "03/25/2020, 08:07:46"}, "type": "Feature"}, {"geometry": {"coordinates": [8.517135, 47.3853866666667], "type": "Point"}, "properties": {"charge": 25, "id": "bird_da3cf87a-18aa-46c3-ab98-e754dabed7e8", "provider": "bird", "timeStamp": "03/25/2020, 08:07:46"}, "type": "Feature"}, {"geometry": {"coordinates": [8.51808, 47.3862766666667], "type": "Point"}, "properties": {"charge": 44, "id": "bird_8c13d6c5-1546-4d10-b9c8-1a1039374142", "provider": "bird", "timeStamp": "03/25/2020, 08:07:46"}, "type": "Feature"}, {"geometry": {"coordinates": [8.54170666666667, 47.3864516666667], "type": "Point"}, "properties": {"charge": 28, "id": "bird_5624a9ef-27e6-43e7-b1bb-b4e29a3fa786", "provider": "bird", "timeStamp": "03/25/2020, 08:07:46"}, "type": "Feature"}, {"geometry": {"coordinates": [8.51752166666667, 47.38572], "type": "Point"}, "properties": {"charge": 61, "id": "bird_9512a8a1-f6ff-48cb-90c1-e190fdccb078", "provider": "bird", "timeStamp": "03/25/2020, 08:07:46"}, "type": "Feature"}, {"geometry": {"coordinates": [8.541635, 47.386455], "type": "Point"}, "properties": {"charge": 45, "id": "bird_bf03b433-14ae-42ff-a3b3-7850e8a6476b", "provider": "bird", "timeStamp": "03/25/2020, 08:07:46"}, "type": "Feature"}, {"geometry": {"coordinates": [8.518165, 47.3862833333333], "type": "Point"}, "properties": {"charge": 37, "id": "bird_54054f55-c249-4d2b-87bc-b0f815447de1", "provider": "bird", "timeStamp": "03/25/2020, 08:07:46"}, "type": "Feature"}, {"geometry": {"coordinates": [8.51533333333333, 47.3822066666667], "type": "Point"}, "properties": {"charge": 66, "id": "bird_205d9a93-5638-48a8-8241-bd184ae801dd", "provider": "bird", "timeStamp": "03/25/2020, 08:07:46"}, "type": "Feature"}, {"geometry": {"coordinates": [8.51642666666667, 47.37569], "type": "Point"}, "properties": {"charge": 66, "id": "bird_3c6a1887-bbc6-4a49-a34b-32031ed06a70", "provider": "bird", "timeStamp": "03/25/2020, 08:07:46"}, "type": "Feature"}, {"geometry": {"coordinates": [8.51743166666667, 47.38549], "type": "Point"}, "properties": {"charge": 54, "id": "bird_9a5e90f1-b4b4-4be6-809f-00354a4fa573", "provider": "bird", "timeStamp": "03/25/2020, 08:07:46"}, "type": "Feature"}, {"geometry": {"coordinates": [8.51659, 47.3755266666667], "type": "Point"}, "properties": {"charge": 69, "id": "bird_cf4175c5-4991-4b51-bdd2-4bae22ac434f", "provider": "bird", "timeStamp": "03/25/2020, 08:07:46"}, "type": "Feature"}, {"geometry": {"coordinates": [8.517875, 47.3858983333333], "type": "Point"}, "properties": {"charge": 91, "id": "bird_b785cffe-ebea-49a9-8eff-7743c94dec13", "provider": "bird", "timeStamp": "03/25/2020, 08:07:46"}, "type": "Feature"}, {"geometry": {"coordinates": [8.51794, 47.385955], "type": "Point"}, "properties": {"charge": 10, "id": "bird_07e6e1e2-2446-4f65-8c4b-37dc98d6d762", "provider": "bird", "timeStamp": "03/25/2020, 08:07:46"}, "type": "Feature"}, {"geometry": {"coordinates": [8.52722166666667, 47.3700783333333], "type": "Point"}, "properties": {"charge": 48, "id": "bird_a9722f28-4f19-46ed-b73a-24f49246b441", "provider": "bird", "timeStamp": "03/25/2020, 08:07:46"}, "type": "Feature"}, {"geometry": {"coordinates": [8.51826166666667, 47.3862033333333], "type": "Point"}, "properties": {"charge": 64, "id": "bird_68778139-e3e5-42e5-829c-a1a0f307d8f0", "provider": "bird", "timeStamp": "03/25/2020, 08:07:46"}, "type": "Feature"}, {"geometry": {"coordinates": [8.51811666666667, 47.3860733333333], "type": "Point"}, "properties": {"charge": 92, "id": "bird_75254183-4d5f-4c4f-908f-de63e0cdb604", "provider": "bird", "timeStamp": "03/25/2020, 08:07:46"}, "type": "Feature"}, {"geometry": {"coordinates": [8.51751333333333, 47.385475], "type": "Point"}, "properties": {"charge": 93, "id": "bird_f75a15e5-d200-4632-b3b2-9a7e20f4345a", "provider": "bird", "timeStamp": "03/25/2020, 08:07:46"}, "type": "Feature"}, {"geometry": {"coordinates": [8.515475, 47.3821266666667], "type": "Point"}, "properties": {"charge": 75, "id": "bird_2323dcc3-9062-42e8-b294-e3dcc58bcb11", "provider": "bird", "timeStamp": "03/25/2020, 08:07:46"}, "type": "Feature"}, {"geometry": {"coordinates": [8.51547833333333, 47.382115], "type": "Point"}, "properties": {"charge": 73, "id": "bird_61f40942-2bbd-4e7c-b295-b952fb7e6a93", "provider": "bird", "timeStamp": "03/25/2020, 08:07:46"}, "type": "Feature"}, {"geometry": {"coordinates": [8.51831833333333, 47.3861966666667], "type": "Point"}, "properties": {"charge": 22, "id": "bird_10789234-a1a0-4f95-814a-08f7f76bd2d2", "provider": "bird", "timeStamp": "03/25/2020, 08:07:46"}, "type": "Feature"}, {"geometry": {"coordinates": [8.51830833333333, 47.386165], "type": "Point"}, "properties": {"charge": 48, "id": "bird_1e405c28-f610-4c43-a42a-a4f523cd3376", "provider": "bird", "timeStamp": "03/25/2020, 08:07:46"}, "type": "Feature"}, {"geometry": {"coordinates": [8.51838666666667, 47.38623], "type": "Point"}, "properties": {"charge": 27, "id": "bird_d63434cc-9239-4228-9324-b74281d47510", "provider": "bird", "timeStamp": "03/25/2020, 08:07:46"}, "type": "Feature"}, {"geometry": {"coordinates": [8.51832833333333, 47.386165], "type": "Point"}, "properties": {"charge": 18, "id": "bird_5cec397b-902c-4a57-8f73-66e05e55ab68", "provider": "bird", "timeStamp": "03/25/2020, 08:07:46"}, "type": "Feature"}, {"geometry": {"coordinates": [8.51849, 47.386295], "type": "Point"}, "properties": {"charge": 67, "id": "bird_6d47794f-e165-49b5-a332-8170758c8851", "provider": "bird", "timeStamp": "03/25/2020, 08:07:46"}, "type": "Feature"}, {"geometry": {"coordinates": [8.51854666666667, 47.38633], "type": "Point"}, "properties": {"charge": 81, "id": "bird_a940e2ff-6ce5-415c-ab36-dab29edb65d5", "provider": "bird", "timeStamp": "03/25/2020, 08:07:46"}, "type": "Feature"}, {"geometry": {"coordinates": [8.51850166666667, 47.3862916666667], "type": "Point"}, "properties": {"charge": 93, "id": "bird_dffe6839-b653-4fa5-ba03-5d34df605fe9", "provider": "bird", "timeStamp": "03/25/2020, 08:07:46"}, "type": "Feature"}, {"geometry": {"coordinates": [8.51698666666667, 47.375255], "type": "Point"}, "properties": {"charge": 53, "id": "bird_6a3fdd33-37b0-4515-acfa-4f626187bd19", "provider": "bird", "timeStamp": "03/25/2020, 08:07:46"}, "type": "Feature"}, {"geometry": {"coordinates": [8.51559166666667, 47.3777966666667], "type": "Point"}, "properties": {"charge": 22, "id": "bird_e127ba8c-d484-4b98-879a-baa17d2943c7", "provider": "bird", "timeStamp": "03/25/2020, 08:07:46"}, "type": "Feature"}, {"geometry": {"coordinates": [8.51848333333333, 47.3862566666667], "type": "Point"}, "properties": {"charge": 10, "id": "bird_facde6ea-b241-467c-92c4-c8f90387c17e", "provider": "bird", "timeStamp": "03/25/2020, 08:07:46"}, "type": "Feature"}, {"geometry": {"coordinates": [8.516795, 47.37553], "type": "Point"}, "properties": {"charge": 64, "id": "bird_708c9d13-3338-46a7-88a1-3bb3f6951fbe", "provider": "bird", "timeStamp": "03/25/2020, 08:07:46"}, "type": "Feature"}, {"geometry": {"coordinates": [8.51852333333333, 47.3862766666667], "type": "Point"}, "properties": {"charge": 39, "id": "bird_66f0f50b-d2c2-4bc8-a973-27b553d9d161", "provider": "bird", "timeStamp": "03/25/2020, 08:07:46"}, "type": "Feature"}, {"geometry": {"coordinates": [8.518145, 47.38594], "type": "Point"}, "properties": {"charge": 71, "id": "bird_3fe81f3e-dc5b-4e30-b148-4f3cd1a06906", "provider": "bird", "timeStamp": "03/25/2020, 08:07:46"}, "type": "Feature"}, {"geometry": {"coordinates": [8.52318333333333, 47.3711466666667], "type": "Point"}, "properties": {"charge": 33, "id": "bird_5c238393-14a4-4875-8444-308c03cb141a", "provider": "bird", "timeStamp": "03/25/2020, 08:07:46"}, "type": "Feature"}, {"geometry": {"coordinates": [8.51838166666667, 47.38612], "type": "Point"}, "properties": {"charge": 69, "id": "bird_4c031e5d-f2b2-4b4a-b548-e9c4f748f22b", "provider": "bird", "timeStamp": "03/25/2020, 08:07:46"}, "type": "Feature"}, {"geometry": {"coordinates": [8.51836166666667, 47.3860933333333], "type": "Point"}, "properties": {"charge": 70, "id": "bird_84971136-b7d3-4c5c-8ca6-03e49cbc8b2c", "provider": "bird", "timeStamp": "03/25/2020, 08:07:46"}, "type": "Feature"}, {"geometry": {"coordinates": [8.51833166666667, 47.386005], "type": "Point"}, "properties": {"charge": 70, "id": "bird_0713ae23-7ab2-478e-b887-47699d0ee055", "provider": "bird", "timeStamp": "03/25/2020, 08:07:46"}, "type": "Feature"}, {"geometry": {"coordinates": [8.51775, 47.3746066666667], "type": "Point"}, "properties": {"charge": 30, "id": "bird_79c3a555-e73c-4d7e-9c51-4ec494f00cdb", "provider": "bird", "timeStamp": "03/25/2020, 08:07:46"}, "type": "Feature"}, {"geometry": {"coordinates": [8.51888333333333, 47.386375], "type": "Point"}, "properties": {"charge": 71, "id": "bird_367c7ce5-9610-46fc-a28d-419444c29423", "provider": "bird", "timeStamp": "03/25/2020, 08:07:46"}, "type": "Feature"}, {"geometry": {"coordinates": [8.51758333333333, 47.38512], "type": "Point"}, "properties": {"charge": 63, "id": "bird_164e2ddb-989c-43c7-8068-5ab53bf3ffb8", "provider": "bird", "timeStamp": "03/25/2020, 08:07:46"}, "type": "Feature"}, {"geometry": {"coordinates": [8.52355166666667, 47.3712116666667], "type": "Point"}, "properties": {"charge": 30, "id": "bird_29f55a93-6781-4fe3-b447-ce13d93331d3", "provider": "bird", "timeStamp": "03/25/2020, 08:07:46"}, "type": "Feature"}, {"geometry": {"coordinates": [8.518955, 47.3863333333333], "type": "Point"}, "properties": {"charge": 91, "id": "bird_06473727-d125-4ca2-8833-37476f89e5d6", "provider": "bird", "timeStamp": "03/25/2020, 08:07:46"}, "type": "Feature"}, {"geometry": {"coordinates": [8.51882666666667, 47.3862233333333], "type": "Point"}, "properties": {"charge": 74, "id": "bird_ee078963-16c4-41b8-8414-208046c31d37", "provider": "bird", "timeStamp": "03/25/2020, 08:07:46"}, "type": "Feature"}, {"geometry": {"coordinates": [8.52693666666667, 47.3704983333333], "type": "Point"}, "properties": {"charge": 66, "id": "bird_e02db1d0-77ac-4fc3-a9d6-5ec3bb0e5b48", "provider": "bird", "timeStamp": "03/25/2020, 08:07:46"}, "type": "Feature"}, {"geometry": {"coordinates": [8.51792333333333, 47.3748516666667], "type": "Point"}, "properties": {"charge": 24, "id": "bird_da9823cc-5741-48b5-bdfc-cd97643201ca", "provider": "bird", "timeStamp": "03/25/2020, 08:07:46"}, "type": "Feature"}, {"geometry": {"coordinates": [8.51798166666667, 47.3748283333333], "type": "Point"}, "properties": {"charge": 17, "id": "bird_f59680e9-e825-48e1-90fe-61683184b9fa", "provider": "bird", "timeStamp": "03/25/2020, 08:07:46"}, "type": "Feature"}, {"geometry": {"coordinates": [8.51580166666667, 47.3796583333333], "type": "Point"}, "properties": {"charge": 71, "id": "bird_11db9e9b-ce5a-4d5e-9adc-ed023352a633", "provider": "bird", "timeStamp": "03/25/2020, 08:07:46"}, "type": "Feature"}, {"geometry": {"coordinates": [8.51582, 47.3796883333333], "type": "Point"}, "properties": {"charge": 73, "id": "bird_c2b81108-10a0-49a6-90d5-88f075380680", "provider": "bird", "timeStamp": "03/25/2020, 08:07:46"}, "type": "Feature"}, {"geometry": {"coordinates": [8.51801833333333, 47.3748583333333], "type": "Point"}, "properties": {"charge": 58, "id": "bird_4d9a1c40-ba1e-4909-99b8-f914b5d8b327", "provider": "bird", "timeStamp": "03/25/2020, 08:07:46"}, "type": "Feature"}, {"geometry": {"coordinates": [8.515825, 47.3797983333333], "type": "Point"}, "properties": {"charge": 76, "id": "bird_32ed48ce-03bd-4c45-9d9f-94bc84ff45b2", "provider": "bird", "timeStamp": "03/25/2020, 08:07:46"}, "type": "Feature"}, {"geometry": {"coordinates": [8.515835, 47.379795], "type": "Point"}, "properties": {"charge": 63, "id": "bird_7cc720f0-4185-4461-999c-4f3034205158", "provider": "bird", "timeStamp": "03/25/2020, 08:07:46"}, "type": "Feature"}, {"geometry": {"coordinates": [8.520665, 47.3727983333333], "type": "Point"}, "properties": {"charge": 37, "id": "bird_93145ec1-bef8-4a3a-8ea2-b7e068d3f3a2", "provider": "bird", "timeStamp": "03/25/2020, 08:07:46"}, "type": "Feature"}, {"geometry": {"coordinates": [8.54062666666667, 47.3862266666667], "type": "Point"}, "properties": {"charge": 55, "id": "bird_0baff497-40ea-4fb3-aff8-6cdec8d2b5a9", "provider": "bird", "timeStamp": "03/25/2020, 08:07:46"}, "type": "Feature"}, {"geometry": {"coordinates": [8.51597166666667, 47.3794933333333], "type": "Point"}, "properties": {"charge": 61, "id": "bird_b274cdd6-0704-4ee4-8f70-8eeb4b30624d", "provider": "bird", "timeStamp": "03/25/2020, 08:07:46"}, "type": "Feature"}, {"geometry": {"coordinates": [8.51600333333333, 47.3794933333333], "type": "Point"}, "properties": {"charge": 78, "id": "bird_27bd116c-c1ce-4f78-8bd6-c4c935e20f80", "provider": "bird", "timeStamp": "03/25/2020, 08:07:46"}, "type": "Feature"}, {"geometry": {"coordinates": [8.542275, 47.384495], "type": "Point"}, "properties": {"charge": 34, "id": "bird_7ba11040-ca1c-4ecf-b4bd-e1851fcbf1d4", "provider": "bird", "timeStamp": "03/25/2020, 08:07:46"}, "type": "Feature"}, {"geometry": {"coordinates": [8.51623333333333, 47.379685], "type": "Point"}, "properties": {"charge": 78, "id": "bird_db019b8f-281c-4a4c-ae57-30aa453c50e8", "provider": "bird", "timeStamp": "03/25/2020, 08:07:46"}, "type": "Feature"}, {"geometry": {"coordinates": [8.516235, 47.3796966666667], "type": "Point"}, "properties": {"charge": 79, "id": "bird_549d7edb-be81-4f8a-af62-ace2e4a98007", "provider": "bird", "timeStamp": "03/25/2020, 08:07:46"}, "type": "Feature"}, {"geometry": {"coordinates": [8.53001333333333, 47.3893083333333], "type": "Point"}, "properties": {"charge": 64, "id": "bird_e78efe9a-5267-4cd0-82d4-af1aa24ee517", "provider": "bird", "timeStamp": "03/25/2020, 08:07:46"}, "type": "Feature"}, {"geometry": {"coordinates": [8.53743333333333, 47.3722033333333], "type": "Point"}, "properties": {"charge": 93, "id": "bird_71f82b6d-07e3-46c3-ac56-eeaf96ce2403", "provider": "bird", "timeStamp": "03/25/2020, 08:07:46"}, "type": "Feature"}, {"geometry": {"coordinates": [8.51898166666667, 47.3855133333333], "type": "Point"}, "properties": {"charge": 44, "id": "bird_8238d59f-f377-4441-9f0f-c892c252369a", "provider": "bird", "timeStamp": "03/25/2020, 08:07:46"}, "type": "Feature"}, {"geometry": {"coordinates": [8.53766666666667, 47.372345], "type": "Point"}, "properties": {"charge": 91, "id": "bird_f32513d3-509f-408e-9c28-24e159c647d7", "provider": "bird", "timeStamp": "03/25/2020, 08:07:46"}, "type": "Feature"}, {"geometry": {"coordinates": [8.53766833333333, 47.3724333333333], "type": "Point"}, "properties": {"charge": 92, "id": "bird_e6341e36-cc42-4aac-bc00-ca887ee7fe2f", "provider": "bird", "timeStamp": "03/25/2020, 08:07:46"}, "type": "Feature"}, {"geometry": {"coordinates": [8.52433666666667, 47.3717883333333], "type": "Point"}, "properties": {"charge": 39, "id": "bird_489f0e21-664e-4809-8d95-0f2c0f368800", "provider": "bird", "timeStamp": "03/25/2020, 08:07:46"}, "type": "Feature"}, {"geometry": {"coordinates": [8.53323333333333, 47.3886566666667], "type": "Point"}, "properties": {"charge": 38, "id": "bird_08fc2f82-6c9a-4186-bfa2-f4e98e139e40", "provider": "bird", "timeStamp": "03/25/2020, 08:07:46"}, "type": "Feature"}, {"geometry": {"coordinates": [8.53713833333333, 47.3873866666667], "type": "Point"}, "properties": {"charge": 46, "id": "bird_c152693a-d29d-40b6-a31f-65dd57be699d", "provider": "bird", "timeStamp": "03/25/2020, 08:07:46"}, "type": "Feature"}, {"geometry": {"coordinates": [8.53007666666667, 47.3712316666667], "type": "Point"}, "properties": {"charge": 40, "id": "bird_2ba538fa-802a-499c-9e63-e22d25414c8c", "provider": "bird", "timeStamp": "03/25/2020, 08:07:46"}, "type": "Feature"}, {"geometry": {"coordinates": [8.52344333333333, 47.37249], "type": "Point"}, "properties": {"charge": 80, "id": "bird_21e89970-2966-4344-8cad-b2b42deb119d", "provider": "bird", "timeStamp": "03/25/2020, 08:07:46"}, "type": "Feature"}, {"geometry": {"coordinates": [8.52764833333333, 47.3715783333333], "type": "Point"}, "properties": {"charge": 56, "id": "bird_aee63bb0-9596-4c0d-b6cc-e208e5bf283b", "provider": "bird", "timeStamp": "03/25/2020, 08:07:46"}, "type": "Feature"}, {"geometry": {"coordinates": [8.51759166666667, 47.3812716666667], "type": "Point"}, "properties": {"charge": 69, "id": "bird_1666ee0d-fcfe-4ebd-af74-ba96583b4447", "provider": "bird", "timeStamp": "03/25/2020, 08:07:46"}, "type": "Feature"}, {"geometry": {"coordinates": [8.53682, 47.372895], "type": "Point"}, "properties": {"charge": 96, "id": "bird_360ce19e-73bb-43cc-8bd6-ccb25c7ab48c", "provider": "bird", "timeStamp": "03/25/2020, 08:07:46"}, "type": "Feature"}, {"geometry": {"coordinates": [8.53685833333333, 47.3729283333333], "type": "Point"}, "properties": {"charge": 89, "id": "bird_624f75e8-caff-41ac-8db0-b7e4354e3cb5", "provider": "bird", "timeStamp": "03/25/2020, 08:07:46"}, "type": "Feature"}, {"geometry": {"coordinates": [8.52765166666667, 47.3717], "type": "Point"}, "properties": {"charge": 35, "id": "bird_d877f616-5f80-416c-a869-bd0e0a839781", "provider": "bird", "timeStamp": "03/25/2020, 08:07:46"}, "type": "Feature"}, {"geometry": {"coordinates": [8.52792333333333, 47.3716883333333], "type": "Point"}, "properties": {"charge": 92, "id": "bird_78adfa00-f573-44ae-a84d-61f935348369", "provider": "bird", "timeStamp": "03/25/2020, 08:07:46"}, "type": "Feature"}, {"geometry": {"coordinates": [8.53678166666667, 47.3730466666667], "type": "Point"}, "properties": {"charge": 91, "id": "bird_89ee8929-344d-41ea-a3dd-29d3eb5cc199", "provider": "bird", "timeStamp": "03/25/2020, 08:07:46"}, "type": "Feature"}, {"geometry": {"coordinates": [8.52319166666667, 47.3869366666667], "type": "Point"}, "properties": {"charge": 91, "id": "bird_e54c6f1d-0eab-4112-a6db-b457cbe8f1ac", "provider": "bird", "timeStamp": "03/25/2020, 08:07:46"}, "type": "Feature"}, {"geometry": {"coordinates": [8.536815, 47.3730766666667], "type": "Point"}, "properties": {"charge": 93, "id": "bird_e8a05073-c6fa-4e83-a56b-a2d1d5884be4", "provider": "bird", "timeStamp": "03/25/2020, 08:07:46"}, "type": "Feature"}, {"geometry": {"coordinates": [8.534255, 47.3878016666667], "type": "Point"}, "properties": {"charge": 29, "id": "bird_6c998bb2-f802-42cc-9f70-01405b1ee714", "provider": "bird", "timeStamp": "03/25/2020, 08:07:46"}, "type": "Feature"}, {"geometry": {"coordinates": [8.53169, 47.3882366666667], "type": "Point"}, "properties": {"charge": 70, "id": "bird_ac0b55db-554b-40bc-b829-5c7e1da1fa76", "provider": "bird", "timeStamp": "03/25/2020, 08:07:46"}, "type": "Feature"}, {"geometry": {"coordinates": [8.53676666666667, 47.3730733333333], "type": "Point"}, "properties": {"charge": 93, "id": "bird_f44b41d9-dc30-40a2-87d1-5f5ae0392bbc", "provider": "bird", "timeStamp": "03/25/2020, 08:07:46"}, "type": "Feature"}, {"geometry": {"coordinates": [8.53437666666667, 47.3876116666667], "type": "Point"}, "properties": {"charge": 38, "id": "bird_761b4e00-9503-47f3-9dea-8ca24590ba0b", "provider": "bird", "timeStamp": "03/25/2020, 08:07:46"}, "type": "Feature"}, {"geometry": {"coordinates": [8.52527333333333, 47.38747], "type": "Point"}, "properties": {"charge": 20, "id": "bird_483ad00b-c597-4cc2-934c-a8403eb9e987", "provider": "bird", "timeStamp": "03/25/2020, 08:07:46"}, "type": "Feature"}, {"geometry": {"coordinates": [8.541225, 47.37727], "type": "Point"}, "properties": {"charge": 62, "id": "bird_ffe008c6-3587-423e-99cc-e786e5eb2763", "provider": "bird", "timeStamp": "03/25/2020, 08:07:46"}, "type": "Feature"}, {"geometry": {"coordinates": [8.521795, 47.385845], "type": "Point"}, "properties": {"charge": 28, "id": "bird_b13c93dd-781a-472f-b0f7-1da0b61c1b2b", "provider": "bird", "timeStamp": "03/25/2020, 08:07:46"}, "type": "Feature"}, {"geometry": {"coordinates": [8.52505833333333, 47.3873333333333], "type": "Point"}, "properties": {"charge": 19, "id": "bird_e68fa772-3b94-45f5-819a-7240b636f0fa", "provider": "bird", "timeStamp": "03/25/2020, 08:07:46"}, "type": "Feature"}, {"geometry": {"coordinates": [8.54056, 47.3836866666667], "type": "Point"}, "properties": {"charge": 52, "id": "bird_24bf93ee-5a62-41f7-8a26-02e221bc9fa8", "provider": "bird", "timeStamp": "03/25/2020, 08:07:46"}, "type": "Feature"}, {"geometry": {"coordinates": [8.54137, 47.3781616666667], "type": "Point"}, "properties": {"charge": 38, "id": "bird_cb5a2dea-b100-485e-a1be-844d9d7aa744", "provider": "bird", "timeStamp": "03/25/2020, 08:07:46"}, "type": "Feature"}, {"geometry": {"coordinates": [8.53460833333333, 47.3728183333333], "type": "Point"}, "properties": {"charge": 94, "id": "bird_dc6eabd1-c20f-4e58-ace6-9d136e9a11ba", "provider": "bird", "timeStamp": "03/25/2020, 08:07:46"}, "type": "Feature"}, {"geometry": {"coordinates": [8.52003666666667, 47.376075], "type": "Point"}, "properties": {"charge": 18, "id": "bird_3020b7c5-cc9d-455c-88fd-cd800b60f811", "provider": "bird", "timeStamp": "03/25/2020, 08:07:46"}, "type": "Feature"}, {"geometry": {"coordinates": [8.53455833333333, 47.3728333333333], "type": "Point"}, "properties": {"charge": 88, "id": "bird_9b8c93ca-a630-4851-b959-c455d41c6558", "provider": "bird", "timeStamp": "03/25/2020, 08:07:46"}, "type": "Feature"}, {"geometry": {"coordinates": [8.53449333333333, 47.3728183333333], "type": "Point"}, "properties": {"charge": 89, "id": "bird_eae1904b-0fb5-4656-ac52-b53b6cf33e9d", "provider": "bird", "timeStamp": "03/25/2020, 08:07:46"}, "type": "Feature"}, {"geometry": {"coordinates": [8.54049666666667, 47.3768233333333], "type": "Point"}, "properties": {"charge": 19, "id": "bird_81e0641e-b48f-45fb-8131-0c7a8edb4d12", "provider": "bird", "timeStamp": "03/25/2020, 08:07:46"}, "type": "Feature"}, {"geometry": {"coordinates": [8.523685, 47.386475], "type": "Point"}, "properties": {"charge": 44, "id": "bird_a209ef65-34c6-4661-8e52-9b13de4400c8", "provider": "bird", "timeStamp": "03/25/2020, 08:07:46"}, "type": "Feature"}, {"geometry": {"coordinates": [8.53437333333333, 47.37286], "type": "Point"}, "properties": {"charge": 92, "id": "bird_5e620e27-144a-4f9b-a61f-ff90a1463e25", "provider": "bird", "timeStamp": "03/25/2020, 08:07:46"}, "type": "Feature"}, {"geometry": {"coordinates": [8.539785, 47.383805], "type": "Point"}, "properties": {"charge": 25, "id": "bird_095cb73c-c1bf-4ff2-830f-30744a1c04b9", "provider": "bird", "timeStamp": "03/25/2020, 08:07:46"}, "type": "Feature"}, {"geometry": {"coordinates": [8.53476, 47.3733866666667], "type": "Point"}, "properties": {"charge": 93, "id": "bird_de7fbf48-14d8-493d-a302-10e2c4125e45", "provider": "bird", "timeStamp": "03/25/2020, 08:07:46"}, "type": "Feature"}, {"geometry": {"coordinates": [8.53476166666667, 47.3734466666667], "type": "Point"}, "properties": {"charge": 91, "id": "bird_40e112bf-c268-4cd0-87f3-1051d8b53044", "provider": "bird", "timeStamp": "03/25/2020, 08:07:46"}, "type": "Feature"}, {"geometry": {"coordinates": [8.53471166666667, 47.3734516666667], "type": "Point"}, "properties": {"charge": 89, "id": "bird_74ca697c-f9a5-4dcc-b0b4-251d98aa2ce0", "provider": "bird", "timeStamp": "03/25/2020, 08:07:46"}, "type": "Feature"}, {"geometry": {"coordinates": [8.53069333333333, 47.37278], "type": "Point"}, "properties": {"charge": 91, "id": "bird_3d8cad43-02f4-4a69-900f-8d42b493e8f2", "provider": "bird", "timeStamp": "03/25/2020, 08:07:46"}, "type": "Feature"}, {"geometry": {"coordinates": [8.52828, 47.3870883333333], "type": "Point"}, "properties": {"charge": 20, "id": "bird_aebd4ffa-a1d5-4fea-8231-a8c6ad09bd65", "provider": "bird", "timeStamp": "03/25/2020, 08:07:46"}, "type": "Feature"}, {"geometry": {"coordinates": [8.52433833333333, 47.386025], "type": "Point"}, "properties": {"charge": 21, "id": "bird_0ff85c25-89f1-48aa-bcd5-3ef93f06f969", "provider": "bird", "timeStamp": "03/25/2020, 08:07:46"}, "type": "Feature"}, {"geometry": {"coordinates": [8.526055, 47.38641], "type": "Point"}, "properties": {"charge": 26, "id": "bird_159c84f3-236f-48bb-987b-be5dda7db0e5", "provider": "bird", "timeStamp": "03/25/2020, 08:07:46"}, "type": "Feature"}, {"geometry": {"coordinates": [8.52402, 47.37437], "type": "Point"}, "properties": {"charge": 15, "id": "bird_fc7e9b25-0c74-4363-b91f-b0a83391ffdd", "provider": "bird", "timeStamp": "03/25/2020, 08:07:46"}, "type": "Feature"}, {"geometry": {"coordinates": [8.52410166666667, 47.37453], "type": "Point"}, "properties": {"charge": 12, "id": "bird_50586777-b3b3-4ae1-a662-7028223d7374", "provider": "bird", "timeStamp": "03/25/2020, 08:07:46"}, "type": "Feature"}, {"geometry": {"coordinates": [8.523035, 47.375145], "type": "Point"}, "properties": {"charge": 21, "id": "bird_b0ce6f8a-ccdb-4191-8ea4-8ba1d55c1319", "provider": "bird", "timeStamp": "03/25/2020, 08:07:46"}, "type": "Feature"}, {"geometry": {"coordinates": [8.53740666666667, 47.3755716666667], "type": "Point"}, "properties": {"charge": 53, "id": "bird_af446d55-5471-46a1-8a17-a40a683753d7", "provider": "bird", "timeStamp": "03/25/2020, 08:07:46"}, "type": "Feature"}, {"geometry": {"coordinates": [8.52422166666667, 47.374615], "type": "Point"}, "properties": {"charge": 44, "id": "bird_e951c738-a459-49c5-98ed-1cd5f769b3ba", "provider": "bird", "timeStamp": "03/25/2020, 08:07:46"}, "type": "Feature"}, {"geometry": {"coordinates": [8.53726666666667, 47.3756033333333], "type": "Point"}, "properties": {"charge": 92, "id": "bird_67b60142-e005-4cda-85ea-dd912fe9a718", "provider": "bird", "timeStamp": "03/25/2020, 08:07:46"}, "type": "Feature"}, {"geometry": {"coordinates": [8.537245, 47.3756366666667], "type": "Point"}, "properties": {"charge": 96, "id": "bird_703e6036-5937-444c-82e9-7749cc9e9736", "provider": "bird", "timeStamp": "03/25/2020, 08:07:46"}, "type": "Feature"}, {"geometry": {"coordinates": [8.521125, 47.3774116666667], "type": "Point"}, "properties": {"charge": 74, "id": "bird_034044c9-47bb-4a96-b52c-dcd5e1ffc6b7", "provider": "bird", "timeStamp": "03/25/2020, 08:07:46"}, "type": "Feature"}, {"geometry": {"coordinates": [8.53717833333333, 47.37563], "type": "Point"}, "properties": {"charge": 93, "id": "bird_4f017784-f124-459b-bd25-b1c69ab93f4c", "provider": "bird", "timeStamp": "03/25/2020, 08:07:46"}, "type": "Feature"}, {"geometry": {"coordinates": [8.53689833333333, 47.3754316666667], "type": "Point"}, "properties": {"charge": 89, "id": "bird_03f9a365-820b-4e86-aaed-cf1cd70368ca", "provider": "bird", "timeStamp": "03/25/2020, 08:07:46"}, "type": "Feature"}, {"geometry": {"coordinates": [8.52544, 47.3742633333333], "type": "Point"}, "properties": {"charge": 19, "id": "bird_93f58524-83a0-420b-9042-0808e66fc279", "provider": "bird", "timeStamp": "03/25/2020, 08:07:46"}, "type": "Feature"}, {"geometry": {"coordinates": [8.52118833333333, 47.3774033333333], "type": "Point"}, "properties": {"charge": 25, "id": "bird_5bcca4a8-a82f-45b4-8690-c2b7b79ceab8", "provider": "bird", "timeStamp": "03/25/2020, 08:07:46"}, "type": "Feature"}, {"geometry": {"coordinates": [8.538825, 47.3774533333333], "type": "Point"}, "properties": {"charge": 93, "id": "bird_a3f1bde7-f550-4b7b-808f-1b429c6aa731", "provider": "bird", "timeStamp": "03/25/2020, 08:07:46"}, "type": "Feature"}, {"geometry": {"coordinates": [8.52980064273933, 47.3735202899478], "type": "Point"}, "properties": {"charge": 96, "id": "bird_b389f72c-4982-46e6-8148-78d056a09fd6", "provider": "bird", "timeStamp": "03/25/2020, 08:07:46"}, "type": "Feature"}, {"geometry": {"coordinates": [8.53866333333333, 47.37733], "type": "Point"}, "properties": {"charge": 54, "id": "bird_cb3d5798-dd54-4483-9e44-64cef69edd24", "provider": "bird", "timeStamp": "03/25/2020, 08:07:46"}, "type": "Feature"}, {"geometry": {"coordinates": [8.53666666666667, 47.375435], "type": "Point"}, "properties": {"charge": 96, "id": "bird_990cf4fc-1211-41d3-9c5d-e90806337f18", "provider": "bird", "timeStamp": "03/25/2020, 08:07:46"}, "type": "Feature"}, {"geometry": {"coordinates": [8.52548, 47.3743583333333], "type": "Point"}, "properties": {"charge": 26, "id": "bird_86b51830-afb0-41f4-acb8-407af3e6a9fd", "provider": "bird", "timeStamp": "03/25/2020, 08:07:46"}, "type": "Feature"}, {"geometry": {"coordinates": [8.53671833333333, 47.37548], "type": "Point"}, "properties": {"charge": 93, "id": "bird_6f2bec65-881a-447a-81e0-edb69084f758", "provider": "bird", "timeStamp": "03/25/2020, 08:07:46"}, "type": "Feature"}, {"geometry": {"coordinates": [8.53711166666667, 47.3758283333333], "type": "Point"}, "properties": {"charge": 94, "id": "bird_219cffb8-1974-4915-b65c-bc5a49f994af", "provider": "bird", "timeStamp": "03/25/2020, 08:07:46"}, "type": "Feature"}, {"geometry": {"coordinates": [8.536595, 47.3754616666667], "type": "Point"}, "properties": {"charge": 90, "id": "bird_87fda542-5415-400f-9f51-ffaf3b6697af", "provider": "bird", "timeStamp": "03/25/2020, 08:07:46"}, "type": "Feature"}, {"geometry": {"coordinates": [8.53701666666667, 47.375775], "type": "Point"}, "properties": {"charge": 91, "id": "bird_5b38c345-becf-48d3-a3b5-8db3d4ee23ac", "provider": "bird", "timeStamp": "03/25/2020, 08:07:46"}, "type": "Feature"}, {"geometry": {"coordinates": [8.53713, 47.3758966666667], "type": "Point"}, "properties": {"charge": 89, "id": "bird_0d8855c7-b885-4b54-a7e0-9bc7444bd034", "provider": "bird", "timeStamp": "03/25/2020, 08:07:46"}, "type": "Feature"}, {"geometry": {"coordinates": [8.53684, 47.3756783333333], "type": "Point"}, "properties": {"charge": 93, "id": "bird_f6f32257-b711-47a7-9ec4-a8eebe707fb3", "provider": "bird", "timeStamp": "03/25/2020, 08:07:46"}, "type": "Feature"}, {"geometry": {"coordinates": [8.53694666666667, 47.37579], "type": "Point"}, "properties": {"charge": 89, "id": "bird_378e304e-a524-4b90-92db-8d27f80c494d", "provider": "bird", "timeStamp": "03/25/2020, 08:07:46"}, "type": "Feature"}, {"geometry": {"coordinates": [8.53707666666667, 47.3759116666667], "type": "Point"}, "properties": {"charge": 93, "id": "bird_d4d5cecc-10b6-4699-919c-0ebff707fe84", "provider": "bird", "timeStamp": "03/25/2020, 08:07:46"}, "type": "Feature"}, {"geometry": {"coordinates": [8.53703666666667, 47.3758816666667], "type": "Point"}, "properties": {"charge": 92, "id": "bird_225eafb4-d45a-4043-ac56-3d8af451aaf3", "provider": "bird", "timeStamp": "03/25/2020, 08:07:46"}, "type": "Feature"}, {"geometry": {"coordinates": [8.52479333333333, 47.3753166666667], "type": "Point"}, "properties": {"charge": 36, "id": "bird_e3aa17e4-772b-4791-8207-4bf8dbf97f89", "provider": "bird", "timeStamp": "03/25/2020, 08:07:46"}, "type": "Feature"}, {"geometry": {"coordinates": [8.521705, 47.3788383333333], "type": "Point"}, "properties": {"charge": 72, "id": "bird_7a527bc7-43f4-46fd-bc6d-47d5eac7d955", "provider": "bird", "timeStamp": "03/25/2020, 08:07:46"}, "type": "Feature"}, {"geometry": {"coordinates": [8.524895, 47.37547], "type": "Point"}, "properties": {"charge": 57, "id": "bird_ff1f6e44-235e-4386-879d-41c8f2cfa24f", "provider": "bird", "timeStamp": "03/25/2020, 08:07:46"}, "type": "Feature"}, {"geometry": {"coordinates": [8.52488666666667, 47.375515], "type": "Point"}, "properties": {"charge": 33, "id": "bird_e2a23ac3-58e1-4780-afb1-c46b5af51ccd", "provider": "bird", "timeStamp": "03/25/2020, 08:07:46"}, "type": "Feature"}, {"geometry": {"coordinates": [8.52513833333333, 47.3753933333333], "type": "Point"}, "properties": {"charge": 60, "id": "bird_0ce5d5ff-cbdc-4830-b624-596ac901d9ea", "provider": "bird", "timeStamp": "03/25/2020, 08:07:46"}, "type": "Feature"}, {"geometry": {"coordinates": [8.52523666666667, 47.3753583333333], "type": "Point"}, "properties": {"charge": 55, "id": "bird_3cae92f4-7b9a-4c84-a0ab-6eebcb34f664", "provider": "bird", "timeStamp": "03/25/2020, 08:07:46"}, "type": "Feature"}, {"geometry": {"coordinates": [8.537505, 47.3777466666667], "type": "Point"}, "properties": {"charge": 43, "id": "bird_891990d6-c393-4f82-9f31-ad39fcb97d0c", "provider": "bird", "timeStamp": "03/25/2020, 08:07:46"}, "type": "Feature"}, {"geometry": {"coordinates": [8.52905666666667, 47.38536], "type": "Point"}, "properties": {"charge": 44, "id": "bird_cde36b14-c045-4fd2-a3f0-6949979389be", "provider": "bird", "timeStamp": "03/25/2020, 08:07:46"}, "type": "Feature"}, {"geometry": {"coordinates": [8.53764333333333, 47.3794066666667], "type": "Point"}, "properties": {"charge": 93, "id": "bird_daeb7bbf-7033-461a-ae7d-6e3b62389874", "provider": "bird", "timeStamp": "03/25/2020, 08:07:46"}, "type": "Feature"}, {"geometry": {"coordinates": [8.53764, 47.3794016666667], "type": "Point"}, "properties": {"charge": 93, "id": "bird_92ffc47a-61ce-40df-bc93-1a7c7c200186", "provider": "bird", "timeStamp": "03/25/2020, 08:07:46"}, "type": "Feature"}, {"geometry": {"coordinates": [8.53747166666667, 47.3794433333333], "type": "Point"}, "properties": {"charge": 89, "id": "bird_beba0300-24ed-4bb1-8832-4029f6c8a744", "provider": "bird", "timeStamp": "03/25/2020, 08:07:46"}, "type": "Feature"}, {"geometry": {"coordinates": [8.53741, 47.37949], "type": "Point"}, "properties": {"charge": 91, "id": "bird_628b448d-c0b5-405e-b86f-6bfa033b328e", "provider": "bird", "timeStamp": "03/25/2020, 08:07:46"}, "type": "Feature"}, {"geometry": {"coordinates": [8.53684, 47.3780366666667], "type": "Point"}, "properties": {"charge": 57, "id": "bird_2f5d93f3-ce3e-494a-b328-5828da6c692b", "provider": "bird", "timeStamp": "03/25/2020, 08:07:46"}, "type": "Feature"}, {"geometry": {"coordinates": [8.53147333333333, 47.3848716666667], "type": "Point"}, "properties": {"charge": 66, "id": "bird_e04c8a75-57a9-40da-a536-95138b0b553e", "provider": "bird", "timeStamp": "03/25/2020, 08:07:46"}, "type": "Feature"}, {"geometry": {"coordinates": [8.53671666666667, 47.37801], "type": "Point"}, "properties": {"charge": 55, "id": "bird_ac3f60d0-4d2c-470a-b62c-5f352c2a6d2b", "provider": "bird", "timeStamp": "03/25/2020, 08:07:46"}, "type": "Feature"}, {"geometry": {"coordinates": [8.53141333333333, 47.384865], "type": "Point"}, "properties": {"charge": 54, "id": "bird_079e6a21-22da-4c64-8f56-3dda54372ea2", "provider": "bird", "timeStamp": "03/25/2020, 08:07:46"}, "type": "Feature"}, {"geometry": {"coordinates": [8.53657666666667, 47.382065], "type": "Point"}, "properties": {"charge": 44, "id": "bird_456c9963-56d3-4a41-a421-cc15da63fae3", "provider": "bird", "timeStamp": "03/25/2020, 08:07:46"}, "type": "Feature"}, {"geometry": {"coordinates": [8.52496666666667, 47.37659], "type": "Point"}, "properties": {"charge": 97, "id": "bird_a5647fa4-c2b6-442b-a4ae-7ad4a7d81259", "provider": "bird", "timeStamp": "03/25/2020, 08:07:46"}, "type": "Feature"}, {"geometry": {"coordinates": [8.52323666666667, 47.3784983333333], "type": "Point"}, "properties": {"charge": 19, "id": "bird_e74f891c-54da-4328-ac8a-fefd2f35b758", "provider": "bird", "timeStamp": "03/25/2020, 08:07:46"}, "type": "Feature"}, {"geometry": {"coordinates": [8.52705666666666, 47.3756133333333], "type": "Point"}, "properties": {"charge": 100, "id": "bird_6584bf4d-262a-4328-9ae6-767bfc4b97bb", "provider": "bird", "timeStamp": "03/25/2020, 08:07:46"}, "type": "Feature"}, {"geometry": {"coordinates": [8.53649166666667, 47.3780666666667], "type": "Point"}, "properties": {"charge": 66, "id": "bird_b2129a9a-5068-4ee9-82c3-fceda5981056", "provider": "bird", "timeStamp": "03/25/2020, 08:07:46"}, "type": "Feature"}, {"geometry": {"coordinates": [8.525, 47.3765983333333], "type": "Point"}, "properties": {"charge": 99, "id": "bird_2cdf1af0-cfaf-46ca-b01d-f05a34bea46e", "provider": "bird", "timeStamp": "03/25/2020, 08:07:46"}, "type": "Feature"}, {"geometry": {"coordinates": [8.52646333333333, 47.3758616666667], "type": "Point"}, "properties": {"charge": 100, "id": "bird_249fe6b6-2f16-42dd-ba18-f5c8a5628843", "provider": "bird", "timeStamp": "03/25/2020, 08:07:46"}, "type": "Feature"}, {"geometry": {"coordinates": [8.52551666666667, 47.3836933333333], "type": "Point"}, "properties": {"charge": 29, "id": "bird_2f8f957b-7fd5-4272-a7f8-d0c85517d6de", "provider": "bird", "timeStamp": "03/25/2020, 08:07:46"}, "type": "Feature"}, {"geometry": {"coordinates": [8.52642, 47.375885], "type": "Point"}, "properties": {"charge": 99, "id": "bird_e03dad67-c737-45dc-8204-25ce349dc250", "provider": "bird", "timeStamp": "03/25/2020, 08:07:46"}, "type": "Feature"}, {"geometry": {"coordinates": [8.52701333333333, 47.375705], "type": "Point"}, "properties": {"charge": 97, "id": "bird_20347378-0c8b-4811-b5d7-67937420e4aa", "provider": "bird", "timeStamp": "03/25/2020, 08:07:46"}, "type": "Feature"}, {"geometry": {"coordinates": [8.52538333333333, 47.3764383333333], "type": "Point"}, "properties": {"charge": 98, "id": "bird_5782619b-19d0-4b88-bc07-ebc8a47deca2", "provider": "bird", "timeStamp": "03/25/2020, 08:07:46"}, "type": "Feature"}, {"geometry": {"coordinates": [8.52583833333333, 47.3762166666667], "type": "Point"}, "properties": {"charge": 92, "id": "bird_d52edecf-ad7b-4d49-8209-ffddb9ad1dde", "provider": "bird", "timeStamp": "03/25/2020, 08:07:46"}, "type": "Feature"}, {"geometry": {"coordinates": [8.52582166666667, 47.3762316666667], "type": "Point"}, "properties": {"charge": 97, "id": "bird_bf7169c3-d87a-4bd5-8f4b-740302d90592", "provider": "bird", "timeStamp": "03/25/2020, 08:07:46"}, "type": "Feature"}, {"geometry": {"coordinates": [8.53546833333333, 47.3771166666667], "type": "Point"}, "properties": {"charge": 16, "id": "bird_725cd798-569f-4fa3-b8e2-6054f318c527", "provider": "bird", "timeStamp": "03/25/2020, 08:07:46"}, "type": "Feature"}, {"geometry": {"coordinates": [8.52582, 47.3762666666667], "type": "Point"}, "properties": {"charge": 93, "id": "bird_a4b88571-381a-4624-b928-5416d2d8a911", "provider": "bird", "timeStamp": "03/25/2020, 08:07:46"}, "type": "Feature"}, {"geometry": {"coordinates": [8.52543666666667, 47.37653], "type": "Point"}, "properties": {"charge": 98, "id": "bird_3bb92267-b966-4b06-8fc3-94ea17427b24", "provider": "bird", "timeStamp": "03/25/2020, 08:07:46"}, "type": "Feature"}, {"geometry": {"coordinates": [8.53189166666667, 47.3844566666667], "type": "Point"}, "properties": {"charge": 67, "id": "bird_67d5922a-a24f-4f6a-b0c7-7120102e1749", "provider": "bird", "timeStamp": "03/25/2020, 08:07:46"}, "type": "Feature"}, {"geometry": {"coordinates": [8.52671666666667, 47.38401], "type": "Point"}, "properties": {"charge": 87, "id": "bird_c9979e91-b837-4d4c-a3e4-6f79917e886e", "provider": "bird", "timeStamp": "03/25/2020, 08:07:46"}, "type": "Feature"}, {"geometry": {"coordinates": [8.53199666666667, 47.3843733333333], "type": "Point"}, "properties": {"charge": 24, "id": "bird_4504994e-5c44-47b5-9cb0-3f60720d4f1c", "provider": "bird", "timeStamp": "03/25/2020, 08:07:46"}, "type": "Feature"}, {"geometry": {"coordinates": [8.532035, 47.384365], "type": "Point"}, "properties": {"charge": 45, "id": "bird_eea5de29-01fc-47e7-960c-e834802cafb5", "provider": "bird", "timeStamp": "03/25/2020, 08:07:46"}, "type": "Feature"}, {"geometry": {"coordinates": [8.53602166666667, 47.377995], "type": "Point"}, "properties": {"charge": 89, "id": "bird_59fb4e26-0a13-4563-a980-e48dd63a8b01", "provider": "bird", "timeStamp": "03/25/2020, 08:07:46"}, "type": "Feature"}, {"geometry": {"coordinates": [8.53600166666667, 47.3779716666667], "type": "Point"}, "properties": {"charge": 97, "id": "bird_ef0da4c5-210d-4a15-93a3-fcdc18f5162e", "provider": "bird", "timeStamp": "03/25/2020, 08:07:46"}, "type": "Feature"}, {"geometry": {"coordinates": [8.536055, 47.3780516666667], "type": "Point"}, "properties": {"charge": 93, "id": "bird_7cd3013d-c2dd-4535-b4ce-3b1f4c1ea347", "provider": "bird", "timeStamp": "03/25/2020, 08:07:46"}, "type": "Feature"}, {"geometry": {"coordinates": [8.53602666666667, 47.378025], "type": "Point"}, "properties": {"charge": 69, "id": "bird_9915db71-5eae-4b9c-b30b-b75a97a669a2", "provider": "bird", "timeStamp": "03/25/2020, 08:07:46"}, "type": "Feature"}, {"geometry": {"coordinates": [8.53599666666667, 47.3779866666667], "type": "Point"}, "properties": {"charge": 100, "id": "bird_e8723311-8de7-495f-9a36-bed1ea4d3a07", "provider": "bird", "timeStamp": "03/25/2020, 08:07:46"}, "type": "Feature"}, {"geometry": {"coordinates": [8.53145166666667, 47.3844033333333], "type": "Point"}, "properties": {"charge": 47, "id": "bird_06738efa-2511-4e6e-a0f0-9660c909226c", "provider": "bird", "timeStamp": "03/25/2020, 08:07:46"}, "type": "Feature"}, {"geometry": {"coordinates": [8.529115, 47.3844716666667], "type": "Point"}, "properties": {"charge": 31, "id": "bird_a2fa04ff-d7c3-438a-a458-91cfc7e37243", "provider": "bird", "timeStamp": "03/25/2020, 08:07:46"}, "type": "Feature"}, {"geometry": {"coordinates": [8.53590666666667, 47.37799], "type": "Point"}, "properties": {"charge": 99, "id": "bird_07191731-1d66-49d4-ab54-5c08d7a3119e", "provider": "bird", "timeStamp": "03/25/2020, 08:07:46"}, "type": "Feature"}, {"geometry": {"coordinates": [8.52603833333333, 47.3764183333333], "type": "Point"}, "properties": {"charge": 97, "id": "bird_11f84631-3c7b-4852-a0cd-530d4b7383ff", "provider": "bird", "timeStamp": "03/25/2020, 08:07:46"}, "type": "Feature"}, {"geometry": {"coordinates": [8.53601166666667, 47.3781783333333], "type": "Point"}, "properties": {"charge": 38, "id": "bird_db4e2127-8c1a-4d3b-9760-45eda9468624", "provider": "bird", "timeStamp": "03/25/2020, 08:07:46"}, "type": "Feature"}, {"geometry": {"coordinates": [8.53579833333333, 47.37793], "type": "Point"}, "properties": {"charge": 98, "id": "bird_d11cd3dc-45f0-4c2c-b80b-3ad866549bef", "provider": "bird", "timeStamp": "03/25/2020, 08:07:46"}, "type": "Feature"}, {"geometry": {"coordinates": [8.52646333333333, 47.3762666666667], "type": "Point"}, "properties": {"charge": 99, "id": "bird_b797b5df-dc84-4147-8213-ce64267e4dcd", "provider": "bird", "timeStamp": "03/25/2020, 08:07:46"}, "type": "Feature"}, {"geometry": {"coordinates": [8.53575833333333, 47.3779333333333], "type": "Point"}, "properties": {"charge": 100, "id": "bird_d463890f-f267-41b4-aaae-1239621dcc70", "provider": "bird", "timeStamp": "03/25/2020, 08:07:46"}, "type": "Feature"}, {"geometry": {"coordinates": [8.52933166666667, 47.3843883333333], "type": "Point"}, "properties": {"charge": 57, "id": "bird_47edce45-1a6d-4c02-9141-cc4dac653f65", "provider": "bird", "timeStamp": "03/25/2020, 08:07:46"}, "type": "Feature"}, {"geometry": {"coordinates": [8.526175, 47.37645], "type": "Point"}, "properties": {"charge": 99, "id": "bird_d034866d-8e38-4374-a6c5-c5e5c6eef2ba", "provider": "bird", "timeStamp": "03/25/2020, 08:07:46"}, "type": "Feature"}, {"geometry": {"coordinates": [8.53574333333333, 47.37801], "type": "Point"}, "properties": {"charge": 83, "id": "bird_f12a94c0-dd3c-4eaa-a1bf-0dad6929d690", "provider": "bird", "timeStamp": "03/25/2020, 08:07:46"}, "type": "Feature"}, {"geometry": {"coordinates": [8.52622, 47.376465], "type": "Point"}, "properties": {"charge": 100, "id": "bird_638b73d8-6102-4fb8-8762-668133cd2d65", "provider": "bird", "timeStamp": "03/25/2020, 08:07:46"}, "type": "Feature"}, {"geometry": {"coordinates": [8.53579333333333, 47.3781016666667], "type": "Point"}, "properties": {"charge": 66, "id": "bird_ac42d4b6-97f4-4b74-8523-ed3d939265a7", "provider": "bird", "timeStamp": "03/25/2020, 08:07:46"}, "type": "Feature"}, {"geometry": {"coordinates": [8.52671, 47.3762633333333], "type": "Point"}, "properties": {"charge": 99, "id": "bird_97a0d91b-3952-4ccd-a8d1-34a3e13beddc", "provider": "bird", "timeStamp": "03/25/2020, 08:07:46"}, "type": "Feature"}, {"geometry": {"coordinates": [8.53441333333333, 47.3768466666667], "type": "Point"}, "properties": {"charge": 99, "id": "bird_8b7f5d56-6cae-402e-a7d3-8fc6614723b1", "provider": "bird", "timeStamp": "03/25/2020, 08:07:46"}, "type": "Feature"}, {"geometry": {"coordinates": [8.535705, 47.3780516666667], "type": "Point"}, "properties": {"charge": 43, "id": "bird_0ddb43da-36ba-411d-b46f-fff8b51ba60c", "provider": "bird", "timeStamp": "03/25/2020, 08:07:46"}, "type": "Feature"}, {"geometry": {"coordinates": [8.52676, 47.3762816666667], "type": "Point"}, "properties": {"charge": 98, "id": "bird_ca0842f2-4083-43f6-9fb9-faef83d5b0de", "provider": "bird", "timeStamp": "03/25/2020, 08:07:46"}, "type": "Feature"}, {"geometry": {"coordinates": [8.53562, 47.3779983333333], "type": "Point"}, "properties": {"charge": 19, "id": "bird_57ad19d2-c7ea-4d0d-9bb5-148561ccb72b", "provider": "bird", "timeStamp": "03/25/2020, 08:07:46"}, "type": "Feature"}, {"geometry": {"coordinates": [8.53572333333333, 47.3781616666667], "type": "Point"},