{"features": [{"geometry": {"coordinates": [8.540062, 47.374392], "type": "Point"}, "properties": {"address": "Uraniastrasse 7", "electric": 7, "id": "pb_60", "manual": 6, "name": "Demo Station Werdm\u00fchleplatz", "provider": "publibike", "timeStamp": "02/05/2020, 19:08:24", "zip": 8001}, "type": "Feature"}, {"geometry": {"coordinates": [8.5452956, 47.4099615], "type": "Point"}, "properties": {"address": "Querstrasse 8", "electric": 0, "id": "pb_61", "manual": 3, "name": "Marktplatz", "provider": "publibike", "timeStamp": "02/05/2020, 19:08:24", "zip": 8050}, "type": "Feature"}, {"geometry": {"coordinates": [8.5156327, 47.3795837], "type": "Point"}, "properties": {"address": "Bullingerstrasse 5", "electric": 4, "id": "pb_80", "manual": 6, "name": "Bullingerplatz", "provider": "publibike", "timeStamp": "02/05/2020, 19:08:24", "zip": 8004}, "type": "Feature"}, {"geometry": {"coordinates": [8.5104051, 47.3899342], "type": "Point"}, "properties": {"address": "Pfingstweidstrasse 96e", "electric": 0, "id": "pb_81", "manual": 7, "name": "Herdern", "provider": "publibike", "timeStamp": "02/05/2020, 19:08:24", "zip": 8001}, "type": "Feature"}, {"geometry": {"coordinates": [8.535718, 47.359675], "type": "Point"}, "properties": {"address": "Mythenquai 50", "electric": 0, "id": "pb_82", "manual": 0, "name": "Hafen Enge", "provider": "publibike", "timeStamp": "02/05/2020, 19:08:24", "zip": 8002}, "type": "Feature"}, {"geometry": {"coordinates": [8.520370505, 47.358663827], "type": "Point"}, "properties": {"address": "Bubenbergstrasse 1", "electric": 1, "id": "pb_83", "manual": 7, "name": "Comerge", "provider": "publibike", "timeStamp": "02/05/2020, 19:08:24", "zip": 8045}, "type": "Feature"}, {"geometry": {"coordinates": [8.5412505, 47.3789825], "type": "Point"}, "properties": {"address": "Museumstrasse 2", "electric": 5, "id": "pb_84", "manual": 17, "name": "Landesmuseum", "provider": "publibike", "timeStamp": "02/05/2020, 19:08:24", "zip": 8001}, "type": "Feature"}, {"geometry": {"coordinates": [8.5235479, 47.3716661], "type": "Point"}, "properties": {"address": "Birmensdorferstrasse 80", "electric": 1, "id": "pb_85", "manual": 0, "name": "Bahnhof Wiedikon", "provider": "publibike", "timeStamp": "02/05/2020, 19:08:24", "zip": 8003}, "type": "Feature"}, {"geometry": {"coordinates": [8.506822854, 47.40781197], "type": "Point"}, "properties": {"address": "Stefano-Franscini-Platz 5", "electric": 0, "id": "pb_86", "manual": 0, "name": "ETH H\u00f6nggerberg", "provider": "publibike", "timeStamp": "02/05/2020, 19:08:24", "zip": 8093}, "type": "Feature"}, {"geometry": {"coordinates": [8.536101, 47.371083], "type": "Point"}, "properties": {"address": "Pelikanplatz 5", "electric": 3, "id": "pb_87", "manual": 12, "name": "Pelikanplatz", "provider": "publibike", "timeStamp": "02/05/2020, 19:08:24", "zip": 8001}, "type": "Feature"}, {"geometry": {"coordinates": [8.5257822, 47.3651936], "type": "Point"}, "properties": {"address": "H\u00fcrlimannplatz 90", "electric": 6, "id": "pb_88", "manual": 3, "name": "H\u00fcrlimannplatz", "provider": "publibike", "timeStamp": "02/05/2020, 19:08:24", "zip": 8002}, "type": "Feature"}, {"geometry": {"coordinates": [8.5313344, 47.3713591], "type": "Point"}, "properties": {"address": "Selnaustrasse 32", "electric": 0, "id": "pb_89", "manual": 4, "name": "Stauffacherbr\u00fccke", "provider": "publibike", "timeStamp": "02/05/2020, 19:08:24", "zip": 8001}, "type": "Feature"}, {"geometry": {"coordinates": [8.5056978, 47.3917964], "type": "Point"}, "properties": {"address": "Sportweg 25", "electric": 0, "id": "pb_90", "manual": 7, "name": "Sportweg", "provider": "publibike", "timeStamp": "02/05/2020, 19:08:24", "zip": 8005}, "type": "Feature"}, {"geometry": {"coordinates": [8.5181701, 47.3917837], "type": "Point"}, "properties": {"address": "Hardturmstrasse 11", "electric": 2, "id": "pb_91", "manual": 4, "name": "Puls 5", "provider": "publibike", "timeStamp": "02/05/2020, 19:08:24", "zip": 8005}, "type": "Feature"}, {"geometry": {"coordinates": [8.5286468, 47.3820827], "type": "Point"}, "properties": {"address": "R\u00f6ntgenstrasse 6", "electric": 1, "id": "pb_92", "manual": 1, "name": "R\u00f6ntgenstrasse", "provider": "publibike", "timeStamp": "02/05/2020, 19:08:24", "zip": 8005}, "type": "Feature"}, {"geometry": {"coordinates": [8.531935, 47.384918], "type": "Point"}, "properties": {"address": "Kornhausbr\u00fccke 1", "electric": 1, "id": "pb_93", "manual": 0, "name": "Limmatplatz", "provider": "publibike", "timeStamp": "02/05/2020, 19:08:24", "zip": 8005}, "type": "Feature"}, {"geometry": {"coordinates": [8.5354006, 47.3758639], "type": "Point"}, "properties": {"address": "Gessnerallee 15", "electric": 3, "id": "pb_94", "manual": 1, "name": "Gessnerallee", "provider": "publibike", "timeStamp": "02/05/2020, 19:08:24", "zip": 8001}, "type": "Feature"}, {"geometry": {"coordinates": [8.523818, 47.377148], "type": "Point"}, "properties": {"address": "Stauffacherstrasse 127", "electric": 3, "id": "pb_95", "manual": 4, "name": "B\u00e4ckeranlage", "provider": "publibike", "timeStamp": "02/05/2020, 19:08:24", "zip": 8004}, "type": "Feature"}, {"geometry": {"coordinates": [8.531836, 47.378548], "type": "Point"}, "properties": {"address": "Lagerstrasse 44", "electric": 2, "id": "pb_96", "manual": 4, "name": "Gustav-Gull-Platz", "provider": "publibike", "timeStamp": "02/05/2020, 19:08:24", "zip": 8004}, "type": "Feature"}, {"geometry": {"coordinates": [8.5104883, 47.3771535], "type": "Point"}, "properties": {"address": "Zurlindenstrasse 291", "electric": 5, "id": "pb_97", "manual": 3, "name": "Zurlindenstrasse", "provider": "publibike", "timeStamp": "02/05/2020, 19:08:24", "zip": 8003}, "type": "Feature"}, {"geometry": {"coordinates": [8.5333139, 47.3731102], "type": "Point"}, "properties": {"address": "Sihlstrasse 81", "electric": 0, "id": "pb_98", "manual": 1, "name": "Sihlstrasse", "provider": "publibike", "timeStamp": "02/05/2020, 19:08:24", "zip": 8001}, "type": "Feature"}, {"geometry": {"coordinates": [8.520532, 47.374951], "type": "Point"}, "properties": {"address": "Feldstrasse 24", "electric": 2, "id": "pb_99", "manual": 9, "name": "Kalkbreite", "provider": "publibike", "timeStamp": "02/05/2020, 19:08:24", "zip": 8004}, "type": "Feature"}, {"geometry": {"coordinates": [8.539046, 47.368064], "type": "Point"}, "properties": {"address": "Talstrasse 12", "electric": 1, "id": "pb_100", "manual": 6, "name": "Z\u00fcrcher Kantonalbank", "provider": "publibike", "timeStamp": "02/05/2020, 19:08:24", "zip": 8001}, "type": "Feature"}, {"geometry": {"coordinates": [8.5348427, 47.3625938], "type": "Point"}, "properties": {"address": "Breitingerstrasse 5", "electric": 0, "id": "pb_101", "manual": 2, "name": "Rentenanstalt", "provider": "publibike", "timeStamp": "02/05/2020, 19:08:24", "zip": 8002}, "type": "Feature"}, {"geometry": {"coordinates": [8.5166922, 47.3897772], "type": "Point"}, "properties": {"address": "Technoparkstrasse 4", "electric": 0, "id": "pb_102", "manual": 1, "name": "Turbinenplatz", "provider": "publibike", "timeStamp": "02/05/2020, 19:08:24", "zip": 8005}, "type": "Feature"}, {"geometry": {"coordinates": [8.539312, 47.3739964], "type": "Point"}, "properties": {"address": "Oetenbachgasse 14", "electric": 4, "id": "pb_104", "manual": 4, "name": "Rennweg", "provider": "publibike", "timeStamp": "02/05/2020, 19:08:24", "zip": 8001}, "type": "Feature"}, {"geometry": {"coordinates": [8.5360685, 47.3775022], "type": "Point"}, "properties": {"address": "Kasernenstrasse 101", "electric": 25, "id": "pb_105", "manual": 27, "name": "Sihlpost", "provider": "publibike", "timeStamp": "02/05/2020, 19:08:24", "zip": 8004}, "type": "Feature"}, {"geometry": {"coordinates": [8.53545, 47.382798], "type": "Point"}, "properties": {"address": "Ausstellungsstrasse 44", "electric": 5, "id": "pb_106", "manual": 4, "name": "Museum f\u00fcr Gestaltung", "provider": "publibike", "timeStamp": "02/05/2020, 19:08:24", "zip": 8005}, "type": "Feature"}, {"geometry": {"coordinates": [8.5306155, 47.3647902], "type": "Point"}, "properties": {"address": "Gutenbergstrasse 1", "electric": 3, "id": "pb_107", "manual": 1, "name": "Bederbr\u00fccke", "provider": "publibike", "timeStamp": "02/05/2020, 19:08:24", "zip": 8002}, "type": "Feature"}, {"geometry": {"coordinates": [8.518982, 47.386741], "type": "Point"}, "properties": {"address": "Geroldstrasse 4", "electric": 0, "id": "pb_108", "manual": 8, "name": "Bahnhof Hardbr\u00fccke", "provider": "publibike", "timeStamp": "02/05/2020, 19:08:24", "zip": 8005}, "type": "Feature"}, {"geometry": {"coordinates": [8.53001018, 47.37247535], "type": "Point"}, "properties": {"address": "Werdstrasse 21", "electric": 0, "id": "pb_109", "manual": 0, "name": "Tamedia", "provider": "publibike", "timeStamp": "02/05/2020, 19:08:24", "zip": 8004}, "type": "Feature"}, {"geometry": {"coordinates": [8.4860017, 47.396401], "type": "Point"}, "properties": {"address": "Gr\u00fcnauring 37", "electric": 5, "id": "pb_110", "manual": 3, "name": "Gr\u00fcnau", "provider": "publibike", "timeStamp": "02/05/2020, 19:08:24", "zip": 8064}, "type": "Feature"}, {"geometry": {"coordinates": [8.548519, 47.376756], "type": "Point"}, "properties": {"address": "R\u00e4mistrasse 101", "electric": 4, "id": "pb_111", "manual": 1, "name": "ETH Zentrum", "provider": "publibike", "timeStamp": "02/05/2020, 19:08:24", "zip": 8006}, "type": "Feature"}, {"geometry": {"coordinates": [8.520449, 47.388151], "type": "Point"}, "properties": {"address": "Josefstrasse 224", "electric": 1, "id": "pb_112", "manual": 3, "name": "Steinfelsareal", "provider": "publibike", "timeStamp": "02/05/2020, 19:08:24", "zip": 8005}, "type": "Feature"}, {"geometry": {"coordinates": [8.520482, 47.37209], "type": "Point"}, "properties": {"address": "Weststrasse 115", "electric": 3, "id": "pb_124", "manual": 1, "name": "Weststrasse", "provider": "publibike", "timeStamp": "02/05/2020, 19:08:24", "zip": 8003}, "type": "Feature"}, {"geometry": {"coordinates": [8.496727, 47.378521], "type": "Point"}, "properties": {"address": "Albisriederstrasse 200", "electric": 4, "id": "pb_125", "manual": 4, "name": "Utogrund", "provider": "publibike", "timeStamp": "02/05/2020, 19:08:24", "zip": 8047}, "type": "Feature"}, {"geometry": {"coordinates": [8.510418, 47.381356], "type": "Point"}, "properties": {"address": "Bullingerstrasse 73", "electric": 3, "id": "pb_126", "manual": 7, "name": "Hardau", "provider": "publibike", "timeStamp": "02/05/2020, 19:08:24", "zip": 8004}, "type": "Feature"}, {"geometry": {"coordinates": [8.525525, 47.361567], "type": "Point"}, "properties": {"address": "Klopstockstrasse 23", "electric": 0, "id": "pb_127", "manual": 3, "name": "Klopstockwiese", "provider": "publibike", "timeStamp": "02/05/2020, 19:08:24", "zip": 8002}, "type": "Feature"}, {"geometry": {"coordinates": [8.518143, 47.363148], "type": "Point"}, "properties": {"address": "Haldenstrasse 8", "electric": 0, "id": "pb_128", "manual": 7, "name": "Binz", "provider": "publibike", "timeStamp": "02/05/2020, 19:08:24", "zip": 8045}, "type": "Feature"}, {"geometry": {"coordinates": [8.542726, 47.379952], "type": "Point"}, "properties": {"address": "Walchestrasse 11", "electric": 0, "id": "pb_129", "manual": 3, "name": "Stampfenbachplatz", "provider": "publibike", "timeStamp": "02/05/2020, 19:08:24", "zip": 8006}, "type": "Feature"}, {"geometry": {"coordinates": [8.488108, 47.391366], "type": "Point"}, "properties": {"address": "Altstetterplatz 1", "electric": 1, "id": "pb_130", "manual": 5, "name": "Bahnhof Altstetten", "provider": "publibike", "timeStamp": "02/05/2020, 19:08:24", "zip": 8048}, "type": "Feature"}, {"geometry": {"coordinates": [8.554114, 47.365119], "type": "Point"}, "properties": {"address": "Kreuzplatz 2", "electric": 5, "id": "pb_131", "manual": 5, "name": "Kreuzplatz", "provider": "publibike", "timeStamp": "02/05/2020, 19:08:24", "zip": 8032}, "type": "Feature"}, {"geometry": {"coordinates": [8.549852, 47.35594], "type": "Point"}, "properties": {"address": "H\u00f6schgasse 3", "electric": 5, "id": "pb_132", "manual": 7, "name": "Blatterwiese", "provider": "publibike", "timeStamp": "02/05/2020, 19:08:24", "zip": 8008}, "type": "Feature"}, {"geometry": {"coordinates": [8.554501, 47.36162], "type": "Point"}, "properties": {"address": "Feldeggstrasse 80", "electric": 3, "id": "pb_133", "manual": 4, "name": "Villa Bleuler", "provider": "publibike", "timeStamp": "02/05/2020, 19:08:24", "zip": 8008}, "type": "Feature"}, {"geometry": {"coordinates": [8.557088, 47.358557], "type": "Point"}, "properties": {"address": "M\u00fchlebachstrasse 131", "electric": 9, "id": "pb_134", "manual": 3, "name": "M\u00fchlebachstrasse", "provider": "publibike", "timeStamp": "02/05/2020, 19:08:24", "zip": 8008}, "type": "Feature"}, {"geometry": {"coordinates": [8.547639, 47.361266], "type": "Point"}, "properties": {"address": "Utoquai 50", "electric": 6, "id": "pb_135", "manual": 8, "name": "Seebad Utoquai", "provider": "publibike", "timeStamp": "02/05/2020, 19:08:24", "zip": 8008}, "type": "Feature"}, {"geometry": {"coordinates": [8.548045, 47.370869], "type": "Point"}, "properties": {"address": "Heimplatz 1", "electric": 12, "id": "pb_137", "manual": 2, "name": "Kunsthaus", "provider": "publibike", "timeStamp": "02/05/2020, 19:08:24", "zip": 8001}, "type": "Feature"}, {"geometry": {"coordinates": [8.543447, 47.375933], "type": "Point"}, "properties": {"address": "Limmatquai 138", "electric": 16, "id": "pb_138", "manual": 5, "name": "Central", "provider": "publibike", "timeStamp": "02/05/2020, 19:08:24", "zip": 8001}, "type": "Feature"}, {"geometry": {"coordinates": [8.549356, 47.408827], "type": "Point"}, "properties": {"address": "Tramstrasse 35", "electric": 1, "id": "pb_139", "manual": 2, "name": "ewz Tramstrasse", "provider": "publibike", "timeStamp": "02/05/2020, 19:08:24", "zip": 8050}, "type": "Feature"}, {"geometry": {"coordinates": [8.533736, 47.366904], "type": "Point"}, "properties": {"address": "Bleicherweg 33", "electric": 0, "id": "pb_140", "manual": 8, "name": "Bleicherweg", "provider": "publibike", "timeStamp": "02/05/2020, 19:08:24", "zip": 8002}, "type": "Feature"}, {"geometry": {"coordinates": [8.544935, 47.366752], "type": "Point"}, "properties": {"address": "Bellevueplatz 2", "electric": 16, "id": "pb_141", "manual": 18, "name": "Bellevue", "provider": "publibike", "timeStamp": "02/05/2020, 19:08:24", "zip": 8001}, "type": "Feature"}, {"geometry": {"coordinates": [8.5285533, 47.3742296], "type": "Point"}, "properties": {"address": "Stauffacherstrasse 41", "electric": 8, "id": "pb_142", "manual": 1, "name": "Stauffacher", "provider": "publibike", "timeStamp": "02/05/2020, 19:08:24", "zip": 8004}, "type": "Feature"}, {"geometry": {"coordinates": [8.523722, 47.3899], "type": "Point"}, "properties": {"address": "Limmatstrasse 310", "electric": 0, "id": "pb_143", "manual": 3, "name": "Escher-Wyss-Platz", "provider": "publibike", "timeStamp": "02/05/2020, 19:08:24", "zip": 8005}, "type": "Feature"}, {"geometry": {"coordinates": [8.491061, 47.392336], "type": "Point"}, "properties": {"address": "Vulkanplatz 1", "electric": 2, "id": "pb_149", "manual": 8, "name": "Vulkanplatz", "provider": "publibike", "timeStamp": "02/05/2020, 19:08:24", "zip": 8048}, "type": "Feature"}, {"geometry": {"coordinates": [8.52306, 47.359872], "type": "Point"}, "properties": {"address": "Giessh\u00fcbelstrasse 15", "electric": 10, "id": "pb_150", "manual": 4, "name": "Utoplatz", "provider": "publibike", "timeStamp": "02/05/2020, 19:08:24", "zip": 8045}, "type": "Feature"}, {"geometry": {"coordinates": [8.486284, 47.387685], "type": "Point"}, "properties": {"address": "Lindenplatz 1", "electric": 4, "id": "pb_151", "manual": 10, "name": "Lindenplatz", "provider": "publibike", "timeStamp": "02/05/2020, 19:08:24", "zip": 8048}, "type": "Feature"}, {"geometry": {"coordinates": [8.49163, 47.389823], "type": "Point"}, "properties": {"address": "Hohlstrasse 563", "electric": 1, "id": "pb_152", "manual": 4, "name": "Luggweg", "provider": "publibike", "timeStamp": "02/05/2020, 19:08:24", "zip": 8048}, "type": "Feature"}, {"geometry": {"coordinates": [8.52174, 47.365272], "type": "Point"}, "properties": {"address": "Manessestrasse 87", "electric": 3, "id": "pb_153", "manual": 1, "name": "Manesseplatz", "provider": "publibike", "timeStamp": "02/05/2020, 19:08:24", "zip": 8045}, "type": "Feature"}, {"geometry": {"coordinates": [8.52714, 47.372329], "type": "Point"}, "properties": {"address": "Werdstrasse 75", "electric": 0, "id": "pb_154", "manual": 1, "name": "Werd", "provider": "publibike", "timeStamp": "02/05/2020, 19:08:24", "zip": 8004}, "type": "Feature"}, {"geometry": {"coordinates": [8.543042, 47.374711], "type": "Point"}, "properties": {"address": "Limmatquai 100", "electric": 0, "id": "pb_155", "manual": 0, "name": "Rudolf-Brun-Br\u00fccke", "provider": "publibike", "timeStamp": "02/05/2020, 19:08:24", "zip": 8001}, "type": "Feature"}, {"geometry": {"coordinates": [8.490837, 47.386596], "type": "Point"}, "properties": {"address": "Badenerstrasse 627", "electric": 0, "id": "pb_156", "manual": 7, "name": "Luggwegstrasse VBZ", "provider": "publibike", "timeStamp": "02/05/2020, 19:08:24", "zip": 8048}, "type": "Feature"}, {"geometry": {"coordinates": [8.535119, 47.355189], "type": "Point"}, "properties": {"address": "Mythenquai 95", "electric": 3, "id": "pb_157", "manual": 6, "name": "Strandbad Mythenquai", "provider": "publibike", "timeStamp": "02/05/2020, 19:08:24", "zip": 8002}, "type": "Feature"}, {"geometry": {"coordinates": [8.545505, 47.373675], "type": "Point"}, "properties": {"address": "Predigerpatz 21", "electric": 6, "id": "pb_158", "manual": 7, "name": "Predigerplatz", "provider": "publibike", "timeStamp": "02/05/2020, 19:08:24", "zip": 8001}, "type": "Feature"}, {"geometry": {"coordinates": [8.515558, 47.371868], "type": "Point"}, "properties": {"address": "Aemtlerstrasse 23", "electric": 8, "id": "pb_159", "manual": 3, "name": "Zwinglihaus", "provider": "publibike", "timeStamp": "02/05/2020, 19:08:24", "zip": 8003}, "type": "Feature"}, {"geometry": {"coordinates": [8.524629, 47.386072], "type": "Point"}, "properties": {"address": "Josefstrasse 188", "electric": 1, "id": "pb_160", "manual": 4, "name": "Josefwiese", "provider": "publibike", "timeStamp": "02/05/2020, 19:08:24", "zip": 8005}, "type": "Feature"}, {"geometry": {"coordinates": [8.527138, 47.387531], "type": "Point"}, "properties": {"address": "R\u00f6ntgenstrasse 87", "electric": 6, "id": "pb_164", "manual": 10, "name": "Markthalle", "provider": "publibike", "timeStamp": "02/05/2020, 19:08:24", "zip": 8005}, "type": "Feature"}, {"geometry": {"coordinates": [8.552717, 47.359978], "type": "Point"}, "properties": {"address": "Seefeldstrasse 96", "electric": 1, "id": "pb_263", "manual": 23, "name": "Feldeggstrasse", "provider": "publibike", "timeStamp": "02/05/2020, 19:08:24", "zip": 8008}, "type": "Feature"}, {"geometry": {"coordinates": [8.553189, 47.353198], "type": "Point"}, "properties": {"address": "Bellerivestrasse 170", "electric": 9, "id": "pb_264", "manual": 0, "name": "Lake Side", "provider": "publibike", "timeStamp": "02/05/2020, 19:08:24", "zip": 8008}, "type": "Feature"}, {"geometry": {"coordinates": [8.543437, 47.369256], "type": "Point"}, "properties": {"address": "Limmatquai 18", "electric": 0, "id": "pb_265", "manual": 0, "name": "Helmhaus", "provider": "publibike", "timeStamp": "02/05/2020, 19:08:24", "zip": 8032}, "type": "Feature"}, {"geometry": {"coordinates": [8.516676, 47.375819], "type": "Point"}, "properties": {"address": "Badenerstrasse 246", "electric": 5, "id": "pb_266", "manual": 3, "name": "Lochergut", "provider": "publibike", "timeStamp": "02/05/2020, 19:08:24", "zip": 8004}, "type": "Feature"}, {"geometry": {"coordinates": [8.514605, 47.389862], "type": "Point"}, "properties": {"address": "Pfingstweidstrasse 60", "electric": 2, "id": "pb_273", "manual": 3, "name": "Westpark", "provider": "publibike", "timeStamp": "02/05/2020, 19:08:24", "zip": 8005}, "type": "Feature"}, {"geometry": {"coordinates": [8.541239126, 47.375991201], "type": "Point"}, "properties": {"address": "Beatenplatz 1", "electric": 2, "id": "pb_274", "manual": 8, "name": "Beatenplatz", "provider": "publibike", "timeStamp": "02/05/2020, 19:08:24", "zip": 8001}, "type": "Feature"}, {"geometry": {"coordinates": [8.5417135, 47.3942197], "type": "Point"}, "properties": {"address": "Scheuchzerstrasse 181", "electric": 11, "id": "pb_275", "manual": 1, "name": "Pauluskirche", "provider": "publibike", "timeStamp": "02/05/2020, 19:08:24", "zip": 8057}, "type": "Feature"}, {"geometry": {"coordinates": [8.5528182, 47.414558], "type": "Point"}, "properties": {"address": "Hagenholzstrasse 51", "electric": 2, "id": "pb_276", "manual": 7, "name": "Airgate", "provider": "publibike", "timeStamp": "02/05/2020, 19:08:24", "zip": 8050}, "type": "Feature"}, {"geometry": {"coordinates": [8.537816, 47.413514], "type": "Point"}, "properties": {"address": "Birchstrasse 183", "electric": 6, "id": "pb_277", "manual": 2, "name": "Lamprechtweg", "provider": "publibike", "timeStamp": "02/05/2020, 19:08:24", "zip": 8050}, "type": "Feature"}, {"geometry": {"coordinates": [8.545602, 47.417701], "type": "Point"}, "properties": {"address": "Felsenrainstrasse 2", "electric": 6, "id": "pb_278", "manual": 4, "name": "Emil-Oberh\u00e4nsli", "provider": "publibike", "timeStamp": "02/05/2020, 19:08:24", "zip": 8050}, "type": "Feature"}, {"geometry": {"coordinates": [8.533647, 47.39808], "type": "Point"}, "properties": {"address": "Bucheggplatz 2", "electric": 3, "id": "pb_279", "manual": 2, "name": "Bucheggplatz", "provider": "publibike", "timeStamp": "02/05/2020, 19:08:24", "zip": 8057}, "type": "Feature"}, {"geometry": {"coordinates": [8.523549, 47.392347], "type": "Point"}, "properties": {"address": "Wipkingerplatz 4", "electric": 2, "id": "pb_280", "manual": 6, "name": "Wipkingerplatz", "provider": "publibike", "timeStamp": "02/05/2020, 19:08:24", "zip": 8037}, "type": "Feature"}, {"geometry": {"coordinates": [8.548562, 47.36691], "type": "Point"}, "properties": {"address": "Galerie \u00fcber Gleis 2/3", "electric": 27, "id": "pb_285", "manual": 6, "name": "Bahnhof Stadelhofen", "provider": "publibike", "timeStamp": "02/05/2020, 19:08:24", "zip": 8001}, "type": "Feature"}, {"geometry": {"coordinates": [8.493822, 47.3985553], "type": "Point"}, "properties": {"address": "Meierwiesenstrasse 12-4", "electric": 3, "id": "pb_286", "manual": 0, "name": "T\u00fcffenwies", "provider": "publibike", "timeStamp": "02/05/2020, 19:08:24", "zip": 8064}, "type": "Feature"}, {"geometry": {"coordinates": [8.552432, 47.3801757], "type": "Point"}, "properties": {"address": "Hochstrasse 34", "electric": 2, "id": "pb_356", "manual": 0, "name": "Siriuswiese", "provider": "publibike", "timeStamp": "02/05/2020, 19:08:24", "zip": 8044}, "type": "Feature"}, {"geometry": {"coordinates": [8.527298, 47.370141], "type": "Point"}, "properties": {"address": "Hallwylstrasse 71", "electric": 1, "id": "pb_357", "manual": 0, "name": "Hallwylstrasse", "provider": "publibike", "timeStamp": "02/05/2020, 19:08:24", "zip": 8004}, "type": "Feature"}, {"geometry": {"coordinates": [8.5414185, 47.3972455], "type": "Point"}, "properties": {"address": "Schaffhauserstrasse 137", "electric": 4, "id": "pb_358", "manual": 0, "name": "Milchbuck", "provider": "publibike", "timeStamp": "02/05/2020, 19:08:24", "zip": 8057}, "type": "Feature"}, {"geometry": {"coordinates": [8.512381, 47.393409], "type": "Point"}, "properties": {"address": "Hardturmstrasse 161", "electric": 0, "id": "pb_359", "manual": 1, "name": "Fischerweg", "provider": "publibike", "timeStamp": "02/05/2020, 19:08:24", "zip": 8005}, "type": "Feature"}, {"geometry": {"coordinates": [8.5421457, 47.3876979], "type": "Point"}, "properties": {"address": "Turnerstrasse 47", "electric": 2, "id": "pb_360", "manual": 2, "name": "Kirche Unterstrass", "provider": "publibike", "timeStamp": "02/05/2020, 19:08:24", "zip": 8006}, "type": "Feature"}, {"geometry": {"coordinates": [8.522117, 47.394554], "type": "Point"}, "properties": {"address": "Dorfstrasse 40", "electric": 9, "id": "pb_361", "manual": 1, "name": "Dorfstrasse", "provider": "publibike", "timeStamp": "02/05/2020, 19:08:24", "zip": 8037}, "type": "Feature"}, {"geometry": {"coordinates": [8.530437, 47.37271], "type": "Point"}, "properties": {"address": "Werdstrasse 25", "electric": 1, "id": "pb_362", "manual": 3, "name": "Stauffachertor", "provider": "publibike", "timeStamp": "02/05/2020, 19:08:24", "zip": 8004}, "type": "Feature"}, {"geometry": {"coordinates": [8.541712, 47.416155], "type": "Point"}, "properties": {"address": "Eggb\u00fchlstrasse 21", "electric": 7, "id": "pb_363", "manual": 2, "name": "Wahlenpark", "provider": "publibike", "timeStamp": "02/05/2020, 19:08:24", "zip": 8050}, "type": "Feature"}, {"geometry": {"coordinates": [8.5595335, 47.3708387], "type": "Point"}, "properties": {"address": "Dolderstrasse 32", "electric": 2, "id": "pb_364", "manual": 2, "name": "Kinderspital", "provider": "publibike", "timeStamp": "02/05/2020, 19:08:24", "zip": 8032}, "type": "Feature"}, {"geometry": {"coordinates": [8.536433, 47.388689], "type": "Point"}, "properties": {"address": "Kornhausstrasse 30", "electric": 2, "id": "pb_365", "manual": 2, "name": "Kornhausstrasse", "provider": "publibike", "timeStamp": "02/05/2020, 19:08:24", "zip": 8006}, "type": "Feature"}, {"geometry": {"coordinates": [8.55033, 47.407098], "type": "Point"}, "properties": {"address": "Schwamendingenstrasse 41", "electric": 3, "id": "pb_366", "manual": 9, "name": "Dorflinde", "provider": "publibike", "timeStamp": "02/05/2020, 19:08:24", "zip": 8050}, "type": "Feature"}, {"geometry": {"coordinates": [8.560476, 47.368199], "type": "Point"}, "properties": {"address": "R\u00f6merhofplatz 5", "electric": 1, "id": "pb_367", "manual": 2, "name": "R\u00f6merhof", "provider": "publibike", "timeStamp": "02/05/2020, 19:08:24", "zip": 8032}, "type": "Feature"}, {"geometry": {"coordinates": [8.5609218, 47.3619068], "type": "Point"}, "properties": {"address": "Forchstrasse 99", "electric": 12, "id": "pb_368", "manual": 1, "name": "Hegibachplatz", "provider": "publibike", "timeStamp": "02/05/2020, 19:08:24", "zip": 8032}, "type": "Feature"}, {"geometry": {"coordinates": [8.5721264, 47.4039985], "type": "Point"}, "properties": {"address": "Winterthurerstrasse 519", "electric": 5, "id": "pb_370", "manual": 3, "name": "Schwamendingerplatz", "provider": "publibike", "timeStamp": "02/05/2020, 19:08:24", "zip": 8051}, "type": "Feature"}, {"geometry": {"coordinates": [8.520168, 47.378556], "type": "Point"}, "properties": {"address": "Herman-Greulich-Strasse 56", "electric": 4, "id": "pb_384", "manual": 7, "name": "Hermann-Greulich-Weg", "provider": "publibike", "timeStamp": "02/05/2020, 19:08:24", "zip": 8004}, "type": "Feature"}, {"geometry": {"coordinates": [8.547912, 47.384923], "type": "Point"}, "properties": {"address": "Culmannstrasse", "electric": 5, "id": "pb_386", "manual": 2, "name": "Rigiplatz", "provider": "publibike", "timeStamp": "02/05/2020, 19:08:24", "zip": 8006}, "type": "Feature"}, {"geometry": {"coordinates": [8.543768, 47.411057], "type": "Point"}, "properties": {"address": "Hofwiesenstrasse 369", "electric": 2, "id": "pb_387", "manual": 3, "name": "Bahnhof Oerlikon S\u00fcd", "provider": "publibike", "timeStamp": "02/05/2020, 19:08:24", "zip": 8050}, "type": "Feature"}, {"geometry": {"coordinates": [8.544185, 47.412732], "type": "Point"}, "properties": {"address": "Jungholzstrasse 6", "electric": 2, "id": "pb_388", "manual": 2, "name": "Max-Frisch-Platz", "provider": "publibike", "timeStamp": "02/05/2020, 19:08:24", "zip": 8050}, "type": "Feature"}, {"geometry": {"coordinates": [8.558096, 47.413032], "type": "Point"}, "properties": {"address": "Andreasstrasse", "electric": 8, "id": "pb_389", "manual": 7, "name": "Hunziker-Areal", "provider": "publibike", "timeStamp": "02/05/2020, 19:08:24", "zip": 8050}, "type": "Feature"}, {"geometry": {"coordinates": [8.533265, 47.412873], "type": "Point"}, "properties": {"address": "Regina-K\u00e4gi-Strasse 1", "electric": 4, "id": "pb_390", "manual": 5, "name": "Luis-H\u00e4fliger-Park", "provider": "publibike", "timeStamp": "02/05/2020, 19:08:24", "zip": 8050}, "type": "Feature"}, {"geometry": {"coordinates": [8.499265, 47.401852], "type": "Point"}, "properties": {"address": "Limmattalstrasse 177", "electric": 6, "id": "pb_391", "manual": 1, "name": "Meierhofplatz", "provider": "publibike", "timeStamp": "02/05/2020, 19:08:24", "zip": 8049}, "type": "Feature"}, {"geometry": {"coordinates": [8.528356, 47.393255], "type": "Point"}, "properties": {"address": "R\u00f6schibachstrasse 73", "electric": 5, "id": "pb_392", "manual": 7, "name": "R\u00f6schibachplatz", "provider": "publibike", "timeStamp": "02/05/2020, 19:08:24", "zip": 8037}, "type": "Feature"}, {"geometry": {"coordinates": [8.538067, 47.415721], "type": "Point"}, "properties": {"address": "Birchstrasse 191", "electric": 5, "id": "pb_393", "manual": 1, "name": "Oerliker Park", "provider": "publibike", "timeStamp": "02/05/2020, 19:08:24", "zip": 8050}, "type": "Feature"}, {"geometry": {"coordinates": [8.5420304, 47.3669233], "type": "Point"}, "properties": {"address": "Stadthausquai 1", "electric": 3, "id": "pb_395", "manual": 4, "name": "B\u00fcrkliplatz", "provider": "publibike", "timeStamp": "02/05/2020, 19:08:24", "zip": 8001}, "type": "Feature"}, {"geometry": {"coordinates": [8.535767, 47.409881], "type": "Point"}, "properties": {"address": "Regensbergstrasse 195", "electric": 3, "id": "pb_396", "manual": 3, "name": "Holunderhof", "provider": "publibike", "timeStamp": "02/05/2020, 19:08:24", "zip": 8050}, "type": "Feature"}, {"geometry": {"coordinates": [8.5116245, 47.3616199], "type": "Point"}, "properties": {"address": "Grubenstrasse 42", "electric": 0, "id": "pb_431", "manual": 0, "name": "Binz Center", "provider": "publibike", "timeStamp": "02/05/2020, 19:08:24", "zip": 8045}, "type": "Feature"}, {"geometry": {"coordinates": [8.547195, 47.382089], "type": "Point"}, "properties": {"address": "Nelkenstrasse 24", "electric": 2, "id": "pb_430", "manual": 1, "name": "Stapferstube", "provider": "publibike", "timeStamp": "02/05/2020, 19:08:24", "zip": 8006}, "type": "Feature"}, {"geometry": {"coordinates": [8.5787183, 47.4039845], "type": "Point"}, "properties": {"address": "Kronwiesenstrasse 35", "electric": 1, "id": "pb_426", "manual": 3, "name": "Kronwiesen", "provider": "publibike", "timeStamp": "02/05/2020, 19:08:24", "zip": 8051}, "type": "Feature"}, {"geometry": {"coordinates": [8.508131, 47.420757], "type": "Point"}, "properties": {"address": "Riedenhaldenstrasse 20-18", "electric": 14, "id": "pb_425", "manual": 1, "name": "Bahnhof Affoltern", "provider": "publibike", "timeStamp": "02/05/2020, 19:08:24", "zip": 8046}, "type": "Feature"}, {"geometry": {"coordinates": [8.532464, 47.406988], "type": "Point"}, "properties": {"address": "K\u00fcnzlistrasse 41", "electric": 4, "id": "pb_424", "manual": 1, "name": "Birchd\u00f6rfli", "provider": "publibike", "timeStamp": "02/05/2020, 19:08:24", "zip": 8057}, "type": "Feature"}, {"geometry": {"coordinates": [8.5777038, 47.4080095], "type": "Point"}, "properties": {"address": "Luegislandstrasse 412", "electric": 7, "id": "pb_429", "manual": 3, "name": "Luegisland", "provider": "publibike", "timeStamp": "02/05/2020, 19:08:24", "zip": 8051}, "type": "Feature"}, {"geometry": {"coordinates": [8.58841, 47.40158], "type": "Point"}, "properties": {"address": "Hirzenbachstrasse 2-4", "electric": 1, "id": "pb_428", "manual": 3, "name": "Hirzenbachstrasse", "provider": "publibike", "timeStamp": "02/05/2020, 19:08:24", "zip": 8051}, "type": "Feature"}, {"geometry": {"coordinates": [8.5563463, 47.4095467], "type": "Point"}, "properties": {"address": "K\u00fchriedweg", "electric": 4, "id": "pb_445", "manual": 3, "name": "Hallenbad Oerlikon", "provider": "publibike", "timeStamp": "02/05/2020, 19:08:24", "zip": 8050}, "type": "Feature"}, {"geometry": {"coordinates": [8.537971, 47.364871], "type": "Point"}, "properties": {"address": "General-Guisan-Quai 17", "electric": 1, "id": "pb_454", "manual": 3, "name": "General-Guisan-Quai", "provider": "publibike", "timeStamp": "02/05/2020, 19:08:24", "zip": 8002}, "type": "Feature"}, {"geometry": {"coordinates": [8.560587, 47.350578], "type": "Point"}, "properties": {"address": "Bellerivestrasse 245", "electric": 9, "id": "pb_450", "manual": 5, "name": "Bahnhof Tiefenbrunnen", "provider": "publibike", "timeStamp": "02/05/2020, 19:08:24", "zip": 8008}, "type": "Feature"}, {"geometry": {"coordinates": [8.5269416, 47.3563719], "type": "Point"}, "properties": {"address": "Waffenplatzstrasse 89", "electric": 2, "id": "pb_452", "manual": 7, "name": "Rieterplatz", "provider": "publibike", "timeStamp": "02/05/2020, 19:08:24", "zip": 8002}, "type": "Feature"}, {"geometry": {"coordinates": [8.514176, 47.3663708], "type": "Point"}, "properties": {"address": "Talwiesenstrasse 92", "electric": 8, "id": "pb_446", "manual": 4, "name": "Binzallee", "provider": "publibike", "timeStamp": "02/05/2020, 19:08:24", "zip": 8055}, "type": "Feature"}, {"geometry": {"coordinates": [8.5070564, 47.371455], "type": "Point"}, "properties": {"address": "Gutstrasse 87", "electric": 5, "id": "pb_447", "manual": 2, "name": "Gutstrasse", "provider": "publibike", "timeStamp": "02/05/2020, 19:08:24", "zip": 8055}, "type": "Feature"}, {"geometry": {"coordinates": [8.4941268, 47.3836391], "type": "Point"}, "properties": {"address": "Flurstrasse 62", "electric": 4, "id": "pb_453", "manual": 6, "name": "Flurpark", "provider": "publibike", "timeStamp": "02/05/2020, 19:08:24", "zip": 8048}, "type": "Feature"}, {"geometry": {"coordinates": [8.500343, 47.380778], "type": "Point"}, "properties": {"address": "Edelweissstrasse 32", "electric": 8, "id": "pb_448", "manual": 1, "name": "Bl\u00fcemliquartier", "provider": "publibike", "timeStamp": "02/05/2020, 19:08:24", "zip": 8048}, "type": "Feature"}, {"geometry": {"coordinates": [8.528796, 47.383858], "type": "Point"}, "properties": {"address": "Gasometerstrasse 24", "electric": 4, "id": "pb_449", "manual": 7, "name": "Gasometerstrasse", "provider": "publibike", "timeStamp": "02/05/2020, 19:08:24", "zip": 8005}, "type": "Feature"}, {"geometry": {"coordinates": [8.4981964, 47.3859194], "type": "Point"}, "properties": {"address": "Baslerstrasse 57", "electric": 9, "id": "pb_455", "manual": 4, "name": "Letzipark", "provider": "publibike", "timeStamp": "02/05/2020, 19:08:24", "zip": 8048}, "type": "Feature"}, {"geometry": {"coordinates": [8.515252, 47.381915], "type": "Point"}, "properties": {"address": "Sihlfeldstrasse 175", "electric": 0, "id": "pb_451", "manual": 1, "name": "Hardplatz", "provider": "publibike", "timeStamp": "02/05/2020, 19:08:24", "zip": 8004}, "type": "Feature"}, {"geometry": {"coordinates": [8.5064743, 47.4188324], "type": "Point"}, "properties": {"address": "Wehntalerstrasse 541", "electric": 6, "id": "pb_427", "manual": 5, "name": "Zehntenhausplatz", "provider": "publibike", "timeStamp": "02/05/2020, 19:08:24", "zip": 8046}, "type": "Feature"}, {"geometry": {"coordinates": [8.537729, 47.379719], "type": "Point"}, "properties": {"address": "Sihlquai/HB", "electric": 6, "id": "pb_513", "manual": 17, "name": "Sihlquai", "provider": "publibike", "timeStamp": "02/05/2020, 19:08:24", "zip": 8005}, "type": "Feature"}, {"geometry": {"coordinates": [8.596202, 47.397885], "type": "Point"}, "properties": {"address": "Bahnhof Stettbach", "electric": 4, "id": "pb_514", "manual": 0, "name": "Bahnhof Stettbach", "provider": "publibike", "timeStamp": "02/05/2020, 19:08:24", "zip": 8051}, "type": "Feature"}, {"geometry": {"coordinates": [8.5543974, 47.3690153], "type": "Point"}, "properties": {"address": "Kasinostrasse 10", "electric": 10, "id": "pb_515", "manual": 2, "name": "Hottingerplatz", "provider": "publibike", "timeStamp": "02/05/2020, 19:08:24", "zip": 8032}, "type": "Feature"}, {"geometry": {"coordinates": [8.534444, 47.351525], "type": "Point"}, "properties": {"address": "Mobile Station Z\u00fcrich 1", "electric": 0, "id": "pb_282", "manual": 0, "name": "Theaterspektakel", "provider": "publibike", "timeStamp": "02/05/2020, 19:08:24", "zip": 8002}, "type": "Feature"}, {"geometry": {"coordinates": [8.516257, 47.367656], "type": "Point"}, "properties": {"address": "Goldbrunnenstrasse 54", "electric": 5, "id": "pb_538", "manual": 1, "name": "Kirche B\u00fchl", "provider": "publibike", "timeStamp": "02/05/2020, 19:08:24", "zip": 8055}, "type": "Feature"}, {"geometry": {"coordinates": [8.555639, 47.416873], "type": "Point"}, "properties": {"address": "Leutschenbachstrasse 50", "electric": 1, "id": "pb_537", "manual": 4, "name": "Leutschenpark", "provider": "publibike", "timeStamp": "02/05/2020, 19:08:24", "zip": 8050}, "type": "Feature"}, {"geometry": {"coordinates": [8.546464, 47.403822], "type": "Point"}, "properties": {"address": "Berninastrasse 45", "electric": 3, "id": "pb_540", "manual": 1, "name": "Berninaplatz", "provider": "publibike", "timeStamp": "02/05/2020, 19:08:24", "zip": 8057}, "type": "Feature"}, {"geometry": {"coordinates": [8.523134, 47.369004], "type": "Point"}, "properties": {"address": "Erlachstrasse 3", "electric": 1, "id": "pb_385", "manual": 2, "name": "Aegerten", "provider": "publibike", "timeStamp": "02/05/2020, 19:08:24", "zip": 8003}, "type": "Feature"}, {"geometry": {"coordinates": [8.49038, 47.381591], "type": "Point"}, "properties": {"address": "Rautistrasse 60", "electric": 9, "id": "pb_536", "manual": 9, "name": "Freilager", "provider": "publibike", "timeStamp": "02/05/2020, 19:08:24", "zip": 8048}, "type": "Feature"}, {"geometry": {"coordinates": [8.496511, 47.375247], "type": "Point"}, "properties": {"address": "Letzigraben 139", "electric": 8, "id": "pb_444", "manual": 0, "name": "Sackzelg", "provider": "publibike", "timeStamp": "02/05/2020, 19:08:24", "zip": 8047}, "type": "Feature"}, {"geometry": {"coordinates": [8.58131, 47.402801], "type": "Point"}, "properties": {"address": "Altwiesenstrasse 104", "electric": 0, "id": "pb_539", "manual": 5, "name": "Glattwiesen", "provider": "publibike", "timeStamp": "02/05/2020, 19:08:24", "zip": 8051}, "type": "Feature"}, {"geometry": {"coordinates": [8.52689, 47.3767], "type": "Point"}, "properties": {"address": "Molkenstrasse 5", "electric": 4, "id": "pb_560", "manual": 10, "name": "Helvetiaplatz", "provider": "publibike", "timeStamp": "02/05/2020, 19:08:24", "zip": 8004}, "type": "Feature"}, {"geometry": {"coordinates": [8.525602, 47.374241], "type": "Point"}, "properties": {"address": "Badenerstrasse 90", "electric": 0, "id": "pb_559", "manual": 0, "name": "Bezirksgeb\u00e4ude", "provider": "publibike", "timeStamp": "02/05/2020, 19:08:24", "zip": 8004}, "type": "Feature"}, {"geometry": {"coordinates": [8.535082, 47.345248], "type": "Point"}, "properties": {"address": "Bachstrasse 15", "electric": 6, "id": "pb_564", "manual": 2, "name": "GZ Wollishofen", "provider": "publibike", "timeStamp": "02/05/2020, 19:08:24", "zip": 8038}, "type": "Feature"}, {"geometry": {"coordinates": [8.514841, 47.370238], "type": "Point"}, "properties": {"address": "Schrennengasse 37", "electric": 1, "id": "pb_562", "manual": 3, "name": "Goldbrunnenplatz", "provider": "publibike", "timeStamp": "02/05/2020, 19:08:24", "zip": 8003}, "type": "Feature"}, {"geometry": {"coordinates": [8.514138, 47.374206], "type": "Point"}, "properties": {"address": "Idaplatz 4", "electric": 2, "id": "pb_557", "manual": 1, "name": "Idaplatz", "provider": "publibike", "timeStamp": "02/05/2020, 19:08:24", "zip": 8003}, "type": "Feature"}, {"geometry": {"coordinates": [8.518432, 47.369549], "type": "Point"}, "properties": {"address": "Brinerstrasse 2", "electric": 7, "id": "pb_558", "manual": 10, "name": "Schmiede Wiedikon", "provider": "publibike", "timeStamp": "02/05/2020, 19:08:24", "zip": 8003}, "type": "Feature"}, {"geometry": {"coordinates": [8.537546, 47.391289], "type": "Point"}, "properties": {"address": "Rotbuchstrasse 15", "electric": 1, "id": "pb_556", "manual": 0, "name": "Schaffhauserplatz", "provider": "publibike", "timeStamp": "02/05/2020, 19:08:24", "zip": 8006}, "type": "Feature"}, {"geometry": {"coordinates": [8.541541, 47.413733], "type": "Point"}, "properties": {"address": "Therese-Giehse-Strasse 11", "electric": 7, "id": "pb_561", "manual": 1, "name": "Center Eleven", "provider": "publibike", "timeStamp": "02/05/2020, 19:08:24", "zip": 8050}, "type": "Feature"}, {"geometry": {"coordinates": [8.534227, 47.360004], "type": "Point"}, "properties": {"address": "Alfred Escher-Strasse 76", "electric": 0, "id": "pb_563", "manual": 0, "name": "Mythenschloss", "provider": "publibike", "timeStamp": "02/05/2020, 19:08:24", "zip": 8002}, "type": "Feature"}, {"geometry": {"coordinates": [8.50373, 47.396172], "type": "Point"}, "properties": {"address": "Hardeggstrasse 6", "electric": 4, "id": "pb_566", "manual": 4, "name": "Am Wasser", "provider": "publibike", "timeStamp": "02/05/2020, 19:08:24", "zip": 8049}, "type": "Feature"}, {"geometry": {"coordinates": [8.532432, 47.381174], "type": "Point"}, "properties": {"address": "Klingenstrasse 9", "electric": 2, "id": "pb_565", "manual": 13, "name": "Zollstrasse", "provider": "publibike", "timeStamp": "02/05/2020, 19:08:24", "zip": 8005}, "type": "Feature"}, {"geometry": {"coordinates": [8.497982, 47.381447], "type": "Point"}, "properties": {"address": "Dennlerstrasse 23", "electric": 7, "id": "pb_567", "manual": 5, "name": "Dennlerstrasse", "provider": "publibike", "timeStamp": "02/05/2020, 19:08:24", "zip": 8047}, "type": "Feature"}, {"geometry": {"coordinates": [8.528049, 47.347701], "type": "Point"}, "properties": {"address": "Mutschellenstrasse 114", "electric": 4, "id": "pb_568", "manual": 5, "name": "Jugendherberge", "provider": "publibike", "timeStamp": "02/05/2020, 19:08:24", "zip": 8038}, "type": "Feature"}, {"geometry": {"coordinates": [8.539016, 47.405751], "type": "Point"}, "properties": {"address": "Ringstrasse 82", "electric": 2, "id": "pb_569", "manual": 3, "name": "Freibad Allenmoos", "provider": "publibike", "timeStamp": "02/05/2020, 19:08:24", "zip": 8057}, "type": "Feature"}, {"geometry": {"coordinates": [8.534974, 47.402164], "type": "Point"}, "properties": {"address": "Brache Guggach", "electric": 3, "id": "pb_572", "manual": 2, "name": "Radiostudio", "provider": "publibike", "timeStamp": "02/05/2020, 19:08:24", "zip": 8057}, "type": "Feature"}, {"geometry": {"coordinates": [8.547901, 47.375556], "type": "Point"}, "properties": {"address": "Karl-Schmid-Strasse 4", "electric": 0, "id": "pb_571", "manual": 1, "name": "ETH/Zoologisches Museum", "provider": "publibike", "timeStamp": "02/05/2020, 19:08:24", "zip": 8006}, "type": "Feature"}, {"geometry": {"coordinates": [8.547323, 47.358706], "type": "Point"}, "properties": {"charge": 45, "id": "smide_2901", "name": "ZH 267278", "provider": "smide", "range": 22.0, "size": 20, "time": "02/05/2020, 19:09:58"}, "type": "Feature"}, {"geometry": {"coordinates": [8.494501, 47.365851], "type": "Point"}, "properties": {"charge": 81, "id": "smide_2895", "name": "ZH 267279", "provider": "smide", "range": 40.0, "size": 20, "time": "02/05/2020, 19:09:58"}, "type": "Feature"}, {"geometry": {"coordinates": [8.554366, 47.402155], "type": "Point"}, "properties": {"charge": 42, "id": "smide_2880", "name": "ZH267289", "provider": "smide", "range": 21.0, "size": 17, "time": "02/05/2020, 19:09:58"}, "type": "Feature"}, {"geometry": {"coordinates": [8.54085, 47.39722], "type": "Point"}, "properties": {"charge": 97, "id": "smide_2874", "name": "ZH 267288", "provider": "smide", "range": 48.0, "size": 17, "time": "02/05/2020, 19:09:58"}, "type": "Feature"}, {"geometry": {"coordinates": [8.524095, 47.392818], "type": "Point"}, "properties": {"charge": 100, "id": "smide_2871", "name": "ZH 267086", "provider": "smide", "range": 50.0, "size": 20, "time": "02/05/2020, 19:09:58"}, "type": "Feature"}, {"geometry": {"coordinates": [8.507508, 47.427218], "type": "Point"}, "properties": {"charge": 61, "id": "smide_2867", "name": "ZH 267090", "provider": "smide", "range": 30.0, "size": 20, "time": "02/05/2020, 19:09:58"}, "type": "Feature"}, {"geometry": {"coordinates": [8.530413, 47.379256], "type": "Point"}, "properties": {"charge": 18, "id": "smide_2861", "name": "ZH 267096", "provider": "smide", "range": 9.0, "size": 17, "time": "02/05/2020, 19:09:58"}, "type": "Feature"}, {"geometry": {"coordinates": [8.575835, 47.34985], "type": "Point"}, "properties": {"charge": 67, "id": "smide_2860", "name": "ZH 267097", "provider": "smide", "range": 33.0, "size": 17, "time": "02/05/2020, 19:09:58"}, "type": "Feature"}, {"geometry": {"coordinates": [8.51577, 47.364955], "type": "Point"}, "properties": {"charge": 31, "id": "smide_2859", "name": "ZH 267098", "provider": "smide", "range": 15.0, "size": 17, "time": "02/05/2020, 19:09:58"}, "type": "Feature"}, {"geometry": {"coordinates": [8.515446, 47.38186], "type": "Point"}, "properties": {"charge": 100, "id": "smide_2856", "name": "ZH 267101", "provider": "smide", "range": 50.0, "size": 17, "time": "02/05/2020, 19:09:58"}, "type": "Feature"}, {"geometry": {"coordinates": [8.524335, 47.398063], "type": "Point"}, "properties": {"charge": 91, "id": "smide_2855", "name": "ZH 267102", "provider": "smide", "range": 45.0, "size": 17, "time": "02/05/2020, 19:09:58"}, "type": "Feature"}, {"geometry": {"coordinates": [8.539556, 47.379136], "type": "Point"}, "properties": {"charge": 48, "id": "smide_2854", "name": "ZH 267103", "provider": "smide", "range": 24.0, "size": 17, "time": "02/05/2020, 19:09:58"}, "type": "Feature"}, {"geometry": {"coordinates": [8.530295, 47.352053], "type": "Point"}, "properties": {"charge": 72, "id": "smide_2833", "name": "ZH 267182", "provider": "smide", "range": 36.0, "size": 20, "time": "02/05/2020, 19:09:58"}, "type": "Feature"}, {"geometry": {"coordinates": [8.554948, 47.363651], "type": "Point"}, "properties": {"charge": 83, "id": "smide_2831", "name": "ZH 267180", "provider": "smide", "range": 41.0, "size": 20, "time": "02/05/2020, 19:09:58"}, "type": "Feature"}, {"geometry": {"coordinates": [8.570056, 47.35226], "type": "Point"}, "properties": {"charge": 100, "id": "smide_2829", "name": "ZH 267049", "provider": "smide", "range": 50.0, "size": 20, "time": "02/05/2020, 19:09:58"}, "type": "Feature"}, {"geometry": {"coordinates": [8.55365, 47.417101], "type": "Point"}, "properties": {"charge": 100, "id": "smide_2804", "name": "ZH266903", "provider": "smide", "range": 50.0, "size": 20, "time": "02/05/2020, 19:09:58"}, "type": "Feature"}, {"geometry": {"coordinates": [8.54399, 47.391793], "type": "Point"}, "properties": {"charge": 95, "id": "smide_2798", "name": "ZH266888", "provider": "smide", "range": 47.0, "size": 17, "time": "02/05/2020, 19:09:58"}, "type": "Feature"}, {"geometry": {"coordinates": [8.52052, 47.34013], "type": "Point"}, "properties": {"charge": 71, "id": "smide_2793", "name": "ZH266883", "provider": "smide", "range": 35.0, "size": 17, "time": "02/05/2020, 19:09:58"}, "type": "Feature"}, {"geometry": {"coordinates": [8.530205, 47.37178], "type": "Point"}, "properties": {"charge": 71, "id": "smide_2790", "name": "ZH266880", "provider": "smide", "range": 35.0, "size": 17, "time": "02/05/2020, 19:09:58"}, "type": "Feature"}, {"geometry": {"coordinates": [8.50814, 47.393461], "type": "Point"}, "properties": {"charge": 78, "id": "smide_2785", "name": "ZH266875", "provider": "smide", "range": 39.0, "size": 17, "time": "02/05/2020, 19:09:58"}, "type": "Feature"}, {"geometry": {"coordinates": [8.564078, 47.347766], "type": "Point"}, "properties": {"charge": 60, "id": "smide_2781", "name": "ZH 266871", "provider": "smide", "range": 30.0, "size": 17, "time": "02/05/2020, 19:09:58"}, "type": "Feature"}, {"geometry": {"coordinates": [8.558071, 47.359565], "type": "Point"}, "properties": {"charge": 41, "id": "smide_2780", "name": "ST1 X #1", "provider": "smide", "range": 20.0, "size": 17, "time": "02/05/2020, 19:09:58"}, "type": "Feature"}, {"geometry": {"coordinates": [8.553608, 47.37316], "type": "Point"}, "properties": {"charge": 89, "id": "smide_2775", "name": "ZH267283", "provider": "smide", "range": 44.0, "size": 20, "time": "02/05/2020, 19:09:58"}, "type": "Feature"}, {"geometry": {"coordinates": [8.568812, 47.410564], "type": "Point"}, "properties": {"charge": 100, "id": "smide_2773", "name": "ZH266561", "provider": "smide", "range": 50.0, "size": 17, "time": "02/05/2020, 19:09:58"}, "type": "Feature"}, {"geometry": {"coordinates": [8.54008, 47.37898], "type": "Point"}, "properties": {"charge": 100, "id": "smide_2763", "name": "ZH266641", "provider": "smide", "range": 50.0, "size": 17, "time": "02/05/2020, 19:09:58"}, "type": "Feature"}, {"geometry": {"coordinates": [8.5558, 47.384353], "type": "Point"}, "properties": {"charge": 74, "id": "smide_2761", "name": "ZH266642", "provider": "smide", "range": 37.0, "size": 20, "time": "02/05/2020, 19:09:58"}, "type": "Feature"}, {"geometry": {"coordinates": [8.492277, 47.402724], "type": "Point"}, "properties": {"charge": 29, "id": "smide_2758", "name": "ZH266638 M", "provider": "smide", "range": 14.0, "size": 17, "time": "02/05/2020, 19:09:58"}, "type": "Feature"}, {"geometry": {"coordinates": [8.517233, 47.366504], "type": "Point"}, "properties": {"charge": 100, "id": "smide_2752", "name": "BE343856", "provider": "smide", "range": 50.0, "size": 17, "time": "02/05/2020, 19:09:58"}, "type": "Feature"}, {"geometry": {"coordinates": [8.529294, 47.352068], "type": "Point"}, "properties": {"charge": 91, "id": "smide_2751", "name": "BE343857", "provider": "smide", "range": 45.0, "size": 17, "time": "02/05/2020, 19:09:58"}, "type": "Feature"}, {"geometry": {"coordinates": [8.544028, 47.380128], "type": "Point"}, "properties": {"charge": 95, "id": "smide_2749", "name": "BE343867", "provider": "smide", "range": 47.0, "size": 17, "time": "02/05/2020, 19:09:58"}, "type": "Feature"}, {"geometry": {"coordinates": [8.475469, 47.385456], "type": "Point"}, "properties": {"charge": 59, "id": "smide_2748", "name": "BE335758", "provider": "smide", "range": 29.0, "size": 17, "time": "02/05/2020, 19:09:58"}, "type": "Feature"}, {"geometry": {"coordinates": [8.562487, 47.382928], "type": "Point"}, "properties": {"charge": 100, "id": "smide_2746", "name": "BE335817", "provider": "smide", "range": 50.0, "size": 17, "time": "02/05/2020, 19:09:58"}, "type": "Feature"}, {"geometry": {"coordinates": [8.518086, 47.3677], "type": "Point"}, "properties": {"charge": 81, "id": "smide_2745", "name": "BE335818", "provider": "smide", "range": 40.0, "size": 17, "time": "02/05/2020, 19:09:58"}, "type": "Feature"}, {"geometry": {"coordinates": [8.52769, 47.386572], "type": "Point"}, "properties": {"charge": 100, "id": "smide_2743", "name": "BE343864", "provider": "smide", "range": 50.0, "size": 17, "time": "02/05/2020, 19:09:58"}, "type": "Feature"}, {"geometry": {"coordinates": [8.519512, 47.3372], "type": "Point"}, "properties": {"charge": 94, "id": "smide_2742", "name": "BE343866", "provider": "smide", "range": 47.0, "size": 17, "time": "02/05/2020, 19:09:58"}, "type": "Feature"}, {"geometry": {"coordinates": [8.536363, 47.40322], "type": "Point"}, "properties": {"charge": 33, "id": "smide_2741", "name": "BE343874", "provider": "smide", "range": 16.0, "size": 17, "time": "02/05/2020, 19:09:58"}, "type": "Feature"}, {"geometry": {"coordinates": [8.536302, 47.378048], "type": "Point"}, "properties": {"charge": 33, "id": "smide_2740", "name": "BE343875", "provider": "smide", "range": 16.0, "size": 17, "time": "02/05/2020, 19:09:58"}, "type": "Feature"}, {"geometry": {"coordinates": [8.537391, 47.379291], "type": "Point"}, "properties": {"charge": 34, "id": "smide_2738", "name": "BE343865", "provider": "smide", "range": 17.0, "size": 17, "time": "02/05/2020, 19:09:58"}, "type": "Feature"}, {"geometry": {"coordinates": [8.545623, 47.372664], "type": "Point"}, "properties": {"charge": 55, "id": "smide_2737", "name": "BE336149", "provider": "smide", "range": 27.0, "size": 17, "time": "02/05/2020, 19:09:58"}, "type": "Feature"}, {"geometry": {"coordinates": [8.545154, 47.3677], "type": "Point"}, "properties": {"charge": 59, "id": "smide_2736", "name": "BE346639", "provider": "smide", "range": 29.0, "size": 17, "time": "02/05/2020, 19:09:58"}, "type": "Feature"}, {"geometry": {"coordinates": [8.497131, 47.383352], "type": "Point"}, "properties": {"charge": 57, "id": "smide_2732", "name": "BE343870", "provider": "smide", "range": 28.0, "size": 17, "time": "02/05/2020, 19:09:58"}, "type": "Feature"}, {"geometry": {"coordinates": [8.527113, 47.35406], "type": "Point"}, "properties": {"charge": 100, "id": "smide_2729", "name": "BE343878", "provider": "smide", "range": 50.0, "size": 17, "time": "02/05/2020, 19:09:58"}, "type": "Feature"}, {"geometry": {"coordinates": [8.51076, 47.398538], "type": "Point"}, "properties": {"charge": 51, "id": "smide_2725", "name": "ZH261545", "provider": "smide", "range": 25.0, "size": 0, "time": "02/05/2020, 19:09:58"}, "type": "Feature"}, {"geometry": {"coordinates": [8.543988, 47.380385], "type": "Point"}, "properties": {"charge": 80, "id": "smide_2718", "name": "ZH259019", "provider": "smide", "range": 40.0, "size": 20, "time": "02/05/2020, 19:09:58"}, "type": "Feature"}, {"geometry": {"coordinates": [8.55192, 47.389112], "type": "Point"}, "properties": {"charge": 70, "id": "smide_2717", "name": "ZH263287", "provider": "smide", "range": 35.0, "size": 17, "time": "02/05/2020, 19:09:58"}, "type": "Feature"}, {"geometry": {"coordinates": [8.530103, 47.390493], "type": "Point"}, "properties": {"charge": 64, "id": "smide_2716", "name": "ZH254606", "provider": "smide", "range": 32.0, "size": 17, "time": "02/05/2020, 19:09:58"}, "type": "Feature"}, {"geometry": {"coordinates": [8.528806, 47.394984], "type": "Point"}, "properties": {"charge": 42, "id": "smide_2715", "name": "ZH254605", "provider": "smide", "range": 21.0, "size": 17, "time": "02/05/2020, 19:09:58"}, "type": "Feature"}, {"geometry": {"coordinates": [8.537111, 47.402984], "type": "Point"}, "properties": {"charge": 30, "id": "smide_2710", "name": "ZH256460", "provider": "smide", "range": 15.0, "size": 17, "time": "02/05/2020, 19:09:58"}, "type": "Feature"}, {"geometry": {"coordinates": [8.529885, 47.344276], "type": "Point"}, "properties": {"charge": 90, "id": "smide_2712", "name": "ZH256462", "provider": "smide", "range": 45.0, "size": 17, "time": "02/05/2020, 19:09:58"}, "type": "Feature"}, {"geometry": {"coordinates": [8.564687, 47.372804], "type": "Point"}, "properties": {"charge": 65, "id": "smide_2711", "name": "ZH256463", "provider": "smide", "range": 32.0, "size": 17, "time": "02/05/2020, 19:09:58"}, "type": "Feature"}, {"geometry": {"coordinates": [8.56406, 47.348243], "type": "Point"}, "properties": {"charge": 100, "id": "smide_2709", "name": "ZH256466", "provider": "smide", "range": 50.0, "size": 20, "time": "02/05/2020, 19:09:58"}, "type": "Feature"}, {"geometry": {"coordinates": [8.559509, 47.416228], "type": "Point"}, "properties": {"charge": 45, "id": "smide_2707", "name": "ZH256467", "provider": "smide", "range": 22.0, "size": 20, "time": "02/05/2020, 19:09:58"}, "type": "Feature"}, {"geometry": {"coordinates": [8.539648, 47.399788], "type": "Point"}, "properties": {"charge": 64, "id": "smide_2708", "name": "ZH256464", "provider": "smide", "range": 32.0, "size": 17, "time": "02/05/2020, 19:09:58"}, "type": "Feature"}, {"geometry": {"coordinates": [8.534053, 47.40538], "type": "Point"}, "properties": {"charge": 50, "id": "smide_2701", "name": "ZH256468", "provider": "smide", "range": 25.0, "size": 20, "time": "02/05/2020, 19:09:58"}, "type": "Feature"}, {"geometry": {"coordinates": [8.553524, 47.387312], "type": "Point"}, "properties": {"charge": 83, "id": "smide_2699", "name": "ZH254611", "provider": "smide", "range": 41.0, "size": 20, "time": "02/05/2020, 19:09:58"}, "type": "Feature"}, {"geometry": {"coordinates": [8.519152, 47.337544], "type": "Point"}, "properties": {"charge": 64, "id": "smide_2697", "name": "ZH254629", "provider": "smide", "range": 32.0, "size": 20, "time": "02/05/2020, 19:09:58"}, "type": "Feature"}, {"geometry": {"coordinates": [8.5565, 47.42018], "type": "Point"}, "properties": {"charge": 100, "id": "smide_2696", "name": "ZH254616", "provider": "smide", "range": 50.0, "size": 20, "time": "02/05/2020, 19:09:58"}, "type": "Feature"}, {"geometry": {"coordinates": [8.551832, 47.389164], "type": "Point"}, "properties": {"charge": 78, "id": "smide_2694", "name": "ZH254610", "provider": "smide", "range": 39.0, "size": 20, "time": "02/05/2020, 19:09:58"}, "type": "Feature"}, {"geometry": {"coordinates": [8.55846, 47.40392], "type": "Point"}, "properties": {"charge": 100, "id": "smide_2691", "name": "ZH254622", "provider": "smide", "range": 50.0, "size": 20, "time": "02/05/2020, 19:09:58"}, "type": "Feature"}, {"geometry": {"coordinates": [8.529881, 47.342756], "type": "Point"}, "properties": {"charge": 100, "id": "smide_2690", "name": "ZH254625", "provider": "smide", "range": 50.0, "size": 20, "time": "02/05/2020, 19:09:58"}, "type": "Feature"}, {"geometry": {"coordinates": [8.555644, 47.384432], "type": "Point"}, "properties": {"charge": 100, "id": "smide_2689", "name": "ZH254623", "provider": "smide", "range": 50.0, "size": 20, "time": "02/05/2020, 19:09:58"}, "type": "Feature"}, {"geometry": {"coordinates": [8.509421, 47.395308], "type": "Point"}, "properties": {"charge": 80, "id": "smide_2687", "name": "ZH263529", "provider": "smide", "range": 40.0, "size": 20, "time": "02/05/2020, 19:09:58"}, "type": "Feature"}, {"geometry": {"coordinates": [8.547228, 47.362404], "type": "Point"}, "properties": {"charge": 35, "id": "smide_2684", "name": "ZH254626", "provider": "smide", "range": 17.0, "size": 20, "time": "02/05/2020, 19:09:58"}, "type": "Feature"}, {"geometry": {"coordinates": [8.539419, 47.374716], "type": "Point"}, "properties": {"charge": 95, "id": "smide_2680", "name": "ZH254619", "provider": "smide", "range": 47.0, "size": 20, "time": "02/05/2020, 19:09:58"}, "type": "Feature"}, {"geometry": {"coordinates": [8.576465, 47.35138], "type": "Point"}, "properties": {"charge": 66, "id": "smide_2679", "name": "ZH258489", "provider": "smide", "range": 33.0, "size": 17, "time": "02/05/2020, 19:09:58"}, "type": "Feature"}, {"geometry": {"coordinates": [8.543135, 47.400304], "type": "Point"}, "properties": {"charge": 56, "id": "smide_2674", "name": "ZH258654", "provider": "smide", "range": 28.0, "size": 17, "time": "02/05/2020, 19:09:58"}, "type": "Feature"}, {"geometry": {"coordinates": [8.535612, 47.406036], "type": "Point"}, "properties": {"charge": 100, "id": "smide_2671", "name": "ZH258645", "provider": "smide", "range": 50.0, "size": 17, "time": "02/05/2020, 19:09:58"}, "type": "Feature"}, {"geometry": {"coordinates": [8.550058, 47.39716], "type": "Point"}, "properties": {"charge": 86, "id": "smide_2669", "name": "ZH263294", "provider": "smide", "range": 43.0, "size": 17, "time": "02/05/2020, 19:09:58"}, "type": "Feature"}, {"geometry": {"coordinates": [8.519574, 47.337288], "type": "Point"}, "properties": {"charge": 84, "id": "smide_2666", "name": "ZH258653", "provider": "smide", "range": 42.0, "size": 17, "time": "02/05/2020, 19:09:58"}, "type": "Feature"}, {"geometry": {"coordinates": [8.561588, 47.372496], "type": "Point"}, "properties": {"charge": 88, "id": "smide_2665", "name": "ZH258644", "provider": "smide", "range": 44.0, "size": 17, "time": "02/05/2020, 19:09:58"}, "type": "Feature"}, {"geometry": {"coordinates": [8.511735, 47.39878], "type": "Point"}, "properties": {"charge": 100, "id": "smide_2664", "name": "ZH258652", "provider": "smide", "range": 50.0, "size": 17, "time": "02/05/2020, 19:09:58"}, "type": "Feature"}, {"geometry": {"coordinates": [8.54801, 47.366356], "type": "Point"}, "properties": {"charge": 34, "id": "smide_2663", "name": "ZH258649", "provider": "smide", "range": 17.0, "size": 17, "time": "02/05/2020, 19:09:58"}, "type": "Feature"}, {"geometry": {"coordinates": [8.572762, 47.38056], "type": "Point"}, "properties": {"charge": 79, "id": "smide_2662", "name": "ZH258643", "provider": "smide", "range": 39.0, "size": 17, "time": "02/05/2020, 19:09:58"}, "type": "Feature"}, {"geometry": {"coordinates": [8.502219, 47.424432], "type": "Point"}, "properties": {"charge": 52, "id": "smide_2648", "name": "ZH257930", "provider": "smide", "range": 26.0, "size": 20, "time": "02/05/2020, 19:09:58"}, "type": "Feature"}, {"geometry": {"coordinates": [8.570158, 47.352466], "type": "Point"}, "properties": {"charge": 100, "id": "smide_2657", "name": "ZH257936", "provider": "smide", "range": 50.0, "size": 17, "time": "02/05/2020, 19:09:58"}, "type": "Feature"}, {"geometry": {"coordinates": [8.550015, 47.397224], "type": "Point"}, "properties": {"charge": 71, "id": "smide_2647", "name": "ZH257932", "provider": "smide", "range": 35.0, "size": 20, "time": "02/05/2020, 19:09:58"}, "type": "Feature"}, {"geometry": {"coordinates": [8.519016, 47.374272], "type": "Point"}, "properties": {"charge": 94, "id": "smide_2645", "name": "ZH257933", "provider": "smide", "range": 47.0, "size": 20, "time": "02/05/2020, 19:09:58"}, "type": "Feature"}, {"geometry": {"coordinates": [8.555881, 47.379915], "type": "Point"}, "properties": {"charge": 83, "id": "smide_3", "name": "ZH253765", "provider": "smide", "range": 41.0, "size": 20, "time": "02/05/2020, 19:09:58"}, "type": "Feature"}, {"geometry": {"coordinates": [8.525943, 47.408495], "type": "Point"}, "properties": {"charge": 60, "id": "smide_105", "name": "ZH253804", "provider": "smide", "range": 30.0, "size": 17, "time": "02/05/2020, 19:09:58"}, "type": "Feature"}, {"geometry": {"coordinates": [8.542089, 47.407628], "type": "Point"}, "properties": {"charge": 84, "id": "smide_186", "name": "ZH253751", "provider": "smide", "range": 42.0, "size": 20, "time": "02/05/2020, 19:09:58"}, "type": "Feature"}, {"geometry": {"coordinates": [8.573854, 47.352812], "type": "Point"}, "properties": {"charge": 73, "id": "smide_173", "name": "ZH258501", "provider": "smide", "range": 36.0, "size": 17, "time": "02/05/2020, 19:09:58"}, "type": "Feature"}, {"geometry": {"coordinates": [8.559308, 47.405972], "type": "Point"}, "properties": {"charge": 73, "id": "smide_77", "name": "ZH261548", "provider": "smide", "range": 36.0, "size": 20, "time": "02/05/2020, 19:09:58"}, "type": "Feature"}, {"geometry": {"coordinates": [8.535421, 47.36806], "type": "Point"}, "properties": {"charge": 78, "id": "smide_197", "name": "ZH253864", "provider": "smide", "range": 39.0, "size": 20, "time": "02/05/2020, 19:09:58"}, "type": "Feature"}, {"geometry": {"coordinates": [8.489533, 47.376376], "type": "Point"}, "properties": {"charge": 64, "id": "smide_199", "name": "ZH253766", "provider": "smide", "range": 32.0, "size": 20, "time": "02/05/2020, 19:09:58"}, "type": "Feature"}, {"geometry": {"coordinates": [8.494526, 47.398036], "type": "Point"}, "properties": {"charge": 99, "id": "smide_8", "name": "ZH253861", "provider": "smide", "range": 49.0, "size": 17, "time": "02/05/2020, 19:09:58"}, "type": "Feature"}, {"geometry": {"coordinates": [8.565106, 47.349163], "type": "Point"}, "properties": {"charge": 100, "id": "smide_45", "name": "ZH253716", "provider": "smide", "range": 50.0, "size": 17, "time": "02/05/2020, 19:09:58"}, "type": "Feature"}, {"geometry": {"coordinates": [8.540175, 47.3788], "type": "Point"}, "properties": {"charge": 37, "id": "smide_71", "name": "ZH253742", "provider": "smide", "range": 18.0, "size": 20, "time": "02/05/2020, 19:09:58"}, "type": "Feature"}, {"geometry": {"coordinates": [8.517685, 47.414316], "type": "Point"}, "properties": {"charge": 49, "id": "smide_101", "name": "ZH253814", "provider": "smide", "range": 24.0, "size": 17, "time": "02/05/2020, 19:09:58"}, "type": "Feature"}, {"geometry": {"coordinates": [8.450015, 47.397892], "type": "Point"}, "properties": {"charge": 46, "id": "smide_9", "name": "ZH253796", "provider": "smide", "range": 23.0, "size": 17, "time": "02/05/2020, 19:09:58"}, "type": "Feature"}, {"geometry": {"coordinates": [8.557675, 47.406004], "type": "Point"}, "properties": {"charge": 100, "id": "smide_143", "name": "ZH253778", "provider": "smide", "range": 50.0, "size": 17, "time": "02/05/2020, 19:09:58"}, "type": "Feature"}, {"geometry": {"coordinates": [8.544438, 47.4165], "type": "Point"}, "properties": {"charge": 85, "id": "smide_180", "name": "ZH253824", "provider": "smide", "range": 42.0, "size": 20, "time": "02/05/2020, 19:09:58"}, "type": "Feature"}, {"geometry": {"coordinates": [8.516477, 47.397452], "type": "Point"}, "properties": {"charge": 32, "id": "smide_20", "name": "ZH253770", "provider": "smide", "range": 16.0, "size": 20, "time": "02/05/2020, 19:09:58"}, "type": "Feature"}, {"geometry": {"coordinates": [8.53685, 47.373068], "type": "Point"}, "properties": {"charge": 76, "id": "smide_50", "name": "ZH253853", "provider": "smide", "range": 38.0, "size": 17, "time": "02/05/2020, 19:09:58"}, "type": "Feature"}, {"geometry": {"coordinates": [8.546096, 47.39784], "type": "Point"}, "properties": {"charge": 44, "id": "smide_30", "name": "ZH253813", "provider": "smide", "range": 22.0, "size": 20, "time": "02/05/2020, 19:09:58"}, "type": "Feature"}, {"geometry": {"coordinates": [8.527231, 47.397218], "type": "Point"}, "properties": {"charge": 45, "id": "smide_10", "name": "ZH253855", "provider": "smide", "range": 22.0, "size": 17, "time": "02/05/2020, 19:09:58"}, "type": "Feature"}, {"geometry": {"coordinates": [8.562992, 47.3827], "type": "Point"}, "properties": {"charge": 87, "id": "smide_84", "name": "ZH253733", "provider": "smide", "range": 43.0, "size": 17, "time": "02/05/2020, 19:09:58"}, "type": "Feature"}, {"geometry": {"coordinates": [8.564672, 47.36936], "type": "Point"}, "properties": {"charge": 65, "id": "smide_165", "name": "ZH253752", "provider": "smide", "range": 32.0, "size": 17, "time": "02/05/2020, 19:09:58"}, "type": "Feature"}, {"geometry": {"coordinates": [8.500076, 47.403652], "type": "Point"}, "properties": {"charge": 17, "id": "smide_35", "name": "ZH253755", "provider": "smide", "range": 8.0, "size": 20, "time": "02/05/2020, 19:09:58"}, "type": "Feature"}, {"geometry": {"coordinates": [8.582234, 47.351896], "type": "Point"}, "properties": {"charge": 55, "id": "smide_119", "name": "ZH253686", "provider": "smide", "range": 27.0, "size": 20, "time": "02/05/2020, 19:09:58"}, "type": "Feature"}, {"geometry": {"coordinates": [8.516615, 47.37588], "type": "Point"}, "properties": {"charge": 79, "id": "smide_76", "name": "ZH253764", "provider": "smide", "range": 39.0, "size": 17, "time": "02/05/2020, 19:09:58"}, "type": "Feature"}, {"geometry": {"coordinates": [8.533915, 47.384864], "type": "Point"}, "properties": {"charge": 21, "id": "smide_129", "name": "ZH261378", "provider": "smide", "range": 10.0, "size": 17, "time": "02/05/2020, 19:09:58"}, "type": "Feature"}, {"geometry": {"coordinates": [8.48802, 47.367905], "type": "Point"}, "properties": {"charge": 57, "id": "smide_49", "name": "ZH253873", "provider": "smide", "range": 28.0, "size": 17, "time": "02/05/2020, 19:09:58"}, "type": "Feature"}, {"geometry": {"coordinates": [8.562539, 47.371332], "type": "Point"}, "properties": {"charge": 63, "id": "smide_37", "name": "ZH261377", "provider": "smide", "range": 31.0, "size": 20, "time": "02/05/2020, 19:09:58"}, "type": "Feature"}, {"geometry": {"coordinates": [8.565281, 47.366531], "type": "Point"}, "properties": {"charge": 97, "id": "smide_191", "name": "ZH253762", "provider": "smide", "range": 48.0, "size": 17, "time": "02/05/2020, 19:09:58"}, "type": "Feature"}, {"geometry": {"coordinates": [8.549032, 47.413884], "type": "Point"}, "properties": {"charge": 100, "id": "smide_23", "name": "ZH253704", "provider": "smide", "range": 50.0, "size": 17, "time": "02/05/2020, 19:09:58"}, "type": "Feature"}, {"geometry": {"coordinates": [8.558536, 47.40388], "type": "Point"}, "properties": {"charge": 90, "id": "smide_66", "name": "ZH253818", "provider": "smide", "range": 45.0, "size": 20, "time": "02/05/2020, 19:09:58"}, "type": "Feature"}, {"geometry": {"coordinates": [8.508278, 47.400773], "type": "Point"}, "properties": {"charge": 66, "id": "smide_17", "name": "ZH253793", "provider": "smide", "range": 33.0, "size": 17, "time": "02/05/2020, 19:09:58"}, "type": "Feature"}, {"geometry": {"coordinates": [8.564082, 47.366392], "type": "Point"}, "properties": {"charge": 52, "id": "smide_127", "name": "ZH253808", "provider": "smide", "range": 26.0, "size": 20, "time": "02/05/2020, 19:09:58"}, "type": "Feature"}, {"geometry": {"coordinates": [8.537031, 47.419413], "type": "Point"}, "properties": {"charge": 49, "id": "smide_145", "name": "ZH253780", "provider": "smide", "range": 24.0, "size": 20, "time": "02/05/2020, 19:09:58"}, "type": "Feature"}, {"geometry": {"coordinates": [8.540328, 47.371712], "type": "Point"}, "properties": {"charge": 84, "id": "smide_114", "name": "ZH253878", "provider": "smide", "range": 42.0, "size": 20, "time": "02/05/2020, 19:09:58"}, "type": "Feature"}, {"geometry": {"coordinates": [8.536868, 47.3729], "type": "Point"}, "properties": {"charge": 99, "id": "smide_203", "name": "ZH261547", "provider": "smide", "range": 49.0, "size": 17, "time": "02/05/2020, 19:09:58"}, "type": "Feature"}, {"geometry": {"coordinates": [8.519905, 47.337172], "type": "Point"}, "properties": {"charge": 100, "id": "smide_21", "name": "ZH253841", "provider": "smide", "range": 50.0, "size": 17, "time": "02/05/2020, 19:09:58"}, "type": "Feature"}, {"geometry": {"coordinates": [8.517667, 47.358708], "type": "Point"}, "properties": {"charge": 76, "id": "smide_164", "name": "ZH253775", "provider": "smide", "range": 38.0, "size": 17, "time": "02/05/2020, 19:09:58"}, "type": "Feature"}, {"geometry": {"coordinates": [8.560711, 47.416776], "type": "Point"}, "properties": {"charge": 99, "id": "smide_189", "name": "ZH253845", "provider": "smide", "range": 49.0, "size": 20, "time": "02/05/2020, 19:09:58"}, "type": "Feature"}, {"geometry": {"coordinates": [8.495076, 47.381176], "type": "Point"}, "properties": {"charge": 35, "id": "smide_81", "name": "ZH253753", "provider": "smide", "range": 17.0, "size": 17, "time": "02/05/2020, 19:09:58"}, "type": "Feature"}, {"geometry": {"coordinates": [8.541689, 47.382748], "type": "Point"}, "properties": {"charge": 31, "id": "smide_171", "name": "ZH253689", "provider": "smide", "range": 15.0, "size": 20, "time": "02/05/2020, 19:09:58"}, "type": "Feature"}, {"geometry": {"coordinates": [8.556952, 47.404032], "type": "Point"}, "properties": {"charge": 70, "id": "smide_93", "name": "ZH253681", "provider": "smide", "range": 35.0, "size": 17, "time": "02/05/2020, 19:09:58"}, "type": "Feature"}, {"geometry": {"coordinates": [8.573376, 47.352544], "type": "Point"}, "properties": {"charge": 75, "id": "smide_67", "name": "ZH253779", "provider": "smide", "range": 37.0, "size": 17, "time": "02/05/2020, 19:09:58"}, "type": "Feature"}, {"geometry": {"coordinates": [8.568705, 47.373504], "type": "Point"}, "properties": {"charge": 100, "id": "smide_133", "name": "ZH253848", "provider": "smide", "range": 50.0, "size": 20, "time": "02/05/2020, 19:09:58"}, "type": "Feature"}, {"geometry": {"coordinates": [8.482493, 47.385725], "type": "Point"}, "properties": {"charge": 81, "id": "smide_118", "name": "ZH253759", "provider": "smide", "range": 40.0, "size": 20, "time": "02/05/2020, 19:09:58"}, "type": "Feature"}, {"geometry": {"coordinates": [8.523293, 47.385276], "type": "Point"}, "properties": {"charge": 50, "id": "smide_142", "name": "ZH258745", "provider": "smide", "range": 25.0, "size": 17, "time": "02/05/2020, 19:09:58"}, "type": "Feature"}, {"geometry": {"coordinates": [8.53936, 47.378855], "type": "Point"}, "properties": {"charge": 98, "id": "smide_166", "name": "ZH253728", "provider": "smide", "range": 49.0, "size": 17, "time": "02/05/2020, 19:09:58"}, "type": "Feature"}, {"geometry": {"coordinates": [8.515578, 47.39262], "type": "Point"}, "properties": {"charge": 75, "id": "smide_126", "name": "ZH268400", "provider": "smide", "range": 37.0, "size": 17, "time": "02/05/2020, 19:09:58"}, "type": "Feature"}, {"geometry": {"coordinates": [8.530726, 47.344808], "type": "Point"}, "properties": {"charge": 100, "id": "smide_44", "name": "ZH253837", "provider": "smide", "range": 50.0, "size": 17, "time": "02/05/2020, 19:09:58"}, "type": "Feature"}, {"geometry": {"coordinates": [8.54677, 47.407613], "type": "Point"}, "properties": {"charge": 63, "id": "smide_98", "name": "ZH256321", "provider": "smide", "range": 31.0, "size": 17, "time": "02/05/2020, 19:09:58"}, "type": "Feature"}, {"geometry": {"coordinates": [8.519142, 47.397176], "type": "Point"}, "properties": {"charge": 97, "id": "smide_154", "name": "ZH253744", "provider": "smide", "range": 48.0, "size": 20, "time": "02/05/2020, 19:09:58"}, "type": "Feature"}, {"geometry": {"coordinates": [8.515051, 47.41458], "type": "Point"}, "properties": {"charge": 53, "id": "smide_92", "name": "ZH253798", "provider": "smide", "range": 26.0, "size": 17, "time": "02/05/2020, 19:09:58"}, "type": "Feature"}, {"geometry": {"coordinates": [8.554008, 47.358168], "type": "Point"}, "properties": {"charge": 59, "id": "smide_65", "name": "ZH253810", "provider": "smide", "range": 29.0, "size": 17, "time": "02/05/2020, 19:09:58"}, "type": "Feature"}, {"geometry": {"coordinates": [8.556264, 47.410616], "type": "Point"}, "properties": {"charge": 100, "id": "smide_40", "name": "ZH253690", "provider": "smide", "range": 50.0, "size": 20, "time": "02/05/2020, 19:09:58"}, "type": "Feature"}, {"geometry": {"coordinates": [8.50122, 47.382536], "type": "Point"}, "properties": {"charge": 51, "id": "smide_1", "name": "ZH253776", "provider": "smide", "range": 25.0, "size": 17, "time": "02/05/2020, 19:09:58"}, "type": "Feature"}, {"geometry": {"coordinates": [8.520135, 47.340226], "type": "Point"}, "properties": {"charge": 59, "id": "smide_14", "name": "ZH253749", "provider": "smide", "range": 29.0, "size": 20, "time": "02/05/2020, 19:09:58"}, "type": "Feature"}, {"geometry": {"coordinates": [8.5374, 47.387048], "type": "Point"}, "properties": {"charge": 42, "id": "smide_130", "name": "ZH253847", "provider": "smide", "range": 21.0, "size": 20, "time": "02/05/2020, 19:09:58"}, "type": "Feature"}, {"geometry": {"coordinates": [8.544066, 47.409308], "type": "Point"}, "properties": {"charge": 51, "id": "smide_24", "name": "ZH253696", "provider": "smide", "range": 25.0, "size": 20, "time": "02/05/2020, 19:09:58"}, "type": "Feature"}, {"geometry": {"coordinates": [8.494974, 47.375368], "type": "Point"}, "properties": {"charge": 41, "id": "smide_107", "name": "ZH253819", "provider": "smide", "range": 20.0, "size": 17, "time": "02/05/2020, 19:09:58"}, "type": "Feature"}, {"geometry": {"coordinates": [8.540635, 47.372812], "type": "Point"}, "properties": {"charge": 55, "id": "smide_136", "name": "ZH253682", "provider": "smide", "range": 27.0, "size": 17, "time": "02/05/2020, 19:09:58"}, "type": "Feature"}, {"geometry": {"coordinates": [8.545176, 47.390948], "type": "Point"}, "properties": {"charge": 34, "id": "smide_83", "name": "ZH253869", "provider": "smide", "range": 17.0, "size": 20, "time": "02/05/2020, 19:09:58"}, "type": "Feature"}, {"geometry": {"coordinates": [8.528687, 47.370112], "type": "Point"}, "properties": {"charge": 79, "id": "smide_193", "name": "ZH253738", "provider": "smide", "range": 39.0, "size": 20, "time": "02/05/2020, 19:09:58"}, "type": "Feature"}, {"geometry": {"coordinates": [8.517376, 47.375373], "type": "Point"}, "properties": {"charge": 61, "id": "smide_73", "name": "ZH261379", "provider": "smide", "range": 30.0, "size": 20, "time": "02/05/2020, 19:09:58"}, "type": "Feature"}, {"geometry": {"coordinates": [8.48377, 47.397575], "type": "Point"}, "properties": {"charge": 100, "id": "smide_158", "name": "ZH253870", "provider": "smide", "range": 50.0, "size": 20, "time": "02/05/2020, 19:09:58"}, "type": "Feature"}, {"geometry": {"coordinates": [8.536134, 47.391416], "type": "Point"}, "properties": {"charge": 77, "id": "smide_100", "name": "ZH253862", "provider": "smide", "range": 38.0, "size": 20, "time": "02/05/2020, 19:09:58"}, "type": "Feature"}, {"geometry": {"coordinates": [8.533786, 47.405343], "type": "Point"}, "properties": {"charge": 69, "id": "smide_134", "name": "ZH253741", "provider": "smide", "range": 34.0, "size": 20, "time": "02/05/2020, 19:09:58"}, "type": "Feature"}, {"geometry": {"coordinates": [8.490345, 47.380221], "type": "Point"}, "properties": {"charge": 46, "id": "smide_141", "name": "ZH253800", "provider": "smide", "range": 23.0, "size": 20, "time": "02/05/2020, 19:09:58"}, "type": "Feature"}, {"geometry": {"coordinates": [8.572598, 47.351308], "type": "Point"}, "properties": {"charge": 75, "id": "smide_16", "name": "ZH253713", "provider": "smide", "range": 37.0, "size": 20, "time": "02/05/2020, 19:09:58"}, "type": "Feature"}, {"geometry": {"coordinates": [8.499237, 47.385676], "type": "Point"}, "properties": {"charge": 13, "id": "smide_74", "name": "ZH253693", "provider": "smide", "range": 6.0, "size": 20, "time": "02/05/2020, 19:09:58"}, "type": "Feature"}, {"geometry": {"coordinates": [8.559283, 47.352661], "type": "Point"}, "properties": {"charge": 20, "id": "smide_33", "name": "ZH253782", "provider": "smide", "range": 10.0, "size": 20, "time": "02/05/2020, 19:09:58"}, "type": "Feature"}, {"geometry": {"coordinates": [8.550475, 47.392656], "type": "Point"}, "properties": {"charge": 100, "id": "smide_161", "name": "ZH253691", "provider": "smide", "range": 50.0, "size": 20, "time": "02/05/2020, 19:09:58"}, "type": "Feature"}, {"geometry": {"coordinates": [8.568425, 47.36766], "type": "Point"}, "properties": {"charge": 97, "id": "smide_42", "name": "ZH253846", "provider": "smide", "range": 48.0, "size": 20, "time": "02/05/2020, 19:09:58"}, "type": "Feature"}, {"geometry": {"coordinates": [8.556772, 47.381592], "type": "Point"}, "properties": {"charge": 55, "id": "smide_160", "name": "ZH253722", "provider": "smide", "range": 27.0, "size": 17, "time": "02/05/2020, 19:09:58"}, "type": "Feature"}, {"geometry": {"coordinates": [8.575243, 47.349003], "type": "Point"}, "properties": {"charge": 79, "id": "smide_137", "name": "ZH258502", "provider": "smide", "range": 39.0, "size": 17, "time": "02/05/2020, 19:09:58"}, "type": "Feature"}, {"geometry": {"coordinates": [8.577224, 47.35308], "type": "Point"}, "properties": {"charge": 90, "id": "smide_178", "name": "ZH253803", "provider": "smide", "range": 45.0, "size": 17, "time": "02/05/2020, 19:09:58"}, "type": "Feature"}, {"geometry": {"coordinates": [8.536755, 47.366095], "type": "Point"}, "properties": {"charge": 99, "id": "smide_55", "name": "ZH253875", "provider": "smide", "range": 49.0, "size": 17, "time": "02/05/2020, 19:09:58"}, "type": "Feature"}, {"geometry": {"coordinates": [8.528889, 47.37882], "type": "Point"}, "properties": {"charge": 43, "id": "smide_96", "name": "ZH256146", "provider": "smide", "range": 21.0, "size": 20, "time": "02/05/2020, 19:09:58"}, "type": "Feature"}, {"geometry": {"coordinates": [8.548814, 47.402184], "type": "Point"}, "properties": {"charge": 72, "id": "smide_58", "name": "ZH259246", "provider": "smide", "range": 36.0, "size": 20, "time": "02/05/2020, 19:09:58"}, "type": "Feature"}, {"geometry": {"coordinates": [8.548363, 47.37784], "type": "Point"}, "properties": {"charge": 48, "id": "smide_54", "name": "ZH253874", "provider": "smide", "range": 24.0, "size": 20, "time": "02/05/2020, 19:09:58"}, "type": "Feature"}, {"geometry": {"coordinates": [8.533145, 47.417164], "type": "Point"}, "properties": {"charge": 46, "id": "smide_175", "name": "ZH253730", "provider": "smide", "range": 23.0, "size": 17, "time": "02/05/2020, 19:09:58"}, "type": "Feature"}, {"geometry": {"coordinates": [8.510879, 47.366916], "type": "Point"}, "properties": {"charge": 67, "id": "smide_95", "name": "ZH253773", "provider": "smide", "range": 33.0, "size": 17, "time": "02/05/2020, 19:09:58"}, "type": "Feature"}, {"geometry": {"coordinates": [8.561908, 47.415068], "type": "Point"}, "properties": {"charge": 73, "id": "smide_112", "name": "ZH263530", "provider": "smide", "range": 36.0, "size": 20, "time": "02/05/2020, 19:09:58"}, "type": "Feature"}, {"geometry": {"coordinates": [8.51755, 47.358684], "type": "Point"}, "properties": {"charge": 86, "id": "smide_122", "name": "ZH253850", "provider": "smide", "range": 43.0, "size": 20, "time": "02/05/2020, 19:09:58"}, "type": "Feature"}, {"geometry": {"coordinates": [8.510933, 47.366811], "type": "Point"}, "properties": {"charge": 100, "id": "smide_38", "name": "ZH253851", "provider": "smide", "range": 50.0, "size": 20, "time": "02/05/2020, 19:09:58"}, "type": "Feature"}, {"geometry": {"coordinates": [8.557775, 47.404644], "type": "Point"}, "properties": {"charge": 77, "id": "smide_6", "name": "ZH253787", "provider": "smide", "range": 38.0, "size": 17, "time": "02/05/2020, 19:09:58"}, "type": "Feature"}, {"geometry": {"coordinates": [8.556933, 47.404044], "type": "Point"}, "properties": {"charge": 59, "id": "smide_18", "name": "ZH253859", "provider": "smide", "range": 29.0, "size": 17, "time": "02/05/2020, 19:09:58"}, "type": "Feature"}, {"geometry": {"coordinates": [8.499455, 47.402376], "type": "Point"}, "properties": {"charge": 42, "id": "smide_12", "name": "ZH253685", "provider": "smide", "range": 21.0, "size": 17, "time": "02/05/2020, 19:09:58"}, "type": "Feature"}, {"geometry": {"coordinates": [8.576279, 47.348804], "type": "Point"}, "properties": {"charge": 89, "id": "smide_192", "name": "ZH253706", "provider": "smide", "range": 44.0, "size": 20, "time": "02/05/2020, 19:09:58"}, "type": "Feature"}, {"geometry": {"coordinates": [8.542729, 47.389088], "type": "Point"}, "properties": {"charge": 100, "id": "smide_39", "name": "ZH253714", "provider": "smide", "range": 50.0, "size": 20, "time": "02/05/2020, 19:09:58"}, "type": "Feature"}, {"geometry": {"coordinates": [8.544243, 47.387263], "type": "Point"}, "properties": {"charge": 99, "id": "smide_5", "name": "ZH261443", "provider": "smide", "range": 49.0, "size": 20, "time": "02/05/2020, 19:09:58"}, "type": "Feature"}, {"geometry": {"coordinates": [8.54161, 47.400066], "type": "Point"}, "properties": {"charge": 76, "id": "smide_85", "name": "ZH253729", "provider": "smide", "range": 38.0, "size": 17, "time": "02/05/2020, 19:09:58"}, "type": "Feature"}, {"geometry": {"coordinates": [8.494969, 47.398248], "type": "Point"}, "properties": {"charge": 100, "id": "smide_29", "name": "ZH253723", "provider": "smide", "range": 50.0, "size": 17, "time": "02/05/2020, 19:09:58"}, "type": "Feature"}, {"geometry": {"coordinates": [8.543337, 47.37304], "type": "Point"}, "properties": {"charge": 71, "id": "smide_48", "name": "ZH253849", "provider": "smide", "range": 35.0, "size": 20, "time": "02/05/2020, 19:09:58"}, "type": "Feature"}, {"geometry": {"coordinates": [8.54481, 47.366248], "type": "Point"}, "properties": {"charge": 46, "id": "smide_46", "name": "ZH253843", "provider": "smide", "range": 23.0, "size": 20, "time": "02/05/2020, 19:09:58"}, "type": "Feature"}, {"geometry": {"coordinates": [8.515145, 47.3735116666667], "type": "Point"}, "properties": {"charge": 99, "id": "bird_19eac986-8d7c-457a-893f-c4872f1dc18c", "provider": "bird", "timeStamp": "02/05/2020, 19:09:57"}, "type": "Feature"}, {"geometry": {"coordinates": [8.52315666666667, 47.3910216666667], "type": "Point"}, "properties": {"charge": 52, "id": "bird_7613150f-4e64-47f4-960c-fc7cf2e08aa0", "provider": "bird", "timeStamp": "02/05/2020, 19:09:57"}, "type": "Feature"}, {"geometry": {"coordinates": [8.51478833333333, 47.37402], "type": "Point"}, "properties": {"charge": 51, "id": "bird_20a29c23-57f7-4a0c-9ba7-7fedddcfb1f1", "provider": "bird", "timeStamp": "02/05/2020, 19:09:57"}, "type": "Feature"}, {"geometry": {"coordinates": [8.54512, 47.3859216666667], "type": "Point"}, "properties": {"charge": 58, "id": "bird_4baf6432-87b3-4063-9972-ff4cf7ff82bf", "provider": "bird", "timeStamp": "02/05/2020, 19:09:57"}, "type": "Feature"}, {"geometry": {"coordinates": [8.546855, 47.37709], "type": "Point"}, "properties": {"charge": 33, "id": "bird_26934ae3-6e31-4d93-9a26-098f05f7c8c0", "provider": "bird", "timeStamp": "02/05/2020, 19:09:57"}, "type": "Feature"}, {"geometry": {"coordinates": [8.53978333333333, 47.389705], "type": "Point"}, "properties": {"charge": 71, "id": "bird_baaa8d5b-45d4-4046-94b5-9d068ea65049", "provider": "bird", "timeStamp": "02/05/2020, 19:09:57"}, "type": "Feature"}, {"geometry": {"coordinates": [8.53824833333333, 47.3696716666667], "type": "Point"}, "properties": {"charge": 17, "id": "bird_deced5f0-1596-4b1b-ae70-1192febee735", "provider": "bird", "timeStamp": "02/05/2020, 19:09:57"}, "type": "Feature"}, {"geometry": {"coordinates": [8.540405, 47.3706366666667], "type": "Point"}, "properties": {"charge": 45, "id": "bird_a62967f5-6666-4ec5-aa95-806e0fefb226", "provider": "bird", "timeStamp": "02/05/2020, 19:09:57"}, "type": "Feature"}, {"geometry": {"coordinates": [8.54486666666667, 47.374015], "type": "Point"}, "properties": {"charge": 33, "id": "bird_1b295b62-cd10-454e-aea0-ef72c6893a27", "provider": "bird", "timeStamp": "02/05/2020, 19:09:57"}, "type": "Feature"}, {"geometry": {"coordinates": [8.53830833333333, 47.369755], "type": "Point"}, "properties": {"charge": 42, "id": "bird_4c7fb1bf-1c70-47ea-9622-fc8fe1056d4a", "provider": "bird", "timeStamp": "02/05/2020, 19:09:57"}, "type": "Feature"}, {"geometry": {"coordinates": [8.54644166666667, 47.3834616666667], "type": "Point"}, "properties": {"charge": 64, "id": "bird_52aff257-a53f-456d-a5cf-ae74225532f6", "provider": "bird", "timeStamp": "02/05/2020, 19:09:57"}, "type": "Feature"}, {"geometry": {"coordinates": [8.54169333333333, 47.3714483333333], "type": "Point"}, "properties": {"charge": 48, "id": "bird_c518a074-17da-45dc-af20-4ecd40dfd944", "provider": "bird", "timeStamp": "02/05/2020, 19:09:57"}, "type": "Feature"}, {"geometry": {"coordinates": [8.54383666666667, 47.3732833333333], "type": "Point"}, "properties": {"charge": 74, "id": "bird_f5f31a25-33b4-4cfc-a581-4e4e558d7ad1", "provider": "bird", "timeStamp": "02/05/2020, 19:09:57"}, "type": "Feature"}, {"geometry": {"coordinates": [8.542875, 47.3725283333333], "type": "Point"}, "properties": {"charge": 17, "id": "bird_93b15310-e4b3-4fc7-8696-ddecfbda5065", "provider": "bird", "timeStamp": "02/05/2020, 19:09:57"}, "type": "Feature"}, {"geometry": {"coordinates": [8.54292666666667, 47.37257], "type": "Point"}, "properties": {"charge": 28, "id": "bird_f477297e-41ff-4879-a475-f09c2884abe3", "provider": "bird", "timeStamp": "02/05/2020, 19:09:57"}, "type": "Feature"}, {"geometry": {"coordinates": [8.54286333333333, 47.37252], "type": "Point"}, "properties": {"charge": 26, "id": "bird_b2fd602d-243f-48e5-8f21-16bebe89c0bc", "provider": "bird", "timeStamp": "02/05/2020, 19:09:57"}, "type": "Feature"}, {"geometry": {"coordinates": [8.54298333333333, 47.3726266666667], "type": "Point"}, "properties": {"charge": 12, "id": "bird_f362a016-919d-4032-9531-4c9b57d60f25", "provider": "bird", "timeStamp": "02/05/2020, 19:09:57"}, "type": "Feature"}, {"geometry": {"coordinates": [8.53774, 47.3901516666667], "type": "Point"}, "properties": {"charge": 29, "id": "bird_b5b241c9-c697-44e0-a4b6-334146d679e6", "provider": "bird", "timeStamp": "02/05/2020, 19:09:57"}, "type": "Feature"}, {"geometry": {"coordinates": [8.52192666666667, 47.39003], "type": "Point"}, "properties": {"charge": 98, "id": "bird_7e892bd2-9844-44f4-9246-a22cbc938ae8", "provider": "bird", "timeStamp": "02/05/2020, 19:09:57"}, "type": "Feature"}, {"geometry": {"coordinates": [8.52200666666667, 47.3900333333333], "type": "Point"}, "properties": {"charge": 98, "id": "bird_bf749641-f8d8-43be-9d51-f45be4b50b0d", "provider": "bird", "timeStamp": "02/05/2020, 19:09:57"}, "type": "Feature"}, {"geometry": {"coordinates": [8.52173166666667, 47.3898933333333], "type": "Point"}, "properties": {"charge": 100, "id": "bird_9bb01c7d-559e-4e09-9205-7e74cfb855aa", "provider": "bird", "timeStamp": "02/05/2020, 19:09:57"}, "type": "Feature"}, {"geometry": {"coordinates": [8.52194, 47.3899566666667], "type": "Point"}, "properties": {"charge": 100, "id": "bird_09c16c8d-2bc3-49de-bd2a-20a2ca686e6f", "provider": "bird", "timeStamp": "02/05/2020, 19:09:57"}, "type": "Feature"}, {"geometry": {"coordinates": [8.52201166666667, 47.3899733333333], "type": "Point"}, "properties": {"charge": 98, "id": "bird_947ad3de-a495-4054-8dee-b25edad91633", "provider": "bird", "timeStamp": "02/05/2020, 19:09:57"}, "type": "Feature"}, {"geometry": {"coordinates": [8.52186666666667, 47.3899116666667], "type": "Point"}, "properties": {"charge": 100, "id": "bird_18b26021-b810-499c-a862-ee38369bfcfb", "provider": "bird", "timeStamp": "02/05/2020, 19:09:57"}, "type": "Feature"}, {"geometry": {"coordinates": [8.51902833333333, 47.371445], "type": "Point"}, "properties": {"charge": 75, "id": "bird_4f38d25a-4391-4993-9319-078d071cc0a1", "provider": "bird", "timeStamp": "02/05/2020, 19:09:57"}, "type": "Feature"}, {"geometry": {"coordinates": [8.543615, 47.3734783333333], "type": "Point"}, "properties": {"charge": 58, "id": "bird_dc356a09-b353-42e1-a0ea-3e5acd00719c", "provider": "bird", "timeStamp": "02/05/2020, 19:09:57"}, "type": "Feature"}, {"geometry": {"coordinates": [8.52175333333333, 47.3898016666667], "type": "Point"}, "properties": {"charge": 100, "id": "bird_7fb5bb07-aa53-499d-ad8b-9384b8078211", "provider": "bird", "timeStamp": "02/05/2020, 19:09:57"}, "type": "Feature"}, {"geometry": {"coordinates": [8.51360333333333, 47.3780166666667], "type": "Point"}, "properties": {"charge": 69, "id": "bird_24c213e3-ad57-4f00-81c1-dfef87310739", "provider": "bird", "timeStamp": "02/05/2020, 19:09:57"}, "type": "Feature"}, {"geometry": {"coordinates": [8.537325, 47.3699116666667], "type": "Point"}, "properties": {"charge": 81, "id": "bird_4f0ec214-a3e0-4e5e-bef1-823936579c8d", "provider": "bird", "timeStamp": "02/05/2020, 19:09:57"}, "type": "Feature"}, {"geometry": {"coordinates": [8.52176833333333, 47.3897433333333], "type": "Point"}, "properties": {"charge": 100, "id": "bird_4bb3b6c8-d7a6-4111-8db6-9715248b8807", "provider": "bird", "timeStamp": "02/05/2020, 19:09:57"}, "type": "Feature"}, {"geometry": {"coordinates": [8.53754166666667, 47.370095], "type": "Point"}, "properties": {"charge": 20, "id": "bird_e0723e21-cc37-4008-b67c-a2f580fe0453", "provider": "bird", "timeStamp": "02/05/2020, 19:09:57"}, "type": "Feature"}, {"geometry": {"coordinates": [8.53681833333333, 47.3698733333333], "type": "Point"}, "properties": {"charge": 38, "id": "bird_76e6134a-e000-432a-8430-d2eca8f4fee0", "provider": "bird", "timeStamp": "02/05/2020, 19:09:57"}, "type": "Feature"}, {"geometry": {"coordinates": [8.54356666666667, 47.37373], "type": "Point"}, "properties": {"charge": 45, "id": "bird_4796eab4-91e0-4a21-a486-91ff04703b9f", "provider": "bird", "timeStamp": "02/05/2020, 19:09:57"}, "type": "Feature"}, {"geometry": {"coordinates": [8.53773, 47.3702966666667], "type": "Point"}, "properties": {"charge": 78, "id": "bird_a52424c6-6a98-4010-8168-514513104c88", "provider": "bird", "timeStamp": "02/05/2020, 19:09:57"}, "type": "Feature"}, {"geometry": {"coordinates": [8.537725, 47.3703083333333], "type": "Point"}, "properties": {"charge": 84, "id": "bird_14c04621-ee94-464d-90fb-27c9101e0ed4", "provider": "bird", "timeStamp": "02/05/2020, 19:09:57"}, "type": "Feature"}, {"geometry": {"coordinates": [8.53547, 47.3697016666667], "type": "Point"}, "properties": {"charge": 10, "id": "bird_bf5e364f-102c-4c63-b6ad-fc7f33da0096", "provider": "bird", "timeStamp": "02/05/2020, 19:09:57"}, "type": "Feature"}, {"geometry": {"coordinates": [8.51990666666667, 47.38853], "type": "Point"}, "properties": {"charge": 91, "id": "bird_732113ad-f486-4917-a93d-0802e424b766", "provider": "bird", "timeStamp": "02/05/2020, 19:09:57"}, "type": "Feature"}, {"geometry": {"coordinates": [8.54129666666667, 47.3722566666667], "type": "Point"}, "properties": {"charge": 17, "id": "bird_c81532cc-ce29-4e53-94ac-1537969ca91c", "provider": "bird", "timeStamp": "02/05/2020, 19:09:57"}, "type": "Feature"}, {"geometry": {"coordinates": [8.53604166666667, 47.37006], "type": "Point"}, "properties": {"charge": 49, "id": "bird_79b801e4-cee9-41ef-9c00-1960a8ea50e3", "provider": "bird", "timeStamp": "02/05/2020, 19:09:57"}, "type": "Feature"}, {"geometry": {"coordinates": [8.54380166666667, 47.374725], "type": "Point"}, "properties": {"charge": 36, "id": "bird_6fff34f5-a84c-4f66-b661-322c7fde33e8", "provider": "bird", "timeStamp": "02/05/2020, 19:09:57"}, "type": "Feature"}, {"geometry": {"coordinates": [8.54386833333333, 47.3850816666667], "type": "Point"}, "properties": {"charge": 19, "id": "bird_6efd0a01-16d9-414e-af7b-05f49ed021e7", "provider": "bird", "timeStamp": "02/05/2020, 19:09:57"}, "type": "Feature"}, {"geometry": {"coordinates": [8.52498833333333, 47.3698966666667], "type": "Point"}, "properties": {"charge": 35, "id": "bird_abb31544-4d9d-427e-b455-ab26e08c2db4", "provider": "bird", "timeStamp": "02/05/2020, 19:09:57"}, "type": "Feature"}, {"geometry": {"coordinates": [8.52136166666667, 47.3889083333333], "type": "Point"}, "properties": {"charge": 69, "id": "bird_bb292995-ece3-4c08-8c61-46afd06e8f59", "provider": "bird", "timeStamp": "02/05/2020, 19:09:57"}, "type": "Feature"}, {"geometry": {"coordinates": [8.51804, 47.3730883333333], "type": "Point"}, "properties": {"charge": 43, "id": "bird_79479f1b-99de-4b7a-8da0-9ba7613937bc", "provider": "bird", "timeStamp": "02/05/2020, 19:09:57"}, "type": "Feature"}, {"geometry": {"coordinates": [8.53905666666667, 47.3886916666667], "type": "Point"}, "properties": {"charge": 18, "id": "bird_c4c5064d-8af4-4d57-8b00-e694e5379a5c", "provider": "bird", "timeStamp": "02/05/2020, 19:09:57"}, "type": "Feature"}, {"geometry": {"coordinates": [8.51717333333333, 47.3861], "type": "Point"}, "properties": {"charge": 71, "id": "bird_c2e98363-07b5-4bea-8231-e9294b93d0d2", "provider": "bird", "timeStamp": "02/05/2020, 19:09:57"}, "type": "Feature"}, {"geometry": {"coordinates": [8.54467833333333, 47.376385], "type": "Point"}, "properties": {"charge": 18, "id": "bird_0351582f-a839-4b48-b3b4-1807d04f673d", "provider": "bird", "timeStamp": "02/05/2020, 19:09:57"}, "type": "Feature"}, {"geometry": {"coordinates": [8.52310166666667, 47.3705216666667], "type": "Point"}, "properties": {"charge": 31, "id": "bird_81e453d2-e134-4d27-a3c1-5d6b9a7c4ee4", "provider": "bird", "timeStamp": "02/05/2020, 19:09:57"}, "type": "Feature"}, {"geometry": {"coordinates": [8.54467333333333, 47.3764116666667], "type": "Point"}, "properties": {"charge": 19, "id": "bird_717143e5-6dc7-497b-be9d-14b2d4f2a6e9", "provider": "bird", "timeStamp": "02/05/2020, 19:09:57"}, "type": "Feature"}, {"geometry": {"coordinates": [8.54466166666667, 47.3764083333333], "type": "Point"}, "properties": {"charge": 24, "id": "bird_e3a2a339-92bd-4493-830b-9aabcae9ef00", "provider": "bird", "timeStamp": "02/05/2020, 19:09:57"}, "type": "Feature"}, {"geometry": {"coordinates": [8.54462, 47.3764], "type": "Point"}, "properties": {"charge": 27, "id": "bird_5b98e1c3-0424-408a-a74f-38373d25b6e1", "provider": "bird", "timeStamp": "02/05/2020, 19:09:57"}, "type": "Feature"}, {"geometry": {"coordinates": [8.54461333333333, 47.3764083333333], "type": "Point"}, "properties": {"charge": 27, "id": "bird_cfd154b4-5a26-4524-81c0-dca3517ded2f", "provider": "bird", "timeStamp": "02/05/2020, 19:09:57"}, "type": "Feature"}, {"geometry": {"coordinates": [8.54051833333333, 47.387725], "type": "Point"}, "properties": {"charge": 28, "id": "bird_f48b4fc2-7379-4dcc-9698-ab301a2c7d61", "provider": "bird", "timeStamp": "02/05/2020, 19:09:57"}, "type": "Feature"}, {"geometry": {"coordinates": [8.54289, 47.3741866666667], "type": "Point"}, "properties": {"charge": 92, "id": "bird_52b7f0e1-534e-42e8-be24-591b9eb10431", "provider": "bird", "timeStamp": "02/05/2020, 19:09:57"}, "type": "Feature"}, {"geometry": {"coordinates": [8.52167, 47.3888133333333], "type": "Point"}, "properties": {"charge": 97, "id": "bird_be331961-ce60-4ad6-970c-6872ef0683b6", "provider": "bird", "timeStamp": "02/05/2020, 19:09:57"}, "type": "Feature"}, {"geometry": {"coordinates": [8.539475, 47.3882483333333], "type": "Point"}, "properties": {"charge": 82, "id": "bird_1c9c676d-754d-48cf-a974-f8d6d01e3933", "provider": "bird", "timeStamp": "02/05/2020, 19:09:57"}, "type": "Feature"}, {"geometry": {"coordinates": [8.51773333333333, 47.3863216666667], "type": "Point"}, "properties": {"charge": 67, "id": "bird_d467c265-3882-4b07-a978-cc53a9bb7ce7", "provider": "bird", "timeStamp": "02/05/2020, 19:09:57"}, "type": "Feature"}, {"geometry": {"coordinates": [8.51772333333333, 47.3862883333333], "type": "Point"}, "properties": {"charge": 83, "id": "bird_8cb0ca80-a465-482a-8699-73193847a575", "provider": "bird", "timeStamp": "02/05/2020, 19:09:57"}, "type": "Feature"}, {"geometry": {"coordinates": [8.51935833333333, 47.3874933333333], "type": "Point"}, "properties": {"charge": 87, "id": "bird_02b84d6a-6fd9-4097-a984-477c74be58eb", "provider": "bird", "timeStamp": "02/05/2020, 19:09:57"}, "type": "Feature"}, {"geometry": {"coordinates": [8.53048666666667, 47.3696333333333], "type": "Point"}, "properties": {"charge": 40, "id": "bird_79919a5e-e8d4-47ee-a8ca-cdbe737faea3", "provider": "bird", "timeStamp": "02/05/2020, 19:09:57"}, "type": "Feature"}, {"geometry": {"coordinates": [8.51974, 47.3723833333333], "type": "Point"}, "properties": {"charge": 33, "id": "bird_07a5301e-ebdc-4a2a-9dd8-17b3f7d65834", "provider": "bird", "timeStamp": "02/05/2020, 19:09:57"}, "type": "Feature"}, {"geometry": {"coordinates": [8.51807333333333, 47.3863216666667], "type": "Point"}, "properties": {"charge": 90, "id": "bird_ba650d1b-cbbf-447f-9b3e-01e0d2766844", "provider": "bird", "timeStamp": "02/05/2020, 19:09:57"}, "type": "Feature"}, {"geometry": {"coordinates": [8.54409166666667, 47.3762733333333], "type": "Point"}, "properties": {"charge": 57, "id": "bird_b8487cad-c54b-4397-add5-15fc448be980", "provider": "bird", "timeStamp": "02/05/2020, 19:09:57"}, "type": "Feature"}, {"geometry": {"coordinates": [8.51523333333333, 47.3822066666667], "type": "Point"}, "properties": {"charge": 26, "id": "bird_f29f1ea7-0d65-4e96-be62-67c320c924e7", "provider": "bird", "timeStamp": "02/05/2020, 19:09:57"}, "type": "Feature"}, {"geometry": {"coordinates": [8.53761166666667, 47.3711666666667], "type": "Point"}, "properties": {"charge": 16, "id": "bird_b406d569-dd87-4c5a-8f02-04ee0160f5cd", "provider": "bird", "timeStamp": "02/05/2020, 19:09:57"}, "type": "Feature"}, {"geometry": {"coordinates": [8.51774833333333, 47.38578], "type": "Point"}, "properties": {"charge": 57, "id": "bird_88475f82-ff46-4f1e-a0a0-e6e91389a831", "provider": "bird", "timeStamp": "02/05/2020, 19:09:57"}, "type": "Feature"}, {"geometry": {"coordinates": [8.51824833333333, 47.386235], "type": "Point"}, "properties": {"charge": 11, "id": "bird_227cecf5-f629-4ba3-afa4-8ce811889cc6", "provider": "bird", "timeStamp": "02/05/2020, 19:09:57"}, "type": "Feature"}, {"geometry": {"coordinates": [8.51789333333334, 47.385865], "type": "Point"}, "properties": {"charge": 62, "id": "bird_0b6774ca-fa3d-4924-920b-97199b8ab268", "provider": "bird", "timeStamp": "02/05/2020, 19:09:57"}, "type": "Feature"}, {"geometry": {"coordinates": [8.54397833333333, 47.3765833333333], "type": "Point"}, "properties": {"charge": 93, "id": "bird_6ca75b37-a059-4360-be7b-59f37de2fd28", "provider": "bird", "timeStamp": "02/05/2020, 19:09:57"}, "type": "Feature"}, {"geometry": {"coordinates": [8.5174, 47.3746683333333], "type": "Point"}, "properties": {"charge": 28, "id": "bird_92f3eb85-f275-40e5-9fb6-890bfec6cb24", "provider": "bird", "timeStamp": "02/05/2020, 19:09:57"}, "type": "Feature"}, {"geometry": {"coordinates": [8.54394833333333, 47.3765416666667], "type": "Point"},