{"features": [{"geometry": {"coordinates": [8.540062, 47.374392], "type": "Point"}, "properties": {"address": "Uraniastrasse 7", "electric": 2, "id": "pb_60", "manual": 5, "name": "Demo Station Werdm\u00fchleplatz", "provider": "publibike", "timeStamp": "03/31/2020, 16:09:29", "zip": 8001}, "type": "Feature"}, {"geometry": {"coordinates": [8.5452956, 47.4099615], "type": "Point"}, "properties": {"address": "Querstrasse 8", "electric": 4, "id": "pb_61", "manual": 3, "name": "Marktplatz", "provider": "publibike", "timeStamp": "03/31/2020, 16:09:29", "zip": 8050}, "type": "Feature"}, {"geometry": {"coordinates": [8.5156327, 47.3795837], "type": "Point"}, "properties": {"address": "Bullingerstrasse 5", "electric": 1, "id": "pb_80", "manual": 6, "name": "Bullingerplatz", "provider": "publibike", "timeStamp": "03/31/2020, 16:09:29", "zip": 8004}, "type": "Feature"}, {"geometry": {"coordinates": [8.5104051, 47.3899342], "type": "Point"}, "properties": {"address": "Pfingstweidstrasse 96e", "electric": 0, "id": "pb_81", "manual": 3, "name": "Herdern", "provider": "publibike", "timeStamp": "03/31/2020, 16:09:29", "zip": 8001}, "type": "Feature"}, {"geometry": {"coordinates": [8.535718, 47.359675], "type": "Point"}, "properties": {"address": "Mythenquai 50", "electric": 3, "id": "pb_82", "manual": 5, "name": "Hafen Enge", "provider": "publibike", "timeStamp": "03/31/2020, 16:09:29", "zip": 8002}, "type": "Feature"}, {"geometry": {"coordinates": [8.520370505, 47.358663827], "type": "Point"}, "properties": {"address": "Bubenbergstrasse 1", "electric": 4, "id": "pb_83", "manual": 5, "name": "Comerge", "provider": "publibike", "timeStamp": "03/31/2020, 16:09:29", "zip": 8045}, "type": "Feature"}, {"geometry": {"coordinates": [8.5412505, 47.3789825], "type": "Point"}, "properties": {"address": "Museumstrasse 2", "electric": 7, "id": "pb_84", "manual": 11, "name": "Landesmuseum", "provider": "publibike", "timeStamp": "03/31/2020, 16:09:29", "zip": 8001}, "type": "Feature"}, {"geometry": {"coordinates": [8.5235479, 47.3716661], "type": "Point"}, "properties": {"address": "Birmensdorferstrasse 80", "electric": 0, "id": "pb_85", "manual": 9, "name": "Bahnhof Wiedikon", "provider": "publibike", "timeStamp": "03/31/2020, 16:09:29", "zip": 8003}, "type": "Feature"}, {"geometry": {"coordinates": [8.506822854, 47.40781197], "type": "Point"}, "properties": {"address": "Stefano-Franscini-Platz 5", "electric": 0, "id": "pb_86", "manual": 0, "name": "ETH H\u00f6nggerberg", "provider": "publibike", "timeStamp": "03/31/2020, 16:09:29", "zip": 8093}, "type": "Feature"}, {"geometry": {"coordinates": [8.536101, 47.371083], "type": "Point"}, "properties": {"address": "Pelikanplatz 5", "electric": 3, "id": "pb_87", "manual": 3, "name": "Pelikanplatz", "provider": "publibike", "timeStamp": "03/31/2020, 16:09:29", "zip": 8001}, "type": "Feature"}, {"geometry": {"coordinates": [8.5257822, 47.3651936], "type": "Point"}, "properties": {"address": "H\u00fcrlimannplatz 90", "electric": 17, "id": "pb_88", "manual": 7, "name": "H\u00fcrlimannplatz", "provider": "publibike", "timeStamp": "03/31/2020, 16:09:29", "zip": 8002}, "type": "Feature"}, {"geometry": {"coordinates": [8.5313344, 47.3713591], "type": "Point"}, "properties": {"address": "Selnaustrasse 32", "electric": 1, "id": "pb_89", "manual": 5, "name": "Stauffacherbr\u00fccke", "provider": "publibike", "timeStamp": "03/31/2020, 16:09:29", "zip": 8001}, "type": "Feature"}, {"geometry": {"coordinates": [8.5056978, 47.3917964], "type": "Point"}, "properties": {"address": "Sportweg 25", "electric": 4, "id": "pb_90", "manual": 2, "name": "Sportweg", "provider": "publibike", "timeStamp": "03/31/2020, 16:09:29", "zip": 8005}, "type": "Feature"}, {"geometry": {"coordinates": [8.5181701, 47.3917837], "type": "Point"}, "properties": {"address": "Hardturmstrasse 11", "electric": 0, "id": "pb_91", "manual": 5, "name": "Puls 5", "provider": "publibike", "timeStamp": "03/31/2020, 16:09:29", "zip": 8005}, "type": "Feature"}, {"geometry": {"coordinates": [8.5286468, 47.3820827], "type": "Point"}, "properties": {"address": "R\u00f6ntgenstrasse 6", "electric": 0, "id": "pb_92", "manual": 5, "name": "R\u00f6ntgenstrasse", "provider": "publibike", "timeStamp": "03/31/2020, 16:09:29", "zip": 8005}, "type": "Feature"}, {"geometry": {"coordinates": [8.531935, 47.384918], "type": "Point"}, "properties": {"address": "Kornhausbr\u00fccke 1", "electric": 5, "id": "pb_93", "manual": 10, "name": "Limmatplatz", "provider": "publibike", "timeStamp": "03/31/2020, 16:09:29", "zip": 8005}, "type": "Feature"}, {"geometry": {"coordinates": [8.5354006, 47.3758639], "type": "Point"}, "properties": {"address": "Gessnerallee 15", "electric": 2, "id": "pb_94", "manual": 2, "name": "Gessnerallee", "provider": "publibike", "timeStamp": "03/31/2020, 16:09:29", "zip": 8001}, "type": "Feature"}, {"geometry": {"coordinates": [8.523818, 47.377148], "type": "Point"}, "properties": {"address": "Stauffacherstrasse 127", "electric": 3, "id": "pb_95", "manual": 5, "name": "B\u00e4ckeranlage", "provider": "publibike", "timeStamp": "03/31/2020, 16:09:29", "zip": 8004}, "type": "Feature"}, {"geometry": {"coordinates": [8.531836, 47.378548], "type": "Point"}, "properties": {"address": "Lagerstrasse 44", "electric": 2, "id": "pb_96", "manual": 3, "name": "Gustav-Gull-Platz", "provider": "publibike", "timeStamp": "03/31/2020, 16:09:29", "zip": 8004}, "type": "Feature"}, {"geometry": {"coordinates": [8.5104883, 47.3771535], "type": "Point"}, "properties": {"address": "Zurlindenstrasse 291", "electric": 2, "id": "pb_97", "manual": 9, "name": "Zurlindenstrasse", "provider": "publibike", "timeStamp": "03/31/2020, 16:09:29", "zip": 8003}, "type": "Feature"}, {"geometry": {"coordinates": [8.5333139, 47.3731102], "type": "Point"}, "properties": {"address": "Sihlstrasse 81", "electric": 3, "id": "pb_98", "manual": 4, "name": "Sihlstrasse", "provider": "publibike", "timeStamp": "03/31/2020, 16:09:29", "zip": 8001}, "type": "Feature"}, {"geometry": {"coordinates": [8.520532, 47.374951], "type": "Point"}, "properties": {"address": "Feldstrasse 24", "electric": 2, "id": "pb_99", "manual": 3, "name": "Kalkbreite", "provider": "publibike", "timeStamp": "03/31/2020, 16:09:29", "zip": 8004}, "type": "Feature"}, {"geometry": {"coordinates": [8.539046, 47.368064], "type": "Point"}, "properties": {"address": "Talstrasse 12", "electric": 6, "id": "pb_100", "manual": 4, "name": "Z\u00fcrcher Kantonalbank", "provider": "publibike", "timeStamp": "03/31/2020, 16:09:29", "zip": 8001}, "type": "Feature"}, {"geometry": {"coordinates": [8.5348427, 47.3625938], "type": "Point"}, "properties": {"address": "Breitingerstrasse 5", "electric": 1, "id": "pb_101", "manual": 6, "name": "Rentenanstalt", "provider": "publibike", "timeStamp": "03/31/2020, 16:09:29", "zip": 8002}, "type": "Feature"}, {"geometry": {"coordinates": [8.5166922, 47.3897772], "type": "Point"}, "properties": {"address": "Technoparkstrasse 4", "electric": 2, "id": "pb_102", "manual": 13, "name": "Turbinenplatz", "provider": "publibike", "timeStamp": "03/31/2020, 16:09:29", "zip": 8005}, "type": "Feature"}, {"geometry": {"coordinates": [8.539312, 47.3739964], "type": "Point"}, "properties": {"address": "Oetenbachgasse 14", "electric": 4, "id": "pb_104", "manual": 4, "name": "Rennweg", "provider": "publibike", "timeStamp": "03/31/2020, 16:09:29", "zip": 8001}, "type": "Feature"}, {"geometry": {"coordinates": [8.5360685, 47.3775022], "type": "Point"}, "properties": {"address": "Kasernenstrasse 101", "electric": 18, "id": "pb_105", "manual": 24, "name": "Sihlpost", "provider": "publibike", "timeStamp": "03/31/2020, 16:09:29", "zip": 8004}, "type": "Feature"}, {"geometry": {"coordinates": [8.53545, 47.382798], "type": "Point"}, "properties": {"address": "Ausstellungsstrasse 44", "electric": 6, "id": "pb_106", "manual": 2, "name": "Museum f\u00fcr Gestaltung", "provider": "publibike", "timeStamp": "03/31/2020, 16:09:29", "zip": 8005}, "type": "Feature"}, {"geometry": {"coordinates": [8.5306155, 47.3647902], "type": "Point"}, "properties": {"address": "Gutenbergstrasse 1", "electric": 2, "id": "pb_107", "manual": 2, "name": "Bederbr\u00fccke", "provider": "publibike", "timeStamp": "03/31/2020, 16:09:29", "zip": 8002}, "type": "Feature"}, {"geometry": {"coordinates": [8.518982, 47.386741], "type": "Point"}, "properties": {"address": "Geroldstrasse 4", "electric": 0, "id": "pb_108", "manual": 7, "name": "Bahnhof Hardbr\u00fccke", "provider": "publibike", "timeStamp": "03/31/2020, 16:09:29", "zip": 8005}, "type": "Feature"}, {"geometry": {"coordinates": [8.53001018, 47.37247535], "type": "Point"}, "properties": {"address": "Werdstrasse 21", "electric": 4, "id": "pb_109", "manual": 3, "name": "Tamedia", "provider": "publibike", "timeStamp": "03/31/2020, 16:09:29", "zip": 8004}, "type": "Feature"}, {"geometry": {"coordinates": [8.4860017, 47.396401], "type": "Point"}, "properties": {"address": "Gr\u00fcnauring 37", "electric": 9, "id": "pb_110", "manual": 3, "name": "Gr\u00fcnau", "provider": "publibike", "timeStamp": "03/31/2020, 16:09:29", "zip": 8064}, "type": "Feature"}, {"geometry": {"coordinates": [8.548519, 47.376756], "type": "Point"}, "properties": {"address": "R\u00e4mistrasse 101", "electric": 20, "id": "pb_111", "manual": 13, "name": "ETH Zentrum", "provider": "publibike", "timeStamp": "03/31/2020, 16:09:29", "zip": 8006}, "type": "Feature"}, {"geometry": {"coordinates": [8.520449, 47.388151], "type": "Point"}, "properties": {"address": "Josefstrasse 224", "electric": 6, "id": "pb_112", "manual": 3, "name": "Steinfelsareal", "provider": "publibike", "timeStamp": "03/31/2020, 16:09:29", "zip": 8005}, "type": "Feature"}, {"geometry": {"coordinates": [8.520482, 47.37209], "type": "Point"}, "properties": {"address": "Weststrasse 115", "electric": 5, "id": "pb_124", "manual": 4, "name": "Weststrasse", "provider": "publibike", "timeStamp": "03/31/2020, 16:09:29", "zip": 8003}, "type": "Feature"}, {"geometry": {"coordinates": [8.496727, 47.378521], "type": "Point"}, "properties": {"address": "Albisriederstrasse 200", "electric": 2, "id": "pb_125", "manual": 3, "name": "Utogrund", "provider": "publibike", "timeStamp": "03/31/2020, 16:09:29", "zip": 8047}, "type": "Feature"}, {"geometry": {"coordinates": [8.510418, 47.381356], "type": "Point"}, "properties": {"address": "Bullingerstrasse 73", "electric": 4, "id": "pb_126", "manual": 11, "name": "Hardau", "provider": "publibike", "timeStamp": "03/31/2020, 16:09:29", "zip": 8004}, "type": "Feature"}, {"geometry": {"coordinates": [8.525525, 47.361567], "type": "Point"}, "properties": {"address": "Klopstockstrasse 23", "electric": 4, "id": "pb_127", "manual": 8, "name": "Klopstockwiese", "provider": "publibike", "timeStamp": "03/31/2020, 16:09:29", "zip": 8002}, "type": "Feature"}, {"geometry": {"coordinates": [8.518143, 47.363148], "type": "Point"}, "properties": {"address": "Haldenstrasse 8", "electric": 2, "id": "pb_128", "manual": 9, "name": "Binz", "provider": "publibike", "timeStamp": "03/31/2020, 16:09:29", "zip": 8045}, "type": "Feature"}, {"geometry": {"coordinates": [8.542726, 47.379952], "type": "Point"}, "properties": {"address": "Walchestrasse 11", "electric": 4, "id": "pb_129", "manual": 4, "name": "Stampfenbachplatz", "provider": "publibike", "timeStamp": "03/31/2020, 16:09:29", "zip": 8006}, "type": "Feature"}, {"geometry": {"coordinates": [8.488108, 47.391366], "type": "Point"}, "properties": {"address": "Altstetterplatz 1", "electric": 3, "id": "pb_130", "manual": 11, "name": "Bahnhof Altstetten", "provider": "publibike", "timeStamp": "03/31/2020, 16:09:29", "zip": 8048}, "type": "Feature"}, {"geometry": {"coordinates": [8.554114, 47.365119], "type": "Point"}, "properties": {"address": "Kreuzplatz 2", "electric": 2, "id": "pb_131", "manual": 1, "name": "Kreuzplatz", "provider": "publibike", "timeStamp": "03/31/2020, 16:09:29", "zip": 8032}, "type": "Feature"}, {"geometry": {"coordinates": [8.549852, 47.35594], "type": "Point"}, "properties": {"address": "H\u00f6schgasse 3", "electric": 0, "id": "pb_132", "manual": 0, "name": "Blatterwiese", "provider": "publibike", "timeStamp": "03/31/2020, 16:09:29", "zip": 8008}, "type": "Feature"}, {"geometry": {"coordinates": [8.554501, 47.36162], "type": "Point"}, "properties": {"address": "Feldeggstrasse 80", "electric": 4, "id": "pb_133", "manual": 5, "name": "Villa Bleuler", "provider": "publibike", "timeStamp": "03/31/2020, 16:09:29", "zip": 8008}, "type": "Feature"}, {"geometry": {"coordinates": [8.557088, 47.358557], "type": "Point"}, "properties": {"address": "M\u00fchlebachstrasse 131", "electric": 2, "id": "pb_134", "manual": 7, "name": "M\u00fchlebachstrasse", "provider": "publibike", "timeStamp": "03/31/2020, 16:09:29", "zip": 8008}, "type": "Feature"}, {"geometry": {"coordinates": [8.547639, 47.361266], "type": "Point"}, "properties": {"address": "Utoquai 50", "electric": 0, "id": "pb_135", "manual": 5, "name": "Seebad Utoquai", "provider": "publibike", "timeStamp": "03/31/2020, 16:09:29", "zip": 8008}, "type": "Feature"}, {"geometry": {"coordinates": [8.548045, 47.370869], "type": "Point"}, "properties": {"address": "Heimplatz 1", "electric": 0, "id": "pb_137", "manual": 1, "name": "Kunsthaus", "provider": "publibike", "timeStamp": "03/31/2020, 16:09:29", "zip": 8001}, "type": "Feature"}, {"geometry": {"coordinates": [8.543447, 47.375933], "type": "Point"}, "properties": {"address": "Limmatquai 138", "electric": 1, "id": "pb_138", "manual": 5, "name": "Central", "provider": "publibike", "timeStamp": "03/31/2020, 16:09:29", "zip": 8001}, "type": "Feature"}, {"geometry": {"coordinates": [8.549356, 47.408827], "type": "Point"}, "properties": {"address": "Tramstrasse 35", "electric": 3, "id": "pb_139", "manual": 3, "name": "ewz Tramstrasse", "provider": "publibike", "timeStamp": "03/31/2020, 16:09:29", "zip": 8050}, "type": "Feature"}, {"geometry": {"coordinates": [8.533736, 47.366904], "type": "Point"}, "properties": {"address": "Bleicherweg 33", "electric": 0, "id": "pb_140", "manual": 5, "name": "Bleicherweg", "provider": "publibike", "timeStamp": "03/31/2020, 16:09:29", "zip": 8002}, "type": "Feature"}, {"geometry": {"coordinates": [8.544935, 47.366752], "type": "Point"}, "properties": {"address": "Bellevueplatz 2", "electric": 14, "id": "pb_141", "manual": 10, "name": "Bellevue", "provider": "publibike", "timeStamp": "03/31/2020, 16:09:29", "zip": 8001}, "type": "Feature"}, {"geometry": {"coordinates": [8.5285533, 47.3742296], "type": "Point"}, "properties": {"address": "Stauffacherstrasse 41", "electric": 1, "id": "pb_142", "manual": 8, "name": "Stauffacher", "provider": "publibike", "timeStamp": "03/31/2020, 16:09:29", "zip": 8004}, "type": "Feature"}, {"geometry": {"coordinates": [8.523722, 47.3899], "type": "Point"}, "properties": {"address": "Limmatstrasse 310", "electric": 1, "id": "pb_143", "manual": 6, "name": "Escher-Wyss-Platz", "provider": "publibike", "timeStamp": "03/31/2020, 16:09:29", "zip": 8005}, "type": "Feature"}, {"geometry": {"coordinates": [8.491061, 47.392336], "type": "Point"}, "properties": {"address": "Vulkanplatz 1", "electric": 3, "id": "pb_149", "manual": 6, "name": "Vulkanplatz", "provider": "publibike", "timeStamp": "03/31/2020, 16:09:29", "zip": 8048}, "type": "Feature"}, {"geometry": {"coordinates": [8.52306, 47.359872], "type": "Point"}, "properties": {"address": "Giessh\u00fcbelstrasse 15", "electric": 10, "id": "pb_150", "manual": 8, "name": "Utoplatz", "provider": "publibike", "timeStamp": "03/31/2020, 16:09:29", "zip": 8045}, "type": "Feature"}, {"geometry": {"coordinates": [8.486284, 47.387685], "type": "Point"}, "properties": {"address": "Lindenplatz 1", "electric": 5, "id": "pb_151", "manual": 9, "name": "Lindenplatz", "provider": "publibike", "timeStamp": "03/31/2020, 16:09:29", "zip": 8048}, "type": "Feature"}, {"geometry": {"coordinates": [8.49163, 47.389823], "type": "Point"}, "properties": {"address": "Hohlstrasse 563", "electric": 3, "id": "pb_152", "manual": 3, "name": "Luggweg", "provider": "publibike", "timeStamp": "03/31/2020, 16:09:29", "zip": 8048}, "type": "Feature"}, {"geometry": {"coordinates": [8.52174, 47.365272], "type": "Point"}, "properties": {"address": "Manessestrasse 87", "electric": 2, "id": "pb_153", "manual": 5, "name": "Manesseplatz", "provider": "publibike", "timeStamp": "03/31/2020, 16:09:29", "zip": 8045}, "type": "Feature"}, {"geometry": {"coordinates": [8.52714, 47.372329], "type": "Point"}, "properties": {"address": "Werdstrasse 75", "electric": 6, "id": "pb_154", "manual": 7, "name": "Werd", "provider": "publibike", "timeStamp": "03/31/2020, 16:09:29", "zip": 8004}, "type": "Feature"}, {"geometry": {"coordinates": [8.543042, 47.374711], "type": "Point"}, "properties": {"address": "Limmatquai 100", "electric": 0, "id": "pb_155", "manual": 0, "name": "Rudolf-Brun-Br\u00fccke", "provider": "publibike", "timeStamp": "03/31/2020, 16:09:29", "zip": 8001}, "type": "Feature"}, {"geometry": {"coordinates": [8.490837, 47.386596], "type": "Point"}, "properties": {"address": "Badenerstrasse 627", "electric": 2, "id": "pb_156", "manual": 7, "name": "Luggwegstrasse VBZ", "provider": "publibike", "timeStamp": "03/31/2020, 16:09:29", "zip": 8048}, "type": "Feature"}, {"geometry": {"coordinates": [8.535119, 47.355189], "type": "Point"}, "properties": {"address": "Mythenquai 95", "electric": 2, "id": "pb_157", "manual": 0, "name": "Strandbad Mythenquai", "provider": "publibike", "timeStamp": "03/31/2020, 16:09:29", "zip": 8002}, "type": "Feature"}, {"geometry": {"coordinates": [8.545505, 47.373675], "type": "Point"}, "properties": {"address": "Predigerpatz 21", "electric": 1, "id": "pb_158", "manual": 1, "name": "Predigerplatz", "provider": "publibike", "timeStamp": "03/31/2020, 16:09:29", "zip": 8001}, "type": "Feature"}, {"geometry": {"coordinates": [8.515558, 47.371868], "type": "Point"}, "properties": {"address": "Aemtlerstrasse 23", "electric": 2, "id": "pb_159", "manual": 6, "name": "Zwinglihaus", "provider": "publibike", "timeStamp": "03/31/2020, 16:09:29", "zip": 8003}, "type": "Feature"}, {"geometry": {"coordinates": [8.524629, 47.386072], "type": "Point"}, "properties": {"address": "Josefstrasse 188", "electric": 0, "id": "pb_160", "manual": 4, "name": "Josefwiese", "provider": "publibike", "timeStamp": "03/31/2020, 16:09:29", "zip": 8005}, "type": "Feature"}, {"geometry": {"coordinates": [8.527138, 47.387531], "type": "Point"}, "properties": {"address": "R\u00f6ntgenstrasse 87", "electric": 6, "id": "pb_164", "manual": 6, "name": "Markthalle", "provider": "publibike", "timeStamp": "03/31/2020, 16:09:29", "zip": 8005}, "type": "Feature"}, {"geometry": {"coordinates": [8.552717, 47.359978], "type": "Point"}, "properties": {"address": "Seefeldstrasse 96", "electric": 3, "id": "pb_263", "manual": 4, "name": "Feldeggstrasse", "provider": "publibike", "timeStamp": "03/31/2020, 16:09:29", "zip": 8008}, "type": "Feature"}, {"geometry": {"coordinates": [8.553189, 47.353198], "type": "Point"}, "properties": {"address": "Bellerivestrasse 170", "electric": 6, "id": "pb_264", "manual": 3, "name": "Lake Side", "provider": "publibike", "timeStamp": "03/31/2020, 16:09:29", "zip": 8008}, "type": "Feature"}, {"geometry": {"coordinates": [8.543437, 47.369256], "type": "Point"}, "properties": {"address": "Limmatquai 18", "electric": 0, "id": "pb_265", "manual": 0, "name": "Helmhaus", "provider": "publibike", "timeStamp": "03/31/2020, 16:09:29", "zip": 8032}, "type": "Feature"}, {"geometry": {"coordinates": [8.516676, 47.375819], "type": "Point"}, "properties": {"address": "Badenerstrasse 246", "electric": 8, "id": "pb_266", "manual": 1, "name": "Lochergut", "provider": "publibike", "timeStamp": "03/31/2020, 16:09:29", "zip": 8004}, "type": "Feature"}, {"geometry": {"coordinates": [8.514605, 47.389862], "type": "Point"}, "properties": {"address": "Pfingstweidstrasse 60", "electric": 3, "id": "pb_273", "manual": 0, "name": "Westpark", "provider": "publibike", "timeStamp": "03/31/2020, 16:09:29", "zip": 8005}, "type": "Feature"}, {"geometry": {"coordinates": [8.541239126, 47.375991201], "type": "Point"}, "properties": {"address": "Beatenplatz 1", "electric": 4, "id": "pb_274", "manual": 12, "name": "Beatenplatz", "provider": "publibike", "timeStamp": "03/31/2020, 16:09:29", "zip": 8001}, "type": "Feature"}, {"geometry": {"coordinates": [8.5417135, 47.3942197], "type": "Point"}, "properties": {"address": "Scheuchzerstrasse 181", "electric": 9, "id": "pb_275", "manual": 0, "name": "Pauluskirche", "provider": "publibike", "timeStamp": "03/31/2020, 16:09:29", "zip": 8057}, "type": "Feature"}, {"geometry": {"coordinates": [8.5528182, 47.414558], "type": "Point"}, "properties": {"address": "Hagenholzstrasse 51", "electric": 2, "id": "pb_276", "manual": 4, "name": "Airgate", "provider": "publibike", "timeStamp": "03/31/2020, 16:09:29", "zip": 8050}, "type": "Feature"}, {"geometry": {"coordinates": [8.537816, 47.413514], "type": "Point"}, "properties": {"address": "Birchstrasse 183", "electric": 4, "id": "pb_277", "manual": 6, "name": "Lamprechtweg", "provider": "publibike", "timeStamp": "03/31/2020, 16:09:29", "zip": 8050}, "type": "Feature"}, {"geometry": {"coordinates": [8.545602, 47.417701], "type": "Point"}, "properties": {"address": "Felsenrainstrasse 2", "electric": 4, "id": "pb_278", "manual": 3, "name": "Emil-Oberh\u00e4nsli", "provider": "publibike", "timeStamp": "03/31/2020, 16:09:29", "zip": 8050}, "type": "Feature"}, {"geometry": {"coordinates": [8.533647, 47.39808], "type": "Point"}, "properties": {"address": "Bucheggplatz 2", "electric": 11, "id": "pb_279", "manual": 0, "name": "Bucheggplatz", "provider": "publibike", "timeStamp": "03/31/2020, 16:09:29", "zip": 8057}, "type": "Feature"}, {"geometry": {"coordinates": [8.523549, 47.392347], "type": "Point"}, "properties": {"address": "Wipkingerplatz 4", "electric": 1, "id": "pb_280", "manual": 3, "name": "Wipkingerplatz", "provider": "publibike", "timeStamp": "03/31/2020, 16:09:29", "zip": 8037}, "type": "Feature"}, {"geometry": {"coordinates": [8.548562, 47.36691], "type": "Point"}, "properties": {"address": "Galerie \u00fcber Gleis 2/3", "electric": 7, "id": "pb_285", "manual": 8, "name": "Bahnhof Stadelhofen", "provider": "publibike", "timeStamp": "03/31/2020, 16:09:29", "zip": 8001}, "type": "Feature"}, {"geometry": {"coordinates": [8.493822, 47.3985553], "type": "Point"}, "properties": {"address": "Meierwiesenstrasse 12-4", "electric": 0, "id": "pb_286", "manual": 0, "name": "T\u00fcffenwies", "provider": "publibike", "timeStamp": "03/31/2020, 16:09:29", "zip": 8064}, "type": "Feature"}, {"geometry": {"coordinates": [8.552432, 47.3801757], "type": "Point"}, "properties": {"address": "Hochstrasse 34", "electric": 8, "id": "pb_356", "manual": 3, "name": "Siriuswiese", "provider": "publibike", "timeStamp": "03/31/2020, 16:09:29", "zip": 8044}, "type": "Feature"}, {"geometry": {"coordinates": [8.527298, 47.370141], "type": "Point"}, "properties": {"address": "Hallwylstrasse 71", "electric": 3, "id": "pb_357", "manual": 7, "name": "Hallwylstrasse", "provider": "publibike", "timeStamp": "03/31/2020, 16:09:29", "zip": 8004}, "type": "Feature"}, {"geometry": {"coordinates": [8.5414185, 47.3972455], "type": "Point"}, "properties": {"address": "Schaffhauserstrasse 137", "electric": 1, "id": "pb_358", "manual": 5, "name": "Milchbuck", "provider": "publibike", "timeStamp": "03/31/2020, 16:09:29", "zip": 8057}, "type": "Feature"}, {"geometry": {"coordinates": [8.512381, 47.393409], "type": "Point"}, "properties": {"address": "Hardturmstrasse 161", "electric": 10, "id": "pb_359", "manual": 1, "name": "Fischerweg", "provider": "publibike", "timeStamp": "03/31/2020, 16:09:29", "zip": 8005}, "type": "Feature"}, {"geometry": {"coordinates": [8.5421457, 47.3876979], "type": "Point"}, "properties": {"address": "Turnerstrasse 47", "electric": 2, "id": "pb_360", "manual": 5, "name": "Kirche Unterstrass", "provider": "publibike", "timeStamp": "03/31/2020, 16:09:29", "zip": 8006}, "type": "Feature"}, {"geometry": {"coordinates": [8.522117, 47.394554], "type": "Point"}, "properties": {"address": "Dorfstrasse 40", "electric": 1, "id": "pb_361", "manual": 1, "name": "Dorfstrasse", "provider": "publibike", "timeStamp": "03/31/2020, 16:09:29", "zip": 8037}, "type": "Feature"}, {"geometry": {"coordinates": [8.530437, 47.37271], "type": "Point"}, "properties": {"address": "Werdstrasse 25", "electric": 4, "id": "pb_362", "manual": 15, "name": "Stauffachertor", "provider": "publibike", "timeStamp": "03/31/2020, 16:09:29", "zip": 8004}, "type": "Feature"}, {"geometry": {"coordinates": [8.541712, 47.416155], "type": "Point"}, "properties": {"address": "Eggb\u00fchlstrasse 21", "electric": 2, "id": "pb_363", "manual": 4, "name": "Wahlenpark", "provider": "publibike", "timeStamp": "03/31/2020, 16:09:29", "zip": 8050}, "type": "Feature"}, {"geometry": {"coordinates": [8.5595335, 47.3708387], "type": "Point"}, "properties": {"address": "Dolderstrasse 32", "electric": 17, "id": "pb_364", "manual": 1, "name": "Kinderspital", "provider": "publibike", "timeStamp": "03/31/2020, 16:09:29", "zip": 8032}, "type": "Feature"}, {"geometry": {"coordinates": [8.536433, 47.388689], "type": "Point"}, "properties": {"address": "Kornhausstrasse 30", "electric": 4, "id": "pb_365", "manual": 1, "name": "Kornhausstrasse", "provider": "publibike", "timeStamp": "03/31/2020, 16:09:29", "zip": 8006}, "type": "Feature"}, {"geometry": {"coordinates": [8.55033, 47.407098], "type": "Point"}, "properties": {"address": "Schwamendingenstrasse 41", "electric": 5, "id": "pb_366", "manual": 2, "name": "Dorflinde", "provider": "publibike", "timeStamp": "03/31/2020, 16:09:29", "zip": 8050}, "type": "Feature"}, {"geometry": {"coordinates": [8.560476, 47.368199], "type": "Point"}, "properties": {"address": "R\u00f6merhofplatz 5", "electric": 4, "id": "pb_367", "manual": 0, "name": "R\u00f6merhof", "provider": "publibike", "timeStamp": "03/31/2020, 16:09:29", "zip": 8032}, "type": "Feature"}, {"geometry": {"coordinates": [8.5609218, 47.3619068], "type": "Point"}, "properties": {"address": "Forchstrasse 99", "electric": 0, "id": "pb_368", "manual": 0, "name": "Hegibachplatz", "provider": "publibike", "timeStamp": "03/31/2020, 16:09:29", "zip": 8032}, "type": "Feature"}, {"geometry": {"coordinates": [8.5721264, 47.4039985], "type": "Point"}, "properties": {"address": "Winterthurerstrasse 519", "electric": 9, "id": "pb_370", "manual": 0, "name": "Schwamendingerplatz", "provider": "publibike", "timeStamp": "03/31/2020, 16:09:29", "zip": 8051}, "type": "Feature"}, {"geometry": {"coordinates": [8.520168, 47.378556], "type": "Point"}, "properties": {"address": "Herman-Greulich-Strasse 56", "electric": 0, "id": "pb_384", "manual": 4, "name": "Hermann-Greulich-Weg", "provider": "publibike", "timeStamp": "03/31/2020, 16:09:29", "zip": 8004}, "type": "Feature"}, {"geometry": {"coordinates": [8.547912, 47.384923], "type": "Point"}, "properties": {"address": "Culmannstrasse", "electric": 4, "id": "pb_386", "manual": 5, "name": "Rigiplatz", "provider": "publibike", "timeStamp": "03/31/2020, 16:09:29", "zip": 8006}, "type": "Feature"}, {"geometry": {"coordinates": [8.543768, 47.411057], "type": "Point"}, "properties": {"address": "Hofwiesenstrasse 369", "electric": 13, "id": "pb_387", "manual": 10, "name": "Bahnhof Oerlikon S\u00fcd", "provider": "publibike", "timeStamp": "03/31/2020, 16:09:29", "zip": 8050}, "type": "Feature"}, {"geometry": {"coordinates": [8.544185, 47.412732], "type": "Point"}, "properties": {"address": "Jungholzstrasse 6", "electric": 6, "id": "pb_388", "manual": 0, "name": "Max-Frisch-Platz", "provider": "publibike", "timeStamp": "03/31/2020, 16:09:29", "zip": 8050}, "type": "Feature"}, {"geometry": {"coordinates": [8.558096, 47.413032], "type": "Point"}, "properties": {"address": "Andreasstrasse", "electric": 8, "id": "pb_389", "manual": 1, "name": "Hunziker-Areal", "provider": "publibike", "timeStamp": "03/31/2020, 16:09:29", "zip": 8050}, "type": "Feature"}, {"geometry": {"coordinates": [8.533265, 47.412873], "type": "Point"}, "properties": {"address": "Regina-K\u00e4gi-Strasse 1", "electric": 6, "id": "pb_390", "manual": 3, "name": "Luis-H\u00e4fliger-Park", "provider": "publibike", "timeStamp": "03/31/2020, 16:09:29", "zip": 8050}, "type": "Feature"}, {"geometry": {"coordinates": [8.499265, 47.401852], "type": "Point"}, "properties": {"address": "Limmattalstrasse 177", "electric": 9, "id": "pb_391", "manual": 1, "name": "Meierhofplatz", "provider": "publibike", "timeStamp": "03/31/2020, 16:09:29", "zip": 8049}, "type": "Feature"}, {"geometry": {"coordinates": [8.528356, 47.393255], "type": "Point"}, "properties": {"address": "R\u00f6schibachstrasse 73", "electric": 6, "id": "pb_392", "manual": 6, "name": "R\u00f6schibachplatz", "provider": "publibike", "timeStamp": "03/31/2020, 16:09:29", "zip": 8037}, "type": "Feature"}, {"geometry": {"coordinates": [8.538067, 47.415721], "type": "Point"}, "properties": {"address": "Birchstrasse 191", "electric": 0, "id": "pb_393", "manual": 5, "name": "Oerliker Park", "provider": "publibike", "timeStamp": "03/31/2020, 16:09:29", "zip": 8050}, "type": "Feature"}, {"geometry": {"coordinates": [8.5420304, 47.3669233], "type": "Point"}, "properties": {"address": "Stadthausquai 1", "electric": 0, "id": "pb_395", "manual": 7, "name": "B\u00fcrkliplatz", "provider": "publibike", "timeStamp": "03/31/2020, 16:09:29", "zip": 8001}, "type": "Feature"}, {"geometry": {"coordinates": [8.535767, 47.409881], "type": "Point"}, "properties": {"address": "Regensbergstrasse 195", "electric": 8, "id": "pb_396", "manual": 5, "name": "Holunderhof", "provider": "publibike", "timeStamp": "03/31/2020, 16:09:29", "zip": 8050}, "type": "Feature"}, {"geometry": {"coordinates": [8.5116245, 47.3616199], "type": "Point"}, "properties": {"address": "Grubenstrasse 42", "electric": 3, "id": "pb_431", "manual": 5, "name": "Binz Center", "provider": "publibike", "timeStamp": "03/31/2020, 16:09:29", "zip": 8045}, "type": "Feature"}, {"geometry": {"coordinates": [8.547195, 47.382089], "type": "Point"}, "properties": {"address": "Nelkenstrasse 24", "electric": 11, "id": "pb_430", "manual": 0, "name": "Stapferstube", "provider": "publibike", "timeStamp": "03/31/2020, 16:09:29", "zip": 8006}, "type": "Feature"}, {"geometry": {"coordinates": [8.5787183, 47.4039845], "type": "Point"}, "properties": {"address": "Kronwiesenstrasse 35", "electric": 1, "id": "pb_426", "manual": 0, "name": "Kronwiesen", "provider": "publibike", "timeStamp": "03/31/2020, 16:09:29", "zip": 8051}, "type": "Feature"}, {"geometry": {"coordinates": [8.508131, 47.420757], "type": "Point"}, "properties": {"address": "Riedenhaldenstrasse 20-18", "electric": 11, "id": "pb_425", "manual": 0, "name": "Bahnhof Affoltern", "provider": "publibike", "timeStamp": "03/31/2020, 16:09:29", "zip": 8046}, "type": "Feature"}, {"geometry": {"coordinates": [8.532464, 47.406988], "type": "Point"}, "properties": {"address": "K\u00fcnzlistrasse 41", "electric": 12, "id": "pb_424", "manual": 2, "name": "Birchd\u00f6rfli", "provider": "publibike", "timeStamp": "03/31/2020, 16:09:29", "zip": 8057}, "type": "Feature"}, {"geometry": {"coordinates": [8.5777038, 47.4080095], "type": "Point"}, "properties": {"address": "Luegislandstrasse 412", "electric": 4, "id": "pb_429", "manual": 5, "name": "Luegisland", "provider": "publibike", "timeStamp": "03/31/2020, 16:09:29", "zip": 8051}, "type": "Feature"}, {"geometry": {"coordinates": [8.58841, 47.40158], "type": "Point"}, "properties": {"address": "Hirzenbachstrasse 2-4", "electric": 1, "id": "pb_428", "manual": 6, "name": "Hirzenbachstrasse", "provider": "publibike", "timeStamp": "03/31/2020, 16:09:29", "zip": 8051}, "type": "Feature"}, {"geometry": {"coordinates": [8.5563463, 47.4095467], "type": "Point"}, "properties": {"address": "K\u00fchriedweg", "electric": 6, "id": "pb_445", "manual": 1, "name": "Hallenbad Oerlikon", "provider": "publibike", "timeStamp": "03/31/2020, 16:09:29", "zip": 8050}, "type": "Feature"}, {"geometry": {"coordinates": [8.537971, 47.364871], "type": "Point"}, "properties": {"address": "General-Guisan-Quai 17", "electric": 1, "id": "pb_454", "manual": 3, "name": "General-Guisan-Quai", "provider": "publibike", "timeStamp": "03/31/2020, 16:09:29", "zip": 8002}, "type": "Feature"}, {"geometry": {"coordinates": [8.560587, 47.350578], "type": "Point"}, "properties": {"address": "Bellerivestrasse 245", "electric": 3, "id": "pb_450", "manual": 5, "name": "Bahnhof Tiefenbrunnen", "provider": "publibike", "timeStamp": "03/31/2020, 16:09:29", "zip": 8008}, "type": "Feature"}, {"geometry": {"coordinates": [8.5269416, 47.3563719], "type": "Point"}, "properties": {"address": "Waffenplatzstrasse 89", "electric": 5, "id": "pb_452", "manual": 4, "name": "Rieterplatz", "provider": "publibike", "timeStamp": "03/31/2020, 16:09:29", "zip": 8002}, "type": "Feature"}, {"geometry": {"coordinates": [8.514176, 47.3663708], "type": "Point"}, "properties": {"address": "Talwiesenstrasse 92", "electric": 2, "id": "pb_446", "manual": 4, "name": "Binzallee", "provider": "publibike", "timeStamp": "03/31/2020, 16:09:29", "zip": 8055}, "type": "Feature"}, {"geometry": {"coordinates": [8.5070564, 47.371455], "type": "Point"}, "properties": {"address": "Gutstrasse 87", "electric": 1, "id": "pb_447", "manual": 6, "name": "Gutstrasse", "provider": "publibike", "timeStamp": "03/31/2020, 16:09:29", "zip": 8055}, "type": "Feature"}, {"geometry": {"coordinates": [8.4941268, 47.3836391], "type": "Point"}, "properties": {"address": "Flurstrasse 62", "electric": 2, "id": "pb_453", "manual": 1, "name": "Flurpark", "provider": "publibike", "timeStamp": "03/31/2020, 16:09:29", "zip": 8048}, "type": "Feature"}, {"geometry": {"coordinates": [8.500343, 47.380778], "type": "Point"}, "properties": {"address": "Edelweissstrasse 32", "electric": 1, "id": "pb_448", "manual": 4, "name": "Bl\u00fcemliquartier", "provider": "publibike", "timeStamp": "03/31/2020, 16:09:29", "zip": 8048}, "type": "Feature"}, {"geometry": {"coordinates": [8.528796, 47.383858], "type": "Point"}, "properties": {"address": "Gasometerstrasse 24", "electric": 6, "id": "pb_449", "manual": 17, "name": "Gasometerstrasse", "provider": "publibike", "timeStamp": "03/31/2020, 16:09:29", "zip": 8005}, "type": "Feature"}, {"geometry": {"coordinates": [8.4981964, 47.3859194], "type": "Point"}, "properties": {"address": "Baslerstrasse 57", "electric": 1, "id": "pb_455", "manual": 10, "name": "Letzipark", "provider": "publibike", "timeStamp": "03/31/2020, 16:09:29", "zip": 8048}, "type": "Feature"}, {"geometry": {"coordinates": [8.515252, 47.381915], "type": "Point"}, "properties": {"address": "Sihlfeldstrasse 175", "electric": 1, "id": "pb_451", "manual": 10, "name": "Hardplatz", "provider": "publibike", "timeStamp": "03/31/2020, 16:09:29", "zip": 8004}, "type": "Feature"}, {"geometry": {"coordinates": [8.5064743, 47.4188324], "type": "Point"}, "properties": {"address": "Wehntalerstrasse 541", "electric": 4, "id": "pb_427", "manual": 0, "name": "Zehntenhausplatz", "provider": "publibike", "timeStamp": "03/31/2020, 16:09:29", "zip": 8046}, "type": "Feature"}, {"geometry": {"coordinates": [8.537729, 47.379719], "type": "Point"}, "properties": {"address": "Sihlquai/HB", "electric": 5, "id": "pb_513", "manual": 10, "name": "Sihlquai", "provider": "publibike", "timeStamp": "03/31/2020, 16:09:29", "zip": 8005}, "type": "Feature"}, {"geometry": {"coordinates": [8.596202, 47.397885], "type": "Point"}, "properties": {"address": "Bahnhof Stettbach", "electric": 19, "id": "pb_514", "manual": 0, "name": "Bahnhof Stettbach", "provider": "publibike", "timeStamp": "03/31/2020, 16:09:29", "zip": 8051}, "type": "Feature"}, {"geometry": {"coordinates": [8.5543974, 47.3690153], "type": "Point"}, "properties": {"address": "Kasinostrasse 10", "electric": 5, "id": "pb_515", "manual": 2, "name": "Hottingerplatz", "provider": "publibike", "timeStamp": "03/31/2020, 16:09:29", "zip": 8032}, "type": "Feature"}, {"geometry": {"coordinates": [8.534444, 47.351525], "type": "Point"}, "properties": {"address": "Mobile Station Z\u00fcrich 1", "electric": 0, "id": "pb_282", "manual": 0, "name": "Theaterspektakel", "provider": "publibike", "timeStamp": "03/31/2020, 16:09:29", "zip": 8002}, "type": "Feature"}, {"geometry": {"coordinates": [8.516257, 47.367656], "type": "Point"}, "properties": {"address": "Goldbrunnenstrasse 54", "electric": 4, "id": "pb_538", "manual": 3, "name": "Kirche B\u00fchl", "provider": "publibike", "timeStamp": "03/31/2020, 16:09:29", "zip": 8055}, "type": "Feature"}, {"geometry": {"coordinates": [8.555639, 47.416873], "type": "Point"}, "properties": {"address": "Leutschenbachstrasse 50", "electric": 7, "id": "pb_537", "manual": 7, "name": "Leutschenpark", "provider": "publibike", "timeStamp": "03/31/2020, 16:09:29", "zip": 8050}, "type": "Feature"}, {"geometry": {"coordinates": [8.546464, 47.403822], "type": "Point"}, "properties": {"address": "Berninastrasse 45", "electric": 1, "id": "pb_540", "manual": 7, "name": "Berninaplatz", "provider": "publibike", "timeStamp": "03/31/2020, 16:09:29", "zip": 8057}, "type": "Feature"}, {"geometry": {"coordinates": [8.523134, 47.369004], "type": "Point"}, "properties": {"address": "Erlachstrasse 3", "electric": 2, "id": "pb_385", "manual": 1, "name": "Aegerten", "provider": "publibike", "timeStamp": "03/31/2020, 16:09:29", "zip": 8003}, "type": "Feature"}, {"geometry": {"coordinates": [8.49038, 47.381591], "type": "Point"}, "properties": {"address": "Rautistrasse 60", "electric": 11, "id": "pb_536", "manual": 8, "name": "Freilager", "provider": "publibike", "timeStamp": "03/31/2020, 16:09:29", "zip": 8048}, "type": "Feature"}, {"geometry": {"coordinates": [8.496511, 47.375247], "type": "Point"}, "properties": {"address": "Letzigraben 139", "electric": 0, "id": "pb_444", "manual": 2, "name": "Sackzelg", "provider": "publibike", "timeStamp": "03/31/2020, 16:09:29", "zip": 8047}, "type": "Feature"}, {"geometry": {"coordinates": [8.58131, 47.402801], "type": "Point"}, "properties": {"address": "Altwiesenstrasse 104", "electric": 0, "id": "pb_539", "manual": 3, "name": "Glattwiesen", "provider": "publibike", "timeStamp": "03/31/2020, 16:09:29", "zip": 8051}, "type": "Feature"}, {"geometry": {"coordinates": [8.52689, 47.3767], "type": "Point"}, "properties": {"address": "Molkenstrasse 5", "electric": 6, "id": "pb_560", "manual": 5, "name": "Helvetiaplatz", "provider": "publibike", "timeStamp": "03/31/2020, 16:09:29", "zip": 8004}, "type": "Feature"}, {"geometry": {"coordinates": [8.525602, 47.374241], "type": "Point"}, "properties": {"address": "Badenerstrasse 90", "electric": 6, "id": "pb_559", "manual": 1, "name": "Bezirksgeb\u00e4ude", "provider": "publibike", "timeStamp": "03/31/2020, 16:09:29", "zip": 8004}, "type": "Feature"}, {"geometry": {"coordinates": [8.535082, 47.345248], "type": "Point"}, "properties": {"address": "Bachstrasse 15", "electric": 8, "id": "pb_564", "manual": 8, "name": "GZ Wollishofen", "provider": "publibike", "timeStamp": "03/31/2020, 16:09:29", "zip": 8038}, "type": "Feature"}, {"geometry": {"coordinates": [8.514841, 47.370238], "type": "Point"}, "properties": {"address": "Schrennengasse 37", "electric": 3, "id": "pb_562", "manual": 2, "name": "Goldbrunnenplatz", "provider": "publibike", "timeStamp": "03/31/2020, 16:09:29", "zip": 8003}, "type": "Feature"}, {"geometry": {"coordinates": [8.514138, 47.374206], "type": "Point"}, "properties": {"address": "Idaplatz 4", "electric": 4, "id": "pb_557", "manual": 7, "name": "Idaplatz", "provider": "publibike", "timeStamp": "03/31/2020, 16:09:29", "zip": 8003}, "type": "Feature"}, {"geometry": {"coordinates": [8.518432, 47.369549], "type": "Point"}, "properties": {"address": "Brinerstrasse 2", "electric": 8, "id": "pb_558", "manual": 1, "name": "Schmiede Wiedikon", "provider": "publibike", "timeStamp": "03/31/2020, 16:09:29", "zip": 8003}, "type": "Feature"}, {"geometry": {"coordinates": [8.537546, 47.391289], "type": "Point"}, "properties": {"address": "Rotbuchstrasse 15", "electric": 11, "id": "pb_556", "manual": 1, "name": "Schaffhauserplatz", "provider": "publibike", "timeStamp": "03/31/2020, 16:09:29", "zip": 8006}, "type": "Feature"}, {"geometry": {"coordinates": [8.541541, 47.413733], "type": "Point"}, "properties": {"address": "Therese-Giehse-Strasse 11", "electric": 9, "id": "pb_561", "manual": 2, "name": "Center Eleven", "provider": "publibike", "timeStamp": "03/31/2020, 16:09:29", "zip": 8050}, "type": "Feature"}, {"geometry": {"coordinates": [8.534227, 47.360004], "type": "Point"}, "properties": {"address": "Alfred Escher-Strasse 76", "electric": 1, "id": "pb_563", "manual": 8, "name": "Mythenschloss", "provider": "publibike", "timeStamp": "03/31/2020, 16:09:29", "zip": 8002}, "type": "Feature"}, {"geometry": {"coordinates": [8.50373, 47.396172], "type": "Point"}, "properties": {"address": "Hardeggstrasse 6", "electric": 2, "id": "pb_566", "manual": 1, "name": "Am Wasser", "provider": "publibike", "timeStamp": "03/31/2020, 16:09:29", "zip": 8049}, "type": "Feature"}, {"geometry": {"coordinates": [8.532432, 47.381174], "type": "Point"}, "properties": {"address": "Klingenstrasse 9", "electric": 1, "id": "pb_565", "manual": 5, "name": "Zollstrasse", "provider": "publibike", "timeStamp": "03/31/2020, 16:09:29", "zip": 8005}, "type": "Feature"}, {"geometry": {"coordinates": [8.497982, 47.381447], "type": "Point"}, "properties": {"address": "Dennlerstrasse 23", "electric": 5, "id": "pb_567", "manual": 5, "name": "Dennlerstrasse", "provider": "publibike", "timeStamp": "03/31/2020, 16:09:29", "zip": 8047}, "type": "Feature"}, {"geometry": {"coordinates": [8.528049, 47.347701], "type": "Point"}, "properties": {"address": "Mutschellenstrasse 114", "electric": 2, "id": "pb_568", "manual": 4, "name": "Jugendherberge", "provider": "publibike", "timeStamp": "03/31/2020, 16:09:29", "zip": 8038}, "type": "Feature"}, {"geometry": {"coordinates": [8.539016, 47.405751], "type": "Point"}, "properties": {"address": "Ringstrasse 82", "electric": 4, "id": "pb_569", "manual": 0, "name": "Freibad Allenmoos", "provider": "publibike", "timeStamp": "03/31/2020, 16:09:29", "zip": 8057}, "type": "Feature"}, {"geometry": {"coordinates": [8.534974, 47.402164], "type": "Point"}, "properties": {"address": "Brache Guggach", "electric": 7, "id": "pb_572", "manual": 2, "name": "Radiostudio", "provider": "publibike", "timeStamp": "03/31/2020, 16:09:29", "zip": 8057}, "type": "Feature"}, {"geometry": {"coordinates": [8.547901, 47.375556], "type": "Point"}, "properties": {"address": "Karl-Schmid-Strasse 4", "electric": 9, "id": "pb_571", "manual": 3, "name": "ETH/Zoologisches Museum", "provider": "publibike", "timeStamp": "03/31/2020, 16:09:29", "zip": 8006}, "type": "Feature"}, {"geometry": {"coordinates": [8.544451, 47.398163], "type": "Point"}, "properties": {"charge": 92, "id": "smide_2880", "name": "ZH267289", "provider": "smide", "range": 46.0, "size": 17, "time": "03/31/2020, 16:09:00"}, "type": "Feature"}, {"geometry": {"coordinates": [8.508011, 47.407041], "type": "Point"}, "properties": {"charge": 100, "id": "smide_2871", "name": "ZH 267086", "provider": "smide", "range": 50.0, "size": 20, "time": "03/31/2020, 16:09:00"}, "type": "Feature"}, {"geometry": {"coordinates": [8.51438, 47.357451], "type": "Point"}, "properties": {"charge": 56, "id": "smide_2868", "name": "ZH 267089", "provider": "smide", "range": 28.0, "size": 20, "time": "03/31/2020, 16:09:00"}, "type": "Feature"}, {"geometry": {"coordinates": [8.544983, 47.396141], "type": "Point"}, "properties": {"charge": 48, "id": "smide_2856", "name": "ZH 267101", "provider": "smide", "range": 24.0, "size": 17, "time": "03/31/2020, 16:09:00"}, "type": "Feature"}, {"geometry": {"coordinates": [8.52555, 47.391645], "type": "Point"}, "properties": {"charge": 83, "id": "smide_2855", "name": "ZH 267102", "provider": "smide", "range": 41.0, "size": 17, "time": "03/31/2020, 16:09:00"}, "type": "Feature"}, {"geometry": {"coordinates": [8.547365, 47.386941], "type": "Point"}, "properties": {"charge": 47, "id": "smide_2854", "name": "ZH 267103", "provider": "smide", "range": 23.0, "size": 17, "time": "03/31/2020, 16:09:00"}, "type": "Feature"}, {"geometry": {"coordinates": [8.556573, 47.41861], "type": "Point"}, "properties": {"charge": 92, "id": "smide_2831", "name": "ZH 267180", "provider": "smide", "range": 46.0, "size": 20, "time": "03/31/2020, 16:09:00"}, "type": "Feature"}, {"geometry": {"coordinates": [8.557291, 47.418445], "type": "Point"}, "properties": {"charge": 100, "id": "smide_2819", "name": "ZH266943", "provider": "smide", "range": 50.0, "size": 20, "time": "03/31/2020, 16:09:00"}, "type": "Feature"}, {"geometry": {"coordinates": [8.545848, 47.37493], "type": "Point"}, "properties": {"charge": 80, "id": "smide_2804", "name": "ZH266903", "provider": "smide", "range": 40.0, "size": 20, "time": "03/31/2020, 16:09:00"}, "type": "Feature"}, {"geometry": {"coordinates": [8.553521, 47.414186], "type": "Point"}, "properties": {"charge": 92, "id": "smide_2785", "name": "ZH266875", "provider": "smide", "range": 46.0, "size": 17, "time": "03/31/2020, 16:09:00"}, "type": "Feature"}, {"geometry": {"coordinates": [8.502023, 47.362898], "type": "Point"}, "properties": {"charge": 70, "id": "smide_2780", "name": "ST1 X #1", "provider": "smide", "range": 35.0, "size": 17, "time": "03/31/2020, 16:09:00"}, "type": "Feature"}, {"geometry": {"coordinates": [8.543839, 47.4035], "type": "Point"}, "properties": {"charge": 75, "id": "smide_2773", "name": "ZH266561", "provider": "smide", "range": 37.0, "size": 17, "time": "03/31/2020, 16:09:00"}, "type": "Feature"}, {"geometry": {"coordinates": [8.504559, 47.374876], "type": "Point"}, "properties": {"charge": 100, "id": "smide_2771", "name": "ZH266559", "provider": "smide", "range": 50.0, "size": 17, "time": "03/31/2020, 16:09:00"}, "type": "Feature"}, {"geometry": {"coordinates": [8.545322, 47.39088], "type": "Point"}, "properties": {"charge": 40, "id": "smide_2763", "name": "ZH266641", "provider": "smide", "range": 20.0, "size": 17, "time": "03/31/2020, 16:09:00"}, "type": "Feature"}, {"geometry": {"coordinates": [8.496663, 47.366408], "type": "Point"}, "properties": {"charge": 50, "id": "smide_2761", "name": "ZH266642", "provider": "smide", "range": 25.0, "size": 20, "time": "03/31/2020, 16:09:00"}, "type": "Feature"}, {"geometry": {"coordinates": [8.507372, 47.391024], "type": "Point"}, "properties": {"charge": 100, "id": "smide_2758", "name": "ZH266638 M", "provider": "smide", "range": 50.0, "size": 17, "time": "03/31/2020, 16:09:00"}, "type": "Feature"}, {"geometry": {"coordinates": [8.547558, 47.363766], "type": "Point"}, "properties": {"charge": 92, "id": "smide_2752", "name": "BE343856", "provider": "smide", "range": 46.0, "size": 17, "time": "03/31/2020, 16:09:00"}, "type": "Feature"}, {"geometry": {"coordinates": [8.543111, 47.420864], "type": "Point"}, "properties": {"charge": 100, "id": "smide_2751", "name": "BE343857", "provider": "smide", "range": 50.0, "size": 17, "time": "03/31/2020, 16:09:00"}, "type": "Feature"}, {"geometry": {"coordinates": [8.520256, 47.33964], "type": "Point"}, "properties": {"charge": 38, "id": "smide_2749", "name": "BE343867", "provider": "smide", "range": 19.0, "size": 17, "time": "03/31/2020, 16:09:00"}, "type": "Feature"}, {"geometry": {"coordinates": [8.55617, 47.406408], "type": "Point"}, "properties": {"charge": 32, "id": "smide_2748", "name": "BE335758", "provider": "smide", "range": 16.0, "size": 17, "time": "03/31/2020, 16:09:00"}, "type": "Feature"}, {"geometry": {"coordinates": [8.496039, 47.387364], "type": "Point"}, "properties": {"charge": 40, "id": "smide_2746", "name": "BE335817", "provider": "smide", "range": 20.0, "size": 17, "time": "03/31/2020, 16:09:00"}, "type": "Feature"}, {"geometry": {"coordinates": [8.54941, 47.421778], "type": "Point"}, "properties": {"charge": 100, "id": "smide_2747", "name": "BE335820", "provider": "smide", "range": 50.0, "size": 17, "time": "03/31/2020, 16:09:00"}, "type": "Feature"}, {"geometry": {"coordinates": [8.543701, 47.39266], "type": "Point"}, "properties": {"charge": 30, "id": "smide_2743", "name": "BE343864", "provider": "smide", "range": 15.0, "size": 17, "time": "03/31/2020, 16:09:00"}, "type": "Feature"}, {"geometry": {"coordinates": [8.541909, 47.39604], "type": "Point"}, "properties": {"charge": 91, "id": "smide_2742", "name": "BE343866", "provider": "smide", "range": 45.0, "size": 17, "time": "03/31/2020, 16:09:00"}, "type": "Feature"}, {"geometry": {"coordinates": [8.582505, 47.350566], "type": "Point"}, "properties": {"charge": 23, "id": "smide_2738", "name": "BE343865", "provider": "smide", "range": 11.0, "size": 17, "time": "03/31/2020, 16:09:00"}, "type": "Feature"}, {"geometry": {"coordinates": [8.554015, 47.35824], "type": "Point"}, "properties": {"charge": 32, "id": "smide_2737", "name": "BE336149", "provider": "smide", "range": 16.0, "size": 17, "time": "03/31/2020, 16:09:00"}, "type": "Feature"}, {"geometry": {"coordinates": [8.55527, 47.383892], "type": "Point"}, "properties": {"charge": 78, "id": "smide_2733", "name": "BE343873", "provider": "smide", "range": 39.0, "size": 17, "time": "03/31/2020, 16:09:00"}, "type": "Feature"}, {"geometry": {"coordinates": [8.572726, 47.380544], "type": "Point"}, "properties": {"charge": 66, "id": "smide_2729", "name": "BE343878", "provider": "smide", "range": 33.0, "size": 17, "time": "03/31/2020, 16:09:00"}, "type": "Feature"}, {"geometry": {"coordinates": [8.546005, 47.3849], "type": "Point"}, "properties": {"charge": 93, "id": "smide_2718", "name": "ZH259019", "provider": "smide", "range": 46.0, "size": 20, "time": "03/31/2020, 16:09:00"}, "type": "Feature"}, {"geometry": {"coordinates": [8.514662, 47.357932], "type": "Point"}, "properties": {"charge": 93, "id": "smide_2717", "name": "ZH263287", "provider": "smide", "range": 46.0, "size": 17, "time": "03/31/2020, 16:09:00"}, "type": "Feature"}, {"geometry": {"coordinates": [8.508416, 47.420828], "type": "Point"}, "properties": {"charge": 53, "id": "smide_2714", "name": "ZH256461", "provider": "smide", "range": 26.0, "size": 17, "time": "03/31/2020, 16:09:00"}, "type": "Feature"}, {"geometry": {"coordinates": [8.537993, 47.339533], "type": "Point"}, "properties": {"charge": 70, "id": "smide_2709", "name": "ZH256466", "provider": "smide", "range": 35.0, "size": 20, "time": "03/31/2020, 16:09:00"}, "type": "Feature"}, {"geometry": {"coordinates": [8.516813, 47.385112], "type": "Point"}, "properties": {"charge": 62, "id": "smide_2707", "name": "ZH256467", "provider": "smide", "range": 31.0, "size": 20, "time": "03/31/2020, 16:09:00"}, "type": "Feature"}, {"geometry": {"coordinates": [8.545853, 47.406732], "type": "Point"}, "properties": {"charge": 53, "id": "smide_2708", "name": "ZH256464", "provider": "smide", "range": 26.0, "size": 17, "time": "03/31/2020, 16:09:00"}, "type": "Feature"}, {"geometry": {"coordinates": [8.515056, 47.4146], "type": "Point"}, "properties": {"charge": 36, "id": "smide_2706", "name": "ZH256322", "provider": "smide", "range": 18.0, "size": 20, "time": "03/31/2020, 16:09:00"}, "type": "Feature"}, {"geometry": {"coordinates": [8.532875, 47.411052], "type": "Point"}, "properties": {"charge": 92, "id": "smide_2701", "name": "ZH256468", "provider": "smide", "range": 46.0, "size": 20, "time": "03/31/2020, 16:09:00"}, "type": "Feature"}, {"geometry": {"coordinates": [8.506289, 47.4222], "type": "Point"}, "properties": {"charge": 38, "id": "smide_2700", "name": "ZH256470", "provider": "smide", "range": 19.0, "size": 20, "time": "03/31/2020, 16:09:00"}, "type": "Feature"}, {"geometry": {"coordinates": [8.547177, 47.363108], "type": "Point"}, "properties": {"charge": 35, "id": "smide_2697", "name": "ZH254629", "provider": "smide", "range": 17.0, "size": 20, "time": "03/31/2020, 16:09:00"}, "type": "Feature"}, {"geometry": {"coordinates": [8.512553, 47.362443], "type": "Point"}, "properties": {"charge": 52, "id": "smide_2691", "name": "ZH254622", "provider": "smide", "range": 26.0, "size": 20, "time": "03/31/2020, 16:09:00"}, "type": "Feature"}, {"geometry": {"coordinates": [8.574601, 47.354656], "type": "Point"}, "properties": {"charge": 27, "id": "smide_2690", "name": "ZH254625", "provider": "smide", "range": 13.0, "size": 20, "time": "03/31/2020, 16:09:00"}, "type": "Feature"}, {"geometry": {"coordinates": [8.494167, 47.366448], "type": "Point"}, "properties": {"charge": 73, "id": "smide_2687", "name": "ZH263529", "provider": "smide", "range": 36.0, "size": 20, "time": "03/31/2020, 16:09:00"}, "type": "Feature"}, {"geometry": {"coordinates": [8.545384, 47.383428], "type": "Point"}, "properties": {"charge": 58, "id": "smide_2684", "name": "ZH254626", "provider": "smide", "range": 28.0, "size": 20, "time": "03/31/2020, 16:09:00"}, "type": "Feature"}, {"geometry": {"coordinates": [8.530191, 47.390321], "type": "Point"}, "properties": {"charge": 87, "id": "smide_2683", "name": "ZH254620", "provider": "smide", "range": 43.0, "size": 20, "time": "03/31/2020, 16:09:00"}, "type": "Feature"}, {"geometry": {"coordinates": [8.546762, 47.39194], "type": "Point"}, "properties": {"charge": 92, "id": "smide_2679", "name": "ZH258489", "provider": "smide", "range": 46.0, "size": 17, "time": "03/31/2020, 16:09:00"}, "type": "Feature"}, {"geometry": {"coordinates": [8.508409, 47.408536], "type": "Point"}, "properties": {"charge": 93, "id": "smide_2666", "name": "ZH258653", "provider": "smide", "range": 46.0, "size": 17, "time": "03/31/2020, 16:09:00"}, "type": "Feature"}, {"geometry": {"coordinates": [8.530546, 47.394048], "type": "Point"}, "properties": {"charge": 85, "id": "smide_2665", "name": "ZH258644", "provider": "smide", "range": 42.0, "size": 17, "time": "03/31/2020, 16:09:00"}, "type": "Feature"}, {"geometry": {"coordinates": [8.517795, 47.398496], "type": "Point"}, "properties": {"charge": 94, "id": "smide_2664", "name": "ZH258652", "provider": "smide", "range": 47.0, "size": 17, "time": "03/31/2020, 16:09:00"}, "type": "Feature"}, {"geometry": {"coordinates": [8.496774, 47.382244], "type": "Point"}, "properties": {"charge": 95, "id": "smide_2660", "name": "ZH258647", "provider": "smide", "range": 47.0, "size": 17, "time": "03/31/2020, 16:09:00"}, "type": "Feature"}, {"geometry": {"coordinates": [8.495064, 47.366708], "type": "Point"}, "properties": {"charge": 80, "id": "smide_2648", "name": "ZH257930", "provider": "smide", "range": 40.0, "size": 20, "time": "03/31/2020, 16:09:00"}, "type": "Feature"}, {"geometry": {"coordinates": [8.551261, 47.36943], "type": "Point"}, "properties": {"charge": 36, "id": "smide_2657", "name": "ZH257936", "provider": "smide", "range": 18.0, "size": 17, "time": "03/31/2020, 16:09:00"}, "type": "Feature"}, {"geometry": {"coordinates": [8.569598, 47.35924], "type": "Point"}, "properties": {"charge": 40, "id": "smide_2645", "name": "ZH257933", "provider": "smide", "range": 20.0, "size": 20, "time": "03/31/2020, 16:09:00"}, "type": "Feature"}, {"geometry": {"coordinates": [8.536448, 47.418991], "type": "Point"}, "properties": {"charge": 72, "id": "smide_3", "name": "ZH253765", "provider": "smide", "range": 36.0, "size": 20, "time": "03/31/2020, 16:09:00"}, "type": "Feature"}, {"geometry": {"coordinates": [8.564061, 47.366185], "type": "Point"}, "properties": {"charge": 95, "id": "smide_105", "name": "ZH253804", "provider": "smide", "range": 47.0, "size": 17, "time": "03/31/2020, 16:09:00"}, "type": "Feature"}, {"geometry": {"coordinates": [8.502115, 47.370216], "type": "Point"}, "properties": {"charge": 83, "id": "smide_77", "name": "ZH261548", "provider": "smide", "range": 41.0, "size": 20, "time": "03/31/2020, 16:09:00"}, "type": "Feature"}, {"geometry": {"coordinates": [8.52475, 47.341156], "type": "Point"}, "properties": {"charge": 90, "id": "smide_8", "name": "ZH253861", "provider": "smide", "range": 45.0, "size": 17, "time": "03/31/2020, 16:09:00"}, "type": "Feature"}, {"geometry": {"coordinates": [8.532235, 47.35978], "type": "Point"}, "properties": {"charge": 87, "id": "smide_201", "name": "ZH253698", "provider": "smide", "range": 43.0, "size": 17, "time": "03/31/2020, 16:09:00"}, "type": "Feature"}, {"geometry": {"coordinates": [8.532424, 47.35016], "type": "Point"}, "properties": {"charge": 90, "id": "smide_9", "name": "ZH253796", "provider": "smide", "range": 45.0, "size": 17, "time": "03/31/2020, 16:09:00"}, "type": "Feature"}, {"geometry": {"coordinates": [8.506856, 47.392745], "type": "Point"}, "properties": {"charge": 61, "id": "smide_180", "name": "ZH253824", "provider": "smide", "range": 30.0, "size": 20, "time": "03/31/2020, 16:09:00"}, "type": "Feature"}, {"geometry": {"coordinates": [8.54558, 47.385388], "type": "Point"}, "properties": {"charge": 60, "id": "smide_30", "name": "ZH253813", "provider": "smide", "range": 30.0, "size": 20, "time": "03/31/2020, 16:09:00"}, "type": "Feature"}, {"geometry": {"coordinates": [8.547378, 47.397338], "type": "Point"}, "properties": {"charge": 73, "id": "smide_10", "name": "ZH253855", "provider": "smide", "range": 36.0, "size": 17, "time": "03/31/2020, 16:09:00"}, "type": "Feature"}, {"geometry": {"coordinates": [8.572063, 47.38178], "type": "Point"}, "properties": {"charge": 100, "id": "smide_79", "name": "ZH253711", "provider": "smide", "range": 50.0, "size": 20, "time": "03/31/2020, 16:09:00"}, "type": "Feature"}, {"geometry": {"coordinates": [8.544917, 47.389492], "type": "Point"}, "properties": {"charge": 65, "id": "smide_84", "name": "ZH253733", "provider": "smide", "range": 32.0, "size": 17, "time": "03/31/2020, 16:09:00"}, "type": "Feature"}, {"geometry": {"coordinates": [8.508506, 47.420828], "type": "Point"}, "properties": {"charge": 50, "id": "smide_165", "name": "ZH253752", "provider": "smide", "range": 25.0, "size": 17, "time": "03/31/2020, 16:09:00"}, "type": "Feature"}, {"geometry": {"coordinates": [8.517715, 47.414364], "type": "Point"}, "properties": {"charge": 51, "id": "smide_35", "name": "ZH253755", "provider": "smide", "range": 25.0, "size": 20, "time": "03/31/2020, 16:09:00"}, "type": "Feature"}, {"geometry": {"coordinates": [8.560241, 47.365028], "type": "Point"}, "properties": {"charge": 71, "id": "smide_49", "name": "ZH253873", "provider": "smide", "range": 35.0, "size": 17, "time": "03/31/2020, 16:09:00"}, "type": "Feature"}, {"geometry": {"coordinates": [8.532534, 47.413812], "type": "Point"}, "properties": {"charge": 91, "id": "smide_37", "name": "ZH261377", "provider": "smide", "range": 45.0, "size": 20, "time": "03/31/2020, 16:09:00"}, "type": "Feature"}, {"geometry": {"coordinates": [8.545901, 47.402111], "type": "Point"}, "properties": {"charge": 94, "id": "smide_202", "name": "ZH253830", "provider": "smide", "range": 47.0, "size": 17, "time": "03/31/2020, 16:09:00"}, "type": "Feature"}, {"geometry": {"coordinates": [8.532174, 47.40818], "type": "Point"}, "properties": {"charge": 74, "id": "smide_150", "name": "ZH253703", "provider": "smide", "range": 37.0, "size": 20, "time": "03/31/2020, 16:09:00"}, "type": "Feature"}, {"geometry": {"coordinates": [8.506096, 47.359861], "type": "Point"}, "properties": {"charge": 33, "id": "smide_97", "name": "ZH253799", "provider": "smide", "range": 16.0, "size": 20, "time": "03/31/2020, 16:09:00"}, "type": "Feature"}, {"geometry": {"coordinates": [8.501979, 47.369032], "type": "Point"}, "properties": {"charge": 53, "id": "smide_66", "name": "ZH253818", "provider": "smide", "range": 26.0, "size": 20, "time": "03/31/2020, 16:09:00"}, "type": "Feature"}, {"geometry": {"coordinates": [8.549481, 47.4057], "type": "Point"}, "properties": {"charge": 63, "id": "smide_127", "name": "ZH253808", "provider": "smide", "range": 31.0, "size": 20, "time": "03/31/2020, 16:09:00"}, "type": "Feature"}, {"geometry": {"coordinates": [8.545413, 47.423651], "type": "Point"}, "properties": {"charge": 88, "id": "smide_145", "name": "ZH253780", "provider": "smide", "range": 44.0, "size": 20, "time": "03/31/2020, 16:09:00"}, "type": "Feature"}, {"geometry": {"coordinates": [8.514524, 47.416864], "type": "Point"}, "properties": {"charge": 61, "id": "smide_114", "name": "ZH253878", "provider": "smide", "range": 30.0, "size": 20, "time": "03/31/2020, 16:09:00"}, "type": "Feature"}, {"geometry": {"coordinates": [8.546403, 47.383712], "type": "Point"}, "properties": {"charge": 40, "id": "smide_21", "name": "ZH253841", "provider": "smide", "range": 20.0, "size": 17, "time": "03/31/2020, 16:09:00"}, "type": "Feature"}, {"geometry": {"coordinates": [8.529339, 47.351932], "type": "Point"}, "properties": {"charge": 51, "id": "smide_164", "name": "ZH253775", "provider": "smide", "range": 25.0, "size": 17, "time": "03/31/2020, 16:09:00"}, "type": "Feature"}, {"geometry": {"coordinates": [8.503039, 47.384628], "type": "Point"}, "properties": {"charge": 100, "id": "smide_171", "name": "ZH253689", "provider": "smide", "range": 50.0, "size": 20, "time": "03/31/2020, 16:09:00"}, "type": "Feature"}, {"geometry": {"coordinates": [8.571901, 47.381908], "type": "Point"}, "properties": {"charge": 100, "id": "smide_93", "name": "ZH253681", "provider": "smide", "range": 50.0, "size": 17, "time": "03/31/2020, 16:09:00"}, "type": "Feature"}, {"geometry": {"coordinates": [8.498729, 47.42556], "type": "Point"}, "properties": {"charge": 73, "id": "smide_67", "name": "ZH253779", "provider": "smide", "range": 36.0, "size": 17, "time": "03/31/2020, 16:09:00"}, "type": "Feature"}, {"geometry": {"coordinates": [8.55056, 47.392463], "type": "Point"}, "properties": {"charge": 46, "id": "smide_118", "name": "ZH253759", "provider": "smide", "range": 23.0, "size": 20, "time": "03/31/2020, 16:09:00"}, "type": "Feature"}, {"geometry": {"coordinates": [8.502731, 47.423948], "type": "Point"}, "properties": {"charge": 99, "id": "smide_166", "name": "ZH253728", "provider": "smide", "range": 49.0, "size": 17, "time": "03/31/2020, 16:09:00"}, "type": "Feature"}, {"geometry": {"coordinates": [8.486588, 47.3679], "type": "Point"}, "properties": {"charge": 88, "id": "smide_126", "name": "ZH268400", "provider": "smide", "range": 44.0, "size": 17, "time": "03/31/2020, 16:09:00"}, "type": "Feature"}, {"geometry": {"coordinates": [8.546603, 47.409385], "type": "Point"}, "properties": {"charge": 99, "id": "smide_44", "name": "ZH253837", "provider": "smide", "range": 49.0, "size": 17, "time": "03/31/2020, 16:09:00"}, "type": "Feature"}, {"geometry": {"coordinates": [8.560513, 47.40715], "type": "Point"}, "properties": {"charge": 92, "id": "smide_57", "name": "ZH253772", "provider": "smide", "range": 46.0, "size": 17, "time": "03/31/2020, 16:09:00"}, "type": "Feature"}, {"geometry": {"coordinates": [8.485293, 47.394344], "type": "Point"}, "properties": {"charge": 41, "id": "smide_154", "name": "ZH253744", "provider": "smide", "range": 20.0, "size": 20, "time": "03/31/2020, 16:09:00"}, "type": "Feature"}, {"geometry": {"coordinates": [8.480647, 47.392676], "type": "Point"}, "properties": {"charge": 21, "id": "smide_92", "name": "ZH253798", "provider": "smide", "range": 10.0, "size": 17, "time": "03/31/2020, 16:09:00"}, "type": "Feature"}, {"geometry": {"coordinates": [8.564631, 47.36944], "type": "Point"}, "properties": {"charge": 88, "id": "smide_1", "name": "ZH253776", "provider": "smide", "range": 44.0, "size": 17, "time": "03/31/2020, 16:09:00"}, "type": "Feature"}, {"geometry": {"coordinates": [8.508258, 47.357336], "type": "Point"}, "properties": {"charge": 94, "id": "smide_28", "name": "ZH253831", "provider": "smide", "range": 47.0, "size": 17, "time": "03/31/2020, 16:09:00"}, "type": "Feature"}, {"geometry": {"coordinates": [8.529766, 47.349728], "type": "Point"}, "properties": {"charge": 97, "id": "smide_14", "name": "ZH253749", "provider": "smide", "range": 48.0, "size": 20, "time": "03/31/2020, 16:09:00"}, "type": "Feature"}, {"geometry": {"coordinates": [8.549763, 47.401904], "type": "Point"}, "properties": {"charge": 94, "id": "smide_130", "name": "ZH253847", "provider": "smide", "range": 47.0, "size": 20, "time": "03/31/2020, 16:09:00"}, "type": "Feature"}, {"geometry": {"coordinates": [8.52773, 47.414991], "type": "Point"}, "properties": {"charge": 73, "id": "smide_24", "name": "ZH253696", "provider": "smide", "range": 36.0, "size": 20, "time": "03/31/2020, 16:09:00"}, "type": "Feature"}, {"geometry": {"coordinates": [8.502023, 47.369138], "type": "Point"}, "properties": {"charge": 99, "id": "smide_107", "name": "ZH253819", "provider": "smide", "range": 49.0, "size": 17, "time": "03/31/2020, 16:09:00"}, "type": "Feature"}, {"geometry": {"coordinates": [8.523992, 47.392564], "type": "Point"}, "properties": {"charge": 81, "id": "smide_136", "name": "ZH253682", "provider": "smide", "range": 40.0, "size": 17, "time": "03/31/2020, 16:09:00"}, "type": "Feature"}, {"geometry": {"coordinates": [8.507171, 47.406884], "type": "Point"}, "properties": {"charge": 88, "id": "smide_83", "name": "ZH253869", "provider": "smide", "range": 44.0, "size": 20, "time": "03/31/2020, 16:09:00"}, "type": "Feature"}, {"geometry": {"coordinates": [8.540066, 47.379005], "type": "Point"}, "properties": {"charge": 91, "id": "smide_73", "name": "ZH261379", "provider": "smide", "range": 45.0, "size": 20, "time": "03/31/2020, 16:09:00"}, "type": "Feature"}, {"geometry": {"coordinates": [8.523745, 47.35763], "type": "Point"}, "properties": {"charge": 89, "id": "smide_158", "name": "ZH253870", "provider": "smide", "range": 44.0, "size": 20, "time": "03/31/2020, 16:09:00"}, "type": "Feature"}, {"geometry": {"coordinates": [8.502164, 47.362312], "type": "Point"}, "properties": {"charge": 62, "id": "smide_100", "name": "ZH253862", "provider": "smide", "range": 31.0, "size": 20, "time": "03/31/2020, 16:09:00"}, "type": "Feature"}, {"geometry": {"coordinates": [8.545888, 47.406758], "type": "Point"}, "properties": {"charge": 31, "id": "smide_141", "name": "ZH253800", "provider": "smide", "range": 15.0, "size": 20, "time": "03/31/2020, 16:09:00"}, "type": "Feature"}, {"geometry": {"coordinates": [8.535718, 47.359566], "type": "Point"}, "properties": {"charge": 52, "id": "smide_149", "name": "ZH253743", "provider": "smide", "range": 26.0, "size": 20, "time": "03/31/2020, 16:09:00"}, "type": "Feature"}, {"geometry": {"coordinates": [8.56077, 47.416726], "type": "Point"}, "properties": {"charge": 85, "id": "smide_33", "name": "ZH253782", "provider": "smide", "range": 42.0, "size": 20, "time": "03/31/2020, 16:09:00"}, "type": "Feature"}, {"geometry": {"coordinates": [8.564132, 47.349344], "type": "Point"}, "properties": {"charge": 86, "id": "smide_161", "name": "ZH253691", "provider": "smide", "range": 43.0, "size": 20, "time": "03/31/2020, 16:09:00"}, "type": "Feature"}, {"geometry": {"coordinates": [8.52755, 47.350646], "type": "Point"}, "properties": {"charge": 74, "id": "smide_183", "name": "ZH253868", "provider": "smide", "range": 37.0, "size": 17, "time": "03/31/2020, 16:09:00"}, "type": "Feature"}, {"geometry": {"coordinates": [8.562606, 47.377768], "type": "Point"}, "properties": {"charge": 65, "id": "smide_137", "name": "ZH258502", "provider": "smide", "range": 32.0, "size": 17, "time": "03/31/2020, 16:09:00"}, "type": "Feature"}, {"geometry": {"coordinates": [8.516332, 47.385188], "type": "Point"}, "properties": {"charge": 100, "id": "smide_96", "name": "ZH256146", "provider": "smide", "range": 50.0, "size": 20, "time": "03/31/2020, 16:09:00"}, "type": "Feature"}, {"geometry": {"coordinates": [8.526438, 47.412208], "type": "Point"}, "properties": {"charge": 79, "id": "smide_58", "name": "ZH259246", "provider": "smide", "range": 39.0, "size": 20, "time": "03/31/2020, 16:09:00"}, "type": "Feature"}, {"geometry": {"coordinates": [8.554698, 47.402423], "type": "Point"}, "properties": {"charge": 87, "id": "smide_162", "name": "ZH253760", "provider": "smide", "range": 43.0, "size": 17, "time": "03/31/2020, 16:09:00"}, "type": "Feature"}, {"geometry": {"coordinates": [8.519013, 47.39178], "type": "Point"}, "properties": {"charge": 100, "id": "smide_95", "name": "ZH253773", "provider": "smide", "range": 50.0, "size": 17, "time": "03/31/2020, 16:09:00"}, "type": "Feature"}, {"geometry": {"coordinates": [8.559723, 47.379496], "type": "Point"}, "properties": {"charge": 100, "id": "smide_122", "name": "ZH253850", "provider": "smide", "range": 50.0, "size": 20, "time": "03/31/2020, 16:09:00"}, "type": "Feature"}, {"geometry": {"coordinates": [8.527621, 47.350765], "type": "Point"}, "properties": {"charge": 30, "id": "smide_18", "name": "ZH253859", "provider": "smide", "range": 15.0, "size": 17, "time": "03/31/2020, 16:09:00"}, "type": "Feature"}, {"geometry": {"coordinates": [8.513256, 47.391915], "type": "Point"}, "properties": {"charge": 69, "id": "smide_5", "name": "ZH261443", "provider": "smide", "range": 34.0, "size": 20, "time": "03/31/2020, 16:09:00"}, "type": "Feature"}, {"geometry": {"coordinates": [8.496678, 47.365485], "type": "Point"}, "properties": {"charge": 87, "id": "smide_85", "name": "ZH253729", "provider": "smide", "range": 43.0, "size": 17, "time": "03/31/2020, 16:09:00"}, "type": "Feature"}, {"geometry": {"coordinates": [8.56492, 47.404232], "type": "Point"}, "properties": {"charge": 43, "id": "smide_29", "name": "ZH253723", "provider": "smide", "range": 21.0, "size": 17, "time": "03/31/2020, 16:09:00"}, "type": "Feature"}, {"geometry": {"coordinates": [8.571348, 47.381186], "type": "Point"}, "properties": {"charge": 81, "id": "smide_132", "name": "ZH253857", "provider": "smide", "range": 40.0, "size": 17, "time": "03/31/2020, 16:09:00"}, "type": "Feature"}, {"geometry": {"coordinates": [8.540171, 47.378996], "type": "Point"}, "properties": {"charge": 100, "id": "smide_46", "name": "ZH253843", "provider": "smide", "range": 50.0, "size": 20, "time": "03/31/2020, 16:09:00"}, "type": "Feature"}, {"geometry": {"coordinates": [8.517795, 47.3861466666667], "type": "Point"}, "properties": {"charge": 82, "id": "bird_75c41e5a-fe16-441d-8698-10830ea34350", "provider": "bird", "timeStamp": "03/31/2020, 16:08:59"}, "type": "Feature"}, {"geometry": {"coordinates": [8.51749666666667, 47.3858416666667], "type": "Point"}, "properties": {"charge": 48, "id": "bird_f3c77ef7-9bd0-41df-bdea-6c291c743f0b", "provider": "bird", "timeStamp": "03/31/2020, 16:08:59"}, "type": "Feature"}, {"geometry": {"coordinates": [8.516355, 47.3754916666667], "type": "Point"}, "properties": {"charge": 53, "id": "bird_d086fc69-8f5f-423e-b1e6-442bda2c0fb4", "provider": "bird", "timeStamp": "03/31/2020, 16:08:59"}, "type": "Feature"}, {"geometry": {"coordinates": [8.517835, 47.38615], "type": "Point"}, "properties": {"charge": 82, "id": "bird_c6efe642-6c8c-4f89-b35b-c71ba0af2729", "provider": "bird", "timeStamp": "03/31/2020, 16:08:59"}, "type": "Feature"}, {"geometry": {"coordinates": [8.518015, 47.386265], "type": "Point"}, "properties": {"charge": 34, "id": "bird_0c6ed5c9-2585-45c9-84b5-4a4867dcd316", "provider": "bird", "timeStamp": "03/31/2020, 16:08:59"}, "type": "Feature"}, {"geometry": {"coordinates": [8.54313166666667, 47.37497], "type": "Point"}, "properties": {"charge": 39, "id": "bird_05ef1df5-d1aa-4455-a640-557f8416875c", "provider": "bird", "timeStamp": "03/31/2020, 16:08:59"}, "type": "Feature"}, {"geometry": {"coordinates": [8.51534333333333, 47.38218], "type": "Point"}, "properties": {"charge": 73, "id": "bird_a2e75445-003f-405a-a825-06ce16804b78", "provider": "bird", "timeStamp": "03/31/2020, 16:08:59"}, "type": "Feature"}, {"geometry": {"coordinates": [8.52304666666667, 47.3710166666667], "type": "Point"}, "properties": {"charge": 73, "id": "bird_169ada10-34ca-45d4-9dd1-20b7760d7783", "provider": "bird", "timeStamp": "03/31/2020, 16:08:59"}, "type": "Feature"}, {"geometry": {"coordinates": [8.51538333333333, 47.3821683333333], "type": "Point"}, "properties": {"charge": 69, "id": "bird_a7f017e5-03a7-4593-a547-7de8f669be79", "provider": "bird", "timeStamp": "03/31/2020, 16:08:59"}, "type": "Feature"}, {"geometry": {"coordinates": [8.518195, 47.3861966666667], "type": "Point"}, "properties": {"charge": 82, "id": "bird_807e7d6a-7b51-4a76-bf74-bc723c05429e", "provider": "bird", "timeStamp": "03/31/2020, 16:08:59"}, "type": "Feature"}, {"geometry": {"coordinates": [8.51525166666667, 47.37846], "type": "Point"}, "properties": {"charge": 40, "id": "bird_6c781857-cb5d-46c2-a364-7d2ce01ebb86", "provider": "bird", "timeStamp": "03/31/2020, 16:08:59"}, "type": "Feature"}, {"geometry": {"coordinates": [8.51826, 47.38623], "type": "Point"}, "properties": {"charge": 84, "id": "bird_7e87495e-c51d-4bde-a758-fbf9e8f9c885", "provider": "bird", "timeStamp": "03/31/2020, 16:08:59"}, "type": "Feature"}, {"geometry": {"coordinates": [8.54399, 47.3765], "type": "Point"}, "properties": {"charge": 39, "id": "bird_b2285ed0-c432-42a6-8292-b3db54bb4e56", "provider": "bird", "timeStamp": "03/31/2020, 16:08:59"}, "type": "Feature"}, {"geometry": {"coordinates": [8.51768, 47.3856766666667], "type": "Point"}, "properties": {"charge": 31, "id": "bird_6fcd1eea-5a76-4e06-8001-7d8a549253a7", "provider": "bird", "timeStamp": "03/31/2020, 16:08:59"}, "type": "Feature"}, {"geometry": {"coordinates": [8.54392166666667, 47.376415], "type": "Point"}, "properties": {"charge": 98, "id": "bird_b35ffea8-9697-48ec-8a9d-893a753c6e3c", "provider": "bird", "timeStamp": "03/31/2020, 16:08:59"}, "type": "Feature"}, {"geometry": {"coordinates": [8.54399833333333, 47.376575], "type": "Point"}, "properties": {"charge": 99, "id": "bird_b724be74-7113-4d2a-8df7-3d32e6fc65a0", "provider": "bird", "timeStamp": "03/31/2020, 16:08:59"}, "type": "Feature"}, {"geometry": {"coordinates": [8.54395666666667, 47.376515], "type": "Point"}, "properties": {"charge": 100, "id": "bird_4174872e-bfe3-4445-9bd6-42374d17da31", "provider": "bird", "timeStamp": "03/31/2020, 16:08:59"}, "type": "Feature"}, {"geometry": {"coordinates": [8.543915, 47.3764566666667], "type": "Point"}, "properties": {"charge": 100, "id": "bird_907dbe3b-5eb3-4463-a7cd-869aa293d890", "provider": "bird", "timeStamp": "03/31/2020, 16:08:59"}, "type": "Feature"}, {"geometry": {"coordinates": [8.51586833333333, 47.3769116666667], "type": "Point"}, "properties": {"charge": 58, "id": "bird_83079eb3-4d26-45e5-a82f-103b5fef8009", "provider": "bird", "timeStamp": "03/31/2020, 16:08:59"}, "type": "Feature"}, {"geometry": {"coordinates": [8.51666833333333, 47.3756183333333], "type": "Point"}, "properties": {"charge": 60, "id": "bird_d02942a1-bfbe-4846-bdf7-4925cef97749", "provider": "bird", "timeStamp": "03/31/2020, 16:08:59"}, "type": "Feature"}, {"geometry": {"coordinates": [8.51736166666667, 47.385235], "type": "Point"}, "properties": {"charge": 69, "id": "bird_ce90a0ce-a07d-45ca-b4f9-edbdd9482227", "provider": "bird", "timeStamp": "03/31/2020, 16:08:59"}, "type": "Feature"}, {"geometry": {"coordinates": [8.52317333333333, 47.3711083333333], "type": "Point"}, "properties": {"charge": 75, "id": "bird_16cabb9f-1d4c-4197-8f72-35e21cb255a0", "provider": "bird", "timeStamp": "03/31/2020, 16:08:59"}, "type": "Feature"}, {"geometry": {"coordinates": [8.52317666666667, 47.3711316666667], "type": "Point"}, "properties": {"charge": 75, "id": "bird_37659c32-9857-48da-bd88-c7a7a45f5bc5", "provider": "bird", "timeStamp": "03/31/2020, 16:08:59"}, "type": "Feature"}, {"geometry": {"coordinates": [8.53525333333333, 47.370655], "type": "Point"}, "properties": {"charge": 39, "id": "bird_d00cd871-d38f-4980-b801-94ee4436661d", "provider": "bird", "timeStamp": "03/31/2020, 16:08:59"}, "type": "Feature"}, {"geometry": {"coordinates": [8.533275, 47.37027], "type": "Point"}, "properties": {"charge": 42, "id": "bird_013e5d5d-0747-4dfe-acae-e5ccb0c74510", "provider": "bird", "timeStamp": "03/31/2020, 16:08:59"}, "type": "Feature"}, {"geometry": {"coordinates": [8.52735666666667, 47.3701933333333], "type": "Point"}, "properties": {"charge": 39, "id": "bird_0d45416e-9cb1-4a33-ac61-1dc7114f4e4a", "provider": "bird", "timeStamp": "03/31/2020, 16:08:59"}, "type": "Feature"}, {"geometry": {"coordinates": [8.52367166666667, 47.37101], "type": "Point"}, "properties": {"charge": 73, "id": "bird_2a6aee69-0cf6-4920-a190-ff92121eb088", "provider": "bird", "timeStamp": "03/31/2020, 16:08:59"}, "type": "Feature"}, {"geometry": {"coordinates": [8.52367833333333, 47.3710366666667], "type": "Point"}, "properties": {"charge": 61, "id": "bird_7a9e5954-0034-4a4f-a9ec-676d2e9f64cd", "provider": "bird", "timeStamp": "03/31/2020, 16:08:59"}, "type": "Feature"}, {"geometry": {"coordinates": [8.54447333333333, 47.3816116666667], "type": "Point"}, "properties": {"charge": 34, "id": "bird_e1c83e61-a54b-485d-b253-a2073ccac334", "provider": "bird", "timeStamp": "03/31/2020, 16:08:59"}, "type": "Feature"}, {"geometry": {"coordinates": [8.52301833333333, 47.37127], "type": "Point"}, "properties": {"charge": 75, "id": "bird_9783d46a-90dd-4879-ac1b-0ea5c3625a2f", "provider": "bird", "timeStamp": "03/31/2020, 16:08:59"}, "type": "Feature"}, {"geometry": {"coordinates": [8.54069, 47.3867916666667], "type": "Point"}, "properties": {"charge": 18, "id": "bird_eb9f12f1-0c49-4b55-b131-8b2fe2960b80", "provider": "bird", "timeStamp": "03/31/2020, 16:08:59"}, "type": "Feature"}, {"geometry": {"coordinates": [8.52305, 47.37128], "type": "Point"}, "properties": {"charge": 73, "id": "bird_9cff4a04-73ee-404f-ac97-388880b23797", "provider": "bird", "timeStamp": "03/31/2020, 16:08:59"}, "type": "Feature"}, {"geometry": {"coordinates": [8.523445, 47.37117], "type": "Point"}, "properties": {"charge": 75, "id": "bird_03c91547-45dc-4b4c-8126-d5824eb9a222", "provider": "bird", "timeStamp": "03/31/2020, 16:08:59"}, "type": "Feature"}, {"geometry": {"coordinates": [8.517695, 47.3852583333333], "type": "Point"}, "properties": {"charge": 80, "id": "bird_b03e71bb-6529-4c46-8b26-418061ce1875", "provider": "bird", "timeStamp": "03/31/2020, 16:08:59"}, "type": "Feature"}, {"geometry": {"coordinates": [8.518365, 47.3858916666667], "type": "Point"}, "properties": {"charge": 73, "id": "bird_e78fe023-a201-4a8e-a6bf-d03c6e87ff33", "provider": "bird", "timeStamp": "03/31/2020, 16:08:59"}, "type": "Feature"}, {"geometry": {"coordinates": [8.51767166666667, 47.3851966666667], "type": "Point"}, "properties": {"charge": 84, "id": "bird_1bf300c5-1c8b-4468-aaa8-2a1fe0df268e", "provider": "bird", "timeStamp": "03/31/2020, 16:08:59"}, "type": "Feature"}, {"geometry": {"coordinates": [8.52396, 47.3712433333333], "type": "Point"}, "properties": {"charge": 47, "id": "bird_3da2300a-8f60-4188-9e32-91715b7b8f4a", "provider": "bird", "timeStamp": "03/31/2020, 16:08:59"}, "type": "Feature"}, {"geometry": {"coordinates": [8.51799, 47.374825], "type": "Point"}, "properties": {"charge": 16, "id": "bird_8d9f9861-e697-4824-9878-4a4b422e001e", "provider": "bird", "timeStamp": "03/31/2020, 16:08:59"}, "type": "Feature"}, {"geometry": {"coordinates": [8.53966, 47.372925], "type": "Point"}, "properties": {"charge": 89, "id": "bird_f4ac256f-4b65-436c-aae2-a7206fc51cf8", "provider": "bird", "timeStamp": "03/31/2020, 16:08:59"}, "type": "Feature"}, {"geometry": {"coordinates": [8.51802833333333, 47.3748283333333], "type": "Point"}, "properties": {"charge": 40, "id": "bird_b5268884-cf66-42a4-82c6-6c13f7fb5b05", "provider": "bird", "timeStamp": "03/31/2020, 16:08:59"}, "type": "Feature"}, {"geometry": {"coordinates": [8.53960833333333, 47.3729433333333], "type": "Point"}, "properties": {"charge": 93, "id": "bird_69020a5d-ba34-480e-8146-94b2e8ce8cc7", "provider": "bird", "timeStamp": "03/31/2020, 16:08:59"}, "type": "Feature"}, {"geometry": {"coordinates": [8.52217666666667, 47.3720783333333], "type": "Point"}, "properties": {"charge": 62, "id": "bird_328ba563-70c4-478b-9875-5e34ecb99b1a", "provider": "bird", "timeStamp": "03/31/2020, 16:08:59"}, "type": "Feature"}, {"geometry": {"coordinates": [8.51633666666667, 47.37777], "type": "Point"}, "properties": {"charge": 40, "id": "bird_c6aff10b-7313-454d-8576-15bd970ed6c9", "provider": "bird", "timeStamp": "03/31/2020, 16:08:59"}, "type": "Feature"}, {"geometry": {"coordinates": [8.51600833333333, 47.3797766666667], "type": "Point"}, "properties": {"charge": 31, "id": "bird_9fd11955-f883-495a-88ad-2d7b233c4481", "provider": "bird", "timeStamp": "03/31/2020, 16:08:59"}, "type": "Feature"}, {"geometry": {"coordinates": [8.54083166666667, 47.37413], "type": "Point"}, "properties": {"charge": 55, "id": "bird_e30d06dc-36cd-414a-9f6f-241b5c0332a8", "provider": "bird", "timeStamp": "03/31/2020, 16:08:59"}, "type": "Feature"}, {"geometry": {"coordinates": [8.53760833333333, 47.3721466666667], "type": "Point"}, "properties": {"charge": 84, "id": "bird_6b82ddbd-8645-4391-8008-eea3adea844c", "provider": "bird", "timeStamp": "03/31/2020, 16:08:59"}, "type": "Feature"}, {"geometry": {"coordinates": [8.54079666666667, 47.3741566666667], "type": "Point"}, "properties": {"charge": 92, "id": "bird_01fc74e2-2aed-455b-ac49-aa547b51850d", "provider": "bird", "timeStamp": "03/31/2020, 16:08:59"}, "type": "Feature"}, {"geometry": {"coordinates": [8.52280333333333, 47.3879816666667], "type": "Point"}, "properties": {"charge": 33, "id": "bird_321adf8b-b5d6-4be2-a2bc-7180373318cf", "provider": "bird", "timeStamp": "03/31/2020, 16:08:59"}, "type": "Feature"}, {"geometry": {"coordinates": [8.5378, 47.37231], "type": "Point"}, "properties": {"charge": 91, "id": "bird_c483a7cf-57ea-4105-b128-8fbdd1508529", "provider": "bird", "timeStamp": "03/31/2020, 16:08:59"}, "type": "Feature"}, {"geometry": {"coordinates": [8.53756166666667, 47.3722033333333], "type": "Point"}, "properties": {"charge": 88, "id": "bird_40e91e92-3290-403b-8169-84a47c58692e", "provider": "bird", "timeStamp": "03/31/2020, 16:08:59"}, "type": "Feature"}, {"geometry": {"coordinates": [8.516235, 47.3796766666667], "type": "Point"}, "properties": {"charge": 62, "id": "bird_9cd20308-3b03-4ec7-9d23-9ca7acbef018", "provider": "bird", "timeStamp": "03/31/2020, 16:08:59"}, "type": "Feature"}, {"geometry": {"coordinates": [8.52608833333333, 47.37109], "type": "Point"}, "properties": {"charge": 76, "id": "bird_837ec593-c49c-4d2d-9a09-68e11e78cb29", "provider": "bird", "timeStamp": "03/31/2020, 16:08:59"}, "type": "Feature"}, {"geometry": {"coordinates": [8.51634833333333, 47.379555], "type": "Point"}, "properties": {"charge": 72, "id": "bird_e5e62993-5341-4acb-9b27-1da112172508", "provider": "bird", "timeStamp": "03/31/2020, 16:08:59"}, "type": "Feature"}, {"geometry": {"coordinates": [8.51668333333333, 47.3818816666667], "type": "Point"}, "properties": {"charge": 46, "id": "bird_8b296e5e-b776-459f-8fab-433c0c826e86", "provider": "bird", "timeStamp": "03/31/2020, 16:08:59"}, "type": "Feature"}, {"geometry": {"coordinates": [8.51680333333333, 47.3783833333333], "type": "Point"}, "properties": {"charge": 18, "id": "bird_e1037718-8733-4847-9874-8ea28ea80808", "provider": "bird", "timeStamp": "03/31/2020, 16:08:59"}, "type": "Feature"}, {"geometry": {"coordinates": [8.53639666666667, 47.3879816666667], "type": "Point"}, "properties": {"charge": 26, "id": "bird_6511a691-328b-43de-9876-b9304fc3c487", "provider": "bird", "timeStamp": "03/31/2020, 16:08:59"}, "type": "Feature"}, {"geometry": {"coordinates": [8.54211833333333, 47.3837966666667], "type": "Point"}, "properties": {"charge": 36, "id": "bird_eed4c661-1a55-4e00-b70d-757cba8c7dfa", "provider": "bird", "timeStamp": "03/31/2020, 16:08:59"}, "type": "Feature"}, {"geometry": {"coordinates": [8.51795333333333, 47.376205], "type": "Point"}, "properties": {"charge": 11, "id": "bird_e9450805-a0ce-48a9-ab0d-64c0b99e5de9", "provider": "bird", "timeStamp": "03/31/2020, 16:08:59"}, "type": "Feature"}, {"geometry": {"coordinates": [8.51810333333333, 47.3761066666667], "type": "Point"}, "properties": {"charge": 29, "id": "bird_a76e65ee-0732-4f29-8d03-46162a5df7e8", "provider": "bird", "timeStamp": "03/31/2020, 16:08:59"}, "type": "Feature"}, {"geometry": {"coordinates": [8.53904, 47.373485], "type": "Point"}, "properties": {"charge": 96, "id": "bird_e402f455-4286-49e6-8e41-cc4dfaf45eb9", "provider": "bird", "timeStamp": "03/31/2020, 16:08:59"}, "type": "Feature"}, {"geometry": {"coordinates": [8.53329833333333, 47.3886216666667], "type": "Point"}, "properties": {"charge": 22, "id": "bird_ab6e7f62-84a0-49ad-add3-068c43545790", "provider": "bird", "timeStamp": "03/31/2020, 16:08:59"}, "type": "Feature"}, {"geometry": {"coordinates": [8.51688166666667, 47.3795666666667], "type": "Point"}, "properties": {"charge": 30, "id": "bird_75ddd1b6-4f62-4b53-af1e-3024df44ec9a", "provider": "bird", "timeStamp": "03/31/2020, 16:08:59"}, "type": "Feature"}, {"geometry": {"coordinates": [8.54020333333333, 47.37444], "type": "Point"}, "properties": {"charge": 98, "id": "bird_7ac2f5c7-c362-4092-86d8-a49cecd5fac8", "provider": "bird", "timeStamp": "03/31/2020, 16:08:59"}, "type": "Feature"}, {"geometry": {"coordinates": [8.52988166666667, 47.37117], "type": "Point"}, "properties": {"charge": 38, "id": "bird_a4103e75-a569-490e-87bc-1f91686b6e45", "provider": "bird", "timeStamp": "03/31/2020, 16:08:59"}, "type": "Feature"}, {"geometry": {"coordinates": [8.53006833333333, 47.3712233333333], "type": "Point"}, "properties": {"charge": 65, "id": "bird_0bf91c9c-020c-4b27-8467-24621ba88fa3", "provider": "bird", "timeStamp": "03/31/2020, 16:08:59"}, "type": "Feature"}, {"geometry": {"coordinates": [8.52652666666667, 47.388385], "type": "Point"}, "properties": {"charge": 31, "id": "bird_a7bbfc65-f5b0-4796-849d-8f56dcc71c1f", "provider": "bird", "timeStamp": "03/31/2020, 16:08:59"}, "type": "Feature"}, {"geometry": {"coordinates": [8.517945, 47.3773033333333], "type": "Point"}, "properties": {"charge": 43, "id": "bird_548515f0-b167-4324-b327-85d7dc62586b", "provider": "bird", "timeStamp": "03/31/2020, 16:08:59"}, "type": "Feature"}, {"geometry": {"coordinates": [8.53501666666667, 47.3721816666667], "type": "Point"}, "properties": {"charge": 82, "id": "bird_dde9ce4f-da8f-4c5b-ac82-ff310fc91318", "provider": "bird", "timeStamp": "03/31/2020, 16:08:59"}, "type": "Feature"}, {"geometry": {"coordinates": [8.524545, 47.3876533333333], "type": "Point"}, "properties": {"charge": 61, "id": "bird_a83e4c11-356e-4c3c-906c-613d08150387", "provider": "bird", "timeStamp": "03/31/2020, 16:08:59"}, "type": "Feature"}, {"geometry": {"coordinates": [8.517505, 47.3792716666667], "type": "Point"}, "properties": {"charge": 62, "id": "bird_cce8aefa-34dc-40e6-9fae-ea282714d96c", "provider": "bird", "timeStamp": "03/31/2020, 16:08:59"}, "type": "Feature"}, {"geometry": {"coordinates": [8.53712833333333, 47.3730583333333], "type": "Point"}, "properties": {"charge": 97, "id": "bird_1bdaf9eb-45bc-4efe-a83e-c0900edcaf2d", "provider": "bird", "timeStamp": "03/31/2020, 16:08:59"}, "type": "Feature"}, {"geometry": {"coordinates": [8.53716833333333, 47.3731533333333], "type": "Point"}, "properties": {"charge": 96, "id": "bird_911d8c40-32e8-41a8-a8ef-5102d5ca6229", "provider": "bird", "timeStamp": "03/31/2020, 16:08:59"}, "type": "Feature"}, {"geometry": {"coordinates": [8.53695333333333, 47.3730733333333], "type": "Point"}, "properties": {"charge": 100, "id": "bird_c11ccf90-8ace-49e2-a6bc-92e188b928f9", "provider": "bird", "timeStamp": "03/31/2020, 16:08:59"}, "type": "Feature"}, {"geometry": {"coordinates": [8.53680833333333, 47.3730583333333], "type": "Point"}, "properties": {"charge": 82, "id": "bird_3c892ae0-b57b-4b74-9b12-25ad4780ca32", "provider": "bird", "timeStamp": "03/31/2020, 16:08:59"}, "type": "Feature"}, {"geometry": {"coordinates": [8.535435, 47.3725316666667], "type": "Point"}, "properties": {"charge": 94, "id": "bird_be10e56f-2536-4018-b370-f4bfddb791dc", "provider": "bird", "timeStamp": "03/31/2020, 16:08:59"}, "type": "Feature"}, {"geometry": {"coordinates": [8.53594666666667, 47.3727266666667], "type": "Point"}, "properties": {"charge": 42, "id": "bird_5b8a4113-318b-4521-909d-6fefa205704a", "provider": "bird", "timeStamp": "03/31/2020, 16:08:59"}, "type": "Feature"}, {"geometry": {"coordinates": [8.53671166666667, 47.3730816666667], "type": "Point"}, "properties": {"charge": 100, "id": "bird_19961b40-11d6-4c10-ab27-126c12b8363b", "provider": "bird", "timeStamp": "03/31/2020, 16:08:59"}, "type": "Feature"}, {"geometry": {"coordinates": [8.53670833333333, 47.3730966666667], "type": "Point"}, "properties": {"charge": 100, "id": "bird_b1f005ca-6c7a-44f8-be0f-b43fe523c552", "provider": "bird", "timeStamp": "03/31/2020, 16:08:59"}, "type": "Feature"}, {"geometry": {"coordinates": [8.52340666666667, 47.3869516666667], "type": "Point"}, "properties": {"charge": 82, "id": "bird_5510181a-e6b0-48a6-8ffa-7a67e274b544", "provider": "bird", "timeStamp": "03/31/2020, 16:08:59"}, "type": "Feature"}, {"geometry": {"coordinates": [8.53543833333333, 47.372605], "type": "Point"}, "properties": {"charge": 93, "id": "bird_5f57f8a0-c948-46b8-bbf7-fb102c5a7221", "provider": "bird", "timeStamp": "03/31/2020, 16:08:59"}, "type": "Feature"}, {"geometry": {"coordinates": [8.52045166666667, 47.3748633333333], "type": "Point"}, "properties": {"charge": 11, "id": "bird_e7d29b49-e8b9-4095-851d-bf045b40f31e", "provider": "bird", "timeStamp": "03/31/2020, 16:08:59"}, "type": "Feature"}, {"geometry": {"coordinates": [8.53635666666667, 47.372955], "type": "Point"}, "properties": {"charge": 89, "id": "bird_37b810e5-c647-4c8e-93aa-ff8db5b983d9", "provider": "bird", "timeStamp": "03/31/2020, 16:08:59"}, "type": "Feature"}, {"geometry": {"coordinates": [8.54063166666667, 47.3759766666667], "type": "Point"}, "properties": {"charge": 97, "id": "bird_1b324bd6-f524-441a-8c65-49cef9cb0954", "provider": "bird", "timeStamp": "03/31/2020, 16:08:59"}, "type": "Feature"}, {"geometry": {"coordinates": [8.53443666666667, 47.3723266666667], "type": "Point"}, "properties": {"charge": 80, "id": "bird_311a721c-9762-4ee5-804d-942de9a97ce8", "provider": "bird", "timeStamp": "03/31/2020, 16:08:59"}, "type": "Feature"}, {"geometry": {"coordinates": [8.54059833333333, 47.3760033333333], "type": "Point"}, "properties": {"charge": 98, "id": "bird_ddd90a20-9680-4b42-96d7-abc7ba5d4304", "provider": "bird", "timeStamp": "03/31/2020, 16:08:59"}, "type": "Feature"}, {"geometry": {"coordinates": [8.53472666666667, 47.3724366666667], "type": "Point"}, "properties": {"charge": 80, "id": "bird_6202f0b4-eba1-4634-92f6-2a7fe47e9e4e", "provider": "bird", "timeStamp": "03/31/2020, 16:08:59"}, "type": "Feature"}, {"geometry": {"coordinates": [8.536405, 47.3730616666667], "type": "Point"}, "properties": {"charge": 92, "id": "bird_8ec56f26-0f90-48ae-b051-698b2f2c8866", "provider": "bird", "timeStamp": "03/31/2020, 16:08:59"}, "type": "Feature"}, {"geometry": {"coordinates": [8.534605, 47.3724666666667], "type": "Point"}, "properties": {"charge": 75, "id": "bird_31b945b2-1858-40a3-8829-9abd54c7d6fa", "provider": "bird", "timeStamp": "03/31/2020, 16:08:59"}, "type": "Feature"}, {"geometry": {"coordinates": [8.5411, 47.38295], "type": "Point"}, "properties": {"charge": 19, "id": "bird_eb8fc8e1-4431-49df-9ba8-af004d6899cb", "provider": "bird", "timeStamp": "03/31/2020, 16:08:59"}, "type": "Feature"}, {"geometry": {"coordinates": [8.53536, 47.372795], "type": "Point"}, "properties": {"charge": 84, "id": "bird_8927c12c-4582-4391-b19f-02e175214495", "provider": "bird", "timeStamp": "03/31/2020, 16:08:59"}, "type": "Feature"}, {"geometry": {"coordinates": [8.54162666666667, 47.3817216666667], "type": "Point"}, "properties": {"charge": 70, "id": "bird_dc7151e5-e04e-4158-83bf-74217495a5d5", "provider": "bird", "timeStamp": "03/31/2020, 16:08:59"}, "type": "Feature"}, {"geometry": {"coordinates": [8.52344, 47.373325], "type": "Point"}, "properties": {"charge": 65, "id": "bird_4ac9eb8d-0f46-41eb-a67b-0b30dcfa048c", "provider": "bird", "timeStamp": "03/31/2020, 16:08:59"}, "type": "Feature"}, {"geometry": {"coordinates": [8.52447166666667, 47.3869633333333], "type": "Point"}, "properties": {"charge": 42, "id": "bird_dfb73169-ee98-4fba-9762-29e438510506", "provider": "bird", "timeStamp": "03/31/2020, 16:08:59"}, "type": "Feature"}, {"geometry": {"coordinates": [8.53449, 47.37276], "type": "Point"}, "properties": {"charge": 78, "id": "bird_726248bd-a627-4e5a-b41e-10ea5c7dba30", "provider": "bird", "timeStamp": "03/31/2020, 16:08:59"}, "type": "Feature"}, {"geometry": {"coordinates": [8.52168333333333, 47.3745616666667], "type": "Point"}, "properties": {"charge": 17, "id": "bird_75688ed4-4917-4dab-97b1-b771cd227ba8", "provider": "bird", "timeStamp": "03/31/2020, 16:08:59"}, "type": "Feature"}, {"geometry": {"coordinates": [8.520045, 47.3760333333333], "type": "Point"}, "properties": {"charge": 51, "id": "bird_4367ca47-a5fc-443a-b3f8-5149bf113b66", "provider": "bird", "timeStamp": "03/31/2020, 16:08:59"}, "type": "Feature"}, {"geometry": {"coordinates": [8.53458833333333, 47.372825], "type": "Point"}, "properties": {"charge": 82, "id": "bird_35d29a93-2b76-4f1d-90ab-427a87866f8c", "provider": "bird", "timeStamp": "03/31/2020, 16:08:59"}, "type": "Feature"}, {"geometry": {"coordinates": [8.54050833333333, 47.3768583333333], "type": "Point"}, "properties": {"charge": 100, "id": "bird_a53b6520-c413-411d-bef0-c10edf177d5c", "provider": "bird", "timeStamp": "03/31/2020, 16:08:59"}, "type": "Feature"}, {"geometry": {"coordinates": [8.54051833333333, 47.3768916666667], "type": "Point"}, "properties": {"charge": 63, "id": "bird_0709081f-5711-4108-a284-010a1d0da6a6", "provider": "bird", "timeStamp": "03/31/2020, 16:08:59"}, "type": "Feature"}, {"geometry": {"coordinates": [8.54052333333333, 47.3769833333333], "type": "Point"}, "properties": {"charge": 98, "id": "bird_d2affa8e-80d6-412b-9246-601f23a61078", "provider": "bird", "timeStamp": "03/31/2020, 16:08:59"}, "type": "Feature"}, {"geometry": {"coordinates": [8.52810666666667, 47.3876083333333], "type": "Point"}, "properties": {"charge": 35, "id": "bird_5877755e-fe08-4c74-8468-d276533d8d84", "provider": "bird", "timeStamp": "03/31/2020, 16:08:59"}, "type": "Feature"}, {"geometry": {"coordinates": [8.53886, 47.384845], "type": "Point"}, "properties": {"charge": 69, "id": "bird_e2776a70-7cf0-4b87-8cdc-4eaf2bf5e18c", "provider": "bird", "timeStamp": "03/31/2020, 16:08:59"}, "type": "Feature"}, {"geometry": {"coordinates": [8.52809166666667, 47.3876], "type": "Point"}, "properties": {"charge": 48, "id": "bird_005467ea-a14d-4265-bfd5-1c483ab5eaaa", "provider": "bird", "timeStamp": "03/31/2020, 16:08:59"}, "type": "Feature"}, {"geometry": {"coordinates": [8.518675, 47.3804633333333], "type": "Point"}, "properties": {"charge": 60, "id": "bird_dd95856d-b384-4a80-b133-e93910e8eda4", "provider": "bird", "timeStamp": "03/31/2020, 16:08:59"}, "type": "Feature"}, {"geometry": {"coordinates": [8.54039833333333, 47.37693], "type": "Point"}, "properties": {"charge": 100, "id": "bird_0cf8bc3d-19b2-4e7f-816f-75d1c1c9c904", "provider": "bird", "timeStamp": "03/31/2020, 16:08:59"}, "type": "Feature"}, {"geometry": {"coordinates": [8.54038833333333, 47.376965], "type": "Point"}, "properties": {"charge": 100, "id": "bird_2055f6b1-09cf-43f5-9780-3059419061ca", "provider": "bird", "timeStamp": "03/31/2020, 16:08:59"}, "type": "Feature"}, {"geometry": {"coordinates": [8.52576833333333, 47.372925], "type": "Point"}, "properties": {"charge": 69, "id": "bird_6f477ed5-9da6-4479-a24a-4f9bcbdde736", "provider": "bird", "timeStamp": "03/31/2020, 16:08:59"}, "type": "Feature"}, {"geometry": {"coordinates": [8.52588, 47.37297], "type": "Point"}, "properties": {"charge": 79, "id": "bird_9ca485e8-4be9-4f16-a4d5-768780309457", "provider": "bird", "timeStamp": "03/31/2020, 16:08:59"}, "type": "Feature"}, {"geometry": {"coordinates": [8.53602, 47.3737533333333], "type": "Point"}, "properties": {"charge": 93, "id": "bird_ce718374-766c-4567-82b5-64adee7e82a8", "provider": "bird", "timeStamp": "03/31/2020, 16:08:59"}, "type": "Feature"}, {"geometry": {"coordinates": [8.53600333333333, 47.3737716666667], "type": "Point"}, "properties": {"charge": 92, "id": "bird_2963f0e4-5bc1-44fd-a391-9d59e7488cab", "provider": "bird", "timeStamp": "03/31/2020, 16:08:59"}, "type": "Feature"}, {"geometry": {"coordinates": [8.52803, 47.3872866666667], "type": "Point"}, "properties": {"charge": 72, "id": "bird_8c374a91-47dd-4d53-9dce-368e01228868", "provider": "bird", "timeStamp": "03/31/2020, 16:08:59"}, "type": "Feature"}, {"geometry": {"coordinates": [8.53476333333333, 47.3733666666667], "type": "Point"}, "properties": {"charge": 11, "id": "bird_d1d1f6cf-5419-4718-bf53-20700e7fd0df", "provider": "bird", "timeStamp": "03/31/2020, 16:08:59"}, "type": "Feature"}, {"geometry": {"coordinates": [8.53476333333333, 47.3733783333333], "type": "Point"}, "properties": {"charge": 24, "id": "bird_050031e1-588d-439b-bedc-f6c7a1f1ceee", "provider": "bird", "timeStamp": "03/31/2020, 16:08:59"}, "type": "Feature"}, {"geometry": {"coordinates": [8.534725, 47.37339], "type": "Point"}, "properties": {"charge": 16, "id": "bird_2529ab66-e107-49b4-80e7-935ffbc8d518", "provider": "bird", "timeStamp": "03/31/2020, 16:08:59"}, "type": "Feature"}, {"geometry": {"coordinates": [8.53472666666667, 47.3733933333333], "type": "Point"}, "properties": {"charge": 21, "id": "bird_8286efbe-c01e-4ba9-b15a-794793bb73bf", "provider": "bird", "timeStamp": "03/31/2020, 16:08:59"}, "type": "Feature"}, {"geometry": {"coordinates": [8.53472833333333, 47.3734016666667], "type": "Point"}, "properties": {"charge": 26, "id": "bird_ab42161a-b719-419c-a8c3-044532e3fcd9", "provider": "bird", "timeStamp": "03/31/2020, 16:08:59"}, "type": "Feature"}, {"geometry": {"coordinates": [8.53717666666667, 47.3745083333333], "type": "Point"}, "properties": {"charge": 61, "id": "bird_c624bea4-0871-40b8-b0c8-daaa0f9bc8de", "provider": "bird", "timeStamp": "03/31/2020, 16:08:59"}, "type": "Feature"}, {"geometry": {"coordinates": [8.534715, 47.3734016666667], "type": "Point"}, "properties": {"charge": 28, "id": "bird_034898ed-40d0-43cf-8d49-963bff260fdd", "provider": "bird", "timeStamp": "03/31/2020, 16:08:59"}, "type": "Feature"}, {"geometry": {"coordinates": [8.53471333333333, 47.3734133333333], "type": "Point"}, "properties": {"charge": 28, "id": "bird_a739578a-9561-45af-a4ea-a5cbe11ff367", "provider": "bird", "timeStamp": "03/31/2020, 16:08:59"}, "type": "Feature"}, {"geometry": {"coordinates": [8.530185, 47.3728416666667], "type": "Point"}, "properties": {"charge": 52, "id": "bird_d9c50e80-f32b-4f3b-a62c-909cb4e485fc", "provider": "bird", "timeStamp": "03/31/2020, 16:08:59"}, "type": "Feature"}, {"geometry": {"coordinates": [8.53319166666667, 47.3732416666667], "type": "Point"}, "properties": {"charge": 82, "id": "bird_49809555-7d74-4ff1-a1b0-f32ff0d2b61c", "provider": "bird", "timeStamp": "03/31/2020, 16:08:59"}, "type": "Feature"}, {"geometry": {"coordinates": [8.52034333333333, 47.3780366666667], "type": "Point"}, "properties": {"charge": 64, "id": "bird_46adec15-4332-4fea-8165-5978e54c0309", "provider": "bird", "timeStamp": "03/31/2020, 16:08:59"}, "type": "Feature"}, {"geometry": {"coordinates": [8.53909666666667, 47.377105], "type": "Point"}, "properties": {"charge": 40, "id": "bird_33340510-448e-4849-8ff4-25b8149b123f", "provider": "bird", "timeStamp": "03/31/2020, 16:08:59"}, "type": "Feature"}, {"geometry": {"coordinates": [8.53908666666667, 47.377125], "type": "Point"}, "properties": {"charge": 70, "id": "bird_b7fc4cb7-66cf-41e3-97e3-f5aff1f74ca0", "provider": "bird", "timeStamp": "03/31/2020, 16:08:59"}, "type": "Feature"}, {"geometry": {"coordinates": [8.52569166666667, 47.37397], "type": "Point"}, "properties": {"charge": 40, "id": "bird_707ed481-b514-4ab9-9665-0e98e6c19117", "provider": "bird", "timeStamp": "03/31/2020, 16:08:59"}, "type": "Feature"}, {"geometry": {"coordinates": [8.52355666666667, 47.3750266666667], "type": "Point"}, "properties": {"charge": 71, "id": "bird_f02671c0-6346-4400-b85c-d61119aedfaf", "provider": "bird", "timeStamp": "03/31/2020, 16:08:59"}, "type": "Feature"}, {"geometry": {"coordinates": [8.53680666666667, 47.3752666666667], "type": "Point"}, "properties": {"charge": 82, "id": "bird_ece29501-cb3f-4ef2-9f42-81013c3d934f", "provider": "bird", "timeStamp": "03/31/2020, 16:08:59"},