{"features": [{"geometry": {"coordinates": [8.540062, 47.374392], "type": "Point"}, "properties": {"address": "Uraniastrasse 7", "electric": 8, "id": "pb_60", "manual": 8, "name": "Demo Station Werdm\u00fchleplatz", "provider": "publibike", "timeStamp": "01/28/2020, 17:09:06", "zip": 8001}, "type": "Feature"}, {"geometry": {"coordinates": [8.5452956, 47.4099615], "type": "Point"}, "properties": {"address": "Querstrasse 8", "electric": 0, "id": "pb_61", "manual": 1, "name": "Marktplatz", "provider": "publibike", "timeStamp": "01/28/2020, 17:09:06", "zip": 8050}, "type": "Feature"}, {"geometry": {"coordinates": [8.5156327, 47.3795837], "type": "Point"}, "properties": {"address": "Bullingerstrasse 5", "electric": 1, "id": "pb_80", "manual": 8, "name": "Bullingerplatz", "provider": "publibike", "timeStamp": "01/28/2020, 17:09:06", "zip": 8004}, "type": "Feature"}, {"geometry": {"coordinates": [8.5104051, 47.3899342], "type": "Point"}, "properties": {"address": "Pfingstweidstrasse 96e", "electric": 0, "id": "pb_81", "manual": 4, "name": "Herdern", "provider": "publibike", "timeStamp": "01/28/2020, 17:09:06", "zip": 8001}, "type": "Feature"}, {"geometry": {"coordinates": [8.535718, 47.359675], "type": "Point"}, "properties": {"address": "Mythenquai 50", "electric": 8, "id": "pb_82", "manual": 5, "name": "Hafen Enge", "provider": "publibike", "timeStamp": "01/28/2020, 17:09:06", "zip": 8002}, "type": "Feature"}, {"geometry": {"coordinates": [8.520370505, 47.358663827], "type": "Point"}, "properties": {"address": "Bubenbergstrasse 1", "electric": 5, "id": "pb_83", "manual": 1, "name": "Comerge", "provider": "publibike", "timeStamp": "01/28/2020, 17:09:06", "zip": 8045}, "type": "Feature"}, {"geometry": {"coordinates": [8.5412505, 47.3789825], "type": "Point"}, "properties": {"address": "Museumstrasse 2", "electric": 12, "id": "pb_84", "manual": 29, "name": "Landesmuseum", "provider": "publibike", "timeStamp": "01/28/2020, 17:09:06", "zip": 8001}, "type": "Feature"}, {"geometry": {"coordinates": [8.5235479, 47.3716661], "type": "Point"}, "properties": {"address": "Birmensdorferstrasse 80", "electric": 2, "id": "pb_85", "manual": 4, "name": "Bahnhof Wiedikon", "provider": "publibike", "timeStamp": "01/28/2020, 17:09:06", "zip": 8003}, "type": "Feature"}, {"geometry": {"coordinates": [8.506822854, 47.40781197], "type": "Point"}, "properties": {"address": "Stefano-Franscini-Platz 5", "electric": 0, "id": "pb_86", "manual": 0, "name": "ETH H\u00f6nggerberg", "provider": "publibike", "timeStamp": "01/28/2020, 17:09:06", "zip": 8093}, "type": "Feature"}, {"geometry": {"coordinates": [8.536101, 47.371083], "type": "Point"}, "properties": {"address": "Pelikanplatz 5", "electric": 7, "id": "pb_87", "manual": 1, "name": "Pelikanplatz", "provider": "publibike", "timeStamp": "01/28/2020, 17:09:06", "zip": 8001}, "type": "Feature"}, {"geometry": {"coordinates": [8.5257822, 47.3651936], "type": "Point"}, "properties": {"address": "H\u00fcrlimannplatz 90", "electric": 13, "id": "pb_88", "manual": 6, "name": "H\u00fcrlimannplatz", "provider": "publibike", "timeStamp": "01/28/2020, 17:09:06", "zip": 8002}, "type": "Feature"}, {"geometry": {"coordinates": [8.5313344, 47.3713591], "type": "Point"}, "properties": {"address": "Selnaustrasse 32", "electric": 7, "id": "pb_89", "manual": 3, "name": "Stauffacherbr\u00fccke", "provider": "publibike", "timeStamp": "01/28/2020, 17:09:06", "zip": 8001}, "type": "Feature"}, {"geometry": {"coordinates": [8.5056978, 47.3917964], "type": "Point"}, "properties": {"address": "Sportweg 25", "electric": 5, "id": "pb_90", "manual": 3, "name": "Sportweg", "provider": "publibike", "timeStamp": "01/28/2020, 17:09:06", "zip": 8005}, "type": "Feature"}, {"geometry": {"coordinates": [8.5181701, 47.3917837], "type": "Point"}, "properties": {"address": "Hardturmstrasse 11", "electric": 1, "id": "pb_91", "manual": 7, "name": "Puls 5", "provider": "publibike", "timeStamp": "01/28/2020, 17:09:06", "zip": 8005}, "type": "Feature"}, {"geometry": {"coordinates": [8.5286468, 47.3820827], "type": "Point"}, "properties": {"address": "R\u00f6ntgenstrasse 6", "electric": 3, "id": "pb_92", "manual": 4, "name": "R\u00f6ntgenstrasse", "provider": "publibike", "timeStamp": "01/28/2020, 17:09:06", "zip": 8005}, "type": "Feature"}, {"geometry": {"coordinates": [8.531935, 47.384918], "type": "Point"}, "properties": {"address": "Kornhausbr\u00fccke 1", "electric": 3, "id": "pb_93", "manual": 6, "name": "Limmatplatz", "provider": "publibike", "timeStamp": "01/28/2020, 17:09:06", "zip": 8005}, "type": "Feature"}, {"geometry": {"coordinates": [8.5354006, 47.3758639], "type": "Point"}, "properties": {"address": "Gessnerallee 15", "electric": 0, "id": "pb_94", "manual": 7, "name": "Gessnerallee", "provider": "publibike", "timeStamp": "01/28/2020, 17:09:06", "zip": 8001}, "type": "Feature"}, {"geometry": {"coordinates": [8.523818, 47.377148], "type": "Point"}, "properties": {"address": "Stauffacherstrasse 127", "electric": 7, "id": "pb_95", "manual": 6, "name": "B\u00e4ckeranlage", "provider": "publibike", "timeStamp": "01/28/2020, 17:09:06", "zip": 8004}, "type": "Feature"}, {"geometry": {"coordinates": [8.531836, 47.378548], "type": "Point"}, "properties": {"address": "Lagerstrasse 44", "electric": 6, "id": "pb_96", "manual": 10, "name": "Gustav-Gull-Platz", "provider": "publibike", "timeStamp": "01/28/2020, 17:09:06", "zip": 8004}, "type": "Feature"}, {"geometry": {"coordinates": [8.5104883, 47.3771535], "type": "Point"}, "properties": {"address": "Zurlindenstrasse 291", "electric": 2, "id": "pb_97", "manual": 5, "name": "Zurlindenstrasse", "provider": "publibike", "timeStamp": "01/28/2020, 17:09:06", "zip": 8003}, "type": "Feature"}, {"geometry": {"coordinates": [8.5333139, 47.3731102], "type": "Point"}, "properties": {"address": "Sihlstrasse 81", "electric": 2, "id": "pb_98", "manual": 0, "name": "Sihlstrasse", "provider": "publibike", "timeStamp": "01/28/2020, 17:09:06", "zip": 8001}, "type": "Feature"}, {"geometry": {"coordinates": [8.520532, 47.374951], "type": "Point"}, "properties": {"address": "Feldstrasse 24", "electric": 3, "id": "pb_99", "manual": 4, "name": "Kalkbreite", "provider": "publibike", "timeStamp": "01/28/2020, 17:09:06", "zip": 8004}, "type": "Feature"}, {"geometry": {"coordinates": [8.539046, 47.368064], "type": "Point"}, "properties": {"address": "Talstrasse 12", "electric": 2, "id": "pb_100", "manual": 0, "name": "Z\u00fcrcher Kantonalbank", "provider": "publibike", "timeStamp": "01/28/2020, 17:09:06", "zip": 8001}, "type": "Feature"}, {"geometry": {"coordinates": [8.5348427, 47.3625938], "type": "Point"}, "properties": {"address": "Breitingerstrasse 5", "electric": 1, "id": "pb_101", "manual": 4, "name": "Rentenanstalt", "provider": "publibike", "timeStamp": "01/28/2020, 17:09:06", "zip": 8002}, "type": "Feature"}, {"geometry": {"coordinates": [8.5166922, 47.3897772], "type": "Point"}, "properties": {"address": "Technoparkstrasse 4", "electric": 4, "id": "pb_102", "manual": 2, "name": "Turbinenplatz", "provider": "publibike", "timeStamp": "01/28/2020, 17:09:06", "zip": 8005}, "type": "Feature"}, {"geometry": {"coordinates": [8.539312, 47.3739964], "type": "Point"}, "properties": {"address": "Oetenbachgasse 14", "electric": 5, "id": "pb_104", "manual": 9, "name": "Rennweg", "provider": "publibike", "timeStamp": "01/28/2020, 17:09:06", "zip": 8001}, "type": "Feature"}, {"geometry": {"coordinates": [8.5360685, 47.3775022], "type": "Point"}, "properties": {"address": "Kasernenstrasse 101", "electric": 7, "id": "pb_105", "manual": 22, "name": "Sihlpost", "provider": "publibike", "timeStamp": "01/28/2020, 17:09:06", "zip": 8004}, "type": "Feature"}, {"geometry": {"coordinates": [8.53545, 47.382798], "type": "Point"}, "properties": {"address": "Ausstellungsstrasse 44", "electric": 7, "id": "pb_106", "manual": 8, "name": "Museum f\u00fcr Gestaltung", "provider": "publibike", "timeStamp": "01/28/2020, 17:09:06", "zip": 8005}, "type": "Feature"}, {"geometry": {"coordinates": [8.5306155, 47.3647902], "type": "Point"}, "properties": {"address": "Gutenbergstrasse 1", "electric": 10, "id": "pb_107", "manual": 3, "name": "Bederbr\u00fccke", "provider": "publibike", "timeStamp": "01/28/2020, 17:09:06", "zip": 8002}, "type": "Feature"}, {"geometry": {"coordinates": [8.518982, 47.386741], "type": "Point"}, "properties": {"address": "Geroldstrasse 4", "electric": 2, "id": "pb_108", "manual": 6, "name": "Bahnhof Hardbr\u00fccke", "provider": "publibike", "timeStamp": "01/28/2020, 17:09:06", "zip": 8005}, "type": "Feature"}, {"geometry": {"coordinates": [8.53001018, 47.37247535], "type": "Point"}, "properties": {"address": "Werdstrasse 21", "electric": 0, "id": "pb_109", "manual": 0, "name": "Tamedia", "provider": "publibike", "timeStamp": "01/28/2020, 17:09:06", "zip": 8004}, "type": "Feature"}, {"geometry": {"coordinates": [8.4860017, 47.396401], "type": "Point"}, "properties": {"address": "Gr\u00fcnauring 37", "electric": 5, "id": "pb_110", "manual": 6, "name": "Gr\u00fcnau", "provider": "publibike", "timeStamp": "01/28/2020, 17:09:06", "zip": 8064}, "type": "Feature"}, {"geometry": {"coordinates": [8.548519, 47.376756], "type": "Point"}, "properties": {"address": "R\u00e4mistrasse 101", "electric": 17, "id": "pb_111", "manual": 0, "name": "ETH Zentrum", "provider": "publibike", "timeStamp": "01/28/2020, 17:09:06", "zip": 8006}, "type": "Feature"}, {"geometry": {"coordinates": [8.520449, 47.388151], "type": "Point"}, "properties": {"address": "Josefstrasse 224", "electric": 0, "id": "pb_112", "manual": 3, "name": "Steinfelsareal", "provider": "publibike", "timeStamp": "01/28/2020, 17:09:06", "zip": 8005}, "type": "Feature"}, {"geometry": {"coordinates": [8.520482, 47.37209], "type": "Point"}, "properties": {"address": "Weststrasse 115", "electric": 9, "id": "pb_124", "manual": 5, "name": "Weststrasse", "provider": "publibike", "timeStamp": "01/28/2020, 17:09:06", "zip": 8003}, "type": "Feature"}, {"geometry": {"coordinates": [8.496727, 47.378521], "type": "Point"}, "properties": {"address": "Albisriederstrasse 200", "electric": 5, "id": "pb_125", "manual": 0, "name": "Utogrund", "provider": "publibike", "timeStamp": "01/28/2020, 17:09:06", "zip": 8047}, "type": "Feature"}, {"geometry": {"coordinates": [8.510418, 47.381356], "type": "Point"}, "properties": {"address": "Bullingerstrasse 73", "electric": 6, "id": "pb_126", "manual": 1, "name": "Hardau", "provider": "publibike", "timeStamp": "01/28/2020, 17:09:06", "zip": 8004}, "type": "Feature"}, {"geometry": {"coordinates": [8.525525, 47.361567], "type": "Point"}, "properties": {"address": "Klopstockstrasse 23", "electric": 3, "id": "pb_127", "manual": 1, "name": "Klopstockwiese", "provider": "publibike", "timeStamp": "01/28/2020, 17:09:06", "zip": 8002}, "type": "Feature"}, {"geometry": {"coordinates": [8.518143, 47.363148], "type": "Point"}, "properties": {"address": "Haldenstrasse 8", "electric": 6, "id": "pb_128", "manual": 2, "name": "Binz", "provider": "publibike", "timeStamp": "01/28/2020, 17:09:06", "zip": 8045}, "type": "Feature"}, {"geometry": {"coordinates": [8.542726, 47.379952], "type": "Point"}, "properties": {"address": "Walchestrasse 11", "electric": 3, "id": "pb_129", "manual": 1, "name": "Stampfenbachplatz", "provider": "publibike", "timeStamp": "01/28/2020, 17:09:06", "zip": 8006}, "type": "Feature"}, {"geometry": {"coordinates": [8.488108, 47.391366], "type": "Point"}, "properties": {"address": "Altstetterplatz 1", "electric": 6, "id": "pb_130", "manual": 9, "name": "Bahnhof Altstetten", "provider": "publibike", "timeStamp": "01/28/2020, 17:09:06", "zip": 8048}, "type": "Feature"}, {"geometry": {"coordinates": [8.554114, 47.365119], "type": "Point"}, "properties": {"address": "Kreuzplatz 2", "electric": 3, "id": "pb_131", "manual": 4, "name": "Kreuzplatz", "provider": "publibike", "timeStamp": "01/28/2020, 17:09:06", "zip": 8032}, "type": "Feature"}, {"geometry": {"coordinates": [8.549852, 47.35594], "type": "Point"}, "properties": {"address": "H\u00f6schgasse 3", "electric": 3, "id": "pb_132", "manual": 6, "name": "Blatterwiese", "provider": "publibike", "timeStamp": "01/28/2020, 17:09:06", "zip": 8008}, "type": "Feature"}, {"geometry": {"coordinates": [8.554501, 47.36162], "type": "Point"}, "properties": {"address": "Feldeggstrasse 80", "electric": 2, "id": "pb_133", "manual": 3, "name": "Villa Bleuler", "provider": "publibike", "timeStamp": "01/28/2020, 17:09:06", "zip": 8008}, "type": "Feature"}, {"geometry": {"coordinates": [8.557088, 47.358557], "type": "Point"}, "properties": {"address": "M\u00fchlebachstrasse 131", "electric": 4, "id": "pb_134", "manual": 2, "name": "M\u00fchlebachstrasse", "provider": "publibike", "timeStamp": "01/28/2020, 17:09:06", "zip": 8008}, "type": "Feature"}, {"geometry": {"coordinates": [8.547639, 47.361266], "type": "Point"}, "properties": {"address": "Utoquai 50", "electric": 3, "id": "pb_135", "manual": 7, "name": "Seebad Utoquai", "provider": "publibike", "timeStamp": "01/28/2020, 17:09:06", "zip": 8008}, "type": "Feature"}, {"geometry": {"coordinates": [8.548045, 47.370869], "type": "Point"}, "properties": {"address": "Heimplatz 1", "electric": 1, "id": "pb_137", "manual": 0, "name": "Kunsthaus", "provider": "publibike", "timeStamp": "01/28/2020, 17:09:06", "zip": 8001}, "type": "Feature"}, {"geometry": {"coordinates": [8.543447, 47.375933], "type": "Point"}, "properties": {"address": "Limmatquai 138", "electric": 4, "id": "pb_138", "manual": 20, "name": "Central", "provider": "publibike", "timeStamp": "01/28/2020, 17:09:06", "zip": 8001}, "type": "Feature"}, {"geometry": {"coordinates": [8.549356, 47.408827], "type": "Point"}, "properties": {"address": "Tramstrasse 35", "electric": 1, "id": "pb_139", "manual": 4, "name": "ewz Tramstrasse", "provider": "publibike", "timeStamp": "01/28/2020, 17:09:06", "zip": 8050}, "type": "Feature"}, {"geometry": {"coordinates": [8.533736, 47.366904], "type": "Point"}, "properties": {"address": "Bleicherweg 33", "electric": 4, "id": "pb_140", "manual": 3, "name": "Bleicherweg", "provider": "publibike", "timeStamp": "01/28/2020, 17:09:06", "zip": 8002}, "type": "Feature"}, {"geometry": {"coordinates": [8.544935, 47.366752], "type": "Point"}, "properties": {"address": "Bellevueplatz 2", "electric": 25, "id": "pb_141", "manual": 25, "name": "Bellevue", "provider": "publibike", "timeStamp": "01/28/2020, 17:09:06", "zip": 8001}, "type": "Feature"}, {"geometry": {"coordinates": [8.5285533, 47.3742296], "type": "Point"}, "properties": {"address": "Stauffacherstrasse 41", "electric": 0, "id": "pb_142", "manual": 2, "name": "Stauffacher", "provider": "publibike", "timeStamp": "01/28/2020, 17:09:06", "zip": 8004}, "type": "Feature"}, {"geometry": {"coordinates": [8.523722, 47.3899], "type": "Point"}, "properties": {"address": "Limmatstrasse 310", "electric": 2, "id": "pb_143", "manual": 1, "name": "Escher-Wyss-Platz", "provider": "publibike", "timeStamp": "01/28/2020, 17:09:06", "zip": 8005}, "type": "Feature"}, {"geometry": {"coordinates": [8.491061, 47.392336], "type": "Point"}, "properties": {"address": "Vulkanplatz 1", "electric": 7, "id": "pb_149", "manual": 11, "name": "Vulkanplatz", "provider": "publibike", "timeStamp": "01/28/2020, 17:09:06", "zip": 8048}, "type": "Feature"}, {"geometry": {"coordinates": [8.52306, 47.359872], "type": "Point"}, "properties": {"address": "Giessh\u00fcbelstrasse 15", "electric": 13, "id": "pb_150", "manual": 8, "name": "Utoplatz", "provider": "publibike", "timeStamp": "01/28/2020, 17:09:06", "zip": 8045}, "type": "Feature"}, {"geometry": {"coordinates": [8.486284, 47.387685], "type": "Point"}, "properties": {"address": "Lindenplatz 1", "electric": 8, "id": "pb_151", "manual": 8, "name": "Lindenplatz", "provider": "publibike", "timeStamp": "01/28/2020, 17:09:06", "zip": 8048}, "type": "Feature"}, {"geometry": {"coordinates": [8.49163, 47.389823], "type": "Point"}, "properties": {"address": "Hohlstrasse 563", "electric": 5, "id": "pb_152", "manual": 11, "name": "Luggweg", "provider": "publibike", "timeStamp": "01/28/2020, 17:09:06", "zip": 8048}, "type": "Feature"}, {"geometry": {"coordinates": [8.52174, 47.365272], "type": "Point"}, "properties": {"address": "Manessestrasse 87", "electric": 2, "id": "pb_153", "manual": 7, "name": "Manesseplatz", "provider": "publibike", "timeStamp": "01/28/2020, 17:09:06", "zip": 8045}, "type": "Feature"}, {"geometry": {"coordinates": [8.52714, 47.372329], "type": "Point"}, "properties": {"address": "Werdstrasse 75", "electric": 5, "id": "pb_154", "manual": 3, "name": "Werd", "provider": "publibike", "timeStamp": "01/28/2020, 17:09:06", "zip": 8004}, "type": "Feature"}, {"geometry": {"coordinates": [8.543042, 47.374711], "type": "Point"}, "properties": {"address": "Limmatquai 100", "electric": 0, "id": "pb_155", "manual": 0, "name": "Rudolf-Brun-Br\u00fccke", "provider": "publibike", "timeStamp": "01/28/2020, 17:09:06", "zip": 8001}, "type": "Feature"}, {"geometry": {"coordinates": [8.490837, 47.386596], "type": "Point"}, "properties": {"address": "Badenerstrasse 627", "electric": 3, "id": "pb_156", "manual": 4, "name": "Luggwegstrasse VBZ", "provider": "publibike", "timeStamp": "01/28/2020, 17:09:06", "zip": 8048}, "type": "Feature"}, {"geometry": {"coordinates": [8.535119, 47.355189], "type": "Point"}, "properties": {"address": "Mythenquai 95", "electric": 4, "id": "pb_157", "manual": 3, "name": "Strandbad Mythenquai", "provider": "publibike", "timeStamp": "01/28/2020, 17:09:06", "zip": 8002}, "type": "Feature"}, {"geometry": {"coordinates": [8.545505, 47.373675], "type": "Point"}, "properties": {"address": "Predigerpatz 21", "electric": 8, "id": "pb_158", "manual": 8, "name": "Predigerplatz", "provider": "publibike", "timeStamp": "01/28/2020, 17:09:06", "zip": 8001}, "type": "Feature"}, {"geometry": {"coordinates": [8.515558, 47.371868], "type": "Point"}, "properties": {"address": "Aemtlerstrasse 23", "electric": 3, "id": "pb_159", "manual": 4, "name": "Zwinglihaus", "provider": "publibike", "timeStamp": "01/28/2020, 17:09:06", "zip": 8003}, "type": "Feature"}, {"geometry": {"coordinates": [8.524629, 47.386072], "type": "Point"}, "properties": {"address": "Josefstrasse 188", "electric": 0, "id": "pb_160", "manual": 2, "name": "Josefwiese", "provider": "publibike", "timeStamp": "01/28/2020, 17:09:06", "zip": 8005}, "type": "Feature"}, {"geometry": {"coordinates": [8.527138, 47.387531], "type": "Point"}, "properties": {"address": "R\u00f6ntgenstrasse 87", "electric": 3, "id": "pb_164", "manual": 6, "name": "Markthalle", "provider": "publibike", "timeStamp": "01/28/2020, 17:09:06", "zip": 8005}, "type": "Feature"}, {"geometry": {"coordinates": [8.552717, 47.359978], "type": "Point"}, "properties": {"address": "Seefeldstrasse 96", "electric": 5, "id": "pb_263", "manual": 14, "name": "Feldeggstrasse", "provider": "publibike", "timeStamp": "01/28/2020, 17:09:06", "zip": 8008}, "type": "Feature"}, {"geometry": {"coordinates": [8.553189, 47.353198], "type": "Point"}, "properties": {"address": "Bellerivestrasse 170", "electric": 4, "id": "pb_264", "manual": 2, "name": "Lake Side", "provider": "publibike", "timeStamp": "01/28/2020, 17:09:06", "zip": 8008}, "type": "Feature"}, {"geometry": {"coordinates": [8.543437, 47.369256], "type": "Point"}, "properties": {"address": "Limmatquai 18", "electric": 0, "id": "pb_265", "manual": 0, "name": "Helmhaus", "provider": "publibike", "timeStamp": "01/28/2020, 17:09:06", "zip": 8032}, "type": "Feature"}, {"geometry": {"coordinates": [8.516676, 47.375819], "type": "Point"}, "properties": {"address": "Badenerstrasse 246", "electric": 6, "id": "pb_266", "manual": 8, "name": "Lochergut", "provider": "publibike", "timeStamp": "01/28/2020, 17:09:06", "zip": 8004}, "type": "Feature"}, {"geometry": {"coordinates": [8.514605, 47.389862], "type": "Point"}, "properties": {"address": "Pfingstweidstrasse 60", "electric": 2, "id": "pb_273", "manual": 1, "name": "Westpark", "provider": "publibike", "timeStamp": "01/28/2020, 17:09:06", "zip": 8005}, "type": "Feature"}, {"geometry": {"coordinates": [8.541239126, 47.375991201], "type": "Point"}, "properties": {"address": "Beatenplatz 1", "electric": 7, "id": "pb_274", "manual": 9, "name": "Beatenplatz", "provider": "publibike", "timeStamp": "01/28/2020, 17:09:06", "zip": 8001}, "type": "Feature"}, {"geometry": {"coordinates": [8.5417135, 47.3942197], "type": "Point"}, "properties": {"address": "Scheuchzerstrasse 181", "electric": 3, "id": "pb_275", "manual": 0, "name": "Pauluskirche", "provider": "publibike", "timeStamp": "01/28/2020, 17:09:06", "zip": 8057}, "type": "Feature"}, {"geometry": {"coordinates": [8.5528182, 47.414558], "type": "Point"}, "properties": {"address": "Hagenholzstrasse 51", "electric": 0, "id": "pb_276", "manual": 10, "name": "Airgate", "provider": "publibike", "timeStamp": "01/28/2020, 17:09:06", "zip": 8050}, "type": "Feature"}, {"geometry": {"coordinates": [8.537816, 47.413514], "type": "Point"}, "properties": {"address": "Birchstrasse 183", "electric": 3, "id": "pb_277", "manual": 4, "name": "Lamprechtweg", "provider": "publibike", "timeStamp": "01/28/2020, 17:09:06", "zip": 8050}, "type": "Feature"}, {"geometry": {"coordinates": [8.545602, 47.417701], "type": "Point"}, "properties": {"address": "Felsenrainstrasse 2", "electric": 8, "id": "pb_278", "manual": 9, "name": "Emil-Oberh\u00e4nsli", "provider": "publibike", "timeStamp": "01/28/2020, 17:09:06", "zip": 8050}, "type": "Feature"}, {"geometry": {"coordinates": [8.533647, 47.39808], "type": "Point"}, "properties": {"address": "Bucheggplatz 2", "electric": 4, "id": "pb_279", "manual": 3, "name": "Bucheggplatz", "provider": "publibike", "timeStamp": "01/28/2020, 17:09:06", "zip": 8057}, "type": "Feature"}, {"geometry": {"coordinates": [8.523549, 47.392347], "type": "Point"}, "properties": {"address": "Wipkingerplatz 4", "electric": 2, "id": "pb_280", "manual": 5, "name": "Wipkingerplatz", "provider": "publibike", "timeStamp": "01/28/2020, 17:09:06", "zip": 8037}, "type": "Feature"}, {"geometry": {"coordinates": [8.548562, 47.36691], "type": "Point"}, "properties": {"address": "Galerie \u00fcber Gleis 2/3", "electric": 13, "id": "pb_285", "manual": 1, "name": "Bahnhof Stadelhofen", "provider": "publibike", "timeStamp": "01/28/2020, 17:09:06", "zip": 8001}, "type": "Feature"}, {"geometry": {"coordinates": [8.493822, 47.3985553], "type": "Point"}, "properties": {"address": "Meierwiesenstrasse 12-4", "electric": 1, "id": "pb_286", "manual": 2, "name": "T\u00fcffenwies", "provider": "publibike", "timeStamp": "01/28/2020, 17:09:06", "zip": 8064}, "type": "Feature"}, {"geometry": {"coordinates": [8.552432, 47.3801757], "type": "Point"}, "properties": {"address": "Hochstrasse 34", "electric": 3, "id": "pb_356", "manual": 5, "name": "Siriuswiese", "provider": "publibike", "timeStamp": "01/28/2020, 17:09:06", "zip": 8044}, "type": "Feature"}, {"geometry": {"coordinates": [8.527298, 47.370141], "type": "Point"}, "properties": {"address": "Hallwylstrasse 71", "electric": 2, "id": "pb_357", "manual": 1, "name": "Hallwylstrasse", "provider": "publibike", "timeStamp": "01/28/2020, 17:09:06", "zip": 8004}, "type": "Feature"}, {"geometry": {"coordinates": [8.5414185, 47.3972455], "type": "Point"}, "properties": {"address": "Schaffhauserstrasse 137", "electric": 3, "id": "pb_358", "manual": 3, "name": "Milchbuck", "provider": "publibike", "timeStamp": "01/28/2020, 17:09:06", "zip": 8057}, "type": "Feature"}, {"geometry": {"coordinates": [8.512381, 47.393409], "type": "Point"}, "properties": {"address": "Hardturmstrasse 161", "electric": 5, "id": "pb_359", "manual": 7, "name": "Fischerweg", "provider": "publibike", "timeStamp": "01/28/2020, 17:09:06", "zip": 8005}, "type": "Feature"}, {"geometry": {"coordinates": [8.5421457, 47.3876979], "type": "Point"}, "properties": {"address": "Turnerstrasse 47", "electric": 0, "id": "pb_360", "manual": 6, "name": "Kirche Unterstrass", "provider": "publibike", "timeStamp": "01/28/2020, 17:09:06", "zip": 8006}, "type": "Feature"}, {"geometry": {"coordinates": [8.522117, 47.394554], "type": "Point"}, "properties": {"address": "Dorfstrasse 40", "electric": 3, "id": "pb_361", "manual": 1, "name": "Dorfstrasse", "provider": "publibike", "timeStamp": "01/28/2020, 17:09:06", "zip": 8037}, "type": "Feature"}, {"geometry": {"coordinates": [8.530437, 47.37271], "type": "Point"}, "properties": {"address": "Werdstrasse 25", "electric": 4, "id": "pb_362", "manual": 0, "name": "Stauffachertor", "provider": "publibike", "timeStamp": "01/28/2020, 17:09:06", "zip": 8004}, "type": "Feature"}, {"geometry": {"coordinates": [8.541712, 47.416155], "type": "Point"}, "properties": {"address": "Eggb\u00fchlstrasse 21", "electric": 2, "id": "pb_363", "manual": 4, "name": "Wahlenpark", "provider": "publibike", "timeStamp": "01/28/2020, 17:09:06", "zip": 8050}, "type": "Feature"}, {"geometry": {"coordinates": [8.5595335, 47.3708387], "type": "Point"}, "properties": {"address": "Dolderstrasse 32", "electric": 7, "id": "pb_364", "manual": 1, "name": "Kinderspital", "provider": "publibike", "timeStamp": "01/28/2020, 17:09:06", "zip": 8032}, "type": "Feature"}, {"geometry": {"coordinates": [8.536433, 47.388689], "type": "Point"}, "properties": {"address": "Kornhausstrasse 30", "electric": 1, "id": "pb_365", "manual": 1, "name": "Kornhausstrasse", "provider": "publibike", "timeStamp": "01/28/2020, 17:09:06", "zip": 8006}, "type": "Feature"}, {"geometry": {"coordinates": [8.55033, 47.407098], "type": "Point"}, "properties": {"address": "Schwamendingenstrasse 41", "electric": 3, "id": "pb_366", "manual": 4, "name": "Dorflinde", "provider": "publibike", "timeStamp": "01/28/2020, 17:09:06", "zip": 8050}, "type": "Feature"}, {"geometry": {"coordinates": [8.560476, 47.368199], "type": "Point"}, "properties": {"address": "R\u00f6merhofplatz 5", "electric": 0, "id": "pb_367", "manual": 1, "name": "R\u00f6merhof", "provider": "publibike", "timeStamp": "01/28/2020, 17:09:06", "zip": 8032}, "type": "Feature"}, {"geometry": {"coordinates": [8.5609218, 47.3619068], "type": "Point"}, "properties": {"address": "Forchstrasse 99", "electric": 1, "id": "pb_368", "manual": 1, "name": "Hegibachplatz", "provider": "publibike", "timeStamp": "01/28/2020, 17:09:06", "zip": 8032}, "type": "Feature"}, {"geometry": {"coordinates": [8.5721264, 47.4039985], "type": "Point"}, "properties": {"address": "Winterthurerstrasse 519", "electric": 2, "id": "pb_370", "manual": 6, "name": "Schwamendingerplatz", "provider": "publibike", "timeStamp": "01/28/2020, 17:09:06", "zip": 8051}, "type": "Feature"}, {"geometry": {"coordinates": [8.520168, 47.378556], "type": "Point"}, "properties": {"address": "Herman-Greulich-Strasse 56", "electric": 2, "id": "pb_384", "manual": 3, "name": "Hermann-Greulich-Weg", "provider": "publibike", "timeStamp": "01/28/2020, 17:09:06", "zip": 8004}, "type": "Feature"}, {"geometry": {"coordinates": [8.547912, 47.384923], "type": "Point"}, "properties": {"address": "Culmannstrasse", "electric": 1, "id": "pb_386", "manual": 2, "name": "Rigiplatz", "provider": "publibike", "timeStamp": "01/28/2020, 17:09:06", "zip": 8006}, "type": "Feature"}, {"geometry": {"coordinates": [8.543768, 47.411057], "type": "Point"}, "properties": {"address": "Hofwiesenstrasse 369", "electric": 7, "id": "pb_387", "manual": 3, "name": "Bahnhof Oerlikon S\u00fcd", "provider": "publibike", "timeStamp": "01/28/2020, 17:09:06", "zip": 8050}, "type": "Feature"}, {"geometry": {"coordinates": [8.544185, 47.412732], "type": "Point"}, "properties": {"address": "Jungholzstrasse 6", "electric": 4, "id": "pb_388", "manual": 0, "name": "Max-Frisch-Platz", "provider": "publibike", "timeStamp": "01/28/2020, 17:09:06", "zip": 8050}, "type": "Feature"}, {"geometry": {"coordinates": [8.558096, 47.413032], "type": "Point"}, "properties": {"address": "Andreasstrasse", "electric": 2, "id": "pb_389", "manual": 8, "name": "Hunziker-Areal", "provider": "publibike", "timeStamp": "01/28/2020, 17:09:06", "zip": 8050}, "type": "Feature"}, {"geometry": {"coordinates": [8.533265, 47.412873], "type": "Point"}, "properties": {"address": "Regina-K\u00e4gi-Strasse 1", "electric": 0, "id": "pb_390", "manual": 2, "name": "Luis-H\u00e4fliger-Park", "provider": "publibike", "timeStamp": "01/28/2020, 17:09:06", "zip": 8050}, "type": "Feature"}, {"geometry": {"coordinates": [8.499265, 47.401852], "type": "Point"}, "properties": {"address": "Limmattalstrasse 177", "electric": 3, "id": "pb_391", "manual": 0, "name": "Meierhofplatz", "provider": "publibike", "timeStamp": "01/28/2020, 17:09:06", "zip": 8049}, "type": "Feature"}, {"geometry": {"coordinates": [8.528356, 47.393255], "type": "Point"}, "properties": {"address": "R\u00f6schibachstrasse 73", "electric": 11, "id": "pb_392", "manual": 4, "name": "R\u00f6schibachplatz", "provider": "publibike", "timeStamp": "01/28/2020, 17:09:06", "zip": 8037}, "type": "Feature"}, {"geometry": {"coordinates": [8.538067, 47.415721], "type": "Point"}, "properties": {"address": "Birchstrasse 191", "electric": 4, "id": "pb_393", "manual": 1, "name": "Oerliker Park", "provider": "publibike", "timeStamp": "01/28/2020, 17:09:06", "zip": 8050}, "type": "Feature"}, {"geometry": {"coordinates": [8.5420304, 47.3669233], "type": "Point"}, "properties": {"address": "Stadthausquai 1", "electric": 0, "id": "pb_395", "manual": 7, "name": "B\u00fcrkliplatz", "provider": "publibike", "timeStamp": "01/28/2020, 17:09:06", "zip": 8001}, "type": "Feature"}, {"geometry": {"coordinates": [8.535767, 47.409881], "type": "Point"}, "properties": {"address": "Regensbergstrasse 195", "electric": 1, "id": "pb_396", "manual": 2, "name": "Holunderhof", "provider": "publibike", "timeStamp": "01/28/2020, 17:09:06", "zip": 8050}, "type": "Feature"}, {"geometry": {"coordinates": [8.5116245, 47.3616199], "type": "Point"}, "properties": {"address": "Grubenstrasse 42", "electric": 5, "id": "pb_431", "manual": 0, "name": "Binz Center", "provider": "publibike", "timeStamp": "01/28/2020, 17:09:06", "zip": 8045}, "type": "Feature"}, {"geometry": {"coordinates": [8.547195, 47.382089], "type": "Point"}, "properties": {"address": "Nelkenstrasse 24", "electric": 2, "id": "pb_430", "manual": 2, "name": "Stapferstube", "provider": "publibike", "timeStamp": "01/28/2020, 17:09:06", "zip": 8006}, "type": "Feature"}, {"geometry": {"coordinates": [8.5787183, 47.4039845], "type": "Point"}, "properties": {"address": "Kronwiesenstrasse 35", "electric": 1, "id": "pb_426", "manual": 3, "name": "Kronwiesen", "provider": "publibike", "timeStamp": "01/28/2020, 17:09:06", "zip": 8051}, "type": "Feature"}, {"geometry": {"coordinates": [8.508131, 47.420757], "type": "Point"}, "properties": {"address": "Riedenhaldenstrasse 20-18", "electric": 10, "id": "pb_425", "manual": 4, "name": "Bahnhof Affoltern", "provider": "publibike", "timeStamp": "01/28/2020, 17:09:06", "zip": 8046}, "type": "Feature"}, {"geometry": {"coordinates": [8.532464, 47.406988], "type": "Point"}, "properties": {"address": "K\u00fcnzlistrasse 41", "electric": 3, "id": "pb_424", "manual": 4, "name": "Birchd\u00f6rfli", "provider": "publibike", "timeStamp": "01/28/2020, 17:09:06", "zip": 8057}, "type": "Feature"}, {"geometry": {"coordinates": [8.5777038, 47.4080095], "type": "Point"}, "properties": {"address": "Luegislandstrasse 412", "electric": 4, "id": "pb_429", "manual": 4, "name": "Luegisland", "provider": "publibike", "timeStamp": "01/28/2020, 17:09:06", "zip": 8051}, "type": "Feature"}, {"geometry": {"coordinates": [8.58841, 47.40158], "type": "Point"}, "properties": {"address": "Hirzenbachstrasse 2-4", "electric": 2, "id": "pb_428", "manual": 2, "name": "Hirzenbachstrasse", "provider": "publibike", "timeStamp": "01/28/2020, 17:09:06", "zip": 8051}, "type": "Feature"}, {"geometry": {"coordinates": [8.5563463, 47.4095467], "type": "Point"}, "properties": {"address": "K\u00fchriedweg", "electric": 2, "id": "pb_445", "manual": 4, "name": "Hallenbad Oerlikon", "provider": "publibike", "timeStamp": "01/28/2020, 17:09:06", "zip": 8050}, "type": "Feature"}, {"geometry": {"coordinates": [8.537971, 47.364871], "type": "Point"}, "properties": {"address": "General-Guisan-Quai 17", "electric": 1, "id": "pb_454", "manual": 6, "name": "General-Guisan-Quai", "provider": "publibike", "timeStamp": "01/28/2020, 17:09:06", "zip": 8002}, "type": "Feature"}, {"geometry": {"coordinates": [8.560587, 47.350578], "type": "Point"}, "properties": {"address": "Bellerivestrasse 245", "electric": 6, "id": "pb_450", "manual": 6, "name": "Bahnhof Tiefenbrunnen", "provider": "publibike", "timeStamp": "01/28/2020, 17:09:06", "zip": 8008}, "type": "Feature"}, {"geometry": {"coordinates": [8.5269416, 47.3563719], "type": "Point"}, "properties": {"address": "Waffenplatzstrasse 89", "electric": 5, "id": "pb_452", "manual": 5, "name": "Rieterplatz", "provider": "publibike", "timeStamp": "01/28/2020, 17:09:06", "zip": 8002}, "type": "Feature"}, {"geometry": {"coordinates": [8.514176, 47.3663708], "type": "Point"}, "properties": {"address": "Talwiesenstrasse 92", "electric": 3, "id": "pb_446", "manual": 2, "name": "Binzallee", "provider": "publibike", "timeStamp": "01/28/2020, 17:09:06", "zip": 8055}, "type": "Feature"}, {"geometry": {"coordinates": [8.5070564, 47.371455], "type": "Point"}, "properties": {"address": "Gutstrasse 87", "electric": 5, "id": "pb_447", "manual": 8, "name": "Gutstrasse", "provider": "publibike", "timeStamp": "01/28/2020, 17:09:06", "zip": 8055}, "type": "Feature"}, {"geometry": {"coordinates": [8.4941268, 47.3836391], "type": "Point"}, "properties": {"address": "Flurstrasse 62", "electric": 2, "id": "pb_453", "manual": 4, "name": "Flurpark", "provider": "publibike", "timeStamp": "01/28/2020, 17:09:06", "zip": 8048}, "type": "Feature"}, {"geometry": {"coordinates": [8.500343, 47.380778], "type": "Point"}, "properties": {"address": "Edelweissstrasse 32", "electric": 2, "id": "pb_448", "manual": 2, "name": "Bl\u00fcemliquartier", "provider": "publibike", "timeStamp": "01/28/2020, 17:09:06", "zip": 8048}, "type": "Feature"}, {"geometry": {"coordinates": [8.528796, 47.383858], "type": "Point"}, "properties": {"address": "Gasometerstrasse 24", "electric": 2, "id": "pb_449", "manual": 5, "name": "Gasometerstrasse", "provider": "publibike", "timeStamp": "01/28/2020, 17:09:06", "zip": 8005}, "type": "Feature"}, {"geometry": {"coordinates": [8.4981964, 47.3859194], "type": "Point"}, "properties": {"address": "Baslerstrasse 57", "electric": 12, "id": "pb_455", "manual": 4, "name": "Letzipark", "provider": "publibike", "timeStamp": "01/28/2020, 17:09:06", "zip": 8048}, "type": "Feature"}, {"geometry": {"coordinates": [8.515252, 47.381915], "type": "Point"}, "properties": {"address": "Sihlfeldstrasse 175", "electric": 2, "id": "pb_451", "manual": 4, "name": "Hardplatz", "provider": "publibike", "timeStamp": "01/28/2020, 17:09:06", "zip": 8004}, "type": "Feature"}, {"geometry": {"coordinates": [8.5064743, 47.4188324], "type": "Point"}, "properties": {"address": "Wehntalerstrasse 541", "electric": 4, "id": "pb_427", "manual": 4, "name": "Zehntenhausplatz", "provider": "publibike", "timeStamp": "01/28/2020, 17:09:06", "zip": 8046}, "type": "Feature"}, {"geometry": {"coordinates": [8.537729, 47.379719], "type": "Point"}, "properties": {"address": "Sihlquai/HB", "electric": 14, "id": "pb_513", "manual": 10, "name": "Sihlquai", "provider": "publibike", "timeStamp": "01/28/2020, 17:09:06", "zip": 8005}, "type": "Feature"}, {"geometry": {"coordinates": [8.596202, 47.397885], "type": "Point"}, "properties": {"address": "Bahnhof Stettbach", "electric": 0, "id": "pb_514", "manual": 0, "name": "Bahnhof Stettbach", "provider": "publibike", "timeStamp": "01/28/2020, 17:09:06", "zip": 8051}, "type": "Feature"}, {"geometry": {"coordinates": [8.5543974, 47.3690153], "type": "Point"}, "properties": {"address": "Kasinostrasse 10", "electric": 3, "id": "pb_515", "manual": 0, "name": "Hottingerplatz", "provider": "publibike", "timeStamp": "01/28/2020, 17:09:06", "zip": 8032}, "type": "Feature"}, {"geometry": {"coordinates": [8.534444, 47.351525], "type": "Point"}, "properties": {"address": "Mobile Station Z\u00fcrich 1", "electric": 0, "id": "pb_282", "manual": 0, "name": "Theaterspektakel", "provider": "publibike", "timeStamp": "01/28/2020, 17:09:06", "zip": 8002}, "type": "Feature"}, {"geometry": {"coordinates": [8.516257, 47.367656], "type": "Point"}, "properties": {"address": "Goldbrunnenstrasse 54", "electric": 5, "id": "pb_538", "manual": 0, "name": "Kirche B\u00fchl", "provider": "publibike", "timeStamp": "01/28/2020, 17:09:06", "zip": 8055}, "type": "Feature"}, {"geometry": {"coordinates": [8.555639, 47.416873], "type": "Point"}, "properties": {"address": "Leutschenbachstrasse 50", "electric": 1, "id": "pb_537", "manual": 4, "name": "Leutschenpark", "provider": "publibike", "timeStamp": "01/28/2020, 17:09:06", "zip": 8050}, "type": "Feature"}, {"geometry": {"coordinates": [8.546464, 47.403822], "type": "Point"}, "properties": {"address": "Berninastrasse 45", "electric": 5, "id": "pb_540", "manual": 0, "name": "Berninaplatz", "provider": "publibike", "timeStamp": "01/28/2020, 17:09:06", "zip": 8057}, "type": "Feature"}, {"geometry": {"coordinates": [8.523134, 47.369004], "type": "Point"}, "properties": {"address": "Erlachstrasse 3", "electric": 2, "id": "pb_385", "manual": 2, "name": "Aegerten", "provider": "publibike", "timeStamp": "01/28/2020, 17:09:06", "zip": 8003}, "type": "Feature"}, {"geometry": {"coordinates": [8.49038, 47.381591], "type": "Point"}, "properties": {"address": "Rautistrasse 60", "electric": 5, "id": "pb_536", "manual": 7, "name": "Freilager", "provider": "publibike", "timeStamp": "01/28/2020, 17:09:06", "zip": 8048}, "type": "Feature"}, {"geometry": {"coordinates": [8.496511, 47.375247], "type": "Point"}, "properties": {"address": "Letzigraben 139", "electric": 0, "id": "pb_444", "manual": 3, "name": "Sackzelg", "provider": "publibike", "timeStamp": "01/28/2020, 17:09:06", "zip": 8047}, "type": "Feature"}, {"geometry": {"coordinates": [8.58131, 47.402801], "type": "Point"}, "properties": {"address": "Altwiesenstrasse 104", "electric": 2, "id": "pb_539", "manual": 5, "name": "Glattwiesen", "provider": "publibike", "timeStamp": "01/28/2020, 17:09:06", "zip": 8051}, "type": "Feature"}, {"geometry": {"coordinates": [8.52689, 47.3767], "type": "Point"}, "properties": {"address": "Molkenstrasse 5", "electric": 3, "id": "pb_560", "manual": 5, "name": "Helvetiaplatz", "provider": "publibike", "timeStamp": "01/28/2020, 17:09:06", "zip": 8004}, "type": "Feature"}, {"geometry": {"coordinates": [8.525602, 47.374241], "type": "Point"}, "properties": {"address": "Badenerstrasse 90", "electric": 2, "id": "pb_559", "manual": 3, "name": "Bezirksgeb\u00e4ude", "provider": "publibike", "timeStamp": "01/28/2020, 17:09:06", "zip": 8004}, "type": "Feature"}, {"geometry": {"coordinates": [8.535082, 47.345248], "type": "Point"}, "properties": {"address": "Bachstrasse 15", "electric": 5, "id": "pb_564", "manual": 3, "name": "GZ Wollishofen", "provider": "publibike", "timeStamp": "01/28/2020, 17:09:06", "zip": 8038}, "type": "Feature"}, {"geometry": {"coordinates": [8.514841, 47.370238], "type": "Point"}, "properties": {"address": "Schrennengasse 37", "electric": 1, "id": "pb_562", "manual": 3, "name": "Goldbrunnenplatz", "provider": "publibike", "timeStamp": "01/28/2020, 17:09:06", "zip": 8003}, "type": "Feature"}, {"geometry": {"coordinates": [8.514138, 47.374206], "type": "Point"}, "properties": {"address": "Idaplatz 4", "electric": 6, "id": "pb_557", "manual": 2, "name": "Idaplatz", "provider": "publibike", "timeStamp": "01/28/2020, 17:09:06", "zip": 8003}, "type": "Feature"}, {"geometry": {"coordinates": [8.518432, 47.369549], "type": "Point"}, "properties": {"address": "Brinerstrasse 2", "electric": 1, "id": "pb_558", "manual": 8, "name": "Schmiede Wiedikon", "provider": "publibike", "timeStamp": "01/28/2020, 17:09:06", "zip": 8003}, "type": "Feature"}, {"geometry": {"coordinates": [8.537546, 47.391289], "type": "Point"}, "properties": {"address": "Rotbuchstrasse 15", "electric": 4, "id": "pb_556", "manual": 0, "name": "Schaffhauserplatz", "provider": "publibike", "timeStamp": "01/28/2020, 17:09:06", "zip": 8006}, "type": "Feature"}, {"geometry": {"coordinates": [8.541541, 47.413733], "type": "Point"}, "properties": {"address": "Therese-Giehse-Strasse 11", "electric": 2, "id": "pb_561", "manual": 2, "name": "Center Eleven", "provider": "publibike", "timeStamp": "01/28/2020, 17:09:06", "zip": 8050}, "type": "Feature"}, {"geometry": {"coordinates": [8.534227, 47.360004], "type": "Point"}, "properties": {"address": "Alfred Escher-Strasse 76", "electric": 6, "id": "pb_563", "manual": 0, "name": "Mythenschloss", "provider": "publibike", "timeStamp": "01/28/2020, 17:09:06", "zip": 8002}, "type": "Feature"}, {"geometry": {"coordinates": [8.50373, 47.396172], "type": "Point"}, "properties": {"address": "Hardeggstrasse 6", "electric": 1, "id": "pb_566", "manual": 3, "name": "Am Wasser", "provider": "publibike", "timeStamp": "01/28/2020, 17:09:06", "zip": 8049}, "type": "Feature"}, {"geometry": {"coordinates": [8.532432, 47.381174], "type": "Point"}, "properties": {"address": "Klingenstrasse 9", "electric": 3, "id": "pb_565", "manual": 4, "name": "Zollstrasse", "provider": "publibike", "timeStamp": "01/28/2020, 17:09:06", "zip": 8005}, "type": "Feature"}, {"geometry": {"coordinates": [8.497982, 47.381447], "type": "Point"}, "properties": {"address": "Dennlerstrasse 23", "electric": 4, "id": "pb_567", "manual": 4, "name": "Dennlerstrasse", "provider": "publibike", "timeStamp": "01/28/2020, 17:09:06", "zip": 8047}, "type": "Feature"}, {"geometry": {"coordinates": [8.528049, 47.347701], "type": "Point"}, "properties": {"address": "Mutschellenstrasse 114", "electric": 4, "id": "pb_568", "manual": 2, "name": "Jugendherberge", "provider": "publibike", "timeStamp": "01/28/2020, 17:09:06", "zip": 8038}, "type": "Feature"}, {"geometry": {"coordinates": [8.539016, 47.405751], "type": "Point"}, "properties": {"address": "Ringstrasse 82", "electric": 6, "id": "pb_569", "manual": 2, "name": "Freibad Allenmoos", "provider": "publibike", "timeStamp": "01/28/2020, 17:09:06", "zip": 8057}, "type": "Feature"}, {"geometry": {"coordinates": [8.534974, 47.402164], "type": "Point"}, "properties": {"address": "Brache Guggach", "electric": 3, "id": "pb_572", "manual": 1, "name": "Radiostudio", "provider": "publibike", "timeStamp": "01/28/2020, 17:09:06", "zip": 8057}, "type": "Feature"}, {"geometry": {"coordinates": [8.547901, 47.375556], "type": "Point"}, "properties": {"address": "Karl-Schmid-Strasse 4", "electric": 5, "id": "pb_571", "manual": 0, "name": "ETH/Zoologisches Museum", "provider": "publibike", "timeStamp": "01/28/2020, 17:09:06", "zip": 8006}, "type": "Feature"}, {"geometry": {"coordinates": [8.561961, 47.350393], "type": "Point"}, "properties": {"charge": 21, "id": "smide_2895", "name": "ZH 267279", "provider": "smide", "range": 10.0, "size": 20, "time": "01/28/2020, 17:08:39"}, "type": "Feature"}, {"geometry": {"coordinates": [8.536658, 47.390803], "type": "Point"}, "properties": {"charge": 55, "id": "smide_2880", "name": "ZH267289", "provider": "smide", "range": 27.0, "size": 17, "time": "01/28/2020, 17:08:39"}, "type": "Feature"}, {"geometry": {"coordinates": [8.56026, 47.351583], "type": "Point"}, "properties": {"charge": 77, "id": "smide_2874", "name": "ZH 267288", "provider": "smide", "range": 38.0, "size": 17, "time": "01/28/2020, 17:08:39"}, "type": "Feature"}, {"geometry": {"coordinates": [8.494798, 47.398135], "type": "Point"}, "properties": {"charge": 72, "id": "smide_2871", "name": "ZH 267086", "provider": "smide", "range": 36.0, "size": 20, "time": "01/28/2020, 17:08:39"}, "type": "Feature"}, {"geometry": {"coordinates": [8.557445, 47.419073], "type": "Point"}, "properties": {"charge": 77, "id": "smide_2867", "name": "ZH 267090", "provider": "smide", "range": 38.0, "size": 20, "time": "01/28/2020, 17:08:39"}, "type": "Feature"}, {"geometry": {"coordinates": [8.553211, 47.38642], "type": "Point"}, "properties": {"charge": 89, "id": "smide_2861", "name": "ZH 267096", "provider": "smide", "range": 44.0, "size": 17, "time": "01/28/2020, 17:08:39"}, "type": "Feature"}, {"geometry": {"coordinates": [8.4839, 47.39718], "type": "Point"}, "properties": {"charge": 62, "id": "smide_2860", "name": "ZH 267097", "provider": "smide", "range": 31.0, "size": 17, "time": "01/28/2020, 17:08:39"}, "type": "Feature"}, {"geometry": {"coordinates": [8.493066, 47.388803], "type": "Point"}, "properties": {"charge": 23, "id": "smide_2859", "name": "ZH 267098", "provider": "smide", "range": 11.0, "size": 17, "time": "01/28/2020, 17:08:39"}, "type": "Feature"}, {"geometry": {"coordinates": [8.510611, 47.398503], "type": "Point"}, "properties": {"charge": 97, "id": "smide_2854", "name": "ZH 267103", "provider": "smide", "range": 48.0, "size": 17, "time": "01/28/2020, 17:08:39"}, "type": "Feature"}, {"geometry": {"coordinates": [8.546208, 47.3749], "type": "Point"}, "properties": {"charge": 66, "id": "smide_2833", "name": "ZH 267182", "provider": "smide", "range": 33.0, "size": 20, "time": "01/28/2020, 17:08:39"}, "type": "Feature"}, {"geometry": {"coordinates": [8.570145, 47.35255], "type": "Point"}, "properties": {"charge": 79, "id": "smide_2831", "name": "ZH 267180", "provider": "smide", "range": 39.0, "size": 20, "time": "01/28/2020, 17:08:39"}, "type": "Feature"}, {"geometry": {"coordinates": [8.561936, 47.368478], "type": "Point"}, "properties": {"charge": 100, "id": "smide_2829", "name": "ZH 267049", "provider": "smide", "range": 50.0, "size": 20, "time": "01/28/2020, 17:08:39"}, "type": "Feature"}, {"geometry": {"coordinates": [8.506045, 47.418961], "type": "Point"}, "properties": {"charge": 100, "id": "smide_2804", "name": "ZH266903", "provider": "smide", "range": 50.0, "size": 20, "time": "01/28/2020, 17:08:39"}, "type": "Feature"}, {"geometry": {"coordinates": [8.55311, 47.39829], "type": "Point"}, "properties": {"charge": 93, "id": "smide_2798", "name": "ZH266888", "provider": "smide", "range": 46.0, "size": 17, "time": "01/28/2020, 17:08:39"}, "type": "Feature"}, {"geometry": {"coordinates": [8.521923, 47.395321], "type": "Point"}, "properties": {"charge": 97, "id": "smide_2793", "name": "ZH266883", "provider": "smide", "range": 48.0, "size": 17, "time": "01/28/2020, 17:08:39"}, "type": "Feature"}, {"geometry": {"coordinates": [8.535591, 47.377458], "type": "Point"}, "properties": {"charge": 69, "id": "smide_2790", "name": "ZH266880", "provider": "smide", "range": 34.0, "size": 17, "time": "01/28/2020, 17:08:39"}, "type": "Feature"}, {"geometry": {"coordinates": [8.50239, 47.368475], "type": "Point"}, "properties": {"charge": 100, "id": "smide_2785", "name": "ZH266875", "provider": "smide", "range": 50.0, "size": 17, "time": "01/28/2020, 17:08:39"}, "type": "Feature"}, {"geometry": {"coordinates": [8.558405, 47.418133], "type": "Point"}, "properties": {"charge": 73, "id": "smide_2781", "name": "ZH 266871", "provider": "smide", "range": 36.0, "size": 17, "time": "01/28/2020, 17:08:39"}, "type": "Feature"}, {"geometry": {"coordinates": [8.491901, 47.3917], "type": "Point"}, "properties": {"charge": 83, "id": "smide_2780", "name": "ST1 X #1", "provider": "smide", "range": 41.0, "size": 17, "time": "01/28/2020, 17:08:39"}, "type": "Feature"}, {"geometry": {"coordinates": [8.505638, 47.407436], "type": "Point"}, "properties": {"charge": 58, "id": "smide_2763", "name": "ZH266641", "provider": "smide", "range": 28.0, "size": 17, "time": "01/28/2020, 17:08:39"}, "type": "Feature"}, {"geometry": {"coordinates": [8.514096, 47.365145], "type": "Point"}, "properties": {"charge": 79, "id": "smide_2761", "name": "ZH266642", "provider": "smide", "range": 39.0, "size": 20, "time": "01/28/2020, 17:08:39"}, "type": "Feature"}, {"geometry": {"coordinates": [8.529606, 47.37978], "type": "Point"}, "properties": {"charge": 49, "id": "smide_2758", "name": "ZH266638 M", "provider": "smide", "range": 24.0, "size": 17, "time": "01/28/2020, 17:08:39"}, "type": "Feature"}, {"geometry": {"coordinates": [8.552718, 47.388768], "type": "Point"}, "properties": {"charge": 100, "id": "smide_2751", "name": "BE343857", "provider": "smide", "range": 50.0, "size": 17, "time": "01/28/2020, 17:08:39"}, "type": "Feature"}, {"geometry": {"coordinates": [8.520358, 47.372208], "type": "Point"}, "properties": {"charge": 67, "id": "smide_2749", "name": "BE343867", "provider": "smide", "range": 33.0, "size": 17, "time": "01/28/2020, 17:08:39"}, "type": "Feature"}, {"geometry": {"coordinates": [8.53747, 47.379488], "type": "Point"}, "properties": {"charge": 83, "id": "smide_2748", "name": "BE335758", "provider": "smide", "range": 41.0, "size": 17, "time": "01/28/2020, 17:08:39"}, "type": "Feature"}, {"geometry": {"coordinates": [8.490787, 47.376416], "type": "Point"}, "properties": {"charge": 62, "id": "smide_2745", "name": "BE335818", "provider": "smide", "range": 31.0, "size": 17, "time": "01/28/2020, 17:08:39"}, "type": "Feature"}, {"geometry": {"coordinates": [8.553735, 47.381876], "type": "Point"}, "properties": {"charge": 63, "id": "smide_2743", "name": "BE343864", "provider": "smide", "range": 31.0, "size": 17, "time": "01/28/2020, 17:08:39"}, "type": "Feature"}, {"geometry": {"coordinates": [8.575059, 47.352804], "type": "Point"}, "properties": {"charge": 72, "id": "smide_2742", "name": "BE343866", "provider": "smide", "range": 36.0, "size": 17, "time": "01/28/2020, 17:08:39"}, "type": "Feature"}, {"geometry": {"coordinates": [8.553053, 47.377016], "type": "Point"}, "properties": {"charge": 43, "id": "smide_2740", "name": "BE343875", "provider": "smide", "range": 21.0, "size": 17, "time": "01/28/2020, 17:08:39"}, "type": "Feature"}, {"geometry": {"coordinates": [8.54239, 47.424483], "type": "Point"}, "properties": {"charge": 100, "id": "smide_2738", "name": "BE343865", "provider": "smide", "range": 50.0, "size": 17, "time": "01/28/2020, 17:08:39"}, "type": "Feature"}, {"geometry": {"coordinates": [8.565403, 47.37694], "type": "Point"}, "properties": {"charge": 95, "id": "smide_2737", "name": "BE336149", "provider": "smide", "range": 47.0, "size": 17, "time": "01/28/2020, 17:08:39"}, "type": "Feature"}, {"geometry": {"coordinates": [8.529375, 47.39362], "type": "Point"}, "properties": {"charge": 100, "id": "smide_2734", "name": "BE343876", "provider": "smide", "range": 50.0, "size": 17, "time": "01/28/2020, 17:08:39"}, "type": "Feature"}, {"geometry": {"coordinates": [8.541224, 47.377324], "type": "Point"}, "properties": {"charge": 69, "id": "smide_2733", "name": "BE343873", "provider": "smide", "range": 34.0, "size": 17, "time": "01/28/2020, 17:08:39"}, "type": "Feature"}, {"geometry": {"coordinates": [8.487413, 47.36764], "type": "Point"}, "properties": {"charge": 97, "id": "smide_2732", "name": "BE343870", "provider": "smide", "range": 48.0, "size": 17, "time": "01/28/2020, 17:08:39"}, "type": "Feature"}, {"geometry": {"coordinates": [8.564696, 47.37286], "type": "Point"}, "properties": {"charge": 84, "id": "smide_2729", "name": "BE343878", "provider": "smide", "range": 42.0, "size": 17, "time": "01/28/2020, 17:08:39"}, "type": "Feature"}, {"geometry": {"coordinates": [8.549301, 47.361803], "type": "Point"}, "properties": {"charge": 99, "id": "smide_2718", "name": "ZH259019", "provider": "smide", "range": 49.0, "size": 20, "time": "01/28/2020, 17:08:39"}, "type": "Feature"}, {"geometry": {"coordinates": [8.508437, 47.384312], "type": "Point"}, "properties": {"charge": 81, "id": "smide_2717", "name": "ZH263287", "provider": "smide", "range": 40.0, "size": 17, "time": "01/28/2020, 17:08:39"}, "type": "Feature"}, {"geometry": {"coordinates": [8.530135, 47.390003], "type": "Point"}, "properties": {"charge": 64, "id": "smide_2716", "name": "ZH254606", "provider": "smide", "range": 32.0, "size": 17, "time": "01/28/2020, 17:08:39"}, "type": "Feature"}, {"geometry": {"coordinates": [8.537413, 47.340576], "type": "Point"}, "properties": {"charge": 88, "id": "smide_2715", "name": "ZH254605", "provider": "smide", "range": 44.0, "size": 17, "time": "01/28/2020, 17:08:39"}, "type": "Feature"}, {"geometry": {"coordinates": [8.518419, 47.362872], "type": "Point"}, "properties": {"charge": 10, "id": "smide_2714", "name": "ZH256461", "provider": "smide", "range": 5.0, "size": 17, "time": "01/28/2020, 17:08:39"}, "type": "Feature"}, {"geometry": {"coordinates": [8.553386, 47.402316], "type": "Point"}, "properties": {"charge": 60, "id": "smide_2710", "name": "ZH256460", "provider": "smide", "range": 30.0, "size": 17, "time": "01/28/2020, 17:08:39"}, "type": "Feature"}, {"geometry": {"coordinates": [8.555713, 47.384348], "type": "Point"}, "properties": {"charge": 61, "id": "smide_2712", "name": "ZH256462", "provider": "smide", "range": 30.0, "size": 17, "time": "01/28/2020, 17:08:39"}, "type": "Feature"}, {"geometry": {"coordinates": [8.564559, 47.369312], "type": "Point"}, "properties": {"charge": 27, "id": "smide_2711", "name": "ZH256463", "provider": "smide", "range": 13.0, "size": 17, "time": "01/28/2020, 17:08:39"}, "type": "Feature"}, {"geometry": {"coordinates": [8.56198, 47.350198], "type": "Point"}, "properties": {"charge": 27, "id": "smide_2709", "name": "ZH256466", "provider": "smide", "range": 13.0, "size": 20, "time": "01/28/2020, 17:08:39"}, "type": "Feature"}, {"geometry": {"coordinates": [8.516531, 47.398348], "type": "Point"}, "properties": {"charge": 76, "id": "smide_2707", "name": "ZH256467", "provider": "smide", "range": 38.0, "size": 20, "time": "01/28/2020, 17:08:39"}, "type": "Feature"}, {"geometry": {"coordinates": [8.552394, 47.414332], "type": "Point"}, "properties": {"charge": 76, "id": "smide_2708", "name": "ZH256464", "provider": "smide", "range": 38.0, "size": 17, "time": "01/28/2020, 17:08:39"}, "type": "Feature"}, {"geometry": {"coordinates": [8.503597, 47.396148], "type": "Point"}, "properties": {"charge": 91, "id": "smide_2706", "name": "ZH256322", "provider": "smide", "range": 45.0, "size": 20, "time": "01/28/2020, 17:08:39"}, "type": "Feature"}, {"geometry": {"coordinates": [8.541799, 47.417372], "type": "Point"}, "properties": {"charge": 88, "id": "smide_2705", "name": "ZH256471", "provider": "smide", "range": 44.0, "size": 20, "time": "01/28/2020, 17:08:39"}, "type": "Feature"}, {"geometry": {"coordinates": [8.561495, 47.416096], "type": "Point"}, "properties": {"charge": 74, "id": "smide_2701", "name": "ZH256468", "provider": "smide", "range": 37.0, "size": 20, "time": "01/28/2020, 17:08:39"}, "type": "Feature"}, {"geometry": {"coordinates": [8.516982, 47.398264], "type": "Point"}, "properties": {"charge": 24, "id": "smide_2700", "name": "ZH256470", "provider": "smide", "range": 12.0, "size": 20, "time": "01/28/2020, 17:08:39"}, "type": "Feature"}, {"geometry": {"coordinates": [8.502064, 47.368852], "type": "Point"}, "properties": {"charge": 62, "id": "smide_2699", "name": "ZH254611", "provider": "smide", "range": 31.0, "size": 20, "time": "01/28/2020, 17:08:39"}, "type": "Feature"}, {"geometry": {"coordinates": [8.507557, 47.382508], "type": "Point"}, "properties": {"charge": 59, "id": "smide_2697", "name": "ZH254629", "provider": "smide", "range": 29.0, "size": 20, "time": "01/28/2020, 17:08:39"}, "type": "Feature"}, {"geometry": {"coordinates": [8.523765, 47.358632], "type": "Point"}, "properties": {"charge": 61, "id": "smide_2696", "name": "ZH254616", "provider": "smide", "range": 30.0, "size": 20, "time": "01/28/2020, 17:08:39"}, "type": "Feature"}, {"geometry": {"coordinates": [8.543211, 47.420871], "type": "Point"}, "properties": {"charge": 100, "id": "smide_2691", "name": "ZH254622", "provider": "smide", "range": 50.0, "size": 20, "time": "01/28/2020, 17:08:39"}, "type": "Feature"}, {"geometry": {"coordinates": [8.56521, 47.357735], "type": "Point"}, "properties": {"charge": 72, "id": "smide_2690", "name": "ZH254625", "provider": "smide", "range": 36.0, "size": 20, "time": "01/28/2020, 17:08:39"}, "type": "Feature"}, {"geometry": {"coordinates": [8.495281, 47.423748], "type": "Point"}, "properties": {"charge": 89, "id": "smide_2689", "name": "ZH254623", "provider": "smide", "range": 44.0, "size": 20, "time": "01/28/2020, 17:08:39"}, "type": "Feature"}, {"geometry": {"coordinates": [8.542531, 47.412024], "type": "Point"}, "properties": {"charge": 98, "id": "smide_2687", "name": "ZH263529", "provider": "smide", "range": 49.0, "size": 20, "time": "01/28/2020, 17:08:39"}, "type": "Feature"}, {"geometry": {"coordinates": [8.568526, 47.367596], "type": "Point"}, "properties": {"charge": 89, "id": "smide_2684", "name": "ZH254626", "provider": "smide", "range": 44.0, "size": 20, "time": "01/28/2020, 17:08:39"}, "type": "Feature"}, {"geometry": {"coordinates": [8.553488, 47.374686], "type": "Point"}, "properties": {"charge": 75, "id": "smide_2683", "name": "ZH254620", "provider": "smide", "range": 37.0, "size": 20, "time": "01/28/2020, 17:08:39"}, "type": "Feature"}, {"geometry": {"coordinates": [8.549436, 47.42102], "type": "Point"}, "properties": {"charge": 84, "id": "smide_2680", "name": "ZH254619", "provider": "smide", "range": 42.0, "size": 20, "time": "01/28/2020, 17:08:39"}, "type": "Feature"}, {"geometry": {"coordinates": [8.576468, 47.35116], "type": "Point"}, "properties": {"charge": 89, "id": "smide_2679", "name": "ZH258489", "provider": "smide", "range": 44.0, "size": 17, "time": "01/28/2020, 17:08:39"}, "type": "Feature"}, {"geometry": {"coordinates": [8.533867, 47.377836], "type": "Point"}, "properties": {"charge": 92, "id": "smide_2671", "name": "ZH258645", "provider": "smide", "range": 46.0, "size": 17, "time": "01/28/2020, 17:08:39"}, "type": "Feature"}, {"geometry": {"coordinates": [8.476694, 47.387408], "type": "Point"}, "properties": {"charge": 75, "id": "smide_2669", "name": "ZH263294", "provider": "smide", "range": 37.0, "size": 17, "time": "01/28/2020, 17:08:39"}, "type": "Feature"}, {"geometry": {"coordinates": [8.523365, 47.386296], "type": "Point"}, "properties": {"charge": 99, "id": "smide_2668", "name": "ZH258640", "provider": "smide", "range": 49.0, "size": 17, "time": "01/28/2020, 17:08:39"}, "type": "Feature"}, {"geometry": {"coordinates": [8.563844, 47.372056], "type": "Point"}, "properties": {"charge": 56, "id": "smide_2666", "name": "ZH258653", "provider": "smide", "range": 28.0, "size": 17, "time": "01/28/2020, 17:08:39"}, "type": "Feature"}, {"geometry": {"coordinates": [8.521577, 47.36164], "type": "Point"}, "properties": {"charge": 100, "id": "smide_2665", "name": "ZH258644", "provider": "smide", "range": 50.0, "size": 17, "time": "01/28/2020, 17:08:39"}, "type": "Feature"}, {"geometry": {"coordinates": [8.546348, 47.408432], "type": "Point"}, "properties": {"charge": 71, "id": "smide_2664", "name": "ZH258652", "provider": "smide", "range": 35.0, "size": 17, "time": "01/28/2020, 17:08:39"}, "type": "Feature"}, {"geometry": {"coordinates": [8.514486, 47.357836], "type": "Point"}, "properties": {"charge": 94, "id": "smide_2663", "name": "ZH258649", "provider": "smide", "range": 47.0, "size": 17, "time": "01/28/2020, 17:08:39"}, "type": "Feature"}, {"geometry": {"coordinates": [8.48315, 47.378132], "type": "Point"}, "properties": {"charge": 60, "id": "smide_2662", "name": "ZH258643", "provider": "smide", "range": 30.0, "size": 17, "time": "01/28/2020, 17:08:39"}, "type": "Feature"}, {"geometry": {"coordinates": [8.571788, 47.358244], "type": "Point"}, "properties": {"charge": 44, "id": "smide_2648", "name": "ZH257930", "provider": "smide", "range": 22.0, "size": 20, "time": "01/28/2020, 17:08:39"}, "type": "Feature"}, {"geometry": {"coordinates": [8.57593, 47.352771], "type": "Point"}, "properties": {"charge": 90, "id": "smide_2657", "name": "ZH257936", "provider": "smide", "range": 45.0, "size": 17, "time": "01/28/2020, 17:08:39"}, "type": "Feature"}, {"geometry": {"coordinates": [8.493415, 47.382844], "type": "Point"}, "properties": {"charge": 76, "id": "smide_2647", "name": "ZH257932", "provider": "smide", "range": 38.0, "size": 20, "time": "01/28/2020, 17:08:39"}, "type": "Feature"}, {"geometry": {"coordinates": [8.535762, 47.357436], "type": "Point"}, "properties": {"charge": 94, "id": "smide_2645", "name": "ZH257933", "provider": "smide", "range": 47.0, "size": 20, "time": "01/28/2020, 17:08:39"}, "type": "Feature"}, {"geometry": {"coordinates": [8.512506, 47.359796], "type": "Point"}, "properties": {"charge": 85, "id": "smide_3", "name": "ZH253765", "provider": "smide", "range": 42.0, "size": 20, "time": "01/28/2020, 17:08:39"}, "type": "Feature"}, {"geometry": {"coordinates": [8.48633, 47.3916], "type": "Point"}, "properties": {"charge": 56, "id": "smide_105", "name": "ZH253804", "provider": "smide", "range": 28.0, "size": 17, "time": "01/28/2020, 17:08:39"}, "type": "Feature"}, {"geometry": {"coordinates": [8.483659, 47.381672], "type": "Point"}, "properties": {"charge": 57, "id": "smide_186", "name": "ZH253751", "provider": "smide", "range": 28.0, "size": 20, "time": "01/28/2020, 17:08:39"}, "type": "Feature"}, {"geometry": {"coordinates": [8.571763, 47.358352], "type": "Point"}, "properties": {"charge": 100, "id": "smide_173", "name": "ZH258501", "provider": "smide", "range": 50.0, "size": 17, "time": "01/28/2020, 17:08:39"}, "type": "Feature"}, {"geometry": {"coordinates": [8.559265, 47.40598], "type": "Point"}, "properties": {"charge": 84, "id": "smide_77", "name": "ZH261548", "provider": "smide", "range": 42.0, "size": 20, "time": "01/28/2020, 17:08:39"}, "type": "Feature"}, {"geometry": {"coordinates": [8.508334, 47.400592], "type": "Point"}, "properties": {"charge": 28, "id": "smide_200", "name": "ZH253801", "provider": "smide", "range": 14.0, "size": 20, "time": "01/28/2020, 17:08:39"}, "type": "Feature"}, {"geometry": {"coordinates": [8.53855, 47.337688], "type": "Point"}, "properties": {"charge": 98, "id": "smide_197", "name": "ZH253864", "provider": "smide", "range": 49.0, "size": 20, "time": "01/28/2020, 17:08:39"}, "type": "Feature"}, {"geometry": {"coordinates": [8.550445, 47.356304], "type": "Point"}, "properties": {"charge": 90, "id": "smide_199", "name": "ZH253766", "provider": "smide", "range": 45.0, "size": 20, "time": "01/28/2020, 17:08:39"}, "type": "Feature"}, {"geometry": {"coordinates": [8.544073, 47.410508], "type": "Point"}, "properties": {"charge": 91, "id": "smide_8", "name": "ZH253861", "provider": "smide", "range": 45.0, "size": 17, "time": "01/28/2020, 17:08:39"}, "type": "Feature"}, {"geometry": {"coordinates": [8.52584, 47.368908], "type": "Point"}, "properties": {"charge": 100, "id": "smide_45", "name": "ZH253716", "provider": "smide", "range": 50.0, "size": 17, "time": "01/28/2020, 17:08:39"}, "type": "Feature"}, {"geometry": {"coordinates": [8.504689, 47.399808], "type": "Point"}, "properties": {"charge": 95, "id": "smide_188", "name": "ZH261543", "provider": "smide", "range": 47.0, "size": 20, "time": "01/28/2020, 17:08:39"}, "type": "Feature"}, {"geometry": {"coordinates": [8.512843, 47.398916], "type": "Point"}, "properties": {"charge": 32, "id": "smide_101", "name": "ZH253814", "provider": "smide", "range": 16.0, "size": 17, "time": "01/28/2020, 17:08:39"}, "type": "Feature"}, {"geometry": {"coordinates": [8.519903, 47.364296], "type": "Point"}, "properties": {"charge": 90, "id": "smide_9", "name": "ZH253796", "provider": "smide", "range": 45.0, "size": 17, "time": "01/28/2020, 17:08:39"}, "type": "Feature"}, {"geometry": {"coordinates": [8.50596, 47.381376], "type": "Point"}, "properties": {"charge": 60, "id": "smide_143", "name": "ZH253778", "provider": "smide", "range": 30.0, "size": 17, "time": "01/28/2020, 17:08:39"}, "type": "Feature"}, {"geometry": {"coordinates": [8.549911, 47.398464], "type": "Point"}, "properties": {"charge": 40, "id": "smide_20", "name": "ZH253770", "provider": "smide", "range": 20.0, "size": 20, "time": "01/28/2020, 17:08:39"}, "type": "Feature"}, {"geometry": {"coordinates": [8.509379, 47.354948], "type": "Point"}, "properties": {"charge": 90, "id": "smide_50", "name": "ZH253853", "provider": "smide", "range": 45.0, "size": 17, "time": "01/28/2020, 17:08:39"}, "type": "Feature"}, {"geometry": {"coordinates": [8.498038, 47.366093], "type": "Point"}, "properties": {"charge": 63, "id": "smide_30", "name": "ZH253813", "provider": "smide", "range": 31.0, "size": 20, "time": "01/28/2020, 17:08:39"}, "type": "Feature"}, {"geometry": {"coordinates": [8.545946, 47.370138], "type": "Point"}, "properties": {"charge": 70, "id": "smide_10", "name": "ZH253855", "provider": "smide", "range": 35.0, "size": 17, "time": "01/28/2020, 17:08:39"}, "type": "Feature"}, {"geometry": {"coordinates": [8.52849, 47.382684], "type": "Point"}, "properties": {"charge": 80, "id": "smide_165", "name": "ZH253752", "provider": "smide", "range": 40.0, "size": 17, "time": "01/28/2020, 17:08:39"}, "type": "Feature"}, {"geometry": {"coordinates": [8.552144, 47.414372], "type": "Point"}, "properties": {"charge": 67, "id": "smide_119", "name": "ZH253686", "provider": "smide", "range": 33.0, "size": 20, "time": "01/28/2020, 17:08:39"}, "type": "Feature"}, {"geometry": {"coordinates": [8.543596, 47.411212], "type": "Point"}, "properties": {"charge": 56, "id": "smide_76", "name": "ZH253764", "provider": "smide", "range": 28.0, "size": 17, "time": "01/28/2020, 17:08:39"}, "type": "Feature"}, {"geometry": {"coordinates": [8.56041, 47.368224], "type": "Point"}, "properties": {"charge": 29, "id": "smide_129", "name": "ZH261378", "provider": "smide", "range": 14.0, "size": 17, "time": "01/28/2020, 17:08:39"}, "type": "Feature"}, {"geometry": {"coordinates": [8.524551, 47.3605], "type": "Point"}, "properties": {"charge": 52, "id": "smide_49", "name": "ZH253873", "provider": "smide", "range": 26.0, "size": 17, "time": "01/28/2020, 17:08:39"}, "type": "Feature"}, {"geometry": {"coordinates": [8.550332, 47.398264], "type": "Point"}, "properties": {"charge": 83, "id": "smide_94", "name": "ZH253754", "provider": "smide", "range": 41.0, "size": 17, "time": "01/28/2020, 17:08:39"}, "type": "Feature"}, {"geometry": {"coordinates": [8.560143, 47.381348], "type": "Point"}, "properties": {"charge": 59, "id": "smide_37", "name": "ZH261377", "provider": "smide", "range": 29.0, "size": 20, "time": "01/28/2020, 17:08:39"}, "type": "Feature"}, {"geometry": {"coordinates": [8.537216, 47.380023], "type": "Point"}, "properties": {"charge": 70, "id": "smide_191", "name": "ZH253762", "provider": "smide", "range": 35.0, "size": 17, "time": "01/28/2020, 17:08:39"}, "type": "Feature"}, {"geometry": {"coordinates": [8.51272, 47.35963], "type": "Point"}, "properties": {"charge": 88, "id": "smide_202", "name": "ZH253830", "provider": "smide", "range": 44.0, "size": 17, "time": "01/28/2020, 17:08:39"}, "type": "Feature"}, {"geometry": {"coordinates": [8.574884, 47.373248], "type": "Point"}, "properties": {"charge": 100, "id": "smide_56", "name": "ZH261442", "provider": "smide", "range": 50.0, "size": 20, "time": "01/28/2020, 17:08:39"}, "type": "Feature"}, {"geometry": {"coordinates": [8.56702, 47.361326], "type": "Point"}, "properties": {"charge": 57, "id": "smide_47", "name": "ZH253858", "provider": "smide", "range": 28.0, "size": 17, "time": "01/28/2020, 17:08:39"}, "type": "Feature"}, {"geometry": {"coordinates": [8.540605, 47.388328], "type": "Point"}, "properties": {"charge": 67, "id": "smide_150", "name": "ZH253703", "provider": "smide", "range": 33.0, "size": 20, "time": "01/28/2020, 17:08:39"}, "type": "Feature"}, {"geometry": {"coordinates": [8.513355, 47.361776], "type": "Point"}, "properties": {"charge": 57, "id": "smide_181", "name": "ZH253815", "provider": "smide", "range": 28.0, "size": 17, "time": "01/28/2020, 17:08:39"}, "type": "Feature"}, {"geometry": {"coordinates": [8.537116, 47.375512], "type": "Point"}, "properties": {"charge": 81, "id": "smide_66", "name": "ZH253818", "provider": "smide", "range": 40.0, "size": 20, "time": "01/28/2020, 17:08:39"}, "type": "Feature"}, {"geometry": {"coordinates": [8.49869, 47.365313], "type": "Point"}, "properties": {"charge": 73, "id": "smide_17", "name": "ZH253793", "provider": "smide", "range": 36.0, "size": 17, "time": "01/28/2020, 17:08:39"}, "type": "Feature"}, {"geometry": {"coordinates": [8.563237, 47.3827], "type": "Point"}, "properties": {"charge": 74, "id": "smide_114", "name": "ZH253878", "provider": "smide", "range": 37.0, "size": 20, "time": "01/28/2020, 17:08:39"}, "type": "Feature"}, {"geometry": {"coordinates": [8.521629, 47.358048], "type": "Point"}, "properties": {"charge": 78, "id": "smide_203", "name": "ZH261547", "provider": "smide", "range": 39.0, "size": 17, "time": "01/28/2020, 17:08:39"}, "type": "Feature"}, {"geometry": {"coordinates": [8.538516, 47.369368], "type": "Point"}, "properties": {"charge": 67, "id": "smide_189", "name": "ZH253845", "provider": "smide", "range": 33.0, "size": 20, "time": "01/28/2020, 17:08:39"}, "type": "Feature"}, {"geometry": {"coordinates": [8.554266, 47.379564], "type": "Point"}, "properties": {"charge": 62, "id": "smide_81", "name": "ZH253753", "provider": "smide", "range": 31.0, "size": 17, "time": "01/28/2020, 17:08:39"}, "type": "Feature"}, {"geometry": {"coordinates": [8.498731, 47.402216], "type": "Point"}, "properties": {"charge": 13, "id": "smide_148", "name": "ZH253844", "provider": "smide", "range": 6.0, "size": 20, "time": "01/28/2020, 17:08:39"}, "type": "Feature"}, {"geometry": {"coordinates": [8.538354, 47.372324], "type": "Point"}, "properties": {"charge": 100, "id": "smide_171", "name": "ZH253689", "provider": "smide", "range": 50.0, "size": 20, "time": "01/28/2020, 17:08:39"}, "type": "Feature"}, {"geometry": {"coordinates": [8.524362, 47.39586], "type": "Point"}, "properties": {"charge": 28, "id": "smide_93", "name": "ZH253681", "provider": "smide", "range": 14.0, "size": 17, "time": "01/28/2020, 17:08:39"}, "type": "Feature"}, {"geometry": {"coordinates": [8.51974, 47.371828], "type": "Point"}, "properties": {"charge": 71, "id": "smide_133", "name": "ZH253848", "provider": "smide", "range": 35.0, "size": 20, "time": "01/28/2020, 17:08:39"}, "type": "Feature"}, {"geometry": {"coordinates": [8.480025, 47.385426], "type": "Point"}, "properties": {"charge": 77, "id": "smide_118", "name": "ZH253759", "provider": "smide", "range": 38.0, "size": 20, "time": "01/28/2020, 17:08:39"}, "type": "Feature"}, {"geometry": {"coordinates": [8.533584, 47.380392], "type": "Point"}, "properties": {"charge": 50, "id": "smide_142", "name": "ZH258745", "provider": "smide", "range": 25.0, "size": 17, "time": "01/28/2020, 17:08:39"}, "type": "Feature"}, {"geometry": {"coordinates": [8.539336, 47.388241], "type": "Point"}, "properties": {"charge": 90, "id": "smide_166", "name": "ZH253728", "provider": "smide", "range": 45.0, "size": 17, "time": "01/28/2020, 17:08:39"}, "type": "Feature"}, {"geometry": {"coordinates": [8.478422, 47.389576], "type": "Point"}, "properties": {"charge": 31, "id": "smide_126", "name": "ZH268400", "provider": "smide", "range": 15.0, "size": 17, "time": "01/28/2020, 17:08:39"}, "type": "Feature"}, {"geometry": {"coordinates": [8.490941, 47.372133], "type": "Point"}, "properties": {"charge": 23, "id": "smide_44", "name": "ZH253837", "provider": "smide", "range": 11.0, "size": 17, "time": "01/28/2020, 17:08:39"}, "type": "Feature"}, {"geometry": {"coordinates": [8.51505, 47.396006], "type": "Point"}, "properties": {"charge": 31, "id": "smide_98", "name": "ZH256321", "provider": "smide", "range": 15.0, "size": 17, "time": "01/28/2020, 17:08:39"}, "type": "Feature"}, {"geometry": {"coordinates": [8.572164, 47.352688], "type": "Point"}, "properties": {"charge": 100, "id": "smide_154", "name": "ZH253744", "provider": "smide", "range": 50.0, "size": 20, "time": "01/28/2020, 17:08:39"}, "type": "Feature"}, {"geometry": {"coordinates": [8.516171, 47.396948], "type": "Point"}, "properties": {"charge": 49, "id": "smide_92", "name": "ZH253798", "provider": "smide", "range": 24.0, "size": 17, "time": "01/28/2020, 17:08:39"}, "type": "Feature"}, {"geometry": {"coordinates": [8.546956, 47.422805], "type": "Point"}, "properties": {"charge": 100, "id": "smide_167", "name": "ZH253854", "provider": "smide", "range": 50.0, "size": 17, "time": "01/28/2020, 17:08:39"}, "type": "Feature"}, {"geometry": {"coordinates": [8.560699, 47.37222], "type": "Point"}, "properties": {"charge": 42, "id": "smide_65", "name": "ZH253810", "provider": "smide", "range": 21.0, "size": 17, "time": "01/28/2020, 17:08:39"}, "type": "Feature"}, {"geometry": {"coordinates": [8.521572, 47.41074], "type": "Point"}, "properties": {"charge": 97, "id": "smide_111", "name": "ZH253763", "provider": "smide", "range": 48.0, "size": 17, "time": "01/28/2020, 17:08:39"}, "type": "Feature"}, {"geometry": {"coordinates": [8.510044, 47.42558], "type": "Point"}, "properties": {"charge": 81, "id": "smide_40", "name": "ZH253690", "provider": "smide", "range": 40.0, "size": 20, "time": "01/28/2020, 17:08:39"}, "type": "Feature"}, {"geometry": {"coordinates": [8.563825, 47.348156], "type": "Point"}, "properties": {"charge": 44, "id": "smide_1", "name": "ZH253776", "provider": "smide", "range": 22.0, "size": 17, "time": "01/28/2020, 17:08:39"}, "type": "Feature"}, {"geometry": {"coordinates": [8.556614, 47.353572], "type": "Point"}, "properties": {"charge": 74, "id": "smide_28", "name": "ZH253831", "provider": "smide", "range": 37.0, "size": 17, "time": "01/28/2020, 17:08:39"}, "type": "Feature"}, {"geometry": {"coordinates": [8.556965, 47.405324], "type": "Point"}, "properties": {"charge": 62, "id": "smide_130", "name": "ZH253847", "provider": "smide", "range": 31.0, "size": 20, "time": "01/28/2020, 17:08:39"}, "type": "Feature"}, {"geometry": {"coordinates": [8.540452, 47.378628], "type": "Point"}, "properties": {"charge": 80, "id": "smide_24", "name": "ZH253696", "provider": "smide", "range": 40.0, "size": 20, "time": "01/28/2020, 17:08:39"}, "type": "Feature"}, {"geometry": {"coordinates": [8.514768, 47.35548], "type": "Point"}, "properties": {"charge": 100, "id": "smide_193", "name": "ZH253738", "provider": "smide", "range": 50.0, "size": 20, "time": "01/28/2020, 17:08:39"}, "type": "Feature"}, {"geometry": {"coordinates": [8.487276, 47.384405], "type": "Point"}, "properties": {"charge": 100, "id": "smide_158", "name": "ZH253870", "provider": "smide", "range": 50.0, "size": 20, "time": "01/28/2020, 17:08:39"}, "type": "Feature"}, {"geometry": {"coordinates": [8.494302, 47.4243], "type": "Point"}, "properties": {"charge": 23, "id": "smide_100", "name": "ZH253862", "provider": "smide", "range": 11.0, "size": 20, "time": "01/28/2020, 17:08:39"}, "type": "Feature"}, {"geometry": {"coordinates": [8.55182, 47.389228], "type": "Point"}, "properties": {"charge": 86, "id": "smide_134", "name": "ZH253741", "provider": "smide", "range": 43.0, "size": 20, "time": "01/28/2020, 17:08:39"}, "type": "Feature"}, {"geometry": {"coordinates": [8.516483, 47.370511], "type": "Point"}, "properties": {"charge": 99, "id": "smide_141", "name": "ZH253800", "provider": "smide", "range": 49.0, "size": 20, "time": "01/28/2020, 17:08:39"}, "type": "Feature"}, {"geometry": {"coordinates": [8.543918, 47.408458], "type": "Point"}, "properties": {"charge": 90, "id": "smide_149", "name": "ZH253743", "provider": "smide", "range": 45.0, "size": 20, "time": "01/28/2020, 17:08:39"}, "type": "Feature"}, {"geometry": {"coordinates": [8.551197, 47.41522], "type": "Point"}, "properties": {"charge": 59, "id": "smide_16", "name": "ZH253713", "provider": "smide", "range": 29.0, "size": 20, "time": "01/28/2020, 17:08:39"}, "type": "Feature"}, {"geometry": {"coordinates": [8.547247, 47.387548], "type": "Point"}, "properties": {"charge": 37, "id": "smide_74", "name": "ZH253693", "provider": "smide", "range": 18.0, "size": 20, "time": "01/28/2020, 17:08:39"}, "type": "Feature"}, {"geometry": {"coordinates": [8.496498, 47.392528], "type": "Point"}, "properties": {"charge": 100, "id": "smide_33", "name": "ZH253782", "provider": "smide", "range": 50.0, "size": 20, "time": "01/28/2020, 17:08:39"}, "type": "Feature"}, {"geometry": {"coordinates": [8.517596, 47.367541], "type": "Point"}, "properties": {"charge": 98, "id": "smide_183", "name": "ZH253868", "provider": "smide", "range": 49.0, "size": 17, "time": "01/28/2020, 17:08:39"}, "type": "Feature"}, {"geometry": {"coordinates": [8.483365, 47.374628], "type": "Point"}, "properties": {"charge": 100, "id": "smide_42", "name": "ZH253846", "provider": "smide", "range": 50.0, "size": 20, "time": "01/28/2020, 17:08:39"}, "type": "Feature"}, {"geometry": {"coordinates": [8.542502, 47.411968], "type": "Point"}, "properties": {"charge": 85, "id": "smide_4", "name": "ZH253740", "provider": "smide", "range": 42.0, "size": 20, "time": "01/28/2020, 17:08:39"}, "type": "Feature"}, {"geometry": {"coordinates": [8.548623, 47.385772], "type": "Point"}, "properties": {"charge": 98, "id": "smide_160", "name": "ZH253722", "provider": "smide", "range": 49.0, "size": 17, "time": "01/28/2020, 17:08:39"}, "type": "Feature"}, {"geometry": {"coordinates": [8.521376, 47.367723], "type": "Point"}, "properties": {"charge": 67, "id": "smide_137", "name": "ZH258502", "provider": "smide", "range": 33.0, "size": 17, "time": "01/28/2020, 17:08:39"}, "type": "Feature"}, {"geometry": {"coordinates": [8.478561, 47.3924], "type": "Point"}, "properties": {"charge": 38, "id": "smide_178", "name": "ZH253803", "provider": "smide", "range": 19.0, "size": 17, "time": "01/28/2020, 17:08:39"}, "type": "Feature"}, {"geometry": {"coordinates": [8.476693, 47.387336], "type": "Point"}, "properties": {"charge": 88, "id": "smide_55", "name": "ZH253875", "provider": "smide", "range": 44.0, "size": 17, "time": "01/28/2020, 17:08:39"}, "type": "Feature"}, {"geometry": {"coordinates": [8.541522, 47.382596], "type": "Point"}, "properties": {"charge": 77, "id": "smide_96", "name": "ZH256146", "provider": "smide", "range": 38.0, "size": 20, "time": "01/28/2020, 17:08:39"}, "type": "Feature"}, {"geometry": {"coordinates": [8.560267, 47.382168], "type": "Point"}, "properties": {"charge": 100, "id": "smide_54", "name": "ZH253874", "provider": "smide", "range": 50.0, "size": 20, "time": "01/28/2020, 17:08:39"}, "type": "Feature"}, {"geometry": {"coordinates": [8.493252, 47.394496], "type": "Point"}, "properties": {"charge": 86, "id": "smide_175", "name": "ZH253730", "provider": "smide", "range": 43.0, "size": 17, "time": "01/28/2020, 17:08:39"}, "type": "Feature"}, {"geometry": {"coordinates": [8.574546, 47.372284], "type": "Point"}, "properties": {"charge": 100, "id": "smide_163", "name": "ZH256147", "provider": "smide", "range": 50.0, "size": 20, "time": "01/28/2020, 17:08:39"}, "type": "Feature"}, {"geometry": {"coordinates": [8.514429, 47.357888], "type": "Point"}, "properties": {"charge": 44, "id": "smide_112", "name": "ZH263530", "provider": "smide", "range": 22.0, "size": 20, "time": "01/28/2020, 17:08:39"}, "type": "Feature"}, {"geometry": {"coordinates": [8.531902, 47.368984], "type": "Point"}, "properties": {"charge": 100, "id": "smide_122", "name": "ZH253850", "provider": "smide", "range": 50.0, "size": 20, "time": "01/28/2020, 17:08:39"}, "type": "Feature"}, {"geometry": {"coordinates": [8.561506, 47.350056], "type": "Point"}, "properties": {"charge": 42, "id": "smide_38", "name": "ZH253851", "provider": "smide", "range": 21.0, "size": 20, "time": "01/28/2020, 17:08:39"}, "type": "Feature"}, {"geometry": {"coordinates": [8.536553, 47.378004], "type": "Point"}, "properties": {"charge": 88, "id": "smide_6", "name": "ZH253787", "provider": "smide", "range": 44.0, "size": 17, "time": "01/28/2020, 17:08:39"}, "type": "Feature"}, {"geometry": {"coordinates": [8.511019, 47.364828], "type": "Point"}, "properties": {"charge": 41, "id": "smide_12", "name": "ZH253685", "provider": "smide", "range": 20.0, "size": 17, "time": "01/28/2020, 17:08:39"}, "type": "Feature"}, {"geometry": {"coordinates": [8.559179, 47.35304], "type": "Point"}, "properties": {"charge": 51, "id": "smide_192", "name": "ZH253706", "provider": "smide", "range": 25.0, "size": 20, "time": "01/28/2020, 17:08:39"}, "type": "Feature"}, {"geometry": {"coordinates": [8.554449, 47.418016], "type": "Point"}, "properties": {"charge": 100, "id": "smide_39", "name": "ZH253714", "provider": "smide", "range": 50.0, "size": 20, "time": "01/28/2020, 17:08:39"}, "type": "Feature"}, {"geometry": {"coordinates": [8.557833, 47.352618], "type": "Point"}, "properties": {"charge": 100, "id": "smide_5", "name": "ZH261443", "provider": "smide", "range": 50.0, "size": 20, "time": "01/28/2020, 17:08:39"}, "type": "Feature"}, {"geometry": {"coordinates": [8.56249, 47.377656], "type": "Point"}, "properties": {"charge": 31, "id": "smide_85", "name": "ZH253729", "provider": "smide", "range": 15.0, "size": 17, "time": "01/28/2020, 17:08:39"}, "type": "Feature"}, {"geometry": {"coordinates": [8.573096, 47.404236], "type": "Point"}, "properties": {"charge": 88, "id": "smide_29", "name": "ZH253723", "provider": "smide", "range": 44.0, "size": 17, "time": "01/28/2020, 17:08:39"}, "type": "Feature"}, {"geometry": {"coordinates": [8.553648, 47.369112], "type": "Point"}, "properties": {"charge": 99, "id": "smide_48", "name": "ZH253849", "provider": "smide", "range": 49.0, "size": 20, "time": "01/28/2020, 17:08:39"}, "type": "Feature"}, {"geometry": {"coordinates": [8.514395, 47.357524], "type": "Point"}, "properties": {"charge": 100, "id": "smide_46", "name": "ZH253843", "provider": "smide", "range": 50.0, "size": 20, "time": "01/28/2020, 17:08:39"}, "type": "Feature"}, {"geometry": {"coordinates": [8.52553333333333, 47.3615266666667], "type": "Point"}, "properties": {"charge": 40, "id": "bird_49df8b36-4d13-4cdc-a62c-96a30369e8d2", "provider": "bird", "timeStamp": "01/28/2020, 17:08:38"}, "type": "Feature"}, {"geometry": {"coordinates": [8.51896833333333, 47.39711], "type": "Point"}, "properties": {"charge": 35, "id": "bird_7b48a89f-9414-4777-a7bd-8367af8fa8e9", "provider": "bird", "timeStamp": "01/28/2020, 17:08:38"}, "type": "Feature"}, {"geometry": {"coordinates": [8.54908166666667, 47.3666233333333], "type": "Point"}, "properties": {"charge": 49, "id": "bird_d25089b4-a40a-4a5f-9a78-182f7943054c", "provider": "bird", "timeStamp": "01/28/2020, 17:08:38"}, "type": "Feature"}, {"geometry": {"coordinates": [8.547235, 47.36552], "type": "Point"}, "properties": {"charge": 75, "id": "bird_426cde28-f9d2-47c3-a4b7-ed9a3bf16561", "provider": "bird", "timeStamp": "01/28/2020, 17:08:38"}, "type": "Feature"}, {"geometry": {"coordinates": [8.5557, 47.3739966666667], "type": "Point"}, "properties": {"charge": 54, "id": "bird_88987b5e-64b9-402c-b4e5-3cbc8e35f69f", "provider": "bird", "timeStamp": "01/28/2020, 17:08:38"}, "type": "Feature"}, {"geometry": {"coordinates": [8.51547166666667, 47.3644833333333], "type": "Point"}, "properties": {"charge": 37, "id": "bird_c8614e1f-3570-454f-ac8f-dc9e8c1bc100", "provider": "bird", "timeStamp": "01/28/2020, 17:08:38"}, "type": "Feature"}, {"geometry": {"coordinates": [8.532955, 47.398205], "type": "Point"}, "properties": {"charge": 87, "id": "bird_a08d652f-d035-446c-aca0-5559039ee9dc", "provider": "bird", "timeStamp": "01/28/2020, 17:08:38"}, "type": "Feature"}, {"geometry": {"coordinates": [8.54778166666667, 47.3662566666667], "type": "Point"}, "properties": {"charge": 75, "id": "bird_b75015be-00b8-43b7-a571-026e5a977916", "provider": "bird", "timeStamp": "01/28/2020, 17:08:38"}, "type": "Feature"}, {"geometry": {"coordinates": [8.548065, 47.3664583333333], "type": "Point"}, "properties": {"charge": 48, "id": "bird_df2aaf53-ea27-40d4-92dc-ecc70fcc1304", "provider": "bird", "timeStamp": "01/28/2020, 17:08:38"}, "type": "Feature"}, {"geometry": {"coordinates": [8.54073166666667, 47.3967316666667], "type": "Point"}, "properties": {"charge": 11, "id": "bird_5d485547-0643-4fe9-a526-caf9fb52bfbf", "provider": "bird", "timeStamp": "01/28/2020, 17:08:38"}, "type": "Feature"}, {"geometry": {"coordinates": [8.54784833333333, 47.3663933333333], "type": "Point"}, "properties": {"charge": 70, "id": "bird_ab69c6fc-aba0-464f-8adb-ee5fa201358c", "provider": "bird", "timeStamp": "01/28/2020, 17:08:38"}, "type": "Feature"}, {"geometry": {"coordinates": [8.54808166666667, 47.366555], "type": "Point"}, "properties": {"charge": 67, "id": "bird_15957986-4bc6-4bf2-953a-32a85bf4b2a4", "provider": "bird", "timeStamp": "01/28/2020, 17:08:38"}, "type": "Feature"}, {"geometry": {"coordinates": [8.54804833333333, 47.366555], "type": "Point"}, "properties": {"charge": 71, "id": "bird_6b31a9d8-93dc-4a25-b69d-8e16b7362be7", "provider": "bird", "timeStamp": "01/28/2020, 17:08:38"}, "type": "Feature"}, {"geometry": {"coordinates": [8.54810166666667, 47.3665883333333], "type": "Point"}, "properties": {"charge": 56, "id": "bird_06ecccd2-1064-4171-adbd-905f6468c4f8", "provider": "bird", "timeStamp": "01/28/2020, 17:08:38"}, "type": "Feature"}, {"geometry": {"coordinates": [8.54778333333333, 47.3664016666667], "type": "Point"}, "properties": {"charge": 75, "id": "bird_55a13891-ebf6-4dd9-a351-dcc07a6a658a", "provider": "bird", "timeStamp": "01/28/2020, 17:08:38"}, "type": "Feature"}, {"geometry": {"coordinates": [8.504745, 47.3858983333333], "type": "Point"}, "properties": {"charge": 49, "id": "bird_e972ae19-0bfa-4f1c-88f3-000d184f3da0", "provider": "bird", "timeStamp": "01/28/2020, 17:08:38"}, "type": "Feature"}, {"geometry": {"coordinates": [8.50412166666667, 47.3792416666667], "type": "Point"}, "properties": {"charge": 65, "id": "bird_14c04621-ee94-464d-90fb-27c9101e0ed4", "provider": "bird", "timeStamp": "01/28/2020, 17:08:38"}, "type": "Feature"}, {"geometry": {"coordinates": [8.53240333333333, 47.3625416666667], "type": "Point"}, "properties": {"charge": 35, "id": "bird_9bb368ba-127c-43c7-85d4-69aa66afd401", "provider": "bird", "timeStamp": "01/28/2020, 17:08:38"}, "type": "Feature"}, {"geometry": {"coordinates": [8.532315, 47.362595], "type": "Point"}, "properties": {"charge": 42, "id": "bird_a780eb31-8c0a-42f0-8e82-c2792df042e5", "provider": "bird", "timeStamp": "01/28/2020, 17:08:38"}, "type": "Feature"}, {"geometry": {"coordinates": [8.54720166666667, 47.3671683333333], "type": "Point"}, "properties": {"charge": 64, "id": "bird_472c5515-891c-4230-93bd-9aa9c3d4d4e1", "provider": "bird", "timeStamp": "01/28/2020, 17:08:38"}, "type": "Feature"}, {"geometry": {"coordinates": [8.54728166666667, 47.3672416666667], "type": "Point"}, "properties": {"charge": 80, "id": "bird_f748a8b4-42c2-4ac5-b384-6d8b4f21fb90", "provider": "bird", "timeStamp": "01/28/2020, 17:08:38"}, "type": "Feature"}, {"geometry": {"coordinates": [8.52342, 47.3967216666667], "type": "Point"}, "properties": {"charge": 75, "id": "bird_fa44017e-5c99-429d-92d6-bab170ce2c9a", "provider": "bird", "timeStamp": "01/28/2020, 17:08:38"}, "type": "Feature"}, {"geometry": {"coordinates": [8.51411166666667, 47.3934483333333], "type": "Point"}, "properties": {"charge": 29, "id": "bird_aa47cbd4-dcf4-4ad1-b361-bd9a78e0d102", "provider": "bird", "timeStamp": "01/28/2020, 17:08:38"}, "type": "Feature"}, {"geometry": {"coordinates": [8.53246166666667, 47.3628916666667], "type": "Point"}, "properties": {"charge": 75, "id": "bird_165ae50a-7d95-40f2-bba2-04005ced9cbd", "provider": "bird", "timeStamp": "01/28/2020, 17:08:38"}, "type": "Feature"}, {"geometry": {"coordinates": [8.55317333333333, 47.3734816666667], "type": "Point"}, "properties": {"charge": 73, "id": "bird_c7c154c1-9e0d-47f4-a144-a649bc6c2de4", "provider": "bird", "timeStamp": "01/28/2020, 17:08:38"}, "type": "Feature"}, {"geometry": {"coordinates": [8.544845, 47.3663216666667], "type": "Point"}, "properties": {"charge": 80, "id": "bird_88773f9e-2b27-43c5-a4fe-4438d30236fe", "provider": "bird", "timeStamp": "01/28/2020, 17:08:38"}, "type": "Feature"}, {"geometry": {"coordinates": [8.53224333333333, 47.36317], "type": "Point"}, "properties": {"charge": 76, "id": "bird_9e488f7d-9990-444e-ad34-f07cca4ba464", "provider": "bird", "timeStamp": "01/28/2020, 17:08:38"}, "type": "Feature"}, {"geometry": {"coordinates": [8.553175, 47.3740533333333], "type": "Point"}, "properties": {"charge": 16, "id": "bird_e2d694bf-a04d-4257-a6f5-d13b1c767c07", "provider": "bird", "timeStamp": "01/28/2020, 17:08:38"}, "type": "Feature"}, {"geometry": {"coordinates": [8.54849833333333, 47.3903883333333], "type": "Point"}, "properties": {"charge": 25, "id": "bird_4cd7d7c5-8084-4399-b911-eb320af13c36", "provider": "bird", "timeStamp": "01/28/2020, 17:08:38"}, "type": "Feature"}, {"geometry": {"coordinates": [8.52453833333333, 47.3958433333333], "type": "Point"}, "properties": {"charge": 48, "id": "bird_d1a55704-1c08-4c2e-a075-329c6c1f2bf9", "provider": "bird", "timeStamp": "01/28/2020, 17:08:38"}, "type": "Feature"}, {"geometry": {"coordinates": [8.53157166666667, 47.3639633333333], "type": "Point"}, "properties": {"charge": 78, "id": "bird_3ca1c68d-734e-4659-a692-26a1136c0cd7", "provider": "bird", "timeStamp": "01/28/2020, 17:08:38"}, "type": "Feature"}, {"geometry": {"coordinates": [8.53159166666667, 47.364045], "type": "Point"}, "properties": {"charge": 82, "id": "bird_c61862f4-6a99-4eed-9de3-3b969c6ed684", "provider": "bird", "timeStamp": "01/28/2020, 17:08:38"}, "type": "Feature"}, {"geometry": {"coordinates": [8.54508, 47.3677666666667], "type": "Point"}, "properties": {"charge": 67, "id": "bird_a56801ec-207d-4bbe-9daa-36679cc482a8", "provider": "bird", "timeStamp": "01/28/2020, 17:08:38"}, "type": "Feature"}, {"geometry": {"coordinates": [8.53161666666667, 47.364205], "type": "Point"}, "properties": {"charge": 78, "id": "bird_8034e203-521e-4ffa-865a-f3b7bb69d8b5", "provider": "bird", "timeStamp": "01/28/2020, 17:08:38"}, "type": "Feature"}, {"geometry": {"coordinates": [8.53170333333333, 47.3642166666667], "type": "Point"}, "properties": {"charge": 71, "id": "bird_94545041-8c09-473b-b033-476b877965f2", "provider": "bird", "timeStamp": "01/28/2020, 17:08:38"}, "type": "Feature"}, {"geometry": {"coordinates": [8.51486, 47.367965], "type": "Point"}, "properties": {"charge": 27, "id": "bird_49fb1c6d-9a53-4492-a584-5f68759c123c", "provider": "bird", "timeStamp": "01/28/2020, 17:08:38"}, "type": "Feature"}, {"geometry": {"coordinates": [8.53961833333333, 47.3656383333333], "type": "Point"}, "properties": {"charge": 84, "id": "bird_7bf04543-ebcd-43f4-8a9f-d9068ce4a996", "provider": "bird", "timeStamp": "01/28/2020, 17:08:38"}, "type": "Feature"}, {"geometry": {"coordinates": [8.53894, 47.3655583333333], "type": "Point"}, "properties": {"charge": 66, "id": "bird_0dae2de2-566b-4727-9550-7a07d94b4694", "provider": "bird", "timeStamp": "01/28/2020, 17:08:38"}, "type": "Feature"}, {"geometry": {"coordinates": [8.54084666666667, 47.3662116666667], "type": "Point"}, "properties": {"charge": 78, "id": "bird_a1e3cdcb-e228-45b7-95bf-25e326bd1966", "provider": "bird", "timeStamp": "01/28/2020, 17:08:38"}, "type": "Feature"}, {"geometry": {"coordinates": [8.54101166666667, 47.3662866666667], "type": "Point"}, "properties": {"charge": 79, "id": "bird_5a09278a-7833-4e06-aab3-c014cfc2bfc9", "provider": "bird", "timeStamp": "01/28/2020, 17:08:38"}, "type": "Feature"}, {"geometry": {"coordinates": [8.54082333333333, 47.366245], "type": "Point"}, "properties": {"charge": 89, "id": "bird_8debb2d5-a9be-461c-a601-fc13d240eaa7", "provider": "bird", "timeStamp": "01/28/2020, 17:08:38"}, "type": "Feature"}, {"geometry": {"coordinates": [8.53326166666667, 47.3646016666667], "type": "Point"}, "properties": {"charge": 89, "id": "bird_9e96fac3-f4c0-465a-b4e3-7c1350e41f12", "provider": "bird", "timeStamp": "01/28/2020, 17:08:38"}, "type": "Feature"}, {"geometry": {"coordinates": [8.53278833333333, 47.364685], "type": "Point"}, "properties": {"charge": 37, "id": "bird_2d993c0d-9aed-4ee4-b5bf-a5f20814dfc9", "provider": "bird", "timeStamp": "01/28/2020, 17:08:38"}, "type": "Feature"}, {"geometry": {"coordinates": [8.5442, 47.367955], "type": "Point"}, "properties": {"charge": 82, "id": "bird_100b7201-74c8-451d-a6a1-8f46bc1ce3f1", "provider": "bird", "timeStamp": "01/28/2020, 17:08:38"}, "type": "Feature"}, {"geometry": {"coordinates": [8.53059333333333, 47.3647583333333], "type": "Point"}, "properties": {"charge": 63, "id": "bird_a71278ea-cccb-4115-9068-f377e9dc4d8a", "provider": "bird", "timeStamp": "01/28/2020, 17:08:38"}, "type": "Feature"}, {"geometry": {"coordinates": [8.53078333333333, 47.3649066666667], "type": "Point"}, "properties": {"charge": 40, "id": "bird_d50bd51c-2d7c-4761-9490-f71a0034c264", "provider": "bird", "timeStamp": "01/28/2020, 17:08:38"}, "type": "Feature"}, {"geometry": {"coordinates": [8.51289, 47.3704216666667], "type": "Point"}, "properties": {"charge": 28, "id": "bird_a4284f1b-0e2f-4b6d-8ca7-2160e1336398", "provider": "bird", "timeStamp": "01/28/2020, 17:08:38"}, "type": "Feature"}, {"geometry": {"coordinates": [8.51469166666667, 47.3907966666667], "type": "Point"}, "properties": {"charge": 74, "id": "bird_1fc27374-d48e-4ba6-a482-5498b71ec0bf", "provider": "bird", "timeStamp": "01/28/2020, 17:08:38"}, "type": "Feature"}, {"geometry": {"coordinates": [8.52538166666667, 47.3946033333333], "type": "Point"}, "properties": {"charge": 57, "id": "bird_34226415-f3c1-4e27-b28a-33d350bd433e", "provider": "bird", "timeStamp": "01/28/2020, 17:08:38"}, "type": "Feature"}, {"geometry": {"coordinates": [8.52107166666667, 47.3666683333333], "type": "Point"}, "properties": {"charge": 54, "id": "bird_6f783e5e-2bde-463e-8ada-c27c4bf3a2cc", "provider": "bird", "timeStamp": "01/28/2020, 17:08:38"}, "type": "Feature"}, {"geometry": {"coordinates": [8.53209333333333, 47.3655166666667], "type": "Point"}, "properties": {"charge": 63, "id": "bird_919dd6a9-7e40-4d1e-980d-554890686216", "provider": "bird", "timeStamp": "01/28/2020, 17:08:38"}, "type": "Feature"}, {"geometry": {"coordinates": [8.51645333333333, 47.3912083333333], "type": "Point"}, "properties": {"charge": 34, "id": "bird_b25cc874-0bbb-40e3-ac10-70f1de5a8152", "provider": "bird", "timeStamp": "01/28/2020, 17:08:38"}, "type": "Feature"}, {"geometry": {"coordinates": [8.51396333333333, 47.3704566666667], "type": "Point"}, "properties": {"charge": 36, "id": "bird_bf9ac7dd-7428-4592-8cca-144aebc918ec", "provider": "bird", "timeStamp": "01/28/2020, 17:08:38"}, "type": "Feature"}, {"geometry": {"coordinates": [8.51398666666667, 47.3895233333333], "type": "Point"}, "properties": {"charge": 44, "id": "bird_a8e1f205-3666-49a8-bc3a-42000a4ff874", "provider": "bird", "timeStamp": "01/28/2020, 17:08:38"}, "type": "Feature"}, {"geometry": {"coordinates": [8.53654166666667, 47.3663516666667], "type": "Point"}, "properties": {"charge": 21, "id": "bird_aa4256a7-fe42-4dc5-9450-f04ef9071624", "provider": "bird", "timeStamp": "01/28/2020, 17:08:38"}, "type": "Feature"}, {"geometry": {"coordinates": [8.549885, 47.384625], "type": "Point"}, "properties": {"charge": 11, "id": "bird_ad6e1878-7ff8-459e-8fdc-cad35de15f9d", "provider": "bird", "timeStamp": "01/28/2020, 17:08:38"}, "type": "Feature"}, {"geometry": {"coordinates": [8.53824166666667, 47.3669466666667], "type": "Point"}, "properties": {"charge": 72, "id": "bird_7919090f-2088-43ee-9f55-3029e7cfe852", "provider": "bird", "timeStamp": "01/28/2020, 17:08:38"}, "type": "Feature"}, {"geometry": {"coordinates": [8.5183, 47.3916466666667], "type": "Point"}, "properties": {"charge": 10, "id": "bird_84ed9f47-29b5-478c-8be4-0965c79f7fad", "provider": "bird", "timeStamp": "01/28/2020, 17:08:38"}, "type": "Feature"}, {"geometry": {"coordinates": [8.52302166666667, 47.3668016666667], "type": "Point"}, "properties": {"charge": 47, "id": "bird_f85776fb-2dc7-45ad-9765-103d143d58fe", "provider": "bird", "timeStamp": "01/28/2020, 17:08:38"}, "type": "Feature"}, {"geometry": {"coordinates": [8.53243666666667, 47.3939166666667], "type": "Point"}, "properties": {"charge": 71, "id": "bird_43500f9b-7ec5-44d9-ba78-e2b9e8677dcf", "provider": "bird", "timeStamp": "01/28/2020, 17:08:38"}, "type": "Feature"}, {"geometry": {"coordinates": [8.53533666666667, 47.3665016666667], "type": "Point"}, "properties": {"charge": 34, "id": "bird_2e4f1b9c-336a-4415-a5e5-321d5a70b7ec", "provider": "bird", "timeStamp": "01/28/2020, 17:08:38"}, "type": "Feature"}, {"geometry": {"coordinates": [8.53960166666667, 47.367725], "type": "Point"}, "properties": {"charge": 51, "id": "bird_499220e0-fc45-456a-ae30-f837475a3f61", "provider": "bird", "timeStamp": "01/28/2020, 17:08:38"}, "type": "Feature"}, {"geometry": {"coordinates": [8.50974833333333, 47.3781966666667], "type": "Point"}, "properties": {"charge": 98, "id": "bird_be154ec0-228b-4b98-bcb0-e930790fbd5e", "provider": "bird", "timeStamp": "01/28/2020, 17:08:38"}, "type": "Feature"}, {"geometry": {"coordinates": [8.509925, 47.378135], "type": "Point"}, "properties": {"charge": 92, "id": "bird_0337e1dd-6409-46f6-b704-fd2b7469b320", "provider": "bird", "timeStamp": "01/28/2020, 17:08:38"}, "type": "Feature"}, {"geometry": {"coordinates": [8.50993666666667, 47.378105], "type": "Point"}, "properties": {"charge": 98, "id": "bird_8c2a9867-6bbc-496a-a30f-14f521b9ee43", "provider": "bird", "timeStamp": "01/28/2020, 17:08:38"}, "type": "Feature"}, {"geometry": {"coordinates": [8.54564833333333, 47.3713033333333], "type": "Point"}, "properties": {"charge": 10, "id": "bird_0a1470c1-d495-4a6d-b0d3-527114ceeef2", "provider": "bird", "timeStamp": "01/28/2020, 17:08:38"}, "type": "Feature"}, {"geometry": {"coordinates": [8.51078333333333, 47.3760266666667], "type": "Point"}, "properties": {"charge": 33, "id": "bird_20d63ca3-54c4-4a25-878d-946d1782cb46", "provider": "bird", "timeStamp": "01/28/2020, 17:08:38"}, "type": "Feature"}, {"geometry": {"coordinates": [8.53630333333333, 47.3670883333333], "type": "Point"}, "properties": {"charge": 49, "id": "bird_c2a8228c-f440-449d-8301-1ff23be9f43c", "provider": "bird", "timeStamp": "01/28/2020, 17:08:38"}, "type": "Feature"}, {"geometry": {"coordinates": [8.53619, 47.36708], "type": "Point"}, "properties": {"charge": 54, "id": "bird_c79537cd-17c3-4cf8-9344-30d0b1deda6a", "provider": "bird", "timeStamp": "01/28/2020, 17:08:38"}, "type": "Feature"}, {"geometry": {"coordinates": [8.54716333333333, 47.3729783333333], "type": "Point"}, "properties": {"charge": 13, "id": "bird_bb7287f6-edf4-40f3-af18-16798f0a3848", "provider": "bird", "timeStamp": "01/28/2020, 17:08:38"}, "type": "Feature"}, {"geometry": {"coordinates": [8.52426, 47.3929633333333], "type": "Point"}, "properties": {"charge": 44, "id": "bird_c9600e90-18b9-4c08-8587-5f5785b49d05", "provider": "bird", "timeStamp": "01/28/2020, 17:08:38"}, "type": "Feature"}, {"geometry": {"coordinates": [8.53686666666667, 47.3673166666667], "type": "Point"}, "properties": {"charge": 62, "id": "bird_d874d8d2-8a46-4500-8747-e1ceab906b7f", "provider": "bird", "timeStamp": "01/28/2020, 17:08:38"}, "type": "Feature"}, {"geometry": {"coordinates": [8.54708833333333, 47.3730616666667], "type": "Point"}, "properties": {"charge": 56, "id": "bird_3d8ee1e7-c095-4b1f-99b0-fbb83fcb5aa7", "provider": "bird", "timeStamp": "01/28/2020, 17:08:38"}, "type": "Feature"}, {"geometry": {"coordinates": [8.518495, 47.3909983333333], "type": "Point"}, "properties": {"charge": 74, "id": "bird_461725d4-e1ff-43a8-9226-44a6f34ddd14", "provider": "bird", "timeStamp": "01/28/2020, 17:08:38"}, "type": "Feature"}, {"geometry": {"coordinates": [8.53930333333333, 47.3681066666667], "type": "Point"}, "properties": {"charge": 62, "id": "bird_fc4761b7-f1c7-4a4c-8500-a42e205fc4f5", "provider": "bird", "timeStamp": "01/28/2020, 17:08:38"}, "type": "Feature"}, {"geometry": {"coordinates": [8.54858833333333, 47.3766716666667], "type": "Point"}, "properties": {"charge": 36, "id": "bird_fc665e51-e568-4555-88c0-f1586b555668", "provider": "bird", "timeStamp": "01/28/2020, 17:08:38"}, "type": "Feature"}, {"geometry": {"coordinates": [8.54323333333334, 47.370655], "type": "Point"}, "properties": {"charge": 79, "id": "bird_eb13e671-5ba2-4f39-8084-3c3f2bd63cf5", "provider": "bird", "timeStamp": "01/28/2020, 17:08:38"}, "type": "Feature"},